[{"latitude":40.435033,"longitude":-79.790322,"name":"BABIES R US - MONROEVILLE [6452]","address":"3700 WILLIAM PENN HIGHWAY\r\nMONROEVILLE, PA 15146","phone":"(412)856-9891"},{"latitude":40.338912,"longitude":-79.954988,"name":"TOYS R US/BABIES R US - WEST MIFFLIN [9214]","address":"275 CLAIRTON BOULEVARD\r\nWEST MIFFLIN, PA 15122","phone":"(412)655-0677"},{"latitude":40.344561,"longitude":-80.049583,"name":"TOYS R US/BABIES R US - BETHEL PARK [6560]","address":"4000 OXFORD DRIVE\r\nBETHEL PARK, PA 15102","phone":"(412)479-9020"},{"latitude":40.685589,"longitude":-80.103404,"name":"BABIES R US - CRANBERRY TOWNSHIP [6478]","address":"20111 ROUTE19\r\nCRANBERRY TOWNSHIP, PA 16066","phone":"(724)772-2500"},{"latitude":41.025737,"longitude":-80.633291,"name":"BABIES R US - POLAND [9254]","address":"1240 DORAL DRIVE\r\nPOLAND, OH 44514","phone":"(330)965-0412"},{"latitude":40.873987,"longitude":-81.432187,"name":"BABIES R US - NORTH CANTON [9241]","address":"6655 STRIP AVENUE NW\r\nNORTH CANTON, OH 44720","phone":"(330)305-1750"},{"latitude":41.1193,"longitude":-81.4877,"name":"TOYS R US/BABIES R US - CUYAHOGA FALLS [9203]","address":"590 HOWE AVENUE\r\nCUYAHOGA FALLS, OH 44221","phone":"(330)923-8697"},{"latitude":41.13592,"longitude":-81.644971,"name":"TOYS R US/BABIES R US - COPLEY [9232]","address":"52 ROTHROCK ROAD\r\nCOPLEY, OH 44321","phone":"(330)666-8697"},{"latitude":41.52264,"longitude":-81.438727,"name":"TOYS R US/BABIES R US - MAYFIELD HEIGHTS [9204]","address":"1385 SOM CENTER ROAD\r\nMAYFIELD HEIGHTS, OH 44124","phone":"(440)473-0310"},{"latitude":42.058096,"longitude":-80.091214,"name":"BABIES R US - ERIE [6470]","address":"6680 PEACH STREET\r\nERIE, PA 16509","phone":"(814)864-5814"},{"latitude":41.661289,"longitude":-81.36002,"name":"BABIES R US - MENTOR [9283]","address":"7841 MENTOR AVENUE\r\nMENTOR, OH 44060","phone":"(440)974-7388"},{"latitude":41.38049,"longitude":-81.743801,"name":"TOYS R US/BABIES R US - PARMA [9205]","address":"8515 DAY DRIVE\r\nPARMA, OH 44129","phone":"(440)888-8697"},{"latitude":39.301417,"longitude":-81.548727,"name":"TOYS R US/BABIES R US - VIENNA [8367]","address":"113 GRAND CENTRAL AVENUE\r\nVIENNA, WV 26105","phone":"(304)428-2885"},{"latitude":39.626963,"longitude":-77.768649,"name":"TOYS R US/BABIES R US - HAGERSTOWN [8345]","address":"1730 VALLEY MALL ROAD\r\nHAGERSTOWN, MD 21740","phone":"(301)582-9741"},{"latitude":41.418793,"longitude":-81.915765,"name":"BABIES R US - NORTH OLMSTED [9284]","address":"26520 LORAIN ROAD\r\nNORTH OLMSTED, OH 44070","phone":"(440)716-8614"},{"latitude":40.247627,"longitude":-77.003168,"name":"TOYS R US/BABIES R US - MECHANICSBURG [8315]","address":"6391 CARLISLE PIKE\r\nMECHANICSBURG, PA 17050","phone":"(717)697-5087"},{"latitude":39.936683,"longitude":-82.783235,"name":"BABIES R US - REYNOLDSBURG [9239]","address":"2686 TAYLOR ROAD\r\nREYNOLDSBURG, OH 43068","phone":"(614)759-7744"},{"latitude":40.311777,"longitude":-76.800806,"name":"BABIES R US - HARRISBURG [6425]","address":"5125 JONESTOWN ROAD\r\nHARRISBURG, PA 17112","phone":"(717)671-7101"},{"latitude":39.025986,"longitude":-77.389845,"name":"BABIES R US - STERLING [6393]","address":"21300 SIGNAL HILL PLAZA\r\nSTERLING, VA 20164","phone":"(571)434-8850"},{"latitude":40.1485,"longitude":-82.98019,"name":"TOYS R US/BABIES R US - COLUMBUS [8911]","address":"1400 GEMINI PLACE ROAD\r\nCOLUMBUS, OH 43240","phone":"(614)785-0874"},{"latitude":39.975253,"longitude":-76.766238,"name":"TOYS R US/BABIES R US - YORK [8310]","address":"1410 KENNETH ROAD\r\nYORK, PA 17408","phone":"(717)764-1300"},{"latitude":38.894242,"longitude":-77.424499,"name":"BABIES R US - CHANTILLY [8884]","address":"13954 METRO TECH DRIVE\r\nCHANTILLY, VA 20151","phone":"(703)502-9200"},{"latitude":40.094112,"longitude":-83.086249,"name":"BABIES R US - COLUMBUS [9242]","address":"3610 W DUBLIN-GRANVILLE\r\nCOLUMBUS, OH 43235","phone":"(614)799-2229"},{"latitude":42.794803,"longitude":-78.811255,"name":"TOYS R US/BABIES R US - HAMBURG [9226]","address":"3464 MC KINLEY PARKWAY\r\nHAMBURG, NY 14075","phone":"(716)825-7227"},{"latitude":38.319391,"longitude":-81.717293,"name":"TOYS R US/BABIES R US - CHARLESTON [8933]","address":"2846 MOUNTAINEER BOULEVARD\r\nCHARLESTON, WV 25309","phone":"(304)744-8696"},{"latitude":38.072868,"longitude":-78.478846,"name":"TOYS R US/BABIES R US - CHARLOTTESVILLE [8338]","address":"590 BRANCHLANDS BOULEVARD\r\nCHARLOTTESVILLE, VA 22901","phone":"(434)973-4406"},{"latitude":39.415353,"longitude":-76.774399,"name":"TOYS R US/BABIES R US - OWINGS MILLS [8332]","address":"10200 REISTERTOWN ROAD\r\nOWINGS MILLS, MD 21117","phone":"(410)356-4824"},{"latitude":38.849174,"longitude":-77.126236,"name":"BABIES R US - FALLS CHURCH [6380]","address":"5700 LEESBURG PIKE\r\nFALLS CHURCH, VA 22041","phone":"(703)575-9542"},{"latitude":39.056843,"longitude":-76.95465,"name":"BABIES R US - SILVER SPRING [6414]","address":"12012 CHERRY HILL ROAD\r\nSILVER SPRING, MD 20904","phone":"(301)586-8630"},{"latitude":39.198535,"longitude":-76.814569,"name":"TOYS R US/BABIES R US - COLUMBIA [8363]","address":"6100 DOBBIN ROAD\r\nCOLUMBIA, MD 21045","phone":"(410)290-4490"},{"latitude":38.653781,"longitude":-77.285125,"name":"BABIES R US - WOODBRIDGE [8885]","address":"14173 CROSSING PLACE\r\nWOODBRIDGE, VA 22192","phone":"(703)492-0209"},{"latitude":42.980769,"longitude":-78.821247,"name":"TOYS R US/BABIES R US - AMHERST [9223]","address":"3030 SHERIDAN DRIVE\r\nAMHERST, NY 14226","phone":"(716)837-4350"},{"latitude":42.997644,"longitude":-78.822348,"name":"BABIES R US - BUFFALO [9282]","address":"1569 NIAGARA FALLS BOULEVARD\r\nBUFFALO, NY 14228","phone":"(716)803-1399"},{"latitude":40.066288,"longitude":-76.343714,"name":"BABIES R US - LANCASTER [6504]","address":"990 PLAZA BOULEVARD\r\nLANCASTER, PA 17601","phone":"(717)394-0823"},{"latitude":39.396152,"longitude":-76.5815,"name":"TOYS R US/BABIES R US - TOWSON [6559]","address":"1238 PUTTY HILL AVENUE\r\nTOWSON, MD 21204","phone":"(410)372-5000"},{"latitude":38.295849,"longitude":-77.514159,"name":"TOYS R US/BABIES R US - FREDERICKSBURG [8342]","address":"3101 PLANK ROAD\r\nFREDERICKSBURG, VA 22404","phone":"(540)785-7377"},{"latitude":39.125383,"longitude":-76.589476,"name":"BABIES R US - PASADENA [8875]","address":"8040 RICHIE HIGHWAY\r\nPASADENA, MD 21122","phone":"(410)863-8840"},{"latitude":39.521914,"longitude":-76.351404,"name":"TOYS R US/BABIES R US - BEL AIR [8348]","address":"660 MARKET PLACE DRIVE\r\nBEL AIR, MD 21014","phone":"(410)838-0010"},{"latitude":38.630604,"longitude":-76.910865,"name":"BABIES R US - WALDORF [6477]","address":"2969 FESTIVAL WAY\r\nWALDORF, MD 20601","phone":"(301)396-8037"},{"latitude":40.360274,"longitude":-75.987527,"name":"BABIES R US - READING [6394]","address":"2789 PAPER MILL ROAD\r\nREADING, PA 19610","phone":"(610)373-7174"},{"latitude":38.9782,"longitude":-76.4958,"name":"TOYS R US/BABIES R US - ANNAPOLIS [8336]","address":"2115 WEST STREET\r\nANNAPOLIS, MD 21401","phone":"(410)573-0440"},{"latitude":42.200925,"longitude":-83.24824,"name":"BABIES R US - TAYLOR [6440]","address":"14544 RACHO ROAD\r\nTAYLOR, MI 48180","phone":"(734)287-5982"},{"latitude":41.615123,"longitude":-83.684229,"name":"BABIES R US - HOLLAND [9279]","address":"1360 S.HOLLAND-SYLVANIA\r\nHOLLAND, OH 43528","phone":"(419)861-7015"},{"latitude":42.533814,"longitude":-82.913078,"name":"BABIES R US - ROSEVILLE [9250]","address":"32471 GRATIOT AVENUE\r\nROSEVILLE, MI 48066","phone":"(586)296-5615"},{"latitude":37.305355,"longitude":-79.968366,"name":"TOYS R US/BABIES R US - ROANOKE [8358]","address":"4943 VALLEY VIEW BOULEVARD\r\nROANOKE, VA 24012","phone":"(540)563-9800"},{"latitude":43.077123,"longitude":-77.630574,"name":"BABIES R US - ROCHESTER [9281]","address":"2335 MARKET PLACE DRIVE\r\nROCHESTER, NY 14623","phone":"(585)424-7170"},{"latitude":41.2403,"longitude":-75.8616,"name":"BABIES R US - WILKES BARRE [6467]","address":"3300 WILKES-BARRE COMMO\r\nWILKES BARRE, PA 18702","phone":"(570)822-7854"},{"latitude":42.625836,"longitude":-83.00964,"name":"BABIES R US - STERLING HEIGHTS [9247]","address":"12050 HALL ROAD\r\nSTERLING HEIGHTS, MI 48313","phone":"(586)997-2929"},{"latitude":39.763484,"longitude":-84.052849,"name":"TOYS R US/BABIES R US - BEAVERCREEK [8931]","address":"2500 N. FAIRFIELD ROAD\r\nBEAVERCREEK, OH 45431","phone":"(937)429-4415"},{"latitude":40.761777,"longitude":-84.147005,"name":"TOYS R US/BABIES R US - LIMA [8919]","address":"2292 ELIDA ROAD\r\nLIMA, OH 45805","phone":"(419)229-1014"},{"latitude":40.021102,"longitude":-75.623881,"name":"BABIES R US - EXTON [6454]","address":"104 BARTLETT AVENUE\r\nEXTON, PA 19341","phone":"(610)524-5369"},{"latitude":37.652001,"longitude":-77.622924,"name":"TOYS R US/BABIES R US - RICHMOND [8353]","address":"11861 WEST BROAD STREET\r\nRICHMOND, VA 23233","phone":"(804)364-2520"},{"latitude":39.692368,"longitude":-75.666649,"name":"BABIES R US - NEWARK [6376]","address":"1317 NEW CHURCHMANS ROAD\r\nNEWARK, DE 19713","phone":"(302)266-8194"},{"latitude":42.434769,"longitude":-83.433681,"name":"BABIES R US - NORTHVILLE [9249]","address":"20111 HAGGERTY ROAD\r\nNORTHVILLE, MI 48167","phone":"(248)735-0365"},{"latitude":40.632106,"longitude":-75.477147,"name":"BABIES R US - WHITEHALL [6387]","address":"600 LEHIGH VALLEY MALL\r\nWHITEHALL, PA 18052","phone":"(610)231-0481"},{"latitude":41.462389,"longitude":-75.654847,"name":"TOYS R US/BABIES R US - SCRANTON [6362]","address":"409 SCRANTON CARBONDALE\r\nSCRANTON, PA 18508","phone":"(570)963-8987"},{"latitude":42.234608,"longitude":-83.680173,"name":"BABIES R US - YPSILANTI [6442]","address":"3725 CARPENTER ROAD\r\nYPSILANTI, MI 48197","phone":"(734)477-0943"},{"latitude":39.63676,"longitude":-84.219092,"name":"BABIES R US - DAYTON [9240]","address":"2661 MIAMISBURG-CENTERV\r\nDAYTON, OH 45459","phone":"(937)438-5552"},{"latitude":42.115631,"longitude":-75.958809,"name":"TOYS R US/BABIES R US - JOHNSON CITY [6364]","address":"416 HARRY L DRIVE\r\nJOHNSON CITY, NY 13790","phone":"(607)770-9300"},{"latitude":42.708324,"longitude":-83.307239,"name":"BABIES R US - ORION [9280]","address":"4936 BALDWIN ROAD\r\nORION, MI 48359","phone":"(248)391-3367"},{"latitude":39.913616,"longitude":-75.435457,"name":"TOYS R US/BABIES R US - MEDIA [8312]","address":"1154 WEST\r\nMEDIA, PA 19063","phone":"(610)566-0100"},{"latitude":40.090514,"longitude":-75.394327,"name":"TOYS R US/BABIES R US - KING OF PRUSSIA [8303]","address":"250 MALL BOULEVARD\r\nKING OF PRUSSIA, PA 19406","phone":"(610)962-7820"},{"latitude":37.414434,"longitude":-77.64057,"name":"BABIES R US - MIDLOTHIAN [6570]","address":"13315 RITTENHOUSE DRIVE\r\nMIDLOTHIAN, VA 23112","phone":"(804)744-2595"},{"latitude":39.918121,"longitude":-75.330631,"name":"BABIES R US - SPRINGFIELD [6449]","address":"770 BALTIMORE PIKE\r\nSPRINGFIELD, PA 19064","phone":"(610)544-9207"},{"latitude":40.224469,"longitude":-75.233604,"name":"BABIES R US - MONTGOMERYVILLE [6462]","address":"980 BETHLEHEM PIKE\r\nMONTGOMERYVILLE, PA 18936","phone":"(215)699-8762"},{"latitude":40.680469,"longitude":-75.147877,"name":"TOYS R US/BABIES R US - PHILLIPSBURG [6382]","address":"1280 ROUTE 22 &\r\nPHILLIPSBURG, NJ 08865","phone":"(908)859-8600"},{"latitude":40.156981,"longitude":-75.143226,"name":"TOYS R US/BABIES R US - HORSHAM [8322]","address":"100 WELSH ROAD\r\nHORSHAM, PA 19044","phone":"(215)784-1900"},{"latitude":39.19929,"longitude":-84.37945,"name":"TOYS R US/BABIES R US - CINCINNATI [8930]","address":"7800 MONTGOMERY ROAD\r\nCINCINNATI, OH 45236","phone":"(513)791-8697"},{"latitude":39.990555,"longitude":-75.100317,"name":"TOYS R US/BABIES R US - PHILADELPHIA [8305]","address":"3401 ARAMINGO AVENUE\r\nPHILADELPHIA, PA 19134","phone":"(215)423-2680"},{"latitude":39.836873,"longitude":-75.088021,"name":"BABIES R US - DEPTFORD [6370]","address":"1120 HURFFVILLE ROAD\r\nDEPTFORD, NJ 08096","phone":"(856)384-3788"},{"latitude":39.301251,"longitude":-84.517385,"name":"BABIES R US - CINCINNATI [9244]","address":"925 CINCINNATI MILLS DR\r\nCINCINNATI, OH 45240","phone":"(513)671-2430"},{"latitude":39.937662,"longitude":-75.047315,"name":"TOYS R US/BABIES R US - CHERRY HILL [8307]","address":"500 NJ-38\r\nCHERRY HILL, NJ 08034","phone":"(856)665-8339"},{"latitude":39.938783,"longitude":-75.024976,"name":"BABIES R US - CHERRY HILL [6379]","address":"2137 NJ-38\r\nCHERRY HILL, NJ 08002","phone":"(856)317-1559"},{"latitude":40.072541,"longitude":-74.964452,"name":"BABIES R US - BENSALEM [6371]","address":"1336 BRISTOL PIKE\r\nBENSALEM, PA 19020","phone":"(215)633-6990"},{"latitude":40.18562,"longitude":-74.86751,"name":"BABIES R US - FAIRLESS HILLS [6372]","address":"330 COMMERCE BOULEVARD\r\nFAIRLESS HILLS, PA 19030","phone":"(215)269-0100"},{"latitude":43.072086,"longitude":-76.167032,"name":"BABIES R US - SYRACUSE [9291]","address":"2027 PARK STREET\r\nSYRACUSE, NY 13208","phone":"(315)424-3998"},{"latitude":39.431829,"longitude":-75.040284,"name":"TOYS R US/BABIES R US - VINELAND [8330]","address":"100 CUMBERLAND MALL\r\nVINELAND, NJ 08360","phone":"(856)327-0800"},{"latitude":42.980531,"longitude":-83.772125,"name":"BABIES R US - FLINT [9255]","address":"G-3274 SOUTH LINDEN ROA\r\nFLINT, MI 48507","phone":"(810)732-8021"},{"latitude":38.373067,"longitude":-75.588844,"name":"TOYS R US/BABIES R US - SALISBURY [8385]","address":"500 EAST NAYLOR MILL ROAD\r\nSALISBURY, MD 21804","phone":"(443)260-2388"},{"latitude":39.013512,"longitude":-84.640189,"name":"BABIES R US - FLORENCE [6575]","address":"4999 HOUSTON ROAD\r\nFLORENCE, KY 41042","phone":"(859)282-8921"},{"latitude":40.883314,"longitude":-74.7044,"name":"BABIES R US - FLANDERS [6479]","address":"50 INTERNATIONAL DR. S\r\nFLANDERS, NJ 07836","phone":"(973)691-5939"},{"latitude":40.303259,"longitude":-74.680783,"name":"BABIES R US - WEST WINDSOR [6533]","address":"700 NASSAU PARK BOULEVARD\r\nWEST WINDSOR, NJ 08550","phone":"(609)987-1751"},{"latitude":40.578158,"longitude":-74.633358,"name":"TOYS R US/BABIES R US - RARITAN [6334]","address":"451 ROUTE 28\r\nRARITAN, NJ 08869","phone":"(908)526-2755"},{"latitude":41.11457,"longitude":-85.134905,"name":"BABIES R US - FORT WAYNE [9290]","address":"4140 COLDWATER ROAD\r\nFORT WAYNE, IN 46805","phone":"(260)482-5254"},{"latitude":40.561412,"longitude":-74.55454,"name":"BABIES R US - BRIDGEWATER [6375]","address":"100 PROMENADE BOULEVARD\r\nBRIDGEWATER, NJ 08807","phone":"(732)302-3590"},{"latitude":40.90121,"longitude":-74.514323,"name":"TOYS R US/BABIES R US - ROCKAWAY [6335]","address":"ROCKAWAY AVENUE\r\nROCKAWAY, NJ 07866","phone":"(973)366-3126"},{"latitude":40.461318,"longitude":-74.460333,"name":"BABIES R US - NORTH BRUNSWICK [6369]","address":"909 US HIGHWAY 1 SOUTH\r\nNORTH BRUNSWICK, NJ 08902","phone":"(732)220-1900"},{"latitude":40.612187,"longitude":-74.460834,"name":"TOYS R US/BABIES R US - WATCHUNG [6307]","address":"1701-45 US HIGHWAY 22\r\nWATCHUNG, NJ 07069","phone":"(908)322-6065"},{"latitude":39.451337,"longitude":-74.637092,"name":"BABIES R US - MAYS LANDING [6373]","address":"130 CONSUMERS SQUARE\r\nMAYS LANDING, NJ 08330","phone":"(609)484-1177"},{"latitude":40.465283,"longitude":-74.405749,"name":"TOYS R US/BABIES R US - EAST BRUNSWICK [6305]","address":"581 NJ-18\r\nEAST BRUNSWICK, NJ 08816","phone":"(732)257-2251"},{"latitude":40.810985,"longitude":-74.3852,"name":"BABIES R US - EAST HANOVER [6503]","address":"98 NJ-10\r\nEAST HANOVER, NJ 07936","phone":"(973)503-1411"},{"latitude":42.741041,"longitude":-84.633301,"name":"BABIES R US - LANSING [6543]","address":"5900 W. SAGINAW HIGHWAY\r\nLANSING, MI 48917","phone":"(517)391-5122"},{"latitude":38.024955,"longitude":-84.4199,"name":"BABIES R US - LEXINGTON [9257]","address":"1965 STAR SHOOT PARKWAY\r\nLEXINGTON, KY 40509","phone":"(859)263-8598"},{"latitude":37.106614,"longitude":-76.4951,"name":"BABIES R US - NEWPORT NEWS [6439]","address":"12153 JEFFERSON AVENUE\r\nNEWPORT NEWS, VA 23602","phone":"(757)269-0140"},{"latitude":40.688294,"longitude":-74.307814,"name":"BABIES R US - UNION [6377]","address":"2700 ROUTE 22 EAST\r\nUNION, NJ 07083","phone":"(908)810-9300"},{"latitude":40.557109,"longitude":-74.308558,"name":"TOYS R US/BABIES R US - ISELIN [6318]","address":"675 ROUTE 1 SOUTH\r\nISELIN, NJ 08830","phone":"(732)636-2723"},{"latitude":40.28839,"longitude":-74.295706,"name":"BABIES R US - MANALAPAN [6481]","address":"17 US ROUTE NINE SOUTH\r\nMANALAPAN, NJ 07726","phone":"(732)845-2861"},{"latitude":41.450368,"longitude":-74.380614,"name":"BABIES R US - MIDDLETOWN [6509]","address":"88 DUNNING ROAD\r\nMIDDLETOWN, NY 10940","phone":"(845)956-4050"},{"latitude":40.693242,"longitude":-74.256989,"name":"TOYS R US/BABIES R US - UNION [6329]","address":"1701 MORRIS AVENUE\r\nUNION, NJ 07083","phone":"(908)851-9695"},{"latitude":43.480099,"longitude":-83.981967,"name":"BABIES R US - SAGINAW [6486]","address":"3321 TITTABAWASSEE ROAD\r\nSAGINAW, MI 48604","phone":"(989)790-5961"},{"latitude":40.89456,"longitude":-74.232929,"name":"BABIES R US - TOTOWA [6539]","address":"465 US HIGHWAY 46 WEST\r\nTOTOWA, NJ 07512","phone":"(973)256-2566"},{"latitude":37.992581,"longitude":-84.523,"name":"TOYS R US/BABIES R US - LEXINGTON [8917]","address":"3220 NICHOLASVILLE ROAD\r\nLEXINGTON, KY 40503","phone":"(859)271-6374"},{"latitude":43.08809,"longitude":-75.312266,"name":"TOYS R US/BABIES R US - NEW HARTFORD [7518]","address":"4505 COMMERCIAL DRIVE\r\nNEW HARTFORD, NY 13413","phone":"(315)736-1815"},{"latitude":40.582199,"longitude":-74.168969,"name":"BABIES R US - STATEN ISLAND [6444]","address":"2655 RICHMOND AVENUE\r\nSTATEN ISLAND, NY 10314","phone":"(718)370-2734"},{"latitude":40.671869,"longitude":-74.171108,"name":"TOYS R US/BABIES R US - ELIZABETH [6365]","address":"900 IKEA DR\r\nELIZABETH, NJ 07201","phone":"(908)527-0100"},{"latitude":36.065302,"longitude":-80.31379,"name":"BABIES R US - WINSTON-SALEM [6426]","address":"975 HANES MALL BOULEVARD\r\nWINSTON-SALEM, NC 27103","phone":"(336)765-5600"},{"latitude":36.042,"longitude":-79.9018,"name":"BABIES R US - GREENSBORO [8894]","address":"1214 BRIDFORD PARKWAY\r\nGREENSBORO, NC 27407","phone":"(336)547-9050"},{"latitude":39.981372,"longitude":-74.181452,"name":"BABIES R US - TOMS RIVER [6508]","address":"1220 HOOPER AVENUE\r\nTOMS RIVER, NJ 08753","phone":"(732)244-8880"},{"latitude":40.719164,"longitude":-74.093877,"name":"TOYS R US/BABIES R US - JERSEY CITY [6315]","address":"641 ROUTE 440\r\nJERSEY CITY, NJ 07304","phone":"(201)433-8550"},{"latitude":40.957665,"longitude":-74.075167,"name":"BABIES R US - PARAMUS [6386]","address":"545 HIGHWAY 17 SOUTH\r\nPARAMUS, NJ 07652","phone":"(201)251-3191"},{"latitude":40.790207,"longitude":-74.052276,"name":"TOYS R US/BABIES R US - SECAUCUS [6623]","address":"3 MILL CREEK DRIVE\r\nSECAUCUS, NJ 07094","phone":"(201)558-4750"},{"latitude":40.293354,"longitude":-74.034567,"name":"BABIES R US - EATONTOWN [6358]","address":"70 US HIGHWAY 36\r\nEATONTOWN, NJ 07724","phone":"(732)935-9366"},{"latitude":40.595661,"longitude":-74.000107,"name":"TOYS R US/BABIES R US - BROOKLYN [6323]","address":"8973-95 BAY PARKWAY\r\nBROOKLYN, NY 11214","phone":"(718)372-4646"},{"latitude":40.735523,"longitude":-73.989778,"name":"BABIES R US - NEW YORK [6538]","address":"24-30 UNION SQUARE EAST\r\nNEW YORK, NY 10003","phone":"(212)798-9905"},{"latitude":41.09463,"longitude":-74.004901,"name":"BABIES R US - NANUET [6410]","address":"250 EAST ROUTE 59\r\nNANUET, NY 10954","phone":"(845)627-6636"},{"latitude":36.337376,"longitude":-82.373486,"name":"TOYS R US/BABIES R US - JOHNSON CITY [8371]","address":"1910 N. ROAN STREET\r\nJOHNSON CITY, TN 37601-3116","phone":"(423)283-4219"},{"latitude":40.816027,"longitude":-73.931198,"name":"TOYS R US/BABIES R US - BRONX [6629]","address":"610 EXTERIOR STREET\r\nBRONX, NY 10451","phone":"(718)292-5857"},{"latitude":40.651417,"longitude":-73.87006,"name":"BABIES R US - BROOKLYN [6455]","address":"395 GATEWAY DRIVE\r\nBROOKLYN, NY 11239","phone":"(718)277-3400"},{"latitude":35.902087,"longitude":-78.939434,"name":"BABIES R US - DURHAM [6562]","address":"7001 FAYETTVILLE ROAD\r\nDURHAM, NC 27713-9643","phone":"(919)544-9024"},{"latitude":40.731311,"longitude":-73.862104,"name":"TOYS R US/BABIES R US - REGO PARK [6753]","address":"61-35 JUNCTION BOULEVARD\r\nREGO PARK, NY 11374","phone":"(718)595-0023"},{"latitude":40.825217,"longitude":-73.859204,"name":"TOYS R US/BABIES R US - BRONX [6352]","address":"970 WHITE PLAINS ROAD\r\nBRONX, NY 10473","phone":"(718)904-8697"},{"latitude":40.781706,"longitude":-73.82909,"name":"BABIES R US - COLLEGE POINT [6389]","address":"139-19 20TH AVENUE\r\nCOLLEGE POINT, NY 11356","phone":"(718)321-8166"},{"latitude":40.983607,"longitude":-73.827238,"name":"BABIES R US - YONKERS [6411]","address":"2700 CENTRAL PARK AVENUE\r\nYONKERS, NY 10710","phone":"(914)722-4500"},{"latitude":40.866596,"longitude":-73.83066,"name":"TOYS R US/BABIES R US - BRONX [6336]","address":"350 BAY CHESTER AVENUE\r\nBRONX, NY 10475","phone":"(718)862-2240"},{"latitude":36.774391,"longitude":-76.22967,"name":"BABIES R US - CHESAPEAKE [8882]","address":"1336 GREENBRIER PARKWAY\r\nCHESAPEAKE, VA 23320","phone":"(757)548-2255"},{"latitude":40.998225,"longitude":-73.816269,"name":"TOYS R US/BABIES R US - YONKERS [6320]","address":"1000 CENTRAL PARK AVENUE\r\nYONKERS, NY 10704","phone":"(914)423-7070"},{"latitude":42.231447,"longitude":-85.589493,"name":"BABIES R US - PORTAGE [6469]","address":"5890 S. WESTNEDGE AVENUE\r\nPORTAGE, MI 49024","phone":"(269)382-2187"},{"latitude":41.611961,"longitude":-73.912441,"name":"BABIES R US - WAPPINGERS FALLS [6480]","address":"1822 SOUTH ROAD\r\nWAPPINGERS FALLS, NY 12590","phone":"(845)297-4579"},{"latitude":35.864239,"longitude":-78.569161,"name":"TOYS R US/BABIES R US - RALEIGH [8889]","address":"7810 POYNER POND CIRCLE\r\nRALEIGH, NC 27616","phone":"(919)713-4334"},{"latitude":41.332274,"longitude":-73.809015,"name":"TOYS R US/BABIES R US - JEFFERSON VALLEY [6339]","address":"621 BANK STREET\r\nJEFFERSON VALLEY, NY 10535","phone":"(914)962-6878"},{"latitude":36.820621,"longitude":-76.068242,"name":"TOYS R US/BABIES R US - VIRGINIA BEACH [8357]","address":"2701 N. MALL DRIVE\r\nVIRGINIA BEACH, VA 23452","phone":"(757)498-8271"},{"latitude":41.032907,"longitude":-73.764921,"name":"TOYS R US/BABIES R US - WHITE PLAINS [6347]","address":"7 CITY PLACE\r\nWHITE PLAINS, NY 10601","phone":"(914)686-8071"},{"latitude":40.663494,"longitude":-73.713894,"name":"TOYS R US/BABIES R US - VALLEY STREAM [6310]","address":"300 WEST SUNRISE HIGHWA\r\nVALLEY STREAM, NY 11580","phone":"(516)791-1270"},{"latitude":35.761151,"longitude":-78.740931,"name":"TOYS R US/BABIES R US - CARY [8379]","address":"201 CROSSROAD BOULEVARD\r\nCARY, NC 27518","phone":"(919)859-1971"},{"latitude":39.90733,"longitude":-86.070211,"name":"TOYS R US/BABIES R US - INDIANAPOLIS [8902]","address":"8250 CASTLETON CORNER\r\nINDIANAPOLIS, IN 46250","phone":"(317)841-9334"},{"latitude":39.908456,"longitude":-86.100082,"name":"BABIES R US - INDIANAPOLIS [9243]","address":"3928 EAST 82ND STREET\r\nINDIANAPOLIS, IN 46240","phone":"(317)577-2200"},{"latitude":40.743381,"longitude":-73.588088,"name":"BABIES R US - WESTBURY [6357]","address":"1350 CORPORATE DRIVE\r\nWESTBURY, NY 11590","phone":"(516)227-2629"},{"latitude":39.638149,"longitude":-86.128816,"name":"BABIES R US - INDIANAPOLIS [9237]","address":"8800 US ROUTE 31 SOUTH\r\nINDIANAPOLIS, IN 46227","phone":"(317)885-7700"},{"latitude":35.703663,"longitude":-81.311881,"name":"BABIES R US - HICKORY [6448]","address":"1856 CATAWBA VLY BOULEVARD\r\nHICKORY, NC 28602-4145","phone":"(828)304-6300"},{"latitude":42.912611,"longitude":-85.546175,"name":"BABIES R US - GRAND RAPIDS [9260]","address":"4923 28TH STREET S.E.\r\nGRAND RAPIDS, MI 49512","phone":"(616)977-9623"},{"latitude":40.678249,"longitude":-73.439738,"name":"BABIES R US - MASSAPEQUA PARK [6424]","address":"5214 SUNRISE HIGHWAY\r\nMASSAPEQUA PARK, NY 11762","phone":"(516)795-4314"},{"latitude":41.7157,"longitude":-86.1703,"name":"BABIES R US - GRANGER [6464]","address":"435 E. UNIVERSITY DRIVE\r\nGRANGER, IN 46530","phone":"(574)247-3024"},{"latitude":41.375295,"longitude":-73.486684,"name":"BABIES R US - DANBURY [6518]","address":"19 BACKUS AVENUE\r\nDANBURY, CT 06810","phone":"(203)790-8898"},{"latitude":38.25077,"longitude":-85.629244,"name":"BABIES R US - LOUISVILLE [9245]","address":"4623 SHELBYVILLE ROAD\r\nLOUISVILLE, KY 40207","phone":"(502)896-9994"},{"latitude":41.143635,"longitude":-73.406884,"name":"TOYS R US/BABIES R US - NORWALK [6353]","address":"59 CONNECTICUT AVENUE\r\nNORWALK, CT 06851","phone":"(203)852-6988"},{"latitude":40.8386,"longitude":-73.28554,"name":"TOYS R US/BABIES R US - COMMACK [6378]","address":"108 VETERANS MEMORIAL\r\nCOMMACK, NY 11725","phone":"(631)462-6300"},{"latitude":40.738401,"longitude":-73.236441,"name":"TOYS R US/BABIES R US - BAY SHORE [6324]","address":"1851 SUNRISE HIGHWAY\r\nBAY SHORE, NY 11706","phone":"(631)666-6611"},{"latitude":35.370801,"longitude":-80.717062,"name":"BABIES R US - CONCORD [8881]","address":"8062 CONCORD MILLS BOULEVARD\r\nCONCORD, NC 28027","phone":"(704)979-0840"},{"latitude":42.711484,"longitude":-73.817775,"name":"TOYS R US/BABIES R US - ALBANY [6314]","address":"38 WOLF ROAD\r\nALBANY, NY 12205","phone":"(518)459-5561"},{"latitude":42.759949,"longitude":-73.780871,"name":"BABIES R US - LATHAM [6494]","address":"221 WADE ROAD EXTENSION\r\nLATHAM, NY 12110","phone":"(518)783-0632"},{"latitude":40.864613,"longitude":-73.125796,"name":"TOYS R US/BABIES R US - LAKE GROVE [6317]","address":"3250 MIDDLE COUNTRY ROAD\r\nLAKE GROVE, NY 11755","phone":"(631)585-0173"},{"latitude":40.763331,"longitude":-73.091811,"name":"BABIES R US - BOHEMIA [6374]","address":"5181 SUNRISE HIGHWAY\r\nBOHEMIA, NY 11716","phone":"(631)218-9101"},{"latitude":35.57526,"longitude":-77.384259,"name":"TOYS R US/BABIES R US - GREENVILLE [8378]","address":"228 S.W. GREENVILLE BLV\r\nGREENVILLE, NC 27834","phone":"(252)355-1700"},{"latitude":41.244196,"longitude":-73.029225,"name":"BABIES R US - MILFORD [6441]","address":"1522-24 BOSTON POST ROAD\r\nMILFORD, CT 06460","phone":"(203)876-9979"},{"latitude":35.261554,"longitude":-81.129561,"name":"TOYS R US/BABIES R US - GASTONIA [8834]","address":"2830 EAST FRANKLIN BOULEVARD\r\nGASTONIA, NC 28056","phone":"(704)833-0084"},{"latitude":35.569506,"longitude":-82.505349,"name":"BABIES R US - ASHEVILLE [8816]","address":"801 FAIRVIEW ROAD\r\nASHEVILLE, NC 28803","phone":"(828)298-2229"},{"latitude":41.551875,"longitude":-73.032572,"name":"TOYS R US/BABIES R US - WATERBURY [7509]","address":"275 UNION ST\r\nWATERBURY, CT 06706","phone":"(203)574-4457"},{"latitude":35.10333,"longitude":-80.88069,"name":"BABIES R US - CHARLOTTE [8878]","address":"9575 SOUTH BOULEVARD\r\nCHARLOTTE, NC 28273","phone":"(704)643-2229"},{"latitude":35.075641,"longitude":-78.961799,"name":"TOYS R US/BABIES R US - FAYETTEVILLE [8374]","address":"1736 SKIBO ROAD\r\nFAYETTEVILLE, NC 28303","phone":"(910)864-2300"},{"latitude":41.34737,"longitude":-72.868748,"name":"TOYS R US/BABIES R US - NORTH HAVEN [6366]","address":"376 UNIVERSAL DRIVE NTH\r\nNORTH HAVEN, CT 06473","phone":"(203)234-1164"},{"latitude":41.719321,"longitude":-72.761874,"name":"BABIES R US - WEST HARTFORD [6392]","address":"1559 NEW BRITAIN AVENUE\r\nWEST HARTFORD, CT 06110","phone":"(860)561-0329"},{"latitude":35.908258,"longitude":-84.104071,"name":"BABIES R US - KNOXVILLE [8863]","address":"9626 KINGSTON PIKE\r\nKNOXVILLE, TN 37922","phone":"(865)769-9911"},{"latitude":41.811135,"longitude":-72.531582,"name":"BABIES R US - MANCHESTER [6429]","address":"169 HALE ROAD\r\nMANCHESTER, CT 06040","phone":"(860)644-6084"},{"latitude":41.474564,"longitude":-87.32114,"name":"BABIES R US - MERRILLVILLE [9294]","address":"1335 EAST 79TH STREET\r\nMERRILLVILLE, IN 46410","phone":"(219)736-1028"},{"latitude":34.949567,"longitude":-81.932048,"name":"TOYS R US/BABIES R US - SPARTANBURG [8823]","address":"1508B WO EZELL BOULEVARD\r\nSPARTANBURG, SC 29301","phone":"(864)574-9525"},{"latitude":42.18,"longitude":-72.6311,"name":"BABIES R US - HOLYOKE [6555]","address":"50 HOLYOKE STREET\r\nHOLYOKE, MA 01040","phone":"(413)315-2000"},{"latitude":42.14406,"longitude":-72.486727,"name":"TOYS R US/BABIES R US - SPRINGFIELD [7508]","address":"1686 BOSTON ROAD\r\nSPRINGFIELD, MA 01129","phone":"(413)543-6555"},{"latitude":39.4269,"longitude":-87.4166,"name":"TOYS R US/BABIES R US - TERRE HAUTE [8925]","address":"55 W. HONEYCREEK PARKWAY\r\nTERRE HAUTE, IN 47802","phone":"(812)234-2197"},{"latitude":34.833798,"longitude":-82.306815,"name":"TOYS R US/BABIES R US - GREENVILLE [8822]","address":"1025 WOODRUFF ROAD\r\nGREENVILLE, SC 29605","phone":"(864)213-2022"},{"latitude":41.381507,"longitude":-72.153273,"name":"BABIES R US - WATERFORD [6491]","address":"915 HARTFORD TPKE\r\nWATERFORD, CT 06385","phone":"(860)447-4589"},{"latitude":34.787381,"longitude":-77.40219,"name":"TOYS R US/BABIES R US - JACKSONVILLE [9591]","address":"1370 WESTERN BOULEVARD\r\nJACKSONVILLE, NC 28541","phone":"(910)347-9839"},{"latitude":41.94168,"longitude":-87.688231,"name":"TOYS R US/BABIES R US - CHICAGO [6019]","address":"3300 N WESTERN AVENUE\r\nCHICAGO, IL 60618","phone":"(773)525-1690"},{"latitude":41.751663,"longitude":-87.741355,"name":"BABIES R US - BURBANK [9246]","address":"7750 SOUTH CICERO AVENU\r\nBURBANK, IL 60459","phone":"(708)424-8755"},{"latitude":41.603777,"longitude":-87.848029,"name":"BABIES R US - ORLAND PARK [9248]","address":"15820 94TH AVENUE\r\nORLAND PARK, IL 60462-4725","phone":"(708)873-9634"},{"latitude":41.923671,"longitude":-87.787191,"name":"BABIES R US - CHICAGO [6544]","address":"6420 W. FULLERTON\r\nCHICAGO, IL 60707","phone":"(773)413-5005"},{"latitude":42.01195,"longitude":-87.769116,"name":"BABIES R US - NILES [9285]","address":"5660 TOUHY AVENUE\r\nNILES, IL 60714","phone":"(847)588-2081"},{"latitude":41.85031,"longitude":-87.80843,"name":"TOYS R US/BABIES R US - NORTH RIVERSIDE [6016]","address":"7451 WEST CERMAK ROAD\r\nNORTH RIVERSIDE, IL 60546","phone":"(708)442-5155"},{"latitude":36.944436,"longitude":-86.422545,"name":"TOYS R US/BABIES R US - BOWLING GREEN [8923]","address":"3000 SCOTTSVILLE ROAD\r\nBOWLING GREEN, KY 42101","phone":"(270)843-9936"},{"latitude":42.05349,"longitude":-87.83708,"name":"TOYS R US/BABIES R US - NILES [6006]","address":"9555 N. MILWAUKEE AVENUE\r\nNILES, IL 60714","phone":"(847)967-9000"},{"latitude":42.24387,"longitude":-87.956304,"name":"BABIES R US - VERNON HILLS [9293]","address":"295 CENTER DRIVE\r\nVERNON HILLS, IL 60061","phone":"(847)573-1447"},{"latitude":42.196212,"longitude":-71.775675,"name":"BABIES R US - MILLBURY [6468]","address":"70 WORCESTER PROVIDENCE\r\nMILLBURY, MA 01527","phone":"(508)865-9868"},{"latitude":37.976385,"longitude":-87.473132,"name":"BABIES R US - EVANSVILLE [6471]","address":"6501 E. LLOYD EXPRESSWY\r\nEVANSVILLE, IN 47715","phone":"(812)402-4300"},{"latitude":42.385,"longitude":-87.954316,"name":"TOYS R US/BABIES R US - GURNEE [6054]","address":"6050 GURNEE MILLS CIR E\r\nGURNEE, IL 60031","phone":"(847)855-8697"},{"latitude":42.049298,"longitude":-88.079029,"name":"BABIES R US - SCHAUMBURG [9236]","address":"16 EAST GOLF ROAD\r\nSCHAUMBURG, IL 60173-3700","phone":"(847)781-8889"},{"latitude":41.536049,"longitude":-88.199199,"name":"BABIES R US - SHOREWOOD [6576]","address":"994 BROOK FOREST AVENUE\r\nSHOREWOOD, IL 60404","phone":"(815)439-3676"},{"latitude":40.135876,"longitude":-88.242006,"name":"TOYS R US/BABIES R US - CHAMPAIGN [6057]","address":"40 EAST ANTHONY DRIVE\r\nCHAMPAIGN, IL 61820","phone":"(217)356-8697"},{"latitude":42.703942,"longitude":-87.85179,"name":"TOYS R US/BABIES R US - RACINE [6051]","address":"2433 S GREEN BAY ROAD\r\nRACINE, WI 53406","phone":"(262)637-8697"},{"latitude":41.77257,"longitude":-88.203637,"name":"BABIES R US - NAPERVILLE [9238]","address":"1955 GLACIER PARK AVENUE\r\nNAPERVILLE, IL 60540","phone":"(630)416-2225"},{"latitude":44.443705,"longitude":-73.113988,"name":"TOYS R US/BABIES R US - WILLISTON [7537]","address":"244 RETAIL WAY\r\nWILLISTON, VT 05495-7271","phone":"(802)872-8787"},{"latitude":34.072122,"longitude":-81.15978,"name":"BABIES R US - COLUMBIA [8890]","address":"254 HARBISON BOULEVARD\r\nCOLUMBIA, SC 29212","phone":"(803)407-4782"},{"latitude":41.687785,"longitude":-71.501003,"name":"BABIES R US - WARWICK [6385]","address":"300 QUAKER LANE\r\nWARWICK, RI 02886","phone":"(401)827-9920"},{"latitude":42.290226,"longitude":-71.672798,"name":"TOYS R US/BABIES R US - NORTHBOROUGH [9008]","address":"6110 SHOPS WAY\r\nNORTHBOROUGH, MA 01532","phone":"(508)393-2811"},{"latitude":42.525726,"longitude":-71.737868,"name":"TOYS R US/BABIES R US - LEOMINSTER [7527]","address":"118 COMMERCIAL ROAD\r\nLEOMINSTER, MA 01453","phone":"(978)534-4300"},{"latitude":41.978144,"longitude":-88.343369,"name":"TOYS R US/BABIES R US - SOUTH ELGIN [6063]","address":"486 RANDALL ROAD\r\nSOUTH ELGIN, IL 60177","phone":"(847)888-0235"},{"latitude":42.165173,"longitude":-88.335404,"name":"TOYS R US/BABIES R US - ALGONQUIN [6022]","address":"826 S. RANDALL ROAD\r\nALGONQUIN, IL 60102","phone":"(847)458-0439"},{"latitude":41.939824,"longitude":-71.349353,"name":"BABIES R US - NORTH ATTLEBORO [6388]","address":"1255 SO. WASHINGTON ST\r\nNORTH ATTLEBORO, MA 02760","phone":"(508)699-8218"},{"latitude":42.299394,"longitude":-71.393858,"name":"BABIES R US - FRAMINGHAM [6450]","address":"1 WORCESTER ROAD\r\nFRAMINGHAM, MA 01701","phone":"(508)872-9358"},{"latitude":43.036561,"longitude":-88.141721,"name":"BABIES R US - BROOKFIELD [6547]","address":"18550 W. BLUEMOUND ROAD\r\nBROOKFIELD, WI 53045","phone":"(262)782-7520"},{"latitude":42.767305,"longitude":-71.495837,"name":"BABIES R US - NASHUA [6492]","address":"10 COLISEUM AVENUE\r\nNASHUA, NH 03063","phone":"(603)881-4306"},{"latitude":42.707077,"longitude":-71.441323,"name":"TOYS R US/BABIES R US - NASHUA [7521]","address":"272 DANIEL WEBSTER HIGHWAY\r\nNASHUA, NH 03060","phone":"(603)888-9444"},{"latitude":36.30534,"longitude":-86.688036,"name":"BABIES R US - MADISON [6563]","address":"2205 GALLATIN PIKE NORT\r\nMADISON, TN 37115","phone":"(615)855-3773"},{"latitude":42.25849,"longitude":-71.170075,"name":"TOYS R US/BABIES R US - DEDHAM [7507]","address":"302 PROVIDENCE\r\nDEDHAM, MA 02026","phone":""},{"latitude":42.954337,"longitude":-71.441209,"name":"TOYS R US/BABIES R US - MANCHESTER [7511]","address":"2 KELLER STREET\r\nMANCHESTER, NH 03103","phone":"(603)623-8077"},{"latitude":35.032281,"longitude":-85.15441,"name":"BABIES R US - CHATTANOOGA [8880]","address":"2020 GUNBARREL ROAD\r\nCHATTANOOGA, TN 37421","phone":"(423)894-7277"},{"latitude":41.640927,"longitude":-71.005793,"name":"TOYS R US/BABIES R US - NORTH DARTMOUTH [7534]","address":"492 STATE ROAD\r\nNORTH DARTMOUTH, MA 02747","phone":"(508)992-6240"},{"latitude":43.226896,"longitude":-71.485355,"name":"TOYS R US/BABIES R US - CONCORD [7528]","address":"310 LOUDON ROAD\r\nCONCORD, NH 03301","phone":"(603)228-5508"},{"latitude":42.460582,"longitude":-71.165378,"name":"TOYS R US/BABIES R US - WOBURN [7506]","address":"366 CAMBRIDGE STREET\r\nWOBURN, MA 01801","phone":"(781)935-7654"},{"latitude":35.846587,"longitude":-86.428666,"name":"TOYS R US/BABIES R US - MURFREESBORO [8872]","address":"2075 OLD FORT PARKWAY\r\nMURFREESBORO, TN 37129","phone":"(615)217-3306"},{"latitude":42.400983,"longitude":-71.071106,"name":"BABIES R US - EVERETT [6443]","address":"12 MYSTIC VIEW ROAD\r\nEVERETT, MA 02149","phone":"(617)381-1537"},{"latitude":42.74719,"longitude":-71.202628,"name":"BABIES R US - SALEM [6459]","address":"447 SOUTH BROADWAY\r\nSALEM, NH 03079","phone":"(603)893-2614"},{"latitude":40.487989,"longitude":-88.950925,"name":"TOYS R US/BABIES R US - BLOOMINGTON [6008]","address":"1703 EAST EMPIRE\r\nBLOOMINGTON, IL 61701","phone":"(309)662-6464"},{"latitude":42.212369,"longitude":-70.998939,"name":"BABIES R US - BRAINTREE [6383]","address":"450 GROSSMAN DRIVE\r\nBRAINTREE, MA 02184","phone":"(781)356-0475"},{"latitude":36.046151,"longitude":-86.71334,"name":"BABIES R US - NASHVILLE [8860]","address":"5731 NOLENSVILLE PIKE\r\nNASHVILLE, TN 37211","phone":"(615)781-2229"},{"latitude":36.6066,"longitude":-87.275344,"name":"TOYS R US/BABIES R US - CLARKSVILLE [8832]","address":"2821 GUTHRIE HIGHWAY\r\nCLARKSVILLE, TN 37040","phone":"(931)647-0667"},{"latitude":42.549825,"longitude":-70.954334,"name":"BABIES R US - PEABODY [6384]","address":"300 ANDOVER STREET\r\nPEABODY, MA 01960","phone":"(978)532-0400"},{"latitude":42.267684,"longitude":-88.990168,"name":"TOYS R US/BABIES R US - ROCKFORD [6034]","address":"6449 EAST STATE ST\r\nROCKFORD, IL 61108","phone":"(815)397-5792"},{"latitude":33.526588,"longitude":-82.121168,"name":"BABIES R US - EVANS [8855]","address":"4225 WASHINGTON ROAD\r\nEVANS, GA 30809","phone":"(706)210-7858"},{"latitude":34.06217,"longitude":-83.992671,"name":"TOYS R US/BABIES R US - BUFORD [8870]","address":"3480 FINANCIAL CENTER WAY\r\nBUFORD, GA 30519","phone":"(678)714-6146"},{"latitude":34.04813,"longitude":-84.287057,"name":"BABIES R US - ALPHARETTA [8864]","address":"6380 NORTH POINT PARKWAY\r\nALPHARETTA, GA 30022","phone":"(770)752-9000"},{"latitude":43.094029,"longitude":-70.794551,"name":"TOYS R US/BABIES R US - NEWINGTON [7514]","address":"85 GOSLING ROAD\r\nNEWINGTON, NH 03801","phone":"(603)431-6528"},{"latitude":41.67283,"longitude":-70.304552,"name":"TOYS R US/BABIES R US - HYANNIS [7530]","address":"1070 MA-132\r\nHYANNIS, MA 02601","phone":"(508)778-5653"},{"latitude":33.933184,"longitude":-84.351683,"name":"BABIES R US - DUNWOODY [8892]","address":"1155 MOUNT VERNON HIGHWAY\r\nDUNWOODY, GA 30338","phone":"(770)913-0222"},{"latitude":40.73872,"longitude":-89.634672,"name":"TOYS R US/BABIES R US - PEORIA [6002]","address":"2601 WEST LAKE AVENUE\r\nPEORIA, IL 61615-3777","phone":"(309)686-2830"},{"latitude":44.272998,"longitude":-88.472465,"name":"TOYS R US/BABIES R US - APPLETON [6039]","address":"4411 WEST WISCONSIN AV\r\nAPPLETON, WI 54913","phone":"(920)739-7992"},{"latitude":34.000085,"longitude":-84.580745,"name":"BABIES R US - KENNESAW [8854]","address":"1875 GREERS CHAPEL ROAD\r\nKENNESAW, GA 30144","phone":"(770)919-2229"},{"latitude":32.932858,"longitude":-80.036903,"name":"BABIES R US - NORTH CHARLESTON [8888]","address":"7220 RIVERS AVENUE\r\nNORTH CHARLESTON, SC 29406-4066","phone":"(843)824-9493"},{"latitude":33.87917,"longitude":-84.45864,"name":"TOYS R US/BABIES R US - ATLANTA [8805]","address":"2955 COBB PARKWAY\r\nATLANTA, GA 30339","phone":"(770)956-9224"},{"latitude":33.69192,"longitude":-84.090913,"name":"BABIES R US - LITHONIA [6437]","address":"8160 MALL PARKWAY\r\nLITHONIA, GA 30058-2545","phone":"(770)484-9697"},{"latitude":43.127072,"longitude":-89.301968,"name":"BABIES R US - MADISON [6552]","address":"2161 ZEIER ROAD\r\nMADISON, WI 53704","phone":"(608)234-6936"},{"latitude":39.770131,"longitude":-89.706549,"name":"BABIES R US - SPRINGFIELD [6502]","address":"2601 VETERANS PARKWAY\r\nSPRINGFIELD, IL 62704","phone":"(217)546-0367"},{"latitude":37.077355,"longitude":-88.684628,"name":"TOYS R US/BABIES R US - PADUCAH [8928]","address":"3411 JAMES SANDERS BOULEVARD\r\nPADUCAH, KY 42002","phone":"(270)575-3336"},{"latitude":33.727061,"longitude":-84.756421,"name":"BABIES R US - DOUGLASVILLE [6403]","address":"6875 DOUGLAS BOULEVARD\r\nDOUGLASVILLE, GA 30135","phone":"(770)949-2209"},{"latitude":43.637255,"longitude":-70.344059,"name":"BABIES R US - SOUTH PORTLAND [6430]","address":"200 RUNNING HILL ROAD\r\nSOUTH PORTLAND, ME 04106","phone":"(207)773-4861"},{"latitude":34.740631,"longitude":-86.600708,"name":"TOYS R US/BABIES R US - HUNTSVILLE [8809]","address":"6884 GOVERNORS WEST\r\nHUNTSVILLE, AL 35806","phone":"(256)971-1216"},{"latitude":33.425599,"longitude":-84.189117,"name":"TOYS R US/BABIES R US - MC DONOUGH [8803]","address":"209 SOUTH POINT BOULEVARD\r\nMC DONOUGH, GA 30252","phone":"(770)288-2218"},{"latitude":33.480629,"longitude":-84.439059,"name":"TOYS R US/BABIES R US - FAYETTEVILLE [8820]","address":"132 PAVILION PARKWAY\r\nFAYETTEVILLE, GA 30214","phone":"(678)817-0359"},{"latitude":38.598613,"longitude":-89.990252,"name":"BABIES R US - FAIRVIEW HEIGHTS [6505]","address":"114 COMMERCE LANE\r\nFAIRVIEW HEIGHTS, IL 62208","phone":"(618)398-7099"},{"latitude":33.395895,"longitude":-84.742479,"name":"BABIES R US - EAST NEWNAN [6519]","address":"221 NEWNAN XING BYP\r\nEAST NEWNAN, GA 30263","phone":"(770)502-1816"},{"latitude":41.560538,"longitude":-90.570616,"name":"TOYS R US/BABIES R US - DAVENPORT [6041]","address":"200 E. KIMBERLY ROAD\r\nDAVENPORT, IA 52806","phone":"(563)386-8697"},{"latitude":38.787588,"longitude":-90.418447,"name":"BABIES R US - HAZELWOOD [9551]","address":"5590 SAINT LOUIS MILLS\r\nHAZELWOOD, MO 63042-4421","phone":"(314)738-0614"},{"latitude":38.500507,"longitude":-90.333393,"name":"BABIES R US - SAINT LOUIS [9541]","address":"4441 LEMAY FERRY ROAD\r\nSAINT LOUIS, MO 63129-1757","phone":"(314)894-8055"},{"latitude":38.667431,"longitude":-90.597055,"name":"BABIES R US - CHESTERFIELD [9586]","address":"220 THF BOULEVARD.\r\nCHESTERFIELD, MO 63005-1136","phone":"(636)536-0910"},{"latitude":32.005963,"longitude":-81.116125,"name":"TOYS R US/BABIES R US - SAVANNAH [8754]","address":"7400 ABERCORN ST\r\nSAVANNAH, GA 31406","phone":"(912)354-5222"},{"latitude":33.446135,"longitude":-86.732826,"name":"TOYS R US/BABIES R US - BIRMINGHAM [9009]","address":"335 SUMMIT BOULEVARD\r\nBIRMINGHAM, AL 35243","phone":"(205)977-2624"},{"latitude":32.54337,"longitude":-84.947831,"name":"TOYS R US/BABIES R US - COLUMBUS [8818]","address":"5555 WHITTLESEY BOULEVARD\r\nCOLUMBUS, GA 31907","phone":"(706)257-9843"},{"latitude":33.382017,"longitude":-86.803656,"name":"TOYS R US/BABIES R US - HOOVER [8831]","address":"1715 MONTGOMERY HIGHWAY\r\nHOOVER, AL 35226-1215","phone":"(205)733-1551"},{"latitude":41.955924,"longitude":-91.725814,"name":"TOYS R US/BABIES R US - CEDAR RAPIDS [6040]","address":"2425 WILEY BOULEVARD\r\nCEDAR RAPIDS, IA 52404","phone":"(319)396-0445"},{"latitude":34.3155,"longitude":-88.7023,"name":"TOYS R US/BABIES R US - TUPELO [8850]","address":"969 E BARNES XING ROAD\r\nTUPELO, MS 38804","phone":"(662)841-8697"},{"latitude":35.198215,"longitude":-89.794883,"name":"TOYS R US/BABIES R US - MEMPHIS [8867]","address":"8060 GIACOSA PLACE\r\nMEMPHIS, TN 38133","phone":"(901)937-4139"},{"latitude":35.047937,"longitude":-89.78052,"name":"TOYS R US/BABIES R US - MEMPHIS [6756]","address":"7676 POLO GROUND BOULEVARD\r\nMEMPHIS, TN 38125","phone":"(901)309-3015"},{"latitude":44.006025,"longitude":-92.47412,"name":"TOYS R US/BABIES R US - ROCHESTER [6050]","address":"808 APACHE LANE\r\nROCHESTER, MN 55902","phone":"(507)286-9291"},{"latitude":31.191471,"longitude":-85.404209,"name":"TOYS R US/BABIES R US - DOTHAN [8838]","address":"201 BUYERS DRIVE\r\nDOTHAN, AL 36303-2285","phone":"(334)794-0888"},{"latitude":30.261423,"longitude":-81.529136,"name":"TOYS R US/BABIES R US - JACKSONVILLE [8729]","address":"4875 TOWN CENTER PARKWAY\r\nJACKSONVILLE, FL 32246","phone":"(904)997-6291"},{"latitude":30.191761,"longitude":-81.741201,"name":"BABIES R US - JACKSONVILLE [6428]","address":"6001 ARGYLE FOREST BOULEVARD\r\nJACKSONVILLE, FL 32244","phone":"(904)908-9696"},{"latitude":41.600428,"longitude":-93.740081,"name":"BABIES R US - CLIVE [9587]","address":"8801 UNIVERSITY AVENUE\r\nCLIVE, IA 50325","phone":"(515)226-3131"},{"latitude":44.942026,"longitude":-92.938356,"name":"BABIES R US - WOODBURY [6551]","address":"8236 TAMARACK VILLAGE\r\nWOODBURY, MN 55125","phone":"(651)367-6820"},{"latitude":30.433532,"longitude":-84.253131,"name":"TOYS R US/BABIES R US - TALLAHASSEE [8730]","address":"1625 APALACHEE PARKWAY\r\nTALLAHASSEE, FL 32301","phone":"(850)656-5701"},{"latitude":44.863589,"longitude":-93.293282,"name":"BABIES R US - RICHFIELD [9560]","address":"900 WEST 78TH STREET SOUTH\r\nRICHFIELD, MN 55423","phone":"(612)861-2249"},{"latitude":45.131807,"longitude":-93.261653,"name":"TOYS R US/BABIES R US - BLAINE [6047]","address":"170 89TH AVENUE N.E.\r\nBLAINE, MN 55434","phone":"(763)784-6255"},{"latitude":37.159503,"longitude":-93.270785,"name":"TOYS R US/BABIES R US - SPRINGFIELD [9512]","address":"1425 EAST BATTLEFIELD\r\nSPRINGFIELD, MO 65804","phone":"(417)882-6097"},{"latitude":44.97202,"longitude":-93.457658,"name":"TOYS R US/BABIES R US - MINNETONKA [6044]","address":"14100 WAYZATA BOULEVARD\r\nMINNETONKA, MN 55305","phone":"(763)525-1697"},{"latitude":45.094997,"longitude":-93.442909,"name":"TOYS R US/BABIES R US - MAPLE GROVE [9576]","address":"12750 ELM CREEK BOULEVARD N.\r\nMAPLE GROVE, MN 55369","phone":"(763)494-5747"},{"latitude":29.180293,"longitude":-81.07973,"name":"TOYS R US/BABIES R US - DAYTONA BEACH [8718]","address":"2455 INTL SPEEDWAY BOULEVARD\r\nDAYTONA BEACH, FL 32114","phone":"(386)255-9828"},{"latitude":39.250064,"longitude":-94.593149,"name":"BABIES R US - KANSAS CITY [9583]","address":"8640 NORTH MADISON AVENUE\r\nKANSAS CITY, MO 64155","phone":"(816)420-8808"},{"latitude":34.7307,"longitude":-92.3948,"name":"BABIES R US - LITTLE ROCK [7712]","address":"2616 S.SHACKLEFORD ROAD\r\nLITTLE ROCK, AR 72205","phone":"(501)221-0478"},{"latitude":38.883843,"longitude":-94.685063,"name":"BABIES R US - OVERLAND PARK [9556]","address":"8500 WEST 135TH STREET\r\nOVERLAND PARK, KS 66223","phone":"(913)814-8921"},{"latitude":32.340017,"longitude":-90.068239,"name":"BABIES R US - FLOWOOD [7707]","address":"260 RIDGE WAY ROAD\r\nFLOWOOD, MS 39232","phone":"(601)919-8242"},{"latitude":30.49861,"longitude":-87.225786,"name":"TOYS R US/BABIES R US - PENSACOLA [8819]","address":"7171 N DAVIS HIGHWAY\r\nPENSACOLA, FL 32504","phone":"(850)484-4170"},{"latitude":30.676348,"longitude":-88.133174,"name":"BABIES R US - MOBILE [8828]","address":"3658 A- AIRPORT BOULEVARD\r\nMOBILE, AL 36608","phone":"(251)304-0950"},{"latitude":28.663189,"longitude":-81.411634,"name":"BABIES R US - ALTAMONTE SPRINGS [8893]","address":"708 W. STATE ROAD 436\r\nALTAMONTE SPRINGS, FL 32714","phone":"(407)772-9190"},{"latitude":37.085169,"longitude":-94.477303,"name":"TOYS R US/BABIES R US - JOPLIN [9518]","address":"630 S. RANGELINE ROAD\r\nJOPLIN, MO 64802-4112","phone":"(417)781-8697"},{"latitude":28.559533,"longitude":-81.207243,"name":"TOYS R US/BABIES R US - ORLANDO [8725]","address":"1250 N ALAFAYA TRAIL\r\nORLANDO, FL 32828","phone":"(407)736-8089"},{"latitude":28.494181,"longitude":-81.428454,"name":"TOYS R US/BABIES R US - ORLANDO [8751]","address":"4607 MILLENIA PLAZA WAY\r\nORLANDO, FL 32839","phone":"(407)226-0139"},{"latitude":28.342109,"longitude":-81.428492,"name":"BABIES R US - KISSIMMEE [6605]","address":"2601 W. OSCEOLA PARKWAY\r\nKISSIMMEE, FL 34741","phone":"(407)846-1433"},{"latitude":39.027075,"longitude":-95.762249,"name":"TOYS R US/BABIES R US - TOPEKA [9504]","address":"2190 WANAMAKER ROAD\r\nTOPEKA, KS 66614","phone":"(785)272-1188"},{"latitude":41.225775,"longitude":-96.131954,"name":"BABIES R US - OMAHA [6507]","address":"3505 S. 140TH PLAZA\r\nOMAHA, NE 68144","phone":"(402)333-6427"},{"latitude":28.248247,"longitude":-82.352745,"name":"TOYS R US/BABIES R US - WESLEY CHAPEL [8727]","address":"6105 WESLEY GROVE BOULEVARD ,\r\nWESLEY CHAPEL, FL 33544","phone":"(813)929-6230"},{"latitude":27.995967,"longitude":-82.508952,"name":"BABIES R US - TAMPA [8859]","address":"3908 W. HILLSBOROUGH\r\nTAMPA, FL 33614","phone":"(813)873-1116"},{"latitude":27.966155,"longitude":-82.729641,"name":"BABIES R US - CLEARWATER [6456]","address":"21315 US 19 NORTH\r\nCLEARWATER, FL 33765","phone":"(727)726-6333"},{"latitude":43.513033,"longitude":-96.779189,"name":"TOYS R US/BABIES R US - SIOUX FALLS [9537]","address":"4401 W EMPIRE PL\r\nSIOUX FALLS, SD 57106","phone":"(605)361-9277"},{"latitude":27.267554,"longitude":-80.429742,"name":"BABIES R US - PORT SAINT LUCIE [6577]","address":"10732 VILLIAGE PARKWAY DR\r\nPORT SAINT LUCIE, FL 34987","phone":"(772)345-2229"},{"latitude":36.060914,"longitude":-95.864713,"name":"BABIES R US - TULSA [9548]","address":"10010 EAST 71ST STREET\r\nTULSA, OK 74133","phone":"(918)250-6444"},{"latitude":30.0051,"longitude":-90.215413,"name":"BABIES R US - METAIRIE [7703]","address":"6851 VETERANS BOULEVARD\r\nMETAIRIE, LA 70003","phone":"(504)885-8242"},{"latitude":30.376754,"longitude":-91.05862,"name":"TOYS R US/BABIES R US - BATON ROUGE [7017]","address":"10780 NORTH MALL DR\r\nBATON ROUGE, LA 70809","phone":"(225)296-0126"},{"latitude":32.576922,"longitude":-93.684446,"name":"TOYS R US/BABIES R US - BOSSIER CITY [7831]","address":"2918 E. TEXAS STREET\r\nBOSSIER CITY, LA 71111-3202","phone":"(318)746-6023"},{"latitude":37.679062,"longitude":-97.243298,"name":"TOYS R US/BABIES R US - WICHITA [9514]","address":"8011 E. KELLOGG AVENUE\r\nWICHITA, KS 67207","phone":"(316)684-8697"},{"latitude":26.67128,"longitude":-80.202618,"name":"TOYS R US/BABIES R US - WEST PALM BEACH [8702]","address":"450 FL-7\r\nWEST PALM BEACH, FL 33414","phone":"(561)784-1190"},{"latitude":37.673652,"longitude":-97.396277,"name":"BABIES R US - WICHITA [6550]","address":"4646 W. KELLOGG\r\nWICHITA, KS 67209","phone":"(316)206-2550"},{"latitude":26.489755,"longitude":-81.787482,"name":"BABIES R US - FORT MYERS [6536]","address":"10002 GULF CENTER DRIVE\r\nFORT MYERS, FL 33913","phone":"(239)433-6837"},{"latitude":26.35469,"longitude":-80.203431,"name":"BABIES R US - BOCA RATON [6409]","address":"21697 STATE ROAD 7\r\nBOCA RATON, FL 33428","phone":"(561)477-3337"},{"latitude":26.274137,"longitude":-80.205448,"name":"TOYS R US/BABIES R US - CORAL SPRINGS [6755]","address":"6001 WEST SAMPLE ROAD\r\nCORAL SPRINGS, FL 33067","phone":"(954)341-2583"},{"latitude":26.193715,"longitude":-80.248881,"name":"BABIES R US - LAUDERHILL [8865]","address":"7350 W. COMMERCIAL BOULEVARD\r\nLAUDERHILL, FL 33319","phone":"(954)749-2229"},{"latitude":30.17515,"longitude":-92.077649,"name":"TOYS R US/BABIES R US - LAFAYETTE [7026]","address":"5700 JOHNSTON STREET\r\nLAFAYETTE, LA 70506","phone":"(337)988-2228"},{"latitude":26.00765,"longitude":-80.307269,"name":"BABIES R US - PEMBROKE PINES [8861]","address":"11930 PINES BOULEVARD\r\nPEMBROKE PINES, FL 33026","phone":"(954)441-8600"},{"latitude":25.954005,"longitude":-80.1458,"name":"BABIES R US - AVENTURA [6510]","address":"2745 NE 193RD STREET\r\nAVENTURA, FL 33180","phone":"(305)705-9893"},{"latitude":25.790058,"longitude":-80.368509,"name":"TOYS R US/BABIES R US - MIAMI [8707]","address":"1645 NORTHWEST 107TH AV\r\nMIAMI, FL 33172","phone":"(305)593-1517"},{"latitude":25.747682,"longitude":-80.336805,"name":"BABIES R US - MIAMI [8826]","address":"8755 SW 24TH STREET\r\nMIAMI, FL 33165","phone":"(305)226-8334"},{"latitude":35.525095,"longitude":-97.535031,"name":"BABIES R US - OKLAHOMA CITY [9577]","address":"1731 BELL ISLE BOULEVARD\r\nOKLAHOMA CITY, OK 73118","phone":"(405)840-2820"},{"latitude":25.684499,"longitude":-80.444824,"name":"BABIES R US - MIAMI [8857]","address":"15625 NORTH KENDALL DR\r\nMIAMI, FL 33196","phone":"(305)382-4060"},{"latitude":32.302929,"longitude":-95.297627,"name":"TOYS R US/BABIES R US - TYLER [7825]","address":"414 E.S.E. LOOP 323\r\nTYLER, TX 75701","phone":"(903)534-8697"},{"latitude":25.587639,"longitude":-80.360558,"name":"TOYS R US/BABIES R US - CUTLER BAY [8708]","address":"19525 SOUTH DIXIE HIGHW\r\nCUTLER BAY, FL 33157","phone":"(305)233-6122"},{"latitude":33.129858,"longitude":-96.658929,"name":"TOYS R US/BABIES R US - ALLEN [7812]","address":"170 E. STACY ROAD\r\nALLEN, TX 75002","phone":"(972)678-4958"},{"latitude":32.953846,"longitude":-96.612601,"name":"TOYS R US/BABIES R US - GARLAND [5573]","address":"320 WINECUP WAY\r\nGARLAND, TX 75040","phone":"(972)495-2376"},{"latitude":33.103053,"longitude":-96.805696,"name":"TOYS R US/BABIES R US - FRISCO [7803]","address":"2871 PRESTON ROAD\r\nFRISCO, TX 75034","phone":"(972)712-0054"},{"latitude":32.81072,"longitude":-96.612921,"name":"BABIES R US - MESQUITE [9562]","address":"1220 TOWN EAST BOULEVARD\r\nMESQUITE, TX 75150","phone":"(972)682-1450"},{"latitude":32.874857,"longitude":-96.76977,"name":"TOYS R US/BABIES R US - DALLAS [7820]","address":"9358 N CENTRAL EXPY\r\nDALLAS, TX 75231","phone":"(214)363-8732"},{"latitude":32.934533,"longitude":-96.820991,"name":"TOYS R US/BABIES R US - DALLAS [9561]","address":"13710 DALLAS PARKWAY\r\nDALLAS, TX 75240","phone":"(972)980-4001"},{"latitude":30.126879,"longitude":-94.156642,"name":"TOYS R US/BABIES R US - BEAUMONT [7006]","address":"5910 EASTEX FREEWAY\r\nBEAUMONT, TX 77708","phone":"(409)898-8586"},{"latitude":33.00462,"longitude":-96.97834,"name":"BABIES R US - LEWISVILLE [9542]","address":"420 EAST ROUNDGROVE ROAD\r\nLEWISVILLE, TX 75067","phone":"(972)459-9333"},{"latitude":32.911493,"longitude":-96.958584,"name":"TOYS R US/BABIES R US - IRVING [7813]","address":"7730 N. MACARTHUR BOULEVARD\r\nIRVING, TX 75063","phone":"(972)556-0733"},{"latitude":32.943149,"longitude":-97.116797,"name":"TOYS R US/BABIES R US - SOUTHLAKE [9007]","address":"250 N. KIMBALL AVENUE\r\nSOUTHLAKE, TX 76092","phone":"(817)488-3178"},{"latitude":32.59658,"longitude":-96.940662,"name":"TOYS R US/BABIES R US - CEDAR HILL [7808]","address":"428 E. FM 1382\r\nCEDAR HILL, TX 75104","phone":"(972)291-6405"},{"latitude":32.823684,"longitude":-97.201485,"name":"BABIES R US - HURST [7708]","address":"1309 W. PIPELINE ROAD\r\nHURST, TX 76053","phone":"(817)595-2189"},{"latitude":32.684931,"longitude":-97.134565,"name":"BABIES R US - ARLINGTON [9552]","address":"1501 WEST ARBROOK BOULEVARD\r\nARLINGTON, TX 76015","phone":"(817)784-2229"},{"latitude":32.67626,"longitude":-97.414258,"name":"BABIES R US - FORT WORTH [9582]","address":"5800 OVERTON RIDGE BOULEVARD\r\nFORT WORTH, TX 76132","phone":"(817)423-8829"},{"latitude":29.8043,"longitude":-94.986224,"name":"TOYS R US/BABIES R US - BAYTOWN [7013]","address":"4815 I-10 E. EASTPOINT\r\nBAYTOWN, TX 77521","phone":"(281)421-4647"},{"latitude":30.013244,"longitude":-95.263615,"name":"TOYS R US/BABIES R US - HUMBLE [7012]","address":"20450 HIGHWAY 59 NORTH\r\nHUMBLE, TX 77338-2411","phone":"(281)540-1464"},{"latitude":30.019787,"longitude":-95.43452,"name":"BABIES R US - HOUSTON [9547]","address":"380 FM 1960 WEST\r\nHOUSTON, TX 77090","phone":"(281)586-9993"},{"latitude":29.649901,"longitude":-95.15748,"name":"TOYS R US/BABIES R US - PASADENA [7002]","address":"5651 FAIRMONT PARKWAY\r\nPASADENA, TX 77505","phone":"(281)998-3009"},{"latitude":29.960109,"longitude":-95.54392,"name":"TOYS R US/BABIES R US - HOUSTON [7009]","address":"17776 STATE HIGHWAY 249\r\nHOUSTON, TX 77064","phone":"(281)955-5564"},{"latitude":29.557237,"longitude":-95.158228,"name":"BABIES R US - FRIENDSWOOD [9588]","address":"18182 GULF FREEWAY\r\nFRIENDSWOOD, TX 77546-2722","phone":"(281)990-9390"},{"latitude":29.784897,"longitude":-95.532941,"name":"TOYS R US/BABIES R US - HOUSTON [7004]","address":"9730 KATY FREEWAY\r\nHOUSTON, TX 77024","phone":"(713)465-4176"},{"latitude":29.737725,"longitude":-95.491164,"name":"TOYS R US/BABIES R US - HOUSTON [7031]","address":"6145 WESTHEIMER ROAD\r\nHOUSTON, TX 77057","phone":"(713)785-8697"},{"latitude":29.785633,"longitude":-95.723336,"name":"BABIES R US - KATY [9546]","address":"20280 KATY FREEWAY\r\nKATY, TX 77449","phone":"(281)829-1000"},{"latitude":29.605735,"longitude":-95.614199,"name":"BABIES R US - SUGAR LAND [9544]","address":"15555 SOUTHWEST FREEWAY\r\nSUGAR LAND, TX 77478","phone":"(281)980-9595"},{"latitude":30.383038,"longitude":-97.737443,"name":"TOYS R US/BABIES R US - AUSTIN [7047]","address":"9333 RESEARCH BOULEVARD\r\nAUSTIN, TX 78759","phone":"(512)342-0805"},{"latitude":30.231571,"longitude":-97.818916,"name":"BABIES R US - SUNSET VALLEY [7705]","address":"5207 BRODIE LANE\r\nSUNSET VALLEY, TX 78745","phone":"(512)358-0191"},{"latitude":35.186445,"longitude":-101.938829,"name":"TOYS R US/BABIES R US - AMARILLO [7815]","address":"2403 S SONCY ROAD\r\nAMARILLO, TX 79121","phone":"(806)355-1135"},{"latitude":29.571112,"longitude":-98.325805,"name":"TOYS R US/BABIES R US - SELMA [7007]","address":"8270 AGORA PARKWAY\r\nSELMA, TX 78154","phone":"(210)658-2183"},{"latitude":29.522795,"longitude":-98.49741,"name":"TOYS R US/BABIES R US - SAN ANTONIO [7032]","address":"321 NW LOOP 410\r\nSAN ANTONIO, TX 78216","phone":"(210)524-0117"},{"latitude":29.608619,"longitude":-98.596772,"name":"BABIES R US - SAN ANTONIO [7711]","address":"17610 LA CANTERA\r\nSAN ANTONIO, TX 78257","phone":"(210)694-2087"},{"latitude":33.538184,"longitude":-101.922413,"name":"TOYS R US/BABIES R US - LUBBOCK [7816]","address":"6101 SLIDE ROAD\r\nLUBBOCK, TX 79414","phone":"(806)799-8327"},{"latitude":29.438216,"longitude":-98.651371,"name":"TOYS R US/BABIES R US - SAN ANTONIO [9549]","address":"8327 TX-151\r\nSAN ANTONIO, TX 78245","phone":"(210)521-2018"},{"latitude":40.523337,"longitude":-105.026622,"name":"TOYS R US/BABIES R US - FORT COLLINS [9533]","address":"4250 CORBETT DR\r\nFORT COLLINS, CO 80525","phone":"(970)223-1020"},{"latitude":39.696651,"longitude":-104.863598,"name":"TOYS R US/BABIES R US - AURORA [9528]","address":"1150 S. IRONTON\r\nAURORA, CO 80012-7022","phone":"(303)751-7425"},{"latitude":39.99617,"longitude":-104.977742,"name":"TOYS R US/BABIES R US - THORNTON [8245]","address":"16511 N. WASHINGTON STREET\r\nTHORNTON, CO 80023-8971","phone":"(303)451-1277"},{"latitude":39.560738,"longitude":-104.904847,"name":"BABIES R US - HIGHLANDS RANCH [9579]","address":"7155 BUSINESS CENTER DR\r\nHIGHLANDS RANCH, CO 80130-3698","phone":"(303)346-6266"},{"latitude":38.840764,"longitude":-104.762176,"name":"BABIES R US - COLORADO SPRINGS [9575]","address":"3555 CITADEL DRIVE SOUT\r\nCOLORADO SPRINGS, CO 80909-5311","phone":"(719)574-7737"},{"latitude":39.866193,"longitude":-105.053039,"name":"BABIES R US - WESTMINSTER [9553]","address":"9330 SHERIDAN BOULEVARD\r\nWESTMINSTER, CO 80030-6304","phone":"(303)650-2229"},{"latitude":27.709397,"longitude":-97.362572,"name":"TOYS R US/BABIES R US - CORPUS CHRISTI [7014]","address":"1220 AIRLINE ROAD\r\nCORPUS CHRISTI, TX 78412","phone":"(361)992-2429"},{"latitude":39.622829,"longitude":-105.091066,"name":"TOYS R US/BABIES R US - LITTLETON [9545]","address":"5142 SOUTH WADSWORTH\r\nLITTLETON, CO 80123-2218","phone":"(303)932-2229"},{"latitude":32.034678,"longitude":-102.126326,"name":"TOYS R US/BABIES R US - MIDLAND [7819]","address":"3109 LOOP 250 FRONTAGE\r\nMIDLAND, TX 79705-3230","phone":"(432)520-9821"},{"latitude":27.549975,"longitude":-99.504054,"name":"TOYS R US/BABIES R US - LAREDO [7035]","address":"5404 SAN BERNARDO AVENUE\r\nLAREDO, TX 78041","phone":"(956)791-8697"},{"latitude":26.194625,"longitude":-98.260679,"name":"BABIES R US - MC ALLEN [7713]","address":"3300 W EXPRESSWAY 83\r\nMC ALLEN, TX 78501","phone":"(956)618-0383"},{"latitude":35.0836,"longitude":-106.528551,"name":"BABIES R US - ALBUQUERQUE [6438]","address":"45 HOTEL CIRCLE\r\nALBUQUERQUE, NM 87123","phone":"(505)292-9909"},{"latitude":31.72524,"longitude":-106.302751,"name":"BABIES R US - EL PASO [6461]","address":"1327 GEORGE DIETER DRIVE\r\nEL PASO, TX 79936","phone":"(915)593-2143"},{"latitude":40.273459,"longitude":-111.692541,"name":"BABIES R US - OREM [6516]","address":"106 E. UNIVERSITY PARKWAY\r\nOREM, UT 84058","phone":"(801)802-8200"},{"latitude":40.62464,"longitude":-111.86008,"name":"BABIES R US - MIDVALE [9568]","address":"1122 E. FORT UNION BOULEVARD\r\nMIDVALE, UT 84047","phone":"(801)352-1086"},{"latitude":41.191782,"longitude":-111.98013,"name":"BABIES R US - OGDEN [6515]","address":"4042 RIVERDALE ROAD\r\nOGDEN, UT 84405-1518","phone":"(801)612-0400"},{"latitude":18.488822,"longitude":-66.825055,"name":"TOYS R US/BABIES R US - HATILLO [8720]","address":"CARRETERA #2 KM 81.9\r\nHATILLO, PR 00659","phone":"(787)878-8697"},{"latitude":18.424908,"longitude":-66.056119,"name":"TOYS R US/BABIES R US - SAN JUAN [8722]","address":"CALAF STREET 555\r\nSAN JUAN, PR 00918","phone":"(787)250-8697"},{"latitude":18.392525,"longitude":-65.980914,"name":"TOYS R US/BABIES R US - CAROLINA [8723]","address":"STATE ROAD 886\r\nCAROLINA, PR 00987","phone":"(787)257-8697"},{"latitude":32.221717,"longitude":-110.87751,"name":"TOYS R US/BABIES R US - TUCSON [5646]","address":"5355 EAST BROADWAY BOULEVARD\r\nTUCSON, AZ 85711","phone":"(520)748-8697"},{"latitude":33.383896,"longitude":-111.60347,"name":"BABIES R US - MESA [6561]","address":"1764 S. SIGNAL BUTTE ROAD\r\nMESA, AZ 85209","phone":"(480)354-3262"},{"latitude":32.290605,"longitude":-110.978317,"name":"BABIES R US - TUCSON [5694]","address":"4619 N ORACLE ROAD\r\nTUCSON, AZ 85705","phone":"(520)408-1118"},{"latitude":33.655231,"longitude":-111.92536,"name":"BABIES R US - PHOENIX [6465]","address":"7000 E. MAYO BOULEVARD\r\nPHOENIX, AZ 85054","phone":"(480)585-7362"},{"latitude":33.319749,"longitude":-111.979686,"name":"BABIES R US - PHOENIX [5670]","address":"4835 EAST RAY ROAD\r\nPHOENIX, AZ 85044","phone":"(480)705-0400"}]