[{"latitude":"51.200377","longitude":"-113.996308","name":"Bass Pro Shops-Rocky View,AB","address":"112-261055 Cross Iron Blvd, Rocky View,AB T4A 0G3, (403) 592-3900"},{"latitude":"61.219175","longitude":"-149.820523","name":"Bass Pro Shops-Anchorage,AK","address":"3046 Mountain View Drive, Anchorage,AK 99501, (907) 330-5200"},{"latitude":"33.542486","longitude":"-86.591745","name":"Bass Pro Shops-Leeds,AL","address":"5000 Bass Pro Blvd, Leeds,AL 35094, (205) 702-7500"},{"latitude":"32.460965","longitude":"-86.394453","name":"Bass Pro Shops-Prattville,AL","address":"2553 Rocky Mount Rd, Prattville,AL 36066, (334) 290-6400"},{"latitude":"30.659309","longitude":"-87.908378","name":"Bass Pro Shops-Spanish Fort,AL","address":"20000 Bass Pro Drive, Spanish Fort,AL 36527, (251) 607-5900"},{"latitude":"34.658587","longitude":"-92.408982","name":"Bass Pro Shops-Little Rock,AR","address":"1 Bass Pro Drive, Little Rock,AR 72210, (501) 954-4500"},{"latitude":"33.4369","longitude":"-111.8671","name":"Bass Pro Shops-Mesa,AZ","address":"1133 North Dobson, Mesa,AZ 85201, (602) 606-5600"},{"latitude":"49.038611","longitude":"-123.081111","name":"Bass Pro Shops-Tsawwassee,BC","address":"5000 Canoe Pass Way, Tsawwassen,BC V4M 0B3, (604) 948-6200"},{"latitude":"37.782","longitude":"-121.2269","name":"Bass Pro Shops-Manteca,CA","address":"1356 Bass Pro Drive, Manteca,CA 95337, (209) 825-8400"},{"latitude":"34.112782","longitude":"-117.52691","name":"Bass Pro Shops-Rancho Cucamonga,CA","address":"7777 Victoria Gardens Lane, Rancho Cucamonga,CA 91739, (909) 922-5500"},{"latitude":"38.803808","longitude":"-121.201886","name":"Bass Pro Shops-Rocklin,CA","address":"5472 Crossings Dr, Rocklin,CA 95677, (916) 251-3800"},{"latitude":"37.2574008","longitude":"-121.8731986","name":"Bass Pro Shops-San Jose,CA","address":"5160 Cherry Ave, San Jose,CA 95118, (669) 234-5700"},{"latitude":"39.027185","longitude":"-104.82193","name":"Bass Pro Shops-Colorado Springs,CO","address":"13012 Bass Pro Drive, Colorado Springs,CO 80921, (719) 488-7300"},{"latitude":"39.7807","longitude":"-104.8959","name":"Bass Pro Shops-Denver,CO","address":"7970 Northfield Blvd, Denver,CO 80238, (720) 385-3600"},{"latitude":"41.177813","longitude":"-73.178594","name":"Bass Pro Shops-Bridgeport,CT","address":"1 Bass Pro Dr, Bridgeport,CT 06608, (203) 362-4200"},{"latitude":"26.0579","longitude":"-80.1645","name":"Bass Pro Shops-Dania Beach,FL","address":"200 Gulf Stream Way, Dania Beach,FL 33004, (954) 929-7710"},{"latitude":"29.1919444","longitude":"-81.065","name":"Bass Pro Shops-Daytona Beach,FL","address":"1880 Checkered Flag Blvd, Daytona Beach,FL 32114, (386) 281-4300"},{"latitude":"30.3906","longitude":"-86.4226","name":"Bass Pro Shops-Destin,FL","address":"4301 Legendary Drive, Destin,FL 32541, (850) 269-6200"},{"latitude":"26.4869","longitude":"-81.7911","name":"Bass Pro Shops-Ft Myers,FL","address":"10040 Gulf Center Drive, Ft Myers,FL 33913, (239) 461-7800"},{"latitude":"29.628611","longitude":"-82.395833","name":"Bass Pro Shops-Gainesville,FL","address":"2650 Bass Pro Shops Blvd, Gainesville,FL 32608, (352) 204-4100"},{"latitude":"24.915","longitude":"-80.6395","name":"Bass Pro Shops-Islamorada,FL","address":"81576 Overseas Hwy, Islamorada,FL 33036, (305) 664-4615"},{"latitude":"25.7977","longitude":"-80.3859","name":"Bass Pro Shops-Miami,FL","address":"11551 NW 12th St, Miami,FL 33172, (305) 341-4200"},{"latitude":"28.4703","longitude":"-81.4483","name":"Bass Pro Shops-Orlando,FL","address":"5156 International Dr, Orlando,FL 32819, (407) 563-5200"},{"latitude":"28.034145","longitude":"-80.652373","name":"Bass Pro Shops-Palm Bay,FL","address":"750 Bass Pro Drive NE, Palm Bay,FL 32905, (321) 674-3700"},{"latitude":"27.261667","longitude":"-80.419167","name":"Bass Pro Shops-Port St Lucie,FL","address":"2250 Gatlin Blvd, Port St Lucie,FL 34953, (772) 785-7600"},{"latitude":"30.460582","longitude":"-84.2141288","name":"Bass Pro Shops-Tallahassee,FL","address":"4059 Lagniappe Way, Tallahassee,FL 32317, (850) 402-6900"},{"latitude":"27.9430199","longitude":"-82.3998032","name":"Bass Pro Shops-Tampa,FL","address":"10501 Palm River Rd, Tampa,FL 33619, (813) 655-2400"},{"latitude":"33.9817","longitude":"-84.0841","name":"Bass Pro Shops-Lawrenceville,GA","address":"5900 Sugarloaf Parkway, Lawrenceville,GA 30043, (678) 847-5500"},{"latitude":"32.9348","longitude":"-83.735","name":"Bass Pro Shops-Macon,GA","address":"5000 Bass Pro Blvd, Macon,GA 31210, (478) 757-7600"},{"latitude":"31.9832","longitude":"-81.1728","name":"Bass Pro Shops-Savannah,GA","address":"14045 Abercorn St, Savannah,GA 31419, (912) 961-4200"},{"latitude":"41.6597","longitude":"-93.5147","name":"Bass Pro Shops-Altoona,IA","address":"1000 Bass Pro Drive NW, Altoona,IA 50009, (515) 957-5500"},{"latitude":"41.2348","longitude":"-95.8914","name":"Bass Pro Shops-Council Bluffs,IA","address":"2901 Bass Pro Drive, Council Bluffs,IA 51501, (712) 325-6000"},{"latitude":"41.7175","longitude":"-88.0408","name":"Bass Pro Shops-Bolingbrook,IL","address":"709 Janes Ave, Bolingbrook,IL 60440, (630) 296-2700"},{"latitude":"40.684067","longitude":"-89.5791","name":"Bass Pro Shops-East Peoria,IL","address":"1000 Bass Pro Shops Drive, East Peoria,IL 61611, (309) 427-3400"},{"latitude":"42.389","longitude":"-87.9532","name":"Bass Pro Shops-Gurnee,IL","address":"6112 W Grand Avenue, Gurnee,IL 60031, (847) 856-1229"},{"latitude":"38.3198","longitude":"-85.7621","name":"Bass Pro Shops-Clarksville,IN","address":"951 E Lewis & Clark Pkwy, Clarksville,IN 47129, (812) 218-5500"},{"latitude":"41.6035","longitude":"-87.168","name":"Bass Pro Shops-Portage,IN","address":"6425 Daniel Burnham Dr, Portage,IN 46368, (219) 787-6800"},{"latitude":"38.91003","longitude":"-94.7781","name":"Bass Pro Shops-Olathe,KS","address":"12051 Bass Pro Dr, Olathe,KS 66061, (913) 254-5200"},{"latitude":"32.5207","longitude":"-93.7417","name":"Bass Pro Shops-Bossier City,LA","address":"100 Bass Pro Drive, Bossier City,LA 71111, (318) 549-8800"},{"latitude":"30.4517","longitude":"-90.9634","name":"Bass Pro Shops-Denham Springs,LA","address":"175 Bass Pro Boulevard, Denham Springs,LA 70726, (225) 271-3100"},{"latitude":"42.0849","longitude":"-71.2719","name":"Bass Pro Shops-Foxborough,MA","address":"One Bass Pro Drive, Foxborough,MA 02035, (508) 216-2000"},{"latitude":"39.1573","longitude":"-76.7227","name":"Bass Pro Shops-Hanover,MD","address":"7000 Arundel Mills Circle, Hanover,MD 21076, (410) 689-2500"},{"latitude":"42.7039","longitude":"-83.2986","name":"Bass Pro Shops-Auburn Hills,MI","address":"Great Lakes Crossing - 4500 Baldwin Rd, Auburn Hills,MI 48326, (248) 209-4200"},{"latitude":"36.6402","longitude":"-93.213","name":"Bass Pro Shops-Branson,MO","address":"1 Bass Pro Drive, Branson,MO 65616, (417) 243-5200"},{"latitude":"38.971","longitude":"-92.2915","name":"Bass Pro Shops-Columbia,MO","address":"3101 Bass Pro Drive, Columbia,MO 65202, (573) 886-7100"},{"latitude":"39.0402","longitude":"-94.3705","name":"Bass Pro Shops-Independence,MO","address":"18001 Bass Pro Drive, Independence,MO 64055, (816) 795-4300"},{"latitude":"37.1798","longitude":"-93.2973","name":"Bass Pro Shops-Springfield,MO","address":"1935 S Campbell, Springfield,MO 65807, (417) 887-7334"},{"latitude":"37.1782","longitude":"-93.296","name":"Bass Pro Shops [Catalog Outlet]-Springfield,MO","address":"2011 S Campbell Avenue, Springfield,MO 65807, (417) 891-5375"},{"latitude":"38.7733","longitude":"-90.4978","name":"Bass Pro Shops-St Charles,MO","address":"1365 South 5th Street, St Charles,MO 63301, (636) 688-2500"},{"latitude":"32.2716","longitude":"-90.151","name":"Bass Pro Shops-Pearl,MS","address":"100 Bass Pro Drive, Pearl,MS 39208, (601) 933-3700"},{"latitude":"46.098264","longitude":"-64.762672","name":"Bass Pro Shops-Dieppe,NB","address":"499 Paul St, Dieppe,NB E1A 6S5, (506) 878-5200"},{"latitude":"35.830757","longitude":"-78.77092","name":"Bass Pro Shops-Cary,NC","address":"801 Bass Pro Lane, Cary,NC 27513, (919) 677-5100"},{"latitude":"35.3671","longitude":"-80.7184","name":"Bass Pro Shops-Concord,NC","address":"8181 Concord Mills Blvd, Concord,NC 28027, (704) 979-2200"},{"latitude":"43.039109","longitude":"-71.475873","name":"Bass Pro Shops-Hooksett,NH","address":"2 Commerce Dr, Hooksett,NH 03106, (603) 541-5200"},{"latitude":"39.3592373","longitude":"-74.4385059","name":"Bass Pro Shops-Atlantic City,NJ","address":"30 N Christopher Columbus Blvd, Atlantic City,NJ 08401, (609) 449-4500"},{"latitude":"36.0427","longitude":"-115.1818","name":"Bass Pro Shops-Las Vegas,NV","address":"8200 Dean Martin Drive, Las Vegas,NV 89139, (702) 730-5200"},{"latitude":"42.9294","longitude":"-76.6107","name":"Bass Pro Shops-Auburn,NY","address":"1579 Clark Street Road, Auburn,NY 13021, (315) 258-2700"},{"latitude":"43.1230468","longitude":"-75.2262493","name":"Bass Pro Shops-Utica,NY","address":"710 Horatio Street, Utica,NY 13502, (315) 266-4900"},{"latitude":"39.3026","longitude":"-84.5211","name":"Bass Pro Shops-Cincinnati,OH","address":"300 Cincinnati Mills Drive, Cincinnati,OH 45240, (513) 826-5200"},{"latitude":"41.5598","longitude":"-83.5882","name":"Bass Pro Shops-Rossford,OH","address":"10000 Bass Pro Blvd, Rossford,OH 43460, (419) 891-3900"},{"latitude":"36.0709","longitude":"-95.7921","name":"Bass Pro Shops-Broken Arrow,OK","address":"101 Bass Pro Drive, Broken Arrow,OK 74012, (918) 355-7600"},{"latitude":"35.4634","longitude":"-97.5036","name":"Bass Pro Shops-Oklahoma City,OK","address":"200 Bass Pro Drive, Oklahoma City,OK 73104, (405) 218-5200"},{"latitude":"43.159911","longitude":"-79.174669","name":"Bass Pro Shops-Niagara On The Lake,ON","address":"300 Taylor Rd [A1], Niagara On The Lake,ON L0S 1J0"},{"latitude":"43.8249","longitude":"-79.5437","name":"Bass Pro Shops-Vaughan,ON","address":"1 Bass Pro Mills Drive, Vaughan,ON L4K 5W4, (905) 761-4000"},{"latitude":"40.2542","longitude":"-76.832","name":"Bass Pro Shops-Harrisburg,PA","address":"3501 Paxton Street, Harrisburg,PA 17111, (717) 565-5200"},{"latitude":"33.7912","longitude":"-78.7681","name":"Bass Pro Shops-Myrtle Beach,SC","address":"10177 North Kings Hwy., Myrtle Beach,SC 29572, (843) 361-4800"},{"latitude":"36.5924495","longitude":"-82.253856","name":"Bass Pro Shops-Bristol,TN","address":"1 Bass Pro Drive, Bristol,TN 37621, (423) 990-5200"},{"latitude":"34.992969","longitude":"-85.203155","name":"Bass Pro Shops-East Ridge,TN","address":"1000 Bass Pro Dr, East Ridge,TN 37412, (423) 894-0400"},{"latitude":"35.9857","longitude":"-83.6133","name":"Bass Pro Shops-Kodak,TN","address":"3629 Outdoor Sportsmans Place, Kodak,TN 37764, (865) 932-5600"},{"latitude":"35.1654","longitude":"-89.8578","name":"Bass Pro Shops-Memphis,TN","address":"6140 Macon Rd, Memphis,TN 38134, (901) 213-5800"},{"latitude":"35.1508179","longitude":"-90.0344543","name":"Bass Pro Shops-Memphis Pyramid,TN","address":"1 Bass Pro Dr, Memphis Pyramid,TN 38105, (901) 291-8200"},{"latitude":"36.2009","longitude":"-86.69","name":"Bass Pro Shops-Nashville,TN","address":"323 Opry Mills Dr, Nashville,TN 37214, (615) 514-5200"},{"latitude":"32.866","longitude":"-96.5385","name":"Bass Pro Shops-Garland,TX","address":"5001 Bass Pro Drive, Garland,TX 75043, (469) 221-2600"},{"latitude":"32.95707","longitude":"-97.0428","name":"Bass Pro Shops-Grapevine,TX","address":"2501 Bass Pro Drive, Grapevine,TX 76051, (972) 724-2018"},{"latitude":"26.1942236","longitude":"-97.721525","name":"Bass Pro Shops-Harlingen,TX","address":"101 Bass Pro Drive, Harlingen,TX 78552, (956) 291-5200"},{"latitude":"29.7781","longitude":"-95.8115","name":"Bass Pro Shops-Katy,TX","address":"5000 Katy Mills Circle [Suite 415], Katy,TX 77494, (281) 644-2200"},{"latitude":"29.5953","longitude":"-95.3895","name":"Bass Pro Shops-Pearland,TX","address":"1000 Basspro Drive, Pearland,TX 77047, (713) 770-5100"},{"latitude":"30.5437145","longitude":"-97.6425781","name":"Bass Pro Shops-Round Rock,TX","address":"200 Bass Pro Dr, Round Rock,TX 78665, (512) 876-2700"},{"latitude":"29.6108","longitude":"-98.6009","name":"Bass Pro Shops-San Antonio,TX","address":"17907 IH-10 West, San Antonio,TX 78257, (210) 253-8800"},{"latitude":"37.71167","longitude":"-77.44925","name":"Bass Pro Shops-Ashland,VA","address":"11550 Lakeridge Parkway, Ashland,VA 23005, (804) 496-4700"},{"latitude":"37.0353","longitude":"-76.3947","name":"Bass Pro Shops-Hampton,VA","address":"1972 Power Plant Parkway, Hampton,VA 23666, (757) 262-5200"},{"latitude":"47.185556","longitude":"-122.460833","name":"Bass Pro Shops-Tacoma,WA","address":"7905 S Hosmer St, Tacoma,WA 98408, (253) 671-5700"}]