[{"latitude":"51.106538","longitude":"-114.046217","name":"Cabela's Calgary","address":"851 64th Ave NE \u0095 Calgary AB T2E 3B8 \u0095 403-910-0200"},{"latitude":"53.615367","longitude":"-113.400439","name":"Cabela's Edmonton (North)","address":"15320 37 St NW \u0095 Edmonton AB T5Y 0S5 \u0095 780-670-6100"},{"latitude":"53.438356","longitude":"-113.602867","name":"Cabela's Edmonton (South)","address":"6150 Currents Dr NW \u0095 Edmonton AB T6W 0L8 \u0095 780-628-9200"},{"latitude":"61.126722","longitude":"-149.881607","name":"Cabela's Anchorage","address":"155 W 104th Ave \u0095 Anchorage AK 99515 \u0095 907-341-3400"},{"latitude":"34.707186","longitude":"-86.681255","name":"Cabela's Huntsville","address":"7090 Cabela Dr \u0095 Huntsville AL 35801 \u0095 256-517-7200"},{"latitude":"36.300434","longitude":"-94.174453","name":"Cabela's Rogers","address":"2300 Promenade Blvd \u0095 Rogers AR 72758 \u0095 479-616-1925"},{"latitude":"33.538663","longitude":"-112.26354","name":"Cabela's Glendale","address":"9380 W. Glendale Ave \u0095 Glendale AZ 85305 \u0095 623-872-6700"},{"latitude":"49.035403","longitude":"-122.292703","name":"Cabela's Abbotsford","address":"1818 McCallum Rd \u0095 Abbotsford BC V2S 0H9 \u0095 604-425-1800"},{"latitude":"49.239589","longitude":"-124.051625","name":"Cabela's Nanaimo","address":"6902 Island Highway N \u0095 Nanaimo BC V9V 1P6 \u0095 250-390-7800"},{"latitude":"39.090332","longitude":"-108.603817","name":"Cabela's Grand Junction","address":"2424 US-6 \u0095 Grand Junction CO 81505 \u0095 970-683-5000"},{"latitude":"39.522333","longitude":"-104.873134","name":"Cabela's Lone Tree","address":"10670 Cabela Dr \u0095 Lone Tree CO 80124 \u0095 303-625-9920"},{"latitude":"39.952452","longitude":"-104.986258","name":"Cabela's Thornton","address":"14050 Lincoln St \u0095 Thornton CO 80023 \u0095 303-625-6100"},{"latitude":"41.756259","longitude":"-72.621393","name":"Cabela's East Hartford","address":"475 East Hartford Blvd N \u0095 East Hartford CT 06118 \u0095 860-290-6200"},{"latitude":"39.682104","longitude":"-75.653419","name":"Cabela's Christiana","address":"1100 Christiana Mall \u0095 Newark DE 19702 \u0095 302-266-2300"},{"latitude":"34.081691","longitude":"-84.650693","name":"Cabela's Acworth","address":"152 Northpoint Pkwy \u0095 Acworth GA 30102 \u0095 470-315-7500"},{"latitude":"33.525137","longitude":"-82.01786","name":"Cabela's Augusta","address":"833 Cabela Dr \u0095 Augusta GA 30909 \u0095 762-444-6500"},{"latitude":"34.970543","longitude":"-85.194935","name":"Cabela's Fort Oglethorpe","address":"350 Cobb Pkwy \u0095 Ringgold GA 30736 \u0095 706-956-2800"},{"latitude":"43.464138","longitude":"-111.982954","name":"Cabela's Ammon","address":"3693 S 25th E \u0095 Ammon ID 83406 \u0095 208-932-2900"},{"latitude":"43.604816","longitude":"-116.283247","name":"Cabela's Boise","address":"8109 W Franklin Rd \u0095 Boise ID 83709 \u0095 208-672-7900"},{"latitude":"47.700557","longitude":"-117.035841","name":"Cabela's Post Falls","address":"101 N Cabela Way \u0095 Post Falls ID 83854 \u0095 208-777-6300"},{"latitude":"42.073419","longitude":"-88.207232","name":"Cabela's Hoffman Estates","address":"5225 Prairie Stone Pkwy \u0095 Hoffman Estates IL 60192 \u0095 847-645-0400"},{"latitude":"41.571515","longitude":"-87.481264","name":"Cabela's Hammond","address":"7700 Cabela Dr \u0095 Hammond IN 46324 \u0095 219-845-9040"},{"latitude":"39.988872","longitude":"-85.934676","name":"Cabela's Noblesville","address":"13725 Cabela Pkwy \u0095 Noblesville IN 46060 \u0095 317-565-6400"},{"latitude":"39.11912","longitude":"-94.816593","name":"Cabela's Kansas City","address":"10300 Cabela Dr \u0095 Kansas City KS 66111 \u0095 913-328-0322"},{"latitude":"37.727168","longitude":"-97.208146","name":"Cabela's Wichita","address":"2427 N Greenwich Rd \u0095 Wichita KS 67226 \u0095 316-854-3130"},{"latitude":"36.938201","longitude":"-86.417078","name":"Cabela's Bowling Green","address":"3395 Nell O'Bryan Ct \u0095 Bowling Green KY 42103 \u0095 270-936-8300"},{"latitude":"38.027707","longitude":"-84.409689","name":"Cabela's Lexington","address":"1510 Conservation Way \u0095 Lexington KY 40509 \u0095 859-286-5300"},{"latitude":"38.313306","longitude":"-85.57213","name":"Cabela's Louisville","address":"5100 Norton Healthcare Blvd \u0095 Louisville KY 40241 \u0095 502-365-9020"},{"latitude":"30.206253","longitude":"-90.948385","name":"Cabela's Gonzales","address":"2200 W. Cabela's Pkwy \u0095 Gonzales LA 70737 \u0095 225-743-3400"},{"latitude":"42.39301","longitude":"-71.596625","name":"Cabela's Berlin","address":"44 Highland Common \u0095 Hudson MA 01749 \u0095 978-212-6200"},{"latitude":"49.840169","longitude":"-97.220094","name":"Cabela's Winnipeg","address":"580 Sterling Lyon Pkwy \u0095 Winnipeg MB R3P 1E9 \u0095 204-786-8966"},{"latitude":"43.601557","longitude":"-70.367975","name":"Cabela's Scarborough","address":"100 Cabela's Blvd \u0095 Scarborough ME 04074 \u0095 207-883-7400"},{"latitude":"41.963324","longitude":"-83.674093","name":"Cabela's Dundee","address":"110 Cabela Blvd E \u0095 Dundee MI 48131 \u0095 734-529-4700"},{"latitude":"42.88435","longitude":"-85.74119","name":"Cabela's Grandville","address":"3000 44th St SW \u0095 Grandville MI 49418 \u0095 616-682-6700"},{"latitude":"43.481082","longitude":"-83.975134","name":"Cabela's Saginaw","address":"5202 Bay Rd \u0095 Saginaw MI 48604 \u0095 989-321-5700"},{"latitude":"47.928228","longitude":"-97.026567","name":"Cabela's East Grand Forks","address":"210 DeMers Ave NW \u0095 East Grand Forks MN 56721 \u0095 218-773-0282"},{"latitude":"44.136898","longitude":"-93.250128","name":"Cabela's Owatonna","address":"3900 Cabela Dr \u0095 Owatonna MN 55060 \u0095 507-451-4545"},{"latitude":"45.186123","longitude":"-93.536349","name":"Cabela's Rogers","address":"20200 Rogers Dr \u0095 Rogers MN 55374 \u0095 763-493-8600"},{"latitude":"44.94583","longitude":"-92.937522","name":"Cabela's Woodbury","address":"8400 Hudson Rd \u0095 Woodbury MN 55125 \u0095 612-255-0000"},{"latitude":"38.786443","longitude":"-90.416877","name":"Cabela's Hazelwood","address":"5555 St. Louis Mills Blvd \u0095 Hazelwood MO 63042 \u0095 314-225-0100"},{"latitude":"45.75423","longitude":"-108.529146","name":"Cabela's Billings","address":"4550 King Ave E \u0095 Billings MT 59101 \u0095 406-373-7300"},{"latitude":"48.237401","longitude":"-114.33322","name":"Cabela's Kalispell","address":"125 Treeline Rd \u0095 Kalispell MT 59901 \u0095 406-203-5200"},{"latitude":"46.836866","longitude":"-114.038035","name":"Cabela's Missoula","address":"3650 Brooks St \u0095 Missoula MT 59801 \u0095 406-203-5400"},{"latitude":"46.12712","longitude":"-64.834281","name":"Cabela's Moncton","address":"100 Cabela's Ct \u0095 Moncton NB E1G 5V7 \u0095 506-804-2400"},{"latitude":"35.697629","longitude":"-78.584265","name":"Cabela's Garner","address":"201 Cabela Dr \u0095 Garner NC 27529 \u0095 984-204-2200"},{"latitude":"40.706851","longitude":"-99.031435","name":"Cabela's Kearney","address":"3600 Hwy 30 E \u0095 Kearney NE 68847 \u0095 308-234-3933"},{"latitude":"41.179431","longitude":"-96.10851","name":"Cabela's La Vista","address":"12703 Westport Pkwy \u0095 La Vista NE 68138 \u0095 402-861-4800"},{"latitude":"41.115481","longitude":"-102.960635","name":"Cabela's Sidney","address":"115 Cabela Dr \u0095 Sidney NE 69160 \u0095 308-254-7889"},{"latitude":"39.515101","longitude":"-119.968661","name":"Cabela's Reno","address":"8650 Boomtown Rd \u0095 Verdi NV 89439 \u0095 775-829-4100"},{"latitude":"42.906899","longitude":"-78.762203","name":"Cabela's Cheektowaga","address":"2003 Walden Ave \u0095 Cheektowaga NY 14225 \u0095 716-608-4770"},{"latitude":"41.467548","longitude":"-82.011854","name":"Cabela's Avon","address":"35685 Chester Rd \u0095 Avon OH 44011 \u0095 440-723-5600"},{"latitude":"39.660829","longitude":"-84.102053","name":"Cabela's Centerville","address":"5500 Cornerstone N Blvd \u0095 Centerville OH 45440 \u0095 937-949-2000"},{"latitude":"40.149355","longitude":"-82.974876","name":"Cabela's Columbus","address":"1650 Gemini Pl \u0095 Columbus OH 43240 \u0095 614-702-2300"},{"latitude":"39.368171","longitude":"-84.369902","name":"Cabela's West Chester","address":"7250 Cabela Dr \u0095 West Chester OH 45069 \u0095 513-342-5300"},{"latitude":"35.60583","longitude":"-97.534403","name":"Cabela's Oklahoma City","address":"1200 W Memorial Rd \u0095 Oklahoma City OK 73114 \u0095 405-546-3500"},{"latitude":"44.341303","longitude":"-79.680833","name":"Cabela's Barrie","address":"50 Concert Way \u0095 Barrie ON L4N 6N5 \u0095 705-735-8900"},{"latitude":"45.297877","longitude":"-75.940385","name":"Cabela's Ottawa","address":"3065 Palladium Dr \u0095 Ottawa ON K2T 0N2 \u0095 613-319-8600"},{"latitude":"44.072438","longitude":"-123.042783","name":"Cabela's Springfield","address":"2800 Gateway St \u0095 Springfield OR 97477 \u0095 541-349-5760"},{"latitude":"45.382857","longitude":"-122.755963","name":"Cabela's Tualatin","address":"7555 SW Nyberg St \u0095 Tualatin OR 97062 \u0095 503-822-2000"},{"latitude":"40.558185","longitude":"-76.005896","name":"Cabela's Hamburg","address":"100 Cabela Dr \u0095 Hamburg PA 19526 \u0095 610-929-7000"},{"latitude":"35.099357","longitude":"-80.934927","name":"Cabela's Fort Mills","address":"1000 Cabela Dr \u0095 Fort Mill SC 29708 \u0095 980-337-2600"},{"latitude":"34.83345","longitude":"-82.3073","name":"Cabela's Greenville","address":"1025 Woodruff Rd  Ste H101 \u0095 Greenville SC 29607 \u0095 864-516-8100"},{"latitude":"43.690883","longitude":"-98.014951","name":"Cabela's Mitchell","address":"601 Cabela Dr \u0095 Mitchell SD 57301 \u0095 605-996-0337"},{"latitude":"44.102495","longitude":"-103.162757","name":"Cabela's Rapid City","address":"3231 East Mall Dr \u0095 Rapid City SD 57701 \u0095 605-388-5600"},{"latitude":"50.405311","longitude":"-104.651048","name":"Cabela's Regina","address":"4901 Gordon Rd \u0095 Regina SK S4W 0B7 \u0095 306-523-5900"},{"latitude":"52.150565","longitude":"-106.62097","name":"Cabela's Saskatoon","address":"1714 Preston Ave N \u0095 Saskatoon SK S7N 4Y1 \u0095 306-343-4868"},{"latitude":"33.122754","longitude":"-96.663416","name":"Cabela's Allen","address":"1 Cabela Dr \u0095 Allen TX 75002 \u0095 214-383-0502"},{"latitude":"30.081949","longitude":"-97.823301","name":"Cabela's Buda","address":"15570 IH 35 \u0095 Buda TX 78610 \u0095 512-295-1100"},{"latitude":"32.963106","longitude":"-97.305607","name":"Cabela's Fort Worth","address":"12901 Cabelas Dr \u0095 Fort Worth TX 76177 \u0095 817-337-2400"},{"latitude":"29.475056","longitude":"-95.097967","name":"Cabela's League City","address":"2421 S Gulf Fwy \u0095 League City TX 77573 \u0095 346-231-0200"},{"latitude":"33.56621","longitude":"-101.948727","name":"Cabela's Lubbock","address":"3030 W Loop 289 \u0095 Lubbock TX 79407 \u0095 806-472-4300"},{"latitude":"31.498142","longitude":"-97.15222","name":"Cabela's Waco","address":"2700 Market Place Dr \u0095 Waco TX 76711 \u0095 254-870-4300"},{"latitude":"40.988144","longitude":"-111.910923","name":"Cabela's Farmington","address":"391 North Cabela Dr \u0095 Farmington UT 84025 \u0095 801-939-3700"},{"latitude":"40.43774","longitude":"-111.89206","name":"Cabela's Lehi","address":"2502 Cabela's Blvd \u0095 Lehi UT 84043 \u0095 801-766-2500"},{"latitude":"40.533007","longitude":"-112.351056","name":"Cabela's Tooele (for order pickup)","address":"2000 W Cabela's Way \u0095 Tooele UT 84074 \u0095 435-728-0370"},{"latitude":"36.628355","longitude":"-82.148430","name":"Cabela's Bristol","address":"361 Cabela Dr \u0095 Bristol VA 24202 \u0095 276-285-5700"},{"latitude":"38.796301","longitude":"-77.600634","name":"Cabela's Gainesville","address":"5291 Wellington Branch Dr \u0095 Gainesville VA 20155 \u0095 571-222-9000"},{"latitude":"37.66293","longitude":"-77.638392","name":"Cabela's Short Pump","address":"5000 Cabela Dr \u0095 Henrico VA 23233 \u0095 804-340-7300"},{"latitude":"47.063876","longitude":"-122.785207","name":"Cabela's Lacey","address":"1600 Gateway Blvd NE \u0095 Lacey WA 98516 \u0095 360-252-3500"},{"latitude":"48.084324","longitude":"-122.185684","name":"Cabela's Tulalip","address":"9810 Quil Ceda Blvd \u0095 Tulalip WA 98271 \u0095 360-474-4880"},{"latitude":"46.5703","longitude":"-120.480675","name":"Cabela's Union Gap","address":"1400 E Washington Ave \u0095 Union Gap WA 98903 \u0095 509-941-2100"},{"latitude":"44.50749","longitude":"-88.07757","name":"Cabela's Green Bay","address":"1499 Lombardi Ave \u0095 Ashwaubenon WI 54304 \u0095 920-264-0140"},{"latitude":"43.073469","longitude":"-91.136634","name":"Cabela's Prairie du Chien","address":"33901 St. Hwy 35 \u0095 Prairie du Chien WI 53821 \u0095 608-326-5600"},{"latitude":"43.280761","longitude":"-88.18907","name":"Cabela's Richfield","address":"One Cabela Way \u0095 Richfield WI 53076 \u0095 262-628-5700"},{"latitude":"43.165759","longitude":"-89.271609","name":"Cabela's Sun Prairie","address":"1350 Cabela Dr \u0095 Sun Prairie WI 53590 \u0095 608-478-4100"},{"latitude":"38.315349","longitude":"-81.717891","name":"Cabela's Charleston","address":"200 Cross Terrace Blvd \u0095 Charleston WV 25309 \u0095 304-400-6000"},{"latitude":"40.060866","longitude":"-80.59912","name":"Cabela's Wheeling","address":"One Cabela Dr \u0095 Triadelphia WV 26059 \u0095 304-238-0120"}]