[{"latitude":" 33.41464","longitude":"-111.93279","name":" Chick-fil-A - Tempe","address":" USA-(AZ) Tempe"},{"latitude":" 38.78408","longitude":"-121.28625","name":" Chick-fil-A - Roseville","address":" USA-(CA) Roseville"},{"latitude":" 33.65561","longitude":"-111.92638","name":" Chick-fil-A - Phoenix","address":" USA-(AZ) Phoenix"},{"latitude":" 38.42328","longitude":"-121.39292","name":" Chick-fil-A - Elk Grove","address":" USA-(CA) Elk Grove"},{"latitude":" 33.83074","longitude":"-118.08533","name":" Chick-fil-A - Long Beach","address":" USA-(CA) Long Beach"},{"latitude":" 39.54993","longitude":"-104.77063","name":" Chick-fil-A - Parker","address":" USA-(CO) Parker"},{"latitude":" 40.62362","longitude":"-111.86157","name":" Chick-fil-A - Midvale","address":" USA-(UT) Midvale"},{"latitude":" 41.75633","longitude":"-111.83467","name":" Chick-fil-A - Logan","address":" USA-(UT) Logan"},{"latitude":" 32.23300","longitude":"-110.95228","name":" Chick-fil-A - Tucson","address":" USA-(AZ) Tucson"},{"latitude":" 40.56727","longitude":"-111.89082","name":" Chick-fil-A - Sandy","address":" USA-(UT) Sandy"},{"latitude":" 39.08004","longitude":"-108.58427","name":" Chick-fil-A - Grand Junction","address":" USA-(CO) Grand Junction"},{"latitude":" 41.19457","longitude":"-111.98394","name":" Chick-fil-A - Ogden","address":" USA-(UT) Ogden"},{"latitude":" 32.22185","longitude":"-110.91577","name":" Chick-fil-A - Tucson","address":" USA-(AZ) Tucson"},{"latitude":" 34.10673","longitude":"-117.53929","name":" Chick-fil-A - Rancho Cucamonga","address":" USA-(CA) Rancho Cucamonga"},{"latitude":" 33.89968","longitude":"-117.55608","name":" Chick-fil-A - Corona","address":" USA-(CA) Corona"},{"latitude":" 34.02603","longitude":"-117.83620","name":" Chick-fil-A - City of Industry","address":" USA-(CA) City Of Industry"},{"latitude":" 36.85285","longitude":"-119.79046","name":" Chick-fil-A - Fresno","address":" USA-(CA) Fresno"},{"latitude":" 33.87174","longitude":"-118.35458","name":" Chick-fil-A - Redondo Beach","address":" USA-(CA) Redondo Beach"},{"latitude":" 41.07723","longitude":"-111.97502","name":" Chick-fil-A - Layton","address":" USA-(UT) Layton"},{"latitude":" 32.62938","longitude":"-116.96725","name":" Chick-fil-A - Chula Vista","address":" USA-(CA) Chula Vista"},{"latitude":" 34.01748","longitude":"-118.28268","name":" Chick-fil-A - Los Angeles","address":" USA-(CA) Los Angeles"},{"latitude":" 43.60566","longitude":"-116.20600","name":" Chick-fil-A - Boise","address":" USA-(ID) Boise"},{"latitude":" 40.62404","longitude":"-111.98433","name":" Chick-fil-A - West Jordan","address":" USA-(UT) West Jordan"},{"latitude":" 39.56335","longitude":"-105.10938","name":" Chick-fil-A - Littleton","address":" USA-(CO) Littleton"},{"latitude":" 32.31160","longitude":"-106.74500","name":" Chick-fil-A - Las Cruces","address":" USA-(NM) Las Cruces"},{"latitude":" 39.62046","longitude":"-105.09056","name":" Chick-fil-A - Lakewood","address":" USA-(CO) Lakewood"},{"latitude":" 41.16199","longitude":"-104.80735","name":" Chick-fil-A - Cheyenne","address":" USA-(WY) Cheyenne"},{"latitude":" 33.63590","longitude":"-112.23268","name":" Chick-fil-A - Peoria","address":" USA-(AZ) Peoria"},{"latitude":" 33.63858","longitude":"-112.35563","name":" Chick-fil-A - Surprise","address":" USA-(AZ) Surprise"},{"latitude":" 33.43398","longitude":"-111.86998","name":" Chick-fil-A - Mesa","address":" USA-(AZ) Mesa"},{"latitude":" 48.73888","longitude":"-122.48616","name":" Chick-fil-A - Bellingham","address":" USA-(WA) Bellingham"},{"latitude":" 38.26132","longitude":"-122.05295","name":" Chick-fil-A - Fairfield","address":" USA-(CA) Fairfield"},{"latitude":" 34.41951","longitude":"-118.56214","name":" Chick-fil-A - Santa Clarita","address":" USA-(CA) Santa Clarita"},{"latitude":" 32.29077","longitude":"-110.97834","name":" Chick-fil-A - Tucson","address":" USA-(AZ) Tucson"},{"latitude":" 40.37679","longitude":"-111.79377","name":" Chick-fil-A - American Fork","address":" USA-(UT) American Fork"},{"latitude":" 33.38296","longitude":"-111.80592","name":" Chick-fil-A - Mesa","address":" USA-(AZ) Mesa"},{"latitude":" 33.13427","longitude":"-117.17793","name":" Chick-fil-A - San Marcos","address":" USA-(CA) San Marcos"},{"latitude":" 33.17848","longitude":"-117.29497","name":" Chick-fil-A - Oceanside","address":" USA-(CA) Oceanside"},{"latitude":" 35.20600","longitude":"-106.65610","name":" Chick-fil-A - Albuquerque","address":" USA-(NM) Albuquerque"},{"latitude":" 33.66775","longitude":"-112.12288","name":" Chick-fil-A - Phoenix","address":" USA-(AZ) Phoenix"},{"latitude":" 39.70895","longitude":"-104.82479","name":" Chick-fil-A - Aurora","address":" USA-(CO) Aurora"},{"latitude":" 33.28181","longitude":"-111.79030","name":" Chick-fil-A - Chandler","address":" USA-(AZ) Chandler"},{"latitude":" 40.15254","longitude":"-105.09709","name":" Chick-fil-A - Longmont","address":" USA-(CO) Longmont"},{"latitude":" 33.83075","longitude":"-118.35235","name":" Chick-fil-A - Torrance-Del Amo Fashion Center","address":" USA-(CA) Torrance"},{"latitude":" 33.82394","longitude":"-117.51397","name":" Chick-fil-A - Corona","address":" USA-(CA) Corona"},{"latitude":" 33.46246","longitude":"-112.34149","name":" Chick-fil-A - Goodyear","address":" USA-(AZ) Goodyear"},{"latitude":" 33.86304","longitude":"-118.09104","name":" Chick-fil-A - Cerritos","address":" USA-(CA) Cerritos"},{"latitude":" 35.17375","longitude":"-106.57749","name":" Chick-fil-A - Albuquerque","address":" USA-(NM) Albuquerque"},{"latitude":" 32.10547","longitude":"-110.95151","name":" Chick-fil-A - Tucson","address":" USA-(AZ) Tucson"},{"latitude":" 33.91750","longitude":"-117.96563","name":" Chick-fil-A - La Habra","address":" USA-(CA) La Habra"},{"latitude":" 40.40781","longitude":"-105.00636","name":" Chick-fil-A - Loveland","address":" USA-(CO) Loveland"},{"latitude":" 33.39376","longitude":"-111.68895","name":" Chick-fil-A - Mesa","address":" USA-(AZ) Mesa"},{"latitude":" 34.06841","longitude":"-117.55667","name":" Chick-fil-A - Ontario","address":" USA-(CA) Ontario"},{"latitude":" 35.35449","longitude":"-119.06075","name":" Chick-fil-A - Bakersfield","address":" USA-(CA) Bakersfield"},{"latitude":" 34.22081","longitude":"-119.15765","name":" Chick-fil-A - Oxnard","address":" USA-(CA) Oxnard"},{"latitude":" 39.92877","longitude":"-105.14018","name":" Chick-fil-A - Superior","address":" USA-(CO) Superior"},{"latitude":" 33.72660","longitude":"-117.78906","name":" Chick-fil-A - Irvine","address":" USA-(CA) Irvine"},{"latitude":" 34.00235","longitude":"-117.72779","name":" Chick-fil-A - Chino Hills","address":" USA-(CA) Chino Hills"},{"latitude":" 32.91411","longitude":"-117.14435","name":" Chick-fil-A - San Diego","address":" USA-(CA) San Diego"},{"latitude":" 39.40849","longitude":"-104.85911","name":" Chick-fil-A - Castle Rock","address":" USA-(CO) Castle Rock"},{"latitude":" 32.28276","longitude":"-106.74769","name":" Chick-fil-A - Las Cruces","address":" USA-(NM) Las Cruces"},{"latitude":" 39.64270","longitude":"-105.00774","name":" Chick-fil-A - Sheridan","address":" USA-(CO) Sheridan"},{"latitude":" 33.69963","longitude":"-117.88539","name":" Chick-fil-A - Santa Ana","address":" USA-(CA) Santa Ana"},{"latitude":" 34.13377","longitude":"-117.63670","name":" Chick-fil-A - Upland","address":" USA-(CA) Upland"},{"latitude":" 38.94716","longitude":"-104.80319","name":" Chick-fil-A - Colorado Springs","address":" USA-(CO) Colorado Springs"},{"latitude":" 38.59874","longitude":"-121.41725","name":" Chick-fil-A - Sacramento","address":" USA-(CA) Sacramento"},{"latitude":" 33.46482","longitude":"-112.27439","name":" Chick-fil-A - Avondale","address":" USA-(AZ) Avondale"},{"latitude":" 39.88315","longitude":"-105.02459","name":" Chick-fil-A - Federal Heights","address":" USA-(CO) Federal Heights"},{"latitude":" 32.88014","longitude":"-111.68299","name":" Chick-fil-A - Casa Grande","address":" USA-(AZ) Casa Grande"},{"latitude":" 33.55374","longitude":"-117.68586","name":" Chick-fil-A - Laguna Niguel","address":" USA-(CA) Laguna Niguel"},{"latitude":" 39.69507","longitude":"-104.86595","name":" Chick-fil-A - Aurora","address":" USA-(CO) Aurora"},{"latitude":" 33.69524","longitude":"-117.82672","name":" Chick-fil-A - Tustin","address":" USA-(CA) Tustin"},{"latitude":" 38.89667","longitude":"-104.83408","name":" Chick-fil-A - Colorado Springs","address":" USA-(CO) Colorado Springs"},{"latitude":" 34.07054","longitude":"-117.20361","name":" Chick-fil-A - Redlands","address":" USA-(CA) Redlands"},{"latitude":" 39.61340","longitude":"-105.09677","name":" Chick-fil-A - Littleton","address":" USA-(CO) Littleton"},{"latitude":" 35.29740","longitude":"-120.65375","name":" Chick-fil-A - San Luis Obispo","address":" USA-(CA) San Luis Obispo"},{"latitude":" 40.71048","longitude":"-112.01683","name":" Chick-fil-A - Salt Lake City","address":" USA-(UT) Salt Lake City"},{"latitude":" 33.67826","longitude":"-117.66351","name":" Chick-fil-A - Foothill Ranch","address":" USA-(CA) Foothill Ranch"},{"latitude":" 39.56547","longitude":"-104.88233","name":" Chick-fil-A - Lone Tree","address":" USA-(CO) Lone Tree"},{"latitude":" 41.18939","longitude":"-111.98257","name":" Chick-fil-A - Riverdale","address":" USA-(UT) Riverdale"},{"latitude":" 33.30452","longitude":"-111.74348","name":" Chick-fil-A - Gilbert","address":" USA-(AZ) Gilbert"},{"latitude":" 38.94543","longitude":"-104.79645","name":" Chick-fil-A - Colorado Springs","address":" USA-(CO) Colorado Springs"},{"latitude":" 33.87295","longitude":"-117.74507","name":" Chick-fil-A - Yorba Linda","address":" USA-(CA) Yorba Linda"},{"latitude":" 33.56055","longitude":"-117.20343","name":" Chick-fil-A - Murietta","address":" USA-(CA) Murrieta"},{"latitude":" 33.33518","longitude":"-111.68717","name":" Chick-fil-A - Mesa","address":" USA-(AZ) Mesa"},{"latitude":" 40.63592","longitude":"-111.88425","name":" Chick-fil-A - Murray","address":" USA-(UT) Murray"},{"latitude":" 39.54388","longitude":"-104.94538","name":" Chick-fil-A - Highlands Ranch","address":" USA-(CO) Highlands Ranch"},{"latitude":" 40.53792","longitude":"-105.07719","name":" Chick-fil-A - Fort Collins","address":" USA-(CO) Fort Collins"},{"latitude":" 38.88600","longitude":"-104.71755","name":" Chick-fil-A - Colorado Springs","address":" USA-(CO) Colorado Springs"},{"latitude":" 33.52666","longitude":"-117.14916","name":" Chick-fil-A - Temecula","address":" USA-(CA) Temecula"},{"latitude":" 39.91451","longitude":"-104.97074","name":" Chick-fil-A - Thornton","address":" USA-(CO) Thornton"},{"latitude":" 33.83174","longitude":"-117.83609","name":" Chick-fil-A - Orange","address":" USA-(CA) Orange"},{"latitude":" 38.84450","longitude":"-104.75891","name":" Chick-fil-A - Colorado Springs","address":" USA-(CO) Colorado Springs"},{"latitude":" 33.26128","longitude":"-111.64344","name":" Chick-fil-A - Quantum Creek","address":" USA-(AZ) Queen Creek"},{"latitude":" 39.99777","longitude":"-104.97445","name":" Chick-fil-A - Thornton","address":" USA-(CO) Thornton"},{"latitude":" 32.75413","longitude":"-117.21161","name":" Chick-fil-A - San Diego","address":" USA-(CA) San Diego"},{"latitude":" 39.56302","longitude":"-104.87276","name":" Chick-fil-A - Littleton","address":" USA-(CO) Littleton"},{"latitude":" 39.61463","longitude":"-104.81545","name":" Chick-fil-A - Aurora","address":" USA-(CO) Aurora"},{"latitude":" 40.27514","longitude":"-111.68002","name":" Chick-fil-A - Orem","address":" USA-(UT) Orem"},{"latitude":" 40.54385","longitude":"-111.98242","name":" Chick-fil-A - South Jordan","address":" USA-(UT) South Jordan"},{"latitude":" 39.95699","longitude":"-104.77710","name":" Chick-fil-A - Brighton","address":" USA-(CO) Brighton"},{"latitude":" 33.62101","longitude":"-111.89225","name":" Chick-fil-A - Scottsdale","address":" USA-(AZ) Scottsdale"},{"latitude":" 33.69970","longitude":"-117.74208","name":" Chick-fil-A - Irvine","address":" USA-(CA) Irvine"},{"latitude":" 33.93923","longitude":"-117.27999","name":" Chick-fil-A - Riverside","address":" USA-(CA) Riverside"},{"latitude":" 39.74289","longitude":"-104.98869","name":" Chick-fil-A - Denver","address":" USA-(CO) Denver"},{"latitude":" 35.18855","longitude":"-111.65583","name":" Chick-fil-A - Flagstaff","address":" USA-(AZ) Flagstaff"},{"latitude":" 39.59589","longitude":"-104.70387","name":" Chick-fil-A - Aurora","address":" USA-(CO) Aurora"},{"latitude":" 33.59679","longitude":"-111.98048","name":" Chick-fil-A - Phoenix","address":" USA-(AZ) Phoenix"},{"latitude":" 33.30646","longitude":"-111.88896","name":" Chick-fil-A - Chandler","address":" USA-(AZ) Chandler"},{"latitude":" 36.80993","longitude":"-119.74804","name":" Chick-fil-A - Fresno","address":" USA-(CA) Fresno"},{"latitude":" 35.08560","longitude":"-106.61614","name":" Chick-fil-A - Albuquerque","address":" USA-(NM) Albuquerque"},{"latitude":" 33.91086","longitude":"-117.88091","name":" Chick-fil-A - Brea","address":" USA-(CA) Brea"}]