[{"latitude":"33.2257462","longitude":"-86.8032306","name":"Dicks Sporting Goods-Alabaster,AL","address":"[Colonial Promenade Alabaster], 200 S Colonial Dr, Alabaster,AL 35007, (205) 564-2684"},{"latitude":"33.418149","longitude":"-86.686248","name":"Dicks Sporting Goods-Birmingham,AL","address":"[Brook Highland Plaza], 5201 Highway 280 South, Birmingham,AL 35242, (205) 981-1320"},{"latitude":"34.1840076","longitude":"-86.8503604","name":"Dicks Sporting Goods-Cullman,AL","address":"[Cullman Shopping Center], 1106 Cullman Shopping Center Nw, Cullman,AL 35055, (256) 841-3534"},{"latitude":"30.655118","longitude":"-87.90395","name":"Dicks Sporting Goods-Daphne,AL","address":"[Jubilee Square], 6850 Us Highway 90, Daphne,AL 36526, (251) 621-0031"},{"latitude":"31.265054","longitude":"-85.44199","name":"Dicks Sporting Goods-Dothan,AL","address":"[Dothan Pavilion], 4401 Montgomery Hwy, Dothan,AL 36303, (334) 671-1370"},{"latitude":"34.840076","longitude":"-87.636533","name":"Dicks Sporting Goods-Florence,AL","address":"[Cox Creek Centre], 376 Cox Creek Parkway, Florence,AL 35630, (256) 760-4211"},{"latitude":"33.375018","longitude":"-86.81578","name":"Dicks Sporting Goods-Hoover,AL","address":"[Patton Creek], 4401 Creekside Avenue, Hoover,AL 35244, (205) 909-1400"},{"latitude":"34.714184","longitude":"-86.676533","name":"Dicks Sporting Goods-Huntsville,AL","address":"[Bridge St Town Ctr], 6890 Governor's Dr West, Huntsville,AL 35806, (256) 801-3766"},{"latitude":"34.677683","longitude":"-86.547783","name":"Dicks Sporting Goods-Huntsville,AL","address":"[Westside Pavillion], 2718 Carl T Jones Drive, Huntsville,AL 35802, (256) 881-3212"},{"latitude":"30.670105","longitude":"-88.1057892","name":"Dicks Sporting Goods-Mobile,AL","address":"[Mcgowin Park], 1390 Tingle Circle, Mobile,AL 36606, (251) 450-1334"},{"latitude":"32.364021","longitude":"-86.148785","name":"Dicks Sporting Goods-Montgomery,AL","address":"[East Chase], 7861 Eastchase Parkway, Montgomery,AL 36117, (334) 277-8180"},{"latitude":"32.618154","longitude":"-85.408201","name":"Dicks Sporting Goods-Opelika,AL","address":"[Tiger Town], 2718 Enterprise Drive, Opelika,AL 36801, (334) 749-8123"},{"latitude":"33.610952","longitude":"-85.780563","name":"Dicks Sporting Goods-Oxford,AL","address":"[Oxford Exchange], 1500 Oxford Exchange, Oxford,AL 36203, (256) 831-7739"},{"latitude":"33.2001948","longitude":"-87.5255153","name":"Dicks Sporting Goods-Tuscaloosa,AL","address":"[Shoppes at Legacy Park], 1320 Mcfarland Blvd E, Tuscaloosa,AL 35404, (205) 535-3006"},{"latitude":"35.087193","longitude":"-92.412723","name":"Dicks Sporting Goods-Conway,AR","address":"[Conway Commons], 620 Elsinger Boulevard, Conway,AR 72032, (501) 336-0700"},{"latitude":"35.33842","longitude":"-94.389064","name":"Dicks Sporting Goods-Fort Smith,AR","address":"[Fort Smith Pavilion], 3825 Phoenix Avenue, Fort Smith,AR 72903, (479) 646-8900"},{"latitude":"34.467855","longitude":"-93.069626","name":"Dicks Sporting Goods-Hot Springs,AR","address":"[Fairground Crossing], 1420 Higdon Ferry Road, Hot Springs,AR 71913, (501) 624-0200"},{"latitude":"33.307887","longitude":"-111.746871","name":"Dicks Sporting Goods-Gilbert,AZ","address":"[San Tan Village], 2269 San Tan Village Parkway, Gilbert,AZ 85295, (480) 899-3993"},{"latitude":"33.639683","longitude":"-112.224067","name":"Dicks Sporting Goods-Glendale,AZ","address":"[Arrowhead Towne Center], 7680 West Arrowhead Towne Center, Glendale,AZ 85308, (623) 334-8366"},{"latitude":"33.393005","longitude":"-111.862738","name":"Dicks Sporting Goods-Mesa,AZ","address":"[Fiesta Mall], 1455 West Southern Avenue, Mesa,AZ 85202, (480) 615-2748"},{"latitude":"32.421795","longitude":"-110.936925","name":"Dicks Sporting Goods-Oro Valley,AZ","address":"[Oro Valley Marketplace], 11935 North Oracle Road, Oro Valley,AZ 85737, (520) 742-0792"},{"latitude":"33.712967","longitude":"-112.109443","name":"Dicks Sporting Goods-Phoenix,AZ","address":"[The Shops At Norterra], 2350 West Happy Valley Road, Phoenix,AZ 85085, (623) 434-3388"},{"latitude":"33.657599","longitude":"-111.930377","name":"Dicks Sporting Goods-Phoenix,AZ","address":"[E Mayo Blvd], 7000 E Mayo Blvd, Phoenix,AZ 85054, (none listed)"},{"latitude":"34.576389","longitude":"-112.365419","name":"Dicks Sporting Goods-Prescott Valley,AZ","address":"[Prescott Valley Crossroads], 5715 E State Route 69, Prescott Valley,AZ 86314, (928) 776-0499"},{"latitude":"33.5023651","longitude":"-111.9288249","name":"Dicks Sporting Goods-Scottsdale,AZ","address":"[Scottsdale Fashion Center], 7014 E Camelback Rd, Scottsdale,AZ 85251, (480) 240-4409"},{"latitude":"33.337249","longitude":"-111.968928","name":"Dicks Sporting Goods-Tempe,AZ","address":"[Emerald Center], 8550 South Emerald Drive, Tempe,AZ 85284, (480) 592-0938"},{"latitude":"32.2212193","longitude":"-110.8561076","name":"Dicks Sporting Goods-Tuscon,AZ","address":"[Wilmont Plaza], 6327 E Broadway Blvd, Tucson,AZ 85710, (520) 203-0016"},{"latitude":"35.383568","longitude":"-119.105057","name":"Dicks Sporting Goods-Bakersfield,CA","address":"[Northwest Promenade], 9300 Rosedale Hwy, Bakersfield,CA 93312, (661) 588-8100"},{"latitude":"33.8586998","longitude":"-118.0923233","name":"Dicks Sporting Goods-Cerritos,CA","address":"[Los Cerritos Center], 435 Los Cerritos Center [Ste F17], Cerritos,CA 90703, (562) 376-9087"},{"latitude":"39.727208","longitude":"-121.806624","name":"Dicks Sporting Goods-Chico,CA","address":"[Chico Mall] 1922 E 20th St, Chico,CA 95928, (530) 343-3351"},{"latitude":"33.997263","longitude":"-117.716669","name":"Dicks Sporting Goods-Chino,CA","address":"[Spectrum Marketplace], 4044 Grand Avenue, Chino,CA 91710, (909) 590-7626"},{"latitude":"36.837538","longitude":"-119.695384","name":"Dicks Sporting Goods-Clovis,CA","address":"[Clovis Shopping Centre], 1225 Herndon Avenue, Clovis,CA 29233, (559) 322-4628"},{"latitude":"37.669225","longitude":"-122.4698071","name":"Dicks Sporting Goods-Daly City,CA","address":"[Serramonte Mall], 64 Serramonte Center, Daly City,CA 94015, (415) 325-4109"},{"latitude":"37.7057","longitude":"-121.874639","name":"Dicks Sporting Goods-Dublin,CA","address":"[Fallon Gateway] 2820 Dublin Blvd, Dublin,CA 94568, (925) 479-0680"},{"latitude":"32.807562","longitude":"-116.968868","name":"Dicks Sporting Goods-El Cajon,CA","address":"[Parkway Plaza], 565 Fletcher Parkway, El Cajon,CA 92020, (619) 447-0191"},{"latitude":"33.90561","longitude":"-118.396047","name":"Dicks Sporting Goods-El Segundo,CA","address":"[Plaza El Segundo], 770 South Sepulveda Blvd, El Segundo,CA 90245, (310) 726-9123"},{"latitude":"33.108437","longitude":"-117.097226","name":"Dicks Sporting Goods-Escondido,CA","address":"[Escondido Promenade], 1200 Auto Park Way, Escondido,CA 92029, (760) 233-2700"},{"latitude":"37.5007937","longitude":"-121.9692982","name":"Dicks Sporting Goods-Fremont,CA","address":"[Pacific Commons], 43923 Pacific Commons Blvd, Fremont,CA 94538, (510) 897-6475"},{"latitude":"36.80839","longitude":"-119.85276","name":"Dicks Sporting Goods-Fresno,CA","address":"[Arbor Faire], 3380 West Shaw Avenue, Fresno,CA 93711, (559) 271-2701"},{"latitude":"34.1460075","longitude":"-118.2566986","name":"Dicks Sporting Goods-Glendale,CA","address":"[Glendale Galleria], 200 West Broadway, Glendale,CA 91210, (818) 476-5960"},{"latitude":"37.6518597","longitude":"-122.0992861","name":"Dicks Sporting Goods-Hayward,CA","address":"[Southland Mall], 549 Southland Mall, Hayward,CA 94545, (510) 695-2117"},{"latitude":"33.730086","longitude":"-117.996488","name":"Dicks Sporting Goods-Huntington Beach,CA","address":"[Edinger Plaza], 7542 Edinger Avenue, Huntington Beach,CA 92647, (714) 847-3179"},{"latitude":"33.56476","longitude":"-117.62885","name":"Dicks Sporting Goods-Ladera Ranch,CA","address":"[Ladera Ranch], 27502 Antonio Parkway #B, Ladera Ranch,CA 92694, (949) 365-1278"},{"latitude":"33.601655","longitude":"-117.691414","name":"Dicks Sporting Goods-Laguna Hills,CA","address":"[Laguna Hills Plaza Shopping Center], 24821 Alicia Parkway, Laguna Hills,CA 92653, (949) 472-8180"},{"latitude":"38.0981391","longitude":"-121.2662081","name":"Dicks Sporting Goods-Lodi,CA","address":"[Reynolds Ranch], 2770 Reynolds Ranch Parkway, Lodi,CA 95240, (209) 368-2328"},{"latitude":"37.414707","longitude":"-121.899132","name":"Dicks Sporting Goods-Miliptas,CA","address":"[The Great Mall of the Bay Area], 1200 Great Mall Dr, Miliptas,CA 95035, none listed"},{"latitude":"37.6883076","longitude":"-121.0499167","name":"Dicks Sporting Goods-Modesto,CA","address":"[Vintage Faire Mall], 3401 Dale Road, Modesto,CA 95356, (209) 578-1215"},{"latitude":"34.278972","longitude":"-118.891837","name":"Dicks Sporting Goods-Moorpark,CA","address":"[Moorpark], 706 Los Angeles Avenue, Moorpark,CA 93021, (805) 978-4091"},{"latitude":"37.1545334","longitude":"-121.6516571","name":"Dicks Sporting Goods-Morgan Hill,CA","address":"[Cochrane Commons], 1007 Cochrane Road, Morgan Hill,CA 95037, (408) 763-4779"},{"latitude":"33.556435","longitude":"-117.177105","name":"Dicks Sporting Goods-Murrieta,CA","address":"[Murrieta], 40404 Murrieta Hot Springs Road, Murrieta,CA 92563, (951) 691-5401"},{"latitude":"33.614576","longitude":"-117.872784","name":"Dicks Sporting Goods-Newport Beach,CA","address":"[Fashion Island Shopping Center], 435 Newport Center Drive, Newport Beach,CA 92660, (949) 640-1107"},{"latitude":"33.179996","longitude":"-117.295288","name":"Dicks Sporting Goods-Oceanside,CA","address":"[College Boulevard], 3514 College Blvd, Oceanside,CA 92056, (760) 945-5444"},{"latitude":"34.232264","longitude":"-119.176319","name":"Dicks Sporting Goods-Oxnard,CA","address":"[Esplande Center], 231 W Esplande Drive, Oxnard,CA 29232, (805) 973-1260"},{"latitude":"33.721647","longitude":"-116.3945","name":"Dicks Sporting Goods-Palm Desert,CA","address":"[Westfield Palm Desert], 72-840 Highway 111, Palm Desert,CA 92260, (760) 340-3526"},{"latitude":"34.6032562","longitude":"-118.1537247","name":"Dicks Sporting Goods-Palmdale,CA","address":"[Antelope Valley Mall], 1301 W Rancho Vista Blvd, Palmdale,CA 93550, (661) 225-8019"},{"latitude":"34.150112","longitude":"-118.080796","name":"Dicks Sporting Goods-Pasadena,CA","address":"[Hastings Village], 3359 E Foothill Boulevard, Pasadena,CA 91107, (626) 351-1843"},{"latitude":"38.243715","longitude":"-122.630139","name":"Dicks Sporting Goods-Petaluma,CA","address":"[East Washington Place], 401 Kenilworth Dr, Petaluma,CA 94952, (707) 763-3750"},{"latitude":"37.9421806","longitude":"-122.0583496","name":"Dicks Sporting Goods-Pleasant Hill,CA","address":"[The Crossroads], 2314 Monument Blvd, Pleasant Hill,CA 94523, (925) 222-3508"},{"latitude":"40.592993","longitude":"-122.354464","name":"Dicks Sporting Goods-Redding,CA","address":"[Redding Hilltop Center], 875 Browning Street, Redding,CA 96003, (530) 221-1399"},{"latitude":"36.699201","longitude":"-121.6677","name":"Dicks Sporting Goods-Salinas,CA","address":"[Westridge Center], 1223 N Davis Road, Salinas,CA 93907, (831) 751-9019"},{"latitude":"32.753041","longitude":"-117.208719","name":"Dicks Sporting Goods-San Diego,CA","address":"[Sports Arena Square], 3265 Sports Arena Blvd, San Diego,CA 92110, (619) 523-0975"},{"latitude":"35.25313","longitude":"-120.687696","name":"Dicks Sporting Goods-San Luis Obispo,CA","address":"[Prefumo Creek Commons], 11970 Los Osos Valley Road, San Luis Obispo,CA 93405, (805) 545-0740"},{"latitude":"34.415643","longitude":"-118.50543","name":"Dicks Sporting Goods-Santa Clarita,CA","address":"[Soledad Crossing], 26591 Carl Boyer Drive, Santa Clarita,CA 91350, (661) 253-9231"},{"latitude":"38.45605","longitude":"-122.72747","name":"Dicks Sporting Goods-Santa Rosa,CA","address":"[Coddingtown Mall], 1975 Cleveland Ave, Santa Rosa,CA 95401, (707) 763-3750"},{"latitude":"37.9983348","longitude":"-121.3153321","name":"Dicks Sporting Goods-Stockton,CA","address":"[Sherwood Mall], 5354 Pacific Ave, Stockton,CA 95207, (209) 992-5745"},{"latitude":"37.366673","longitude":"-122.029235","name":"Dicks Sporting Goods-Sunnyvale,CA","address":"[El Camino Real], 125 East El Camino Real, Sunnyvale,CA 94087, (480) 498-4293"},{"latitude":"37.5148505","longitude":"-120.8780428","name":"Dicks Sporting Goods-Turlock,CA","address":"[Monte Vista Crossings], 2711 Countryside Dr, Turlock,CA 95380, (209) 216-4385"},{"latitude":"33.725725","longitude":"-117.795027","name":"Dicks Sporting Goods-Tustin,CA","address":"[The Market Place], 2771 El Camino Real, Tustin,CA 92782, (714) 731-1300"},{"latitude":"34.132656","longitude":"-117.638015","name":"Dicks Sporting Goods-Upland,CA","address":"[Colonies Crossroads], 1939 North Campus Avenue, Upland,CA 91784, (909) 946-7192"},{"latitude":"34.47044","longitude":"-117.343929","name":"Dicks Sporting Goods-Victorville,CA","address":"[The Mall Of Victor Valley], 14500 Bear Valley Road, Victorville,CA 92392, (760) 245-4151"},{"latitude":"36.297927","longitude":"-119.313753","name":"Dicks Sporting Goods-Visalia,CA","address":"[Gateway Plaza], 3637 S Mooney Blvd, Visalia,CA 93277, (559) 636-0633"},{"latitude":"34.072852","longitude":"-117.886353","name":"Dicks Sporting Goods-West Covina,CA","address":"[Westfield Eastland Shopping Center], 2753 Eastland Center Drive, West Covina,CA 91791, (626) 331-8227"},{"latitude":"33.873589","longitude":"-117.735925","name":"Dicks Sporting Goods-Yorba Linda,CA","address":"[Savi Ranch], 23081 Savi Ranch Parkway, Yorba Linda,CA 92887, (714) 685-7802"},{"latitude":"39.694608","longitude":"-104.863206","name":"Dicks Sporting Goods-Aurora,CO","address":"[Gardens On Havana], 1200 S Ironton Street, Aurora,CO 80012, (303) 755-0410"},{"latitude":"39.59333","longitude":"-104.810099","name":"Dicks Sporting Goods-Aurora,CO","address":"[Cornerstar], 15400 East Briarwood Circle Unit A, Aurora,CO 80016, (303) 617-7930"},{"latitude":"39.953535","longitude":"-104.778959","name":"Dicks Sporting Goods-Brighton,CO","address":"[Prairie Center], 2269 Prairie Center Parkway, Brighton,CO 80601, (720) 685-1701"},{"latitude":"39.929079","longitude":"-105.132084","name":"Dicks Sporting Goods-Broomfield,CO","address":"[Flatiron Crossing], 31 West Flatiron Crossing Drive, Broomfield,CO 80021, (720) 887-0900"},{"latitude":"39.593472","longitude":"-104.963896","name":"Dicks Sporting Goods-Centennial,CO","address":"[The Streets Of Southglenn], 6737 S Vine Street, Centennial,CO 80122, (303) 797-3360"},{"latitude":"38.945218","longitude":"-104.795821","name":"Dicks Sporting Goods-Colorado Springs,CO","address":"[Chapel Hills Mall], 1710 Briar Gate Blvd, Colorado Springs,CO 80920, (719) 264-1810"},{"latitude":"38.87961","longitude":"-104.717279","name":"Dicks Sporting Goods-Colorado Springs,CO","address":"[First And Main Tower Center], 3133 Cinema Point, Colorado Springs,CO 80922, (719) 638-3400"},{"latitude":"39.70923","longitude":"-105.078544","name":"Dicks Sporting Goods-Lakewood,CO","address":"[Belmar Center], 7313 West Alaska Drive, Lakewood,CO 80226, (303) 600-2600"},{"latitude":"39.609838","longitude":"-105.094763","name":"Dicks Sporting Goods-Littleton,CO","address":"[Southwest Plaza], 8501 West Bowles Avenue, Littleton,CO 80123, (720) 981-0618"},{"latitude":"39.56067","longitude":"-104.879412","name":"Dicks Sporting Goods-Littleton,CO","address":"[Park Meadows Mall], 8435 Park Meadows Center Drive, Littleton,CO 80124, (720) 479-0600"},{"latitude":"40.153598","longitude":"-105.097376","name":"Dicks Sporting Goods-Longmont,CO","address":"[Harvest Junction], 210 Ken Pratt Blvd, Longmont,CO 80501, (303) 682-5740"},{"latitude":"40.410677","longitude":"-104.987782","name":"Dicks Sporting Goods-Loveland,CO","address":"[Promenade Shops At Centerra], 5875 Sky Pond Drive, Loveland,CO 80537, (970) 461-9762"},{"latitude":"39.99541","longitude":"-104.978132","name":"Dicks Sporting Goods-Thornton,CO","address":"[Larkridge Shopping Center], 16521 Washington Street, Thornton,CO 80023, (303) 280-6153"},{"latitude":"41.824169","longitude":"-72.884407","name":"Dicks Sporting Goods-Canton,CT","address":"[Shoppes At Farmington Valley], 110 Albany Turnpike, Canton,CT 06019, (860) 693-1619"},{"latitude":"41.378577","longitude":"-73.477054","name":"Dicks Sporting Goods-Danbury,CT","address":"[Danbury Fair Mall], 7 Backus Avenue, Danbury,CT 06810, (203) 730-0164"},{"latitude":"41.99819","longitude":"-72.57815","name":"Dicks Sporting Goods-Enfield,CT","address":"[State Line Plaza], 130 Elm Street, Enfield,CT 06082, (860) 253-9475"},{"latitude":"41.585463","longitude":"-71.993281","name":"Dicks Sporting Goods-Lisbon,CT","address":"[Lisbon Landing], 170 River Road Suite 2, Lisbon,CT 06351, (860) 376-4141"},{"latitude":"41.803912","longitude":"-72.547082","name":"Dicks Sporting Goods-Manchester,CT","address":"[The Pavilions At Buckland Hills], 179 Pavillion Drive, Manchester,CT 06040, (860) 648-4044"},{"latitude":"41.550322","longitude":"-72.803704","name":"Dicks Sporting Goods-Meriden,CT","address":"[Westfield Shoppingtown Meriden], 470 Lewis Avenue, Meriden,CT 06451, (203) 686-0462"},{"latitude":"41.236772","longitude":"-73.038501","name":"Dicks Sporting Goods-Milford,CT","address":"[Westfield Shoppington Center], 1201 Boston Post Road, Milford,CT 06460, (203) 876-0477"},{"latitude":"41.667567","longitude":"-72.719157","name":"Dicks Sporting Goods-Newington,CT","address":"[Turnpike Plaza], 2985 Berlin Turnpike, Newington,CT 06111, (860) 666-3877"},{"latitude":"41.3555653","longitude":"-72.8717988","name":"Dicks Sporting Goods-North Haven,CT","address":"[Home Depot Plaza], 411 Universal Drive North, North Haven,CT 06473, (203) 836-2860"},{"latitude":"41.100904","longitude":"-73.441542","name":"Dicks Sporting Goods-Norwalk,CT","address":"[Connecticut Ave], 444 Connecticut Ave, Norwalk,CT 06854, (283) 642-2083"},{"latitude":"41.675775","longitude":"-72.840326","name":"Dicks Sporting Goods-Plainville,CT","address":"[Connecticut Commons], 280 New Britain Avenue, Plainville,CT 06062, (860) 747-2102"},{"latitude":"41.380871","longitude":"-72.152395","name":"Dicks Sporting Goods-Waterford,CT","address":"[Waterford Commons], 915 Hartford Turnpike #A1, Waterford,CT 06385, (860) 447-2886"},{"latitude":"38.9216731","longitude":"-76.9522461","name":"Dicks Sporting Goods-Washington,DC","address":"[The Shops At Dakota Crossing], 2470 Market Street Ne, Washington,DC 20018, (202) 971-8214"},{"latitude":"39.19111","longitude":"-75.542959","name":"Dicks Sporting Goods-Dover,DE","address":"[Dover Mall], 1365 N Dupont Highway, Dover,DE 19901, (302) 678-9160"},{"latitude":"39.673285","longitude":"-75.651084","name":"Dicks Sporting Goods-Newark,DE","address":"[Christiana Center], 100 Center Drive, Newark,DE 19702, (302) 738-8322"},{"latitude":"39.830705","longitude":"-75.534377","name":"Dicks Sporting Goods-Wilmington,DE","address":"[Brandywine Towne Center], 1000 Brandywine Parkway, Wilmington,DE 19803, (302) 477-9577"},{"latitude":"26.372399","longitude":"-80.2036802","name":"Dicks Sporting Goods-Boca Raton,FL","address":"[Mission Bay Plaza], 20429 South SR 7, Boca Raton,FL 33498, (561) 288-4044"},{"latitude":"26.532226","longitude":"-80.090674","name":"Dicks Sporting Goods-Boynton Beach,FL","address":"[Boynton Festive Center], 515 N Congress Ave, Boynton Beach,FL 33426, (561) 734-7771"},{"latitude":"27.464348","longitude":"-82.575349","name":"Dicks Sporting Goods-Bradenton,FL","address":"[Centre Point Commons], 4108 14Th Street West, Bradenton,FL 34205, (941) 751-6900"},{"latitude":"27.932781","longitude":"-82.32834","name":"Dicks Sporting Goods-Brandon,FL","address":"[Brandon Town Center], 901 Brandon Towne Center Mall, Brandon,FL 33511, (813) 684-3100"},{"latitude":"28.5334642","longitude":"-82.512865","name":"Dicks Sporting Goods-Brooksville,FL","address":"[Cortez Commons]. 12936 Cortez Blvd, Brooksville,FL 34613, (352) 200-5716"},{"latitude":"28.0136","longitude":"-82.735231","name":"Dicks Sporting Goods-Clearwater,FL","address":"[Countryside Center], 26583 Hwy 19 North, Clearwater,FL 33761, (727) 791-8580"},{"latitude":"28.5454597","longitude":"-81.7320175","name":"Dicks Sporting Goods-Clermont,FL","address":"[Sandhills Commons], 1325 Sandy Grove Ave, Clermont,FL 34711, (352) 404-5354"},{"latitude":"26.2381082","longitude":"-80.246513","name":"Dicks Sporting Goods-Coral Springs,FL","address":"[The Plaza at Coral Springs], 8921 W Atlantic Blvd, Coral Springs,FL 33071, (754) 484-3423"},{"latitude":"28.226677","longitude":"-81.64357","name":"Dicks Sporting Goods-Davenport,FL","address":"[Posner Town Center], 1300 Posner Blvd, Davenport,FL 33837, (863) 424-4444"},{"latitude":"29.179876","longitude":"-81.080402","name":"Dicks Sporting Goods-Daytona Beach,FL","address":"[International Speedway Square], 2500 W International Speedway Blvd, Daytona Beach,FL 32114, (386) 255-5533"},{"latitude":"26.157833","longitude":"-80.117224","name":"Dicks Sporting Goods-Fort Lauderdale,FL","address":"[Regions Bank Plaza], 2420 North Federal Hwy, Fort Lauderdale,FL 33305, (954) 566-1448"},{"latitude":"26.6968307","longitude":"-81.9008179","name":"Dicks Sporting Goods-Fort Myers,FL","address":"[Page Field Commons], 4977 Cleveland Ave, Fort Myers,FL 33907, (239) 362-9575"},{"latitude":"26.485471","longitude":"-81.791926","name":"Dicks Sporting Goods-Fort Myers,FL","address":"[Gulf Coast Town Center], 10011 Gulf Center Drive, Fort Myers,FL 33913, (239) 433-0216"},{"latitude":"29.6282207","longitude":"-82.3825867","name":"Dicks Sporting Goods-Gainesville,FL","address":"[Butler North], 3964 Plaza Blvd, Gainesville,FL 32608, (352) 377-3316"},{"latitude":"30.453207","longitude":"-81.660566","name":"Dicks Sporting Goods-Jacksonville,FL","address":"[Parkway Shops] 14964 Max Leggett Pkwy, Jacksonville,FL 32218, (904) 757-9602"},{"latitude":"30.257776","longitude":"-81.525495","name":"Dicks Sporting Goods-Jacksonville,FL","address":"[St Johns Town Center], 10390 Milltown Parkway, Jacksonville,FL 32246, (904) 642-4299"},{"latitude":"27.241834","longitude":"-80.269823","name":"Dicks Sporting Goods-Jensen Beach,FL","address":"[Treasurt Coast Commons], 3101 NW Federal Hwy, Jensen Beach,FL 34957, (none listed)"},{"latitude":"28.0879359","longitude":"-81.9680534","name":"Dicks Sporting Goods-Lakeland,FL","address":"[Lakeland Park Center], 919 Lakeland Park Center Dr [Ste 300], Lakeland,FL 33809, (863) 248-1200"},{"latitude":"28.078949","longitude":"-80.649289","name":"Dicks Sporting Goods-Melbourne,FL","address":"[Melbourne Square], 1700 W New Haven Avenue, Melbourne,FL 32904, (321) 984-4012"},{"latitude":"25.69081","longitude":"-80.38468","name":"Dicks Sporting Goods-Miami,FL","address":"[The Palms At Town & Country], 11900 Mills Drive, Miami,FL 33183, (305) 595-9410"},{"latitude":"26.2172212","longitude":"-81.7746071","name":"Dicks Sporting Goods-Naples,FL","address":"[Naples], 5955 Naples Blvd, Naples,FL 34109, (239) 325-6456"},{"latitude":"29.141162","longitude":"-82.194126","name":"Dicks Sporting Goods-Ocala,FL","address":"[Market Street At Heathbrook], 4414 Sw College Road Suite 1800, Ocala,FL 34474, (352) 237-7672"},{"latitude":"30.18684","longitude":"-81.735858","name":"Dicks Sporting Goods-Orange Park,FL","address":"[Orange Park Mall], 1910 Wells Road, Orange Park,FL 32073, (904) 215-0207"},{"latitude":"28.496185","longitude":"-81.42875","name":"Dicks Sporting Goods-Orlando,FL","address":"[Millenia Expo], 4615 Millenia Plaza Way, Orlando,FL 32839, (407) 355-0733"},{"latitude":"28.4496861","longitude":"-81.4008171","name":"Dicks Sporting Goods-Orlando,FL","address":"[Florida Mall], 8001 S Orange Blossom Trail, Orlando,FL 32809, (321) 445-4286"},{"latitude":"28.554623","longitude":"-81.338226","name":"Dicks Sporting Goods-Orlando,FL","address":"[Fashion Square Mall], 724 Herndon Ave, Orlando,FL 32803, (321) 332-9991"},{"latitude":"28.558796","longitude":"-81.207196","name":"Dicks Sporting Goods-Orlando,FL","address":"[Shoppes At Alafaya], 1100 Alafaya Trail, Orlando,FL 32828, (407) 380-9066"},{"latitude":"30.227773","longitude":"-85.880425","name":"Dicks Sporting Goods-Panama City Beach,FL","address":"[Pier Park North], 15700 Panama City Beach Park, Panama City Beach,FL 32413, (850) 238-3322"},{"latitude":"26.007642","longitude":"-80.307679","name":"Dicks Sporting Goods-Pembroke,FL","address":"[Pembroke Crossings], 11940 Pines Blvd, Pembroke,FL 33026, (954) 430-5873"},{"latitude":"30.474467","longitude":"-87.211556","name":"Dicks Sporting Goods-Pensacola,FL","address":"[Pensacola Cordova Mall] 5100 N 9th Ave, Pensacola,FL 32504, (850) 478-9605"},{"latitude":"26.109769","longitude":"-80.25037","name":"Dicks Sporting Goods-Plantation,FL","address":"[The Fountains], 801 S University Drive, Plantation,FL 33324, (954) 472-8855"},{"latitude":"28.80207","longitude":"-81.341519","name":"Dicks Sporting Goods-Sanford,FL","address":"[Seminole Towne Center], 350 Towne Center Circle, Sanford,FL 32771, (407) 324-5800"},{"latitude":"30.432731","longitude":"-84.250986","name":"Dicks Sporting Goods-Tallahassee,FL","address":"[Tallahassee Shopping Center], 1729 Apalachee Parkway, Tallahassee,FL 32301, (850) 309-0490"},{"latitude":"28.066782","longitude":"-82.576307","name":"Dicks Sporting Goods-Tampa,FL","address":"[Westfield Citrus Park], 8100 Citrus Park Town Center, Tampa,FL 33625, (813) 920-5700"},{"latitude":"27.94672","longitude":"-82.529796","name":"Dicks Sporting Goods-Tampa,FL","address":"[Westshore Plaza], 258 Westshore Plaza, Tampa,FL 33609, (813) 422-5132"},{"latitude":"28.243841","longitude":"-82.352444","name":"Dicks Sporting Goods-Wesley Chapel,FL","address":"[Wesley Chapel], 5925 Wesley Grove Blvd, Wesley Chapel,FL 33543, (813) 991-1618"},{"latitude":"26.680098","longitude":"-80.187727","name":"Dicks Sporting Goods-West Palm Beach,FL","address":"[Southern Crossing], 8821 Southern Blvd, West Palm Beach,FL 33411, (561) 204-4133"},{"latitude":"34.045685","longitude":"-84.292797","name":"Dicks Sporting Goods-Alpharetta,GA","address":"[North Point Mall], 6440 North Point Parkway, Alpharetta,GA 30022, (770) 521-1195"},{"latitude":"33.9425","longitude":"-83.4235","name":"Dicks Sporting Goods-Athens,GA","address":"[Epps Bridge Center], 1791 Oconee Connector, Athens,GA 30606, (706) 227-4077"},{"latitude":"33.852499","longitude":"-84.360461","name":"Dicks Sporting Goods-Atlanta,GA","address":"[Lenox Marketplace], 3535 Peachtree Road, Atlanta,GA 30326, (404) 267-0200"},{"latitude":"33.467308","longitude":"-82.080688","name":"Dicks Sporting Goods-Augusta,GA","address":"[Augusta Mall], 3450 Wrightsboro Road, Augusta,GA 30909, (706) 733-1199"},{"latitude":"31.204075","longitude":"-81.481185","name":"Dicks Sporting Goods-Brunswick,GA","address":"[Glynn Isles], 440 Glynn Isles, Brunswick,GA 31525, (912) 262-2433"},{"latitude":"34.068917","longitude":"-83.985337","name":"Dicks Sporting Goods-Buford,GA","address":"[Mall Of Georgia At Millcreek], 3333 Buford Drive, Buford,GA 30519, (678) 482-1200"},{"latitude":"34.237844","longitude":"-84.45944","name":"Dicks Sporting Goods-Canton,GA","address":"[Canton Marketplace], 1810 Cumming Highway, Canton,GA 30114, (770) 345-1218"},{"latitude":"32.544248","longitude":"-84.946841","name":"Dicks Sporting Goods-Columbus Park,GA","address":"[Columbus Park Crossing], 5550 Whittlesey Blvd, Columbus Park,GA 31909, (706) 320-0179"},{"latitude":"34.19233","longitude":"-84.128332","name":"Dicks Sporting Goods-Cumming,GA","address":"[Cumming Town Center], 2145 Marketplace Blvd, Cumming,GA 30040, (770) 292-9834"},{"latitude":"33.480523","longitude":"-84.446689","name":"Dicks Sporting Goods-Fayetteville,GA","address":"[Fayette Pavilion], 305 A Pavillion Parkway, Fayetteville,GA 30214, (678) 817-0676"},{"latitude":"34.29579","longitude":"-83.84376","name":"Dicks Sporting Goods-Gainesville,GA","address":"[Lakeshore Mall], 150 Pearl Nix Parkway, Gainesville,GA 30501, (770) 534-4730"},{"latitude":"31.807868","longitude":"-81.603882","name":"Dicks Sporting Goods-Hinesville,GA","address":"[Oglethorpe Square], 863 Oglethorpe Hwy, Hinesville,GA 31313, (912) 369-0701"},{"latitude":"34.004803","longitude":"-84.571883","name":"Dicks Sporting Goods-Kennesaw,GA","address":"[Town Center Commons], 691 Ernest W Barrett Parkway Nw, Kennesaw,GA 30144, (770) 281-0200"},{"latitude":"33.846485","longitude":"-83.911906","name":"Dicks Sporting Goods-Loganville,GA","address":"[North Logan Commons], 4040 Atlanta Highway, Loganville,GA 30052, (770) 466-1333"},{"latitude":"32.929319","longitude":"-83.713837","name":"Dicks Sporting Goods-Macon,GA","address":"[The Shoppes At River Crossing], 5080 Riverside Drive, Macon,GA 31210, (478) 477-6777"},{"latitude":"33.9859772","longitude":"-84.4261169","name":"Dicks Sporting Goods-Marietta,GA","address":"[East Cobb Crossing], 4269 Roswell Rd, Marietta,GA 30062, (678) 433-0010"},{"latitude":"33.464392","longitude":"-84.217831","name":"Dicks Sporting Goods-Mcdonough,GA","address":"[Southpoint], 1855 Jonesboro Road, Mcdonough,GA 30253, (770) 957-4336"},{"latitude":"33.389839","longitude":"-84.762645","name":"Dicks Sporting Goods-Newnan,GA","address":"[The Village At Newnan Crossing], 382 Newnan Crossing Bypass, Newnan,GA 30264, (770) 253-1501"},{"latitude":"33.953525","longitude":"-84.233583","name":"Dicks Sporting Goods-Norcross,GA","address":"[Peachtree Square], 6050 Peachtree Parkway Suite 450, Norcross,GA 30092, (770) 613-0077"},{"latitude":"32.0038122","longitude":"-81.1131079","name":"Dicks Sporting Goods-Savannah,GA","address":"[Market Walk], 318 Mall Blvd, Savannah,GA 31406, (912) 480-9037"},{"latitude":"40.8169403","longitude":"-91.1391144","name":"Dicks Sporting Goods-Burlington,IA","address":"[Burlington Commons], 3200 Agency St, Burlington,IA 52601, (319) 237-3447"},{"latitude":"42.024006","longitude":"-91.624309","name":"Dicks Sporting Goods-Cedar Rapids,IA","address":"[Market Place], 4601 1St Avenue Se, Cedar Rapids,IA 52402, (319) 743-3066"},{"latitude":"41.2204034","longitude":"-95.8371165","name":"Dicks Sporting Goods-Council Bluffs,IA","address":"[Metro Crossing], 3816 Metro Drive, Council Bluffs,IA 51501, (712) 435-3142"},{"latitude":"41.573862","longitude":"-90.528597","name":"Dicks Sporting Goods-Davenport,IA","address":"[Elmore Plaza], 5250 Elmore Avenue, Davenport,IA 52807, (563) 441-7500"},{"latitude":"41.578335","longitude":"-90.525526","name":"Dicks Sporting Goods-Davenport,IA","address":"[Davenport Commons], 5511 Elmore Ave, Davenport,IA 52807, (563) 355-7042"},{"latitude":"42.495155","longitude":"-90.718809","name":"Dicks Sporting Goods-Dubuque,IA","address":"[Kennedy Mall], 555 John F Kennedy Road, Dubuque,IA 52002, (563) 557-6130"},{"latitude":"42.459996","longitude":"-92.328595","name":"Dicks Sporting Goods-Waterloo,IA","address":"[Crossroads Commons], 1411 Flammang Drive, Waterloo,IA 50702, (319) 287-5722"},{"latitude":"41.560864","longitude":"-93.80925","name":"Dicks Sporting Goods-West Des Moines,IA","address":"[Jordan Creek], 320 South Jordan Creek Parkway, West Des Moines,IA 50266, (515) 225-6230"},{"latitude":"43.606243","longitude":"-116.282913","name":"Dicks Sporting Goods-Boise,ID","address":"[Westpark Town Plaza], 131 N Milwaukee St, Boise,ID 83704, (208) 999-3475"},{"latitude":"43.635792","longitude":"-116.354329","name":"Dicks Sporting Goods-Meridian,ID","address":"[Centre Point Marketplace], 3415 N Eagle Road, Meridian,ID 83646, (208) 884-2026"},{"latitude":"43.6142951","longitude":"-116.5951337","name":"Dicks Sporting Goods-Nampa,ID","address":"[Treasure Valley Crossing], 16905 N Marketplace Blvd, Nampa,ID 83687, (208) 546-3433"},{"latitude":"42.906597","longitude":"-112.460585","name":"Dicks Sporting Goods-Pocatello,ID","address":"[Pocatello Square], 1844 Hurley Drive, Pocatello,ID 83201, (208) 238-6002"},{"latitude":"42.594552","longitude":"-114.4632322","name":"Dicks Sporting Goods-Twin Falls,ID","address":"[Canyon Park West], 1939 Fillmore St, Twin Falls,ID 83301, (208) 944-3105"},{"latitude":"42.149008","longitude":"-88.3357","name":"Dicks Sporting Goods-Algonquin,IL","address":"[Algonquin], 1816 Randall Road, Algonquin,IL 60102, (847) 960-7700"},{"latitude":"42.109732","longitude":"-87.977155","name":"Dicks Sporting Goods-Arlington Heights,IL","address":"[Town & Country Shopping Center], 401 E Palatine Road, Arlington Heights,IL 60004, (847) 577-1283"},{"latitude":"41.93911","longitude":"-88.106976","name":"Dicks Sporting Goods-Bloomingdale,IL","address":"[Bloomingdale Court], 328 West Army Trail Road, Bloomingdale,IL 60108, (630) 351-0823"},{"latitude":"40.4903069","longitude":"-88.9559937","name":"Dicks Sporting Goods-Bloomington,IL","address":"[Colonial Plaza], 1608 East Empire Street, Bloomington,IL 61701, (309) 807-1908"},{"latitude":"41.183969","longitude":"-87.851763","name":"Dicks Sporting Goods-Bourbonnais,IL","address":"[Bradley Commons], 2054 N State Route 50, Bourbonnais,IL 60914, (815) 802-0565"},{"latitude":"37.732126","longitude":"-89.191325","name":"Dicks Sporting Goods-Carbondale,IL","address":"[University Place], 1250 East Main Street, Carbondale,IL 62902, (618) 549-7581"},{"latitude":"40.14157","longitude":"-88.257906","name":"Dicks Sporting Goods-Champaign,IL","address":"[Pine Tree Plaza], 2113 North Prospect Avenue, Champaign,IL 61822, (217) 352-4173"},{"latitude":"41.909371","longitude":"-87.6474821","name":"Dicks Sporting Goods-Chicago,IL","address":"[Lincoln Park], 1538 N. Clybourn Avenue, Chicago,IL 60610, (312) 489-2136"},{"latitude":"41.8684787","longitude":"-87.6393248","name":"Dicks Sporting Goods-Chicago,IL","address":"[The Maxwell], 1100 S Canal St, Chicago,IL 60607, (312) 448-2184"},{"latitude":"42.162474","longitude":"-88.060388","name":"Dicks Sporting Goods-Deer Park,IL","address":"[Town Center Promenade], 21830 West Long Grove Road, Deer Park,IL 60010, (847) 550-1527"},{"latitude":"41.894417","longitude":"-88.343653","name":"Dicks Sporting Goods-Geneva,IL","address":"[Geneva Commons], 618 Commons Drive, Geneva,IL 60134, (630) 943-4100"},{"latitude":"42.089678","longitude":"-87.82476","name":"Dicks Sporting Goods-Glenview,IL","address":"[The Glen], 1900 Tower Drive, Glenview,IL 60025, (847) 730-7400"},{"latitude":"41.5745392","longitude":"-88.1527634","name":"Dicks Sporting Goods-Joliet,IL","address":"[Joliet Commons], 2601a Plainfield Road, Joliet,IL 60435, (815) 230-1075"},{"latitude":"41.840146","longitude":"-87.997825","name":"Dicks Sporting Goods-Lombard,IL","address":"[Fountain Square], 810 E Butterfield Road, Lombard,IL 60148, (630) 317-0200"},{"latitude":"42.367211","longitude":"-88.265222","name":"Dicks Sporting Goods-Mchenry,IL","address":"[Mchenry Square], 3436 Shoppers Drive, Mchenry,IL 60051, (815) 578-8880"},{"latitude":"41.4686526","longitude":"-90.5069516","name":"Dicks Sporting Goods-Moline,IL","address":"[Southpark Mall], 4500 16th St, Moline,IL 61265, (309) 517-2572"},{"latitude":"41.747323","longitude":"-88.202224","name":"Dicks Sporting Goods-Naperville,IL","address":"[Springbrook Prairie Pavillion], 2763 W 75Th Street, Naperville,IL 60540, (630) 548-1476"},{"latitude":"42.011942","longitude":"-87.767752","name":"Dicks Sporting Goods-Niles,IL","address":"[Village Crossing], 5601 Touhy Avenue, Niles,IL 60714, (847) 779-8800"},{"latitude":"40.513338","longitude":"-88.951896","name":"Dicks Sporting Goods-Normal,IL","address":"[Normal], 200 N Greenbriar Drive, Normal,IL 61761, (309) 454-1602"},{"latitude":"41.614102","longitude":"-87.851839","name":"Dicks Sporting Goods-Orland Park,IL","address":"[Orland Park Place], One Orland Park Place Suite 1, Orland Park,IL 60462, (708) 675-3100"},{"latitude":"41.704512","longitude":"-88.307142","name":"Dicks Sporting Goods-Oswego,IL","address":"[Prairie Market], 2470 Us Hwy 34, Oswego,IL 60543, (630) 554-9061"},{"latitude":"40.776664","longitude":"-89.675007","name":"Dicks Sporting Goods-Peoria,IL","address":"[The Shoppes At Grand Prarie], 5205 West War Memorial Drive, Peoria,IL 61615, (309) 683-2400"},{"latitude":"39.9348311","longitude":"-91.3206127","name":"Dicks Sporting Goods-Quincy,IL","address":"[Prairie Trails], 6006 Broadway St, Quincy,IL 62301, (217) 228-7780"},{"latitude":"42.267553","longitude":"-88.991369","name":"Dicks Sporting Goods-Rockford,IL","address":"[Rockford Shopping Center], 6380 E State Street, Rockford,IL 61108, (815) 397-7115"},{"latitude":"42.037949","longitude":"-88.03557","name":"Dicks Sporting Goods-Schaumburg,IL","address":"[Streets Of Woodfield], 601 N Martingale Suite 195, Schaumburg,IL 60173, (847) 995-0200"},{"latitude":"39.764195","longitude":"-89.70354","name":"Dicks Sporting Goods-Springfield,IL","address":"[White Oaks Mall], 2501 W Wabash Avenue, Springfield,IL 62704, (217) 726-6451"},{"latitude":"41.543882","longitude":"-87.796405","name":"Dicks Sporting Goods-Tinley Park,IL","address":"[Tinley Park Town Center], 7370 West 191St, Tinley Park,IL 60477, (815) 806-4952"},{"latitude":"42.2401","longitude":"-87.944542","name":"Dicks Sporting Goods-Vernon Hills,IL","address":"[Fashion Square], 700 N Milwaukee Avenue Unit #121, Vernon Hills,IL 60061, (847) 573-8240"},{"latitude":"41.664286","longitude":"-88.461297","name":"Dicks Sporting Goods-Yorkville,IL","address":"[Kendale Marketplace], 825 Erica Lane, Yorkville,IL 60560, (630) 553-5365"},{"latitude":"39.763712","longitude":"-86.339121","name":"Dicks Sporting Goods-Avon,IN","address":"[Avon Commons], 10375 East Us Highway 36, Avon,IN 46123, (317) 271-7850"},{"latitude":"39.164202","longitude":"-86.494607","name":"Dicks Sporting Goods-Bloomington,IN","address":"[College Mall], 2850 E 3Rd Street, Bloomington,IN 47401, (812) 335-1377"},{"latitude":"39.996911","longitude":"-86.129666","name":"Dicks Sporting Goods-Carmel,IN","address":"[Clay Terrace], 14350 Clay Terrace Blvd, Carmel,IN 46032, (317) 818-3467"},{"latitude":"38.316033","longitude":"-85.758451","name":"Dicks Sporting Goods-Clarksville,IN","address":"[River Falls Mall], 951 E Lewis & Clark Parkway, Clarksville,IN 47129, (812) 288-2194"},{"latitude":"37.976526","longitude":"-87.472678","name":"Dicks Sporting Goods-Evansville,IN","address":"[Evansville Pavilion], 6601 E Lloyd Expressway Suite 2, Evansville,IN 47715, (812) 402-9100"},{"latitude":"41.072366","longitude":"-85.201333","name":"Dicks Sporting Goods-Fort Wayne,IN","address":"[Apple Glen Crossing], 1520 Apple Glen Blvd, Fort Wayne,IN 46804, (260) 434-0181"},{"latitude":"41.118165","longitude":"-85.138425","name":"Dicks Sporting Goods-Fort Wayne,IN","address":"[Fort Wayne], 256-309 Coliseum Blvd, Fort Wayne,IN 46805, (260) 470-4224"},{"latitude":"39.632699","longitude":"-86.124666","name":"Dicks Sporting Goods-Greenwood,IN","address":"[Greenwood Mall], 1251 Us 31 North, Greenwood,IN 46142, (317) 882-1079"},{"latitude":"41.527994","longitude":"-87.471156","name":"Dicks Sporting Goods-Highland,IN","address":"[Highland Grove], 10251 Indianapolis Blvd, Highland,IN 46322, (219) 924-2237"},{"latitude":"39.910732","longitude":"-86.266526","name":"Dicks Sporting Goods-Indianapolis,IN","address":"[Trader'S Point], 6030 West 86Th Street, Indianapolis,IN 46278, (317) 956-1400"},{"latitude":"39.905361","longitude":"-86.064006","name":"Dicks Sporting Goods-Indianapolis,IN","address":"[Castleton Square Mall], 6020 E 82Nd Street, Indianapolis,IN 46250, (317) 576-0300"},{"latitude":"40.392408","longitude":"-86.853925","name":"Dicks Sporting Goods-Lafayette,IN","address":"[Tippecanoe Mall], 2415 Sagamore Parkway South, Lafayette,IN 47905, (765) 449-0914"},{"latitude":"41.470453","longitude":"-87.309403","name":"Dicks Sporting Goods-Merrillville,IN","address":"[Westfield Shoppingtown Southlake], 2225 Southlake Mall, Merrillville,IN 46410, (219) 791-0610"},{"latitude":"41.701298","longitude":"-86.18744","name":"Dicks Sporting Goods-Mishawaka,IN","address":"[Princess City Plaza], 4520 Grape Road, Mishawaka,IN 46545, (574) 243-4789"},{"latitude":"40.2190711","longitude":"-85.3803342","name":"Dicks Sporting Goods-Muncie,IN","address":"[Center Shoppes], 620 E Mcgalliard Rd, Muncie,IN 47303, (765) 212-3677"},{"latitude":"39.990516","longitude":"-85.930746","name":"Dicks Sporting Goods-Noblesville,IN","address":"[Hamilton Town Center], 13157 Norell Lane, Noblesville,IN 46060, (317) 776-1687"},{"latitude":"39.712766","longitude":"-86.358582","name":"Dicks Sporting Goods-Plainfield,IN","address":"[Metropolis Plainfield], 339 Metropolis Mile, Plainfield,IN 46168, (317) 839-4803"},{"latitude":"39.8327484","longitude":"-84.8501282","name":"Dicks Sporting Goods-Richmond,IN","address":"[Richmond Village], 3718 National Road East, Richmond,IN 47374, (765) 373-9607"},{"latitude":"39.775112","longitude":"-85.987186","name":"Dicks Sporting Goods-Washington,IN","address":"[Washington Square], 10202 E Washington Street, Washington,IN 46229, (317) 890-8802"},{"latitude":"38.933418","longitude":"-95.262184","name":"Dicks Sporting Goods-Lawrence,KS","address":"[Lawrence], 2727 Iowa St [Ste C], Lawrence,KS 66046, (785) 312-3317"},{"latitude":"38.914765","longitude":"-94.648965","name":"Dicks Sporting Goods-Leawood,KS","address":"[Town Center Plaza], 11801 Nall Avenue, Leawood,KS 66211, (913) 661-0200"},{"latitude":"39.176069","longitude":"-96.56028","name":"Dicks Sporting Goods-Manhattan,KS","address":"[Manhattan Marketplace], 401 3Rd Place, Manhattan,KS 66502, (785) 539-7800"},{"latitude":"39.027469","longitude":"-94.686474","name":"Dicks Sporting Goods-Merriam,KS","address":"[Merriam Towne Center], 5600 Antioch Road, Merriam,KS 66202, (913) 432-3945"},{"latitude":"38.912848","longitude":"-94.764067","name":"Dicks Sporting Goods-Olathe,KS","address":"[Northridge Plaza], 15280 W 119Th Street, Olathe,KS 66062, (913) 254-9196"},{"latitude":"38.88271","longitude":"-97.612201","name":"Dicks Sporting Goods-Salina,KS","address":"[Midstate Plaza], 2450 9Th Street, Salina,KS 67401, (785) 827-3540"},{"latitude":"39.043654","longitude":"-95.75749","name":"Dicks Sporting Goods-Topeka,KS","address":"[Home Depot Extension], 5900 Sw Huntoon Street, Topeka,KS 66604, (785) 271-5398"},{"latitude":"37.673672","longitude":"-97.39575","name":"Dicks Sporting Goods-Wichita,KS","address":"[Towne West Center], 4600 W Kellogg Drive, Wichita,KS 67209, (316) 942-0910"},{"latitude":"37.720485","longitude":"-97.244581","name":"Dicks Sporting Goods-Wichita,KS","address":"[Tall Grass Center], 2057 N Rock Road, Wichita,KS 67206, (316) 682-6811"},{"latitude":"38.483107","longitude":"-82.659944","name":"Dicks Sporting Goods-Ashland,KY","address":"[Melody Mountain], 469 River Hill Drive, Ashland,KY 41101, (606) 327-5561"},{"latitude":"36.956809","longitude":"-86.432655","name":"Dicks Sporting Goods-Bowling Green,KY","address":"[Gary Farms], 2300 Gary Farms Blvd, Bowling Green,KY 42104, (270) 796-9115"},{"latitude":"39.018129","longitude":"-84.636058","name":"Dicks Sporting Goods-Florence,KY","address":"[Turfway Crossing], 1336 Hansel Avenue Suite 200, Florence,KY 41042, (859) 283-2702"},{"latitude":"38.1744962","longitude":"-84.8191249","name":"Dicks Sporting Goods-Frankfort,KY","address":"[Parkside], 7800 John Davis Dr, Frankfort,KY 40601, (502) 871-3624"},{"latitude":"37.985368","longitude":"-84.526458","name":"Dicks Sporting Goods-Lexington,KY","address":"[Fayette Mall], 3645 Nicholasville Road, Lexington,KY 40503, (859) 273-1642"},{"latitude":"38.023537","longitude":"-84.417748","name":"Dicks Sporting Goods-Lexington,KY","address":"[Hamburg Pavilion], 1968 Pavillion Way, Lexington,KY 40509, (859) 264-8800"},{"latitude":"38.248877","longitude":"-85.607143","name":"Dicks Sporting Goods-Louisville,KY","address":"[Oxmoor Center] 7900 Shelbyville Rd, Louisville,KY 40222, (502) 420-6400"},{"latitude":"38.196404","longitude":"-85.603672","name":"Dicks Sporting Goods-Louisville,KY","address":"[Stoneybrook Shopping Center] 3500 S Hurstbourne Pkwy, Louisville,KY 40299, (502) 499-9029"},{"latitude":"38.298632","longitude":"-85.560201","name":"Dicks Sporting Goods-Louisville,KY","address":"[Springhurst Town Center], 3555 Springhurst Blvd, Louisville,KY 40241, (502) 429-0776"},{"latitude":"39.089424","longitude":"-84.475901","name":"Dicks Sporting Goods-Newport,KY","address":"[Newport Pavillion], 175 Pavillion Parkway, Newport,KY 41071, (859) 261-1348"},{"latitude":"37.077218","longitude":"-88.684872","name":"Dicks Sporting Goods-Paducah,KY","address":"[Kentucky Oaks Mall], 5101 Hinkleville Road Unit #600, Paducah,KY 42001, (270) 442-0100"},{"latitude":"37.7376609","longitude":"-84.3272386","name":"Dicks Sporting Goods-Richmond,KY","address":"[Richmond Centre], 2145 Lantern Ridge Dr, Richmond,KY 40475, (859) 353-3009"},{"latitude":"30.39105","longitude":"-91.089899","name":"Dicks Sporting Goods-Baton Rouge,LA","address":"[Mall Of Louisiana], 9330 Mall Of Louisianna Blvd, Baton Rouge,LA 70809, (225) 766-9100"},{"latitude":"29.92303","longitude":"-90.04134","name":"Dicks Sporting Goods-Gretna,LA","address":"[Oakwood Center], 197 Westbank Expressway, Gretna,LA 70053, (504) 361-3869"},{"latitude":"30.1548515","longitude":"-92.0377245","name":"Dicks Sporting Goods-Lafayette,LA","address":"[Lafayette], 110 Old Camp Rd, Lafayette,LA 70508, (337) 417-8371"},{"latitude":"30.19826","longitude":"-93.22708","name":"Dicks Sporting Goods-Lake Charles,LA","address":"[Prien Lake Mall], 542 West Prien Lake Road, Lake Charles,LA 70601, (337) 478-1488"},{"latitude":"30.00365","longitude":"-90.156534","name":"Dicks Sporting Goods-Metairie,LA","address":"[Lakeside Shopping Center], 3301 Veterans Memorial, Metairie,LA 70002, (504) 835-0091"},{"latitude":"32.500325","longitude":"-92.060553","name":"Dicks Sporting Goods-Monroe,LA","address":"[Pecanland Mall], 4700 Millhaven Road Suite 1566, Monroe,LA 71203, (318) 410-1156"},{"latitude":"32.436062","longitude":"-93.714163","name":"Dicks Sporting Goods-Shreveport,LA","address":"[Kings Crossing], 7543 Youree Drive, Shreveport,LA 71105, (318) 797-9110"},{"latitude":"30.271445","longitude":"-89.774625","name":"Dicks Sporting Goods-Slidell,LA","address":"[Fremaux Town Center], 250 Town Center Pkwy, Slidell,LA 70458, (985) 718-3252"},{"latitude":"42.094675","longitude":"-71.054829","name":"Dicks Sporting Goods-Brockton,MA","address":"[Westgate Mall], 435 Westgate Drive, Brockton,MA 02301, (508) 559-9290"},{"latitude":"42.551077","longitude":"-70.943784","name":"Dicks Sporting Goods-Danvers,MA","address":"[Liberty Tree], 96 Commonwealth Avenue, Danvers,MA 01923, (978) 646-6400"},{"latitude":"41.640761","longitude":"-71.004169","name":"Dicks Sporting Goods-Dartmouth,MA","address":"[Dartmouth Commons], 475 State Road, Dartmouth,MA 02747, (508) 999-1617"},{"latitude":"42.256926","longitude":"-71.170178","name":"Dicks Sporting Goods-Dedham,MA","address":"[Dedham Mall], 180 Providence Highway, Dedham,MA 02026, (781) 329-2862"},{"latitude":"42.357964","longitude":"-72.550337","name":"Dicks Sporting Goods-Hadley,MA","address":"[Hampshire Mall], 367 Russell Street, Hadley,MA 01035, (413) 584-6934"},{"latitude":"42.147714","longitude":"-70.845527","name":"Dicks Sporting Goods-Hanover,MA","address":"[Hanover Mall], 1803 Washington Street, Hanover,MA 02339, (781) 826-9282"},{"latitude":"42.526203","longitude":"-71.712569","name":"Dicks Sporting Goods-Leominster,MA","address":"[Orchard Hill Park], 56 Orchard Hill Park Drive, Leominster,MA 01453, (978) 537-4081"},{"latitude":"42.195485","longitude":"-71.773905","name":"Dicks Sporting Goods-Millbury,MA","address":"[The Shoppes At Blackstone Valley], 70 Worchester Providence Turnpike Suite 200, Millbury,MA 01527, (508) 865-7250"},{"latitude":"42.299009","longitude":"-71.38663","name":"Dicks Sporting Goods-Natick,MA","address":"[Sherwood Plaza], 1336 Worchester Street, Natick,MA 01760, (508) 653-0908"},{"latitude":"41.938013","longitude":"-71.349785","name":"Dicks Sporting Goods-North Attleboro,MA","address":"[Attleboro Marketplace], 1360 South Washington Street, North Attleboro,MA 02760, (508) 699-8475"},{"latitude":"42.310129","longitude":"-71.655451","name":"Dicks Sporting Goods-Northborough,MA","address":"[Northborough Crossing], 5102 Shops Way, Northborough,MA 01532, (508) 393-1638"},{"latitude":"42.465714","longitude":"-73.205027","name":"Dicks Sporting Goods-Pittsfield,MA","address":"[Pittsfield], 635 Merrill Road, Pittsfield,MA 01201, (413) 395-0870"},{"latitude":"41.95255","longitude":"-70.713202","name":"Dicks Sporting Goods-Plymouth,MA","address":"[The Plaza At Colony Place], 205 Colony Place, Plymouth,MA 02360, (508) 746-6932"},{"latitude":"42.463827","longitude":"-71.024945","name":"Dicks Sporting Goods-Saugus,MA","address":"[Square One Mall], 1201 Broadway, Saugus,MA 01906, (781) 233-0476"},{"latitude":"41.797433","longitude":"-71.331943","name":"Dicks Sporting Goods-Seekonk,MA","address":"[Seekonk], 275 Highland Ave, Seekonk,MA 02771, (508) 336-3004"},{"latitude":"41.867128","longitude":"-71.050134","name":"Dicks Sporting Goods-Taunton,MA","address":"[Silver City Galleria], 2 Galleria Mall Drive, Taunton,MA 02780, (508) 823-8132"},{"latitude":"42.133456","longitude":"-72.625855","name":"Dicks Sporting Goods-West Springfield,MA","address":"[Riverdale Shopping Center], 1081 Riverdale Street, West Springfield,MA 01089, (413) 781-6155"},{"latitude":"42.295268","longitude":"-71.772552","name":"Dicks Sporting Goods-Worcester,MA","address":"[Lincoln Plaza], 541E Lincoln Street, Worcester,MA 01605, (508) 595-9808"},{"latitude":"39.369483","longitude":"-76.4536","name":"Dicks Sporting Goods-Baltimore,MD","address":"[Nottingham Square], 5220 Campbell Blvd, Baltimore,MD 21236, (410) 933-0134"},{"latitude":"39.522396","longitude":"-76.345275","name":"Dicks Sporting Goods-Bel Air,MD","address":"[Macphail Crossing East], 540 West Macphail Road, Bel Air,MD 21014, (410) 638-7404"},{"latitude":"39.495833","longitude":"-76.653798","name":"Dicks Sporting Goods-Cockeysville,MD","address":"[Hunt Valley Towne Plaza], 118 Shawan Road, Cockeysville,MD 21030, (410) 584-9050"},{"latitude":"39.197189","longitude":"-76.815432","name":"Dicks Sporting Goods-Columbia,MD","address":"[Columbia Crossing], 6221 Columbia Crossing Circle, Columbia,MD 21045, (410) 872-1100"},{"latitude":"38.7829868","longitude":"-76.0847855","name":"Dicks Sporting Goods-Easton,MD","address":"[Waterside Village At Easton], 28564 Marlboro Avenue, Easton,MD 21601, (410) 200-9560"},{"latitude":"39.3848518","longitude":"-77.4096076","name":"Dicks Sporting Goods-Frederick,MD","address":"[Francis Scott Key Mall], 5500 Buckeystown Pike, Frederick,MD 21703, (240) 772-3181"},{"latitude":"39.118097","longitude":"-77.20066","name":"Dicks Sporting Goods-Gaithersburg,MD","address":"[Washingtonian Center], 2 Grand Corner Avenue, Gaithersburg,MD 20878, (301) 947-0200"},{"latitude":"39.03745","longitude":"-76.679559","name":"Dicks Sporting Goods-Gambrills,MD","address":"[Village At Waugh Chapel], 1417 South Main Chapel Way, Gambrills,MD 21054, (410) 721-4941"},{"latitude":"39.196327","longitude":"-76.61324","name":"Dicks Sporting Goods-Glen Burnie,MD","address":"[Governor Plaza], 6633 Ritchie Highway, Glen Burnie,MD 21061, (410) 768-9372"},{"latitude":"39.655087","longitude":"-77.750043","name":"Dicks Sporting Goods-Hagerstown,MD","address":"[Hagerstown], 17780 Garland Groh Blvd, Hagerstown,MD 21740, (240) 420-0140"},{"latitude":"38.248532","longitude":"-76.452047","name":"Dicks Sporting Goods-Lexington Park,MD","address":"[Lexington Village], 46260 Lexington Village Way, Lexington Park,MD 20653, (240) 725-0142"},{"latitude":"38.40219","longitude":"-75.569719","name":"Dicks Sporting Goods-Salisbury,MD","address":"[The Centre At Salisbury], 2300 N Salisbury Blvd, Salisbury,MD 21801, (410) 219-1136"},{"latitude":"38.618232","longitude":"-76.922332","name":"Dicks Sporting Goods-Waldorf,MD","address":"[St Charles Towne Center], 11080 Mall Circle Road, Waldorf,MD 20603, (301) 885-1762"},{"latitude":"39.575571","longitude":"-76.982428","name":"Dicks Sporting Goods-Westminster,MD","address":"[Town Mall], 400 North Center Street, Westminster,MD 21157, (410) 848-1039"},{"latitude":"39.039165","longitude":"-77.053921","name":"Dicks Sporting Goods-Wheaton,MD","address":"[Wheaton Plaza], 11160 Veirs Mill Road Suite P100, Wheaton,MD 20902, (301) 933-3494"},{"latitude":"44.349371","longitude":"-69.787156","name":"Dicks Sporting Goods-Augusta,ME","address":"[The Marketplace At Augusta], 80 Stephen King Drive Suite 2, Augusta,ME 04330, (207) 622-3987"},{"latitude":"44.831948","longitude":"-68.752103","name":"Dicks Sporting Goods-Bangor,ME","address":"[Bangor Mall], 641 Stillwater Avenue, Bangor,ME 04401, (207) 990-5932"},{"latitude":"43.636406","longitude":"-70.331641","name":"Dicks Sporting Goods-South Portland,ME","address":"[South Portland], 385 Gorham Road, South Portland,ME 04106, (207) 828-4950"},{"latitude":"43.933079","longitude":"-69.982559","name":"Dicks Sporting Goods-Topsham,ME","address":"[Topsham Fair Mall], 131 Topsham Fair Mall Road, Topsham,ME 04086, (207) 721-3074"},{"latitude":"42.241845","longitude":"-83.76169","name":"Dicks Sporting Goods-Ann Arbor,MI","address":"[Waters Place], 3120 Lohr Road, Ann Arbor,MI 48108, (734) 332-6095"},{"latitude":"42.607768","longitude":"-83.298779","name":"Dicks Sporting Goods-Bloomfield,MI","address":"[Bloomfield Town Square], 2105 Telegraph Road, Bloomfield,MI 48302, (248) 456-1806"},{"latitude":"42.506625","longitude":"-83.752499","name":"Dicks Sporting Goods-Brighton,MI","address":"[Green Oak Village Place], 9550 Village Place Blvd, Brighton,MI 48116, (810) 225-4849"},{"latitude":"42.271677","longitude":"-83.488491","name":"Dicks Sporting Goods-Canton,MI","address":"[Premier Center], 45700 Michigan Avenue, Canton,MI 48188, (734) 495-0387"},{"latitude":"42.670075","longitude":"-82.827824","name":"Dicks Sporting Goods-Chesterfield Twp,MI","address":"[Waterside Market Place], 50580 Waterside Drive, Chesterfield Twp,MI 48051, (586) 949-0760"},{"latitude":"42.912714","longitude":"-85.542025","name":"Dicks Sporting Goods-Grand Rapids,MI","address":"[Kentwood Towne Centre], 5118 28Th Se, Grand Rapids,MI 49512, (616) 977-2301"},{"latitude":"42.882292","longitude":"-85.754154","name":"Dicks Sporting Goods-Grandville,MI","address":"[Rivertown Crossings], 3660 Rivertown Parkway, Grandville,MI 49418, (616) 249-0660"},{"latitude":"42.8328819","longitude":"-86.0919189","name":"Dicks Sporting Goods-Holland,MI","address":"[Riley Center], 3530 W Shore Dr, Holland,MI 49424, (616) 820-0118"},{"latitude":"42.76203","longitude":"-84.513378","name":"Dicks Sporting Goods-Lansing,MI","address":"[Eastwood Towne Center], 2801 Preyde Blvd, Lansing,MI 48912, (517) 702-1300"},{"latitude":"42.3816054","longitude":"-83.3336665","name":"Dicks Sporting Goods-Livonia,MI","address":"[Livonia Commons], 13501 Middlebelt Rd, Livonia,MI 48150, (734) 293-0069"},{"latitude":"43.575385","longitude":"-84.766526","name":"Dicks Sporting Goods-Mt Pleasant,MI","address":"[Indian Hills Plaza], 4208 E Bluegrass Road, Mt Pleasant,MI 48858, (989) 772-1990"},{"latitude":"43.148743","longitude":"-86.205886","name":"Dicks Sporting Goods-Muskegon,MI","address":"[The Lakes Mall], 5660 S Harvey Parkway, Muskegon,MI 49444, (231) 798-8003"},{"latitude":"42.495269","longitude":"-83.484342","name":"Dicks Sporting Goods-Novi,MI","address":"[Fountain Walk], 44225 12 Mile Road, Novi,MI 48377, (248) 596-3400"},{"latitude":"42.440501","longitude":"-83.435877","name":"Dicks Sporting Goods-Novi,MI","address":"[Highpoint Shopping Center], 21061 Haggerty Road, Novi,MI 48375, (248) 735-8180"},{"latitude":"42.72101","longitude":"-84.421758","name":"Dicks Sporting Goods-Okemos,MI","address":"[Meridian Mall], 1982 W Grandriver Avenue Suite 310, Okemos,MI 48864, (517) 853-0400"},{"latitude":"43.044906","longitude":"-82.457024","name":"Dicks Sporting Goods-Port Huron,MI","address":"[Fort Gratiot Shopping Center], 4715 24Th Avenue, Port Huron,MI 48059, (810) 385-5273"},{"latitude":"42.225384","longitude":"-85.589494","name":"Dicks Sporting Goods-Portage,MI","address":"[Portage] 6355 Westnedge Ave, Portage,MI 49002, (269) 329-1956 (opening soon)"},{"latitude":"42.662911","longitude":"-83.133056","name":"Dicks Sporting Goods-Rochester Hills,MI","address":"[Winchester Center], 1290 S Rochester Road, Rochester Hills,MI 48307, (248) 608-9696"},{"latitude":"42.5350345","longitude":"-82.9123539","name":"Dicks Sporting Goods-Roseville,MI","address":"[Macomb Mall], 32385 Gratiot Ave, Roseville,MI 48066, (586) 279-1221"},{"latitude":"43.480096","longitude":"-83.98257","name":"Dicks Sporting Goods-Saginaw,MI","address":"[West Valley Shopping Center], 3343 Tittabawassee Road, Saginaw,MI 48604, (989) 793-3346"},{"latitude":"42.626589","longitude":"-82.9993869","name":"Dicks Sporting Goods-Sterling Heights,MI","address":"[Sterling Heights], 13000 Hall Road, Sterling Heights,MI 48313, (586) 884-0200"},{"latitude":"42.197741","longitude":"-83.259789","name":"Dicks Sporting Goods-Taylor,MI","address":"[Taylor Retail Center], 23349 Eureka Road, Taylor,MI 48180, (734) 374-0429"},{"latitude":"42.5342473","longitude":"-83.1125137","name":"Dicks Sporting Goods-Troy,MI","address":"[Oakland Mall], 562 W 14 Mile Road, Troy,MI 48083, (248) 581-8122"},{"latitude":"42.629761","longitude":"-83.000143","name":"Dicks Sporting Goods-Utica,MI","address":"[North Pointe Center], 45230 Northpointe Blvd, Utica,MI 48315, (586) 254-2653"},{"latitude":"44.746369","longitude":"-93.289885","name":"Dicks Sporting Goods-Burnsville,MN","address":"[Burnsville Center], 901 County Road 42 West B-200, Burnsville,MN 55306, (952) 898-0743"},{"latitude":"45.200338","longitude":"-93.350497","name":"Dicks Sporting Goods-Coon Rapids,MN","address":"[Riverdale Village], 12661 Riverdale Blvd, Coon Rapids,MN 55448, (763) 323-8611"},{"latitude":"46.806613","longitude":"-92.160721","name":"Dicks Sporting Goods-Duluth,MN","address":"[Miller Hill Mall], 1600 Miller Truck Highway, Duluth,MN 55811, (218) 727-2078"},{"latitude":"45.091447","longitude":"-93.424587","name":"Dicks Sporting Goods-Maple Grove,MN","address":"[Fountains Of Arbor Lakes], 11361 Fountains Drive, Maple Grove,MN 55369, (763) 315-5377"},{"latitude":"44.972779","longitude":"-93.42202","name":"Dicks Sporting Goods-Minnetonka,MN","address":"[West Ridge Market], 11260 Wayzata Blvd, Minnetonka,MN 55305, (952) 525-0200"},{"latitude":"44.862564","longitude":"-93.29595","name":"Dicks Sporting Goods-Richfield,MN","address":"[Richfield], 1700 W 78Th Street, Richfield,MN 55423, (612) 869-0200"},{"latitude":"43.955163","longitude":"-92.462466","name":"Dicks Sporting Goods-Rochester,MN","address":"[Shoppes On Maine], 4603 Maine Avenue Se, Rochester,MN 55904, (507) 252-9651"},{"latitude":"45.014829","longitude":"-93.169275","name":"Dicks Sporting Goods-Roseville,MN","address":"[Crossroads Mall], 1645 County Road B2 W, Roseville,MN 55113, (651) 633-7242"},{"latitude":"45.5487823","longitude":"-94.2149353","name":"Dicks Sporting Goods-Waite Park,MN","address":"[Marketplace Shopping Center], 40 2nd Street S, Waite Park,MN 56387, (320) 227-6366"},{"latitude":"44.942128","longitude":"-92.937356","name":"Dicks Sporting Goods-Woodbury,MN","address":"[Tamarack Village], 8292 Tamarack Village, Woodbury,MN 55125, (651) 731-0200"},{"latitude":"38.667454","longitude":"-90.588418","name":"Dicks Sporting Goods-Chesterfield,MO","address":"[Chesterfield Commons], 64 Thf Blvd, Chesterfield,MO 63005, (636) 536-3718"},{"latitude":"38.958168","longitude":"-92.371357","name":"Dicks Sporting Goods-Columbia,MO","address":"[Stadium Shoppes], 227 N Stadium, Columbia,MO 65203, (573) 447-1001"},{"latitude":"38.603127","longitude":"-90.446476","name":"Dicks Sporting Goods-Des Peres,MO","address":"[West County Center], 200 West County Center, Des Peres,MO 63131, (314) 649-1400"},{"latitude":"39.04838","longitude":"-94.370598","name":"Dicks Sporting Goods-Independence,MO","address":"[Bolger Square], 17730 E 39Th Street, Independence,MO 64055, (816) 350-0089"},{"latitude":"38.579665","longitude":"-92.224061","name":"Dicks Sporting Goods-Jefferson City,MO","address":"[Stoneridge Village], 739 Stoneridge Parkway, Jefferson City,MO 65109, (573) 556-5602"},{"latitude":"39.251292","longitude":"-94.662111","name":"Dicks Sporting Goods-Kansas City,MO","address":"[Zona Rosa], 8665 Nw Prairie View Road, Kansas City,MO 64153, (816) 436-3524"},{"latitude":"38.972108","longitude":"-94.605646","name":"Dicks Sporting Goods-Kansas City,MO","address":"[Ward Parkway Center], 8600 Ward Parkway Suite 2002, Kansas City,MO 64114, (816) 363-1198"},{"latitude":"38.926001","longitude":"-94.40499","name":"Dicks Sporting Goods-Lee'S Summit,MO","address":"[Summit Woods Crossing], 1600 Nw Chipman Road, Lee'S Summit,MO 64081, (816) 525-3006"},{"latitude":"39.24628","longitude":"-94.449149","name":"Dicks Sporting Goods-Liberty,MO","address":"[Liberty Triangle], 1890 College Street, Liberty,MO 64068, (816) 407-1111"},{"latitude":"38.144277","longitude":"-92.630186","name":"Dicks Sporting Goods-Osage Beach,MO","address":"[Lakeview Pointe], 4635 Osage Beach Parkway, Osage Beach,MO 65065, (573) 302-7470"},{"latitude":"38.506505","longitude":"-90.334498","name":"Dicks Sporting Goods-South County,MO","address":"[South County Mall], 590 South County Center Way, South County,MO 63129, (314) 416-1905"},{"latitude":"39.808562","longitude":"-94.815218","name":"Dicks Sporting Goods-St Joseph,MO","address":"[Cook Crossing], 4204 North Belt Highway, St Joseph,MO 64506, (816) 390-8088"},{"latitude":"38.797144","longitude":"-90.620364","name":"Dicks Sporting Goods-St Peters,MO","address":"[Mid Rivers Mall], 1600 Mid Rivers Mall, St Peters,MO 63376, (636) 278-5050"},{"latitude":"38.5356416","longitude":"-90.9799337","name":"Dicks Sporting Goods-Washington,MO","address":"[Phoenix Center Li], 3162 Phoenix Center Dr, Washington,MO 63090, (636) 266-3006"},{"latitude":"38.8156568","longitude":"-90.8763152","name":"Dicks Sporting Goods-Wentzville,MO","address":"[Wentzville Crossing], 1866 Wentzville Pkwy, Wentzville,MO 63385, (636) 445-3081"},{"latitude":"33.5406494","longitude":"-88.4377594","name":"Dicks Sporting Goods-Columbus,MS","address":"[University Mall], 2041 US 45, Columbus,MS 39705, (662) 570-1025"},{"latitude":"30.455277","longitude":"-88.902155","name":"Dicks Sporting Goods-D'Iberville,MS","address":"[The Promenade], 3893 Promenade Parkway, D'Iberville,MS 39540, (228) 392-1607"},{"latitude":"32.3374","longitude":"-90.068569","name":"Dicks Sporting Goods-Flowood,MS","address":"[Market Street At Flowood], 720 Mackenzie Lane, Flowood,MS 39232, (601) 992-2341"},{"latitude":"31.324687","longitude":"-89.37426","name":"Dicks Sporting Goods-Hattiesburg,MS","address":"[Turtle Creek Mall], 1000 Turtle Creek Road, Hattiesburg,MS 39402, (601) 264-6648"},{"latitude":"32.46361","longitude":"-90.133329","name":"Dicks Sporting Goods-Madison,MS","address":"[Madison Grandview], 175 Grandview Blvd, Madison,MS 39110, (601) 853-4373"},{"latitude":"34.3427696","longitude":"-89.4578857","name":"Dicks Sporting Goods-Oxford,MS","address":"[Oxford Galleria Ii], 300 Merchants Drive, Oxford,MS 38655, (662) 281-5814"},{"latitude":"34.315551","longitude":"-88.703483","name":"Dicks Sporting Goods-Tupelo,MS","address":"[The Mall At Barnes Crossing], 1001 Barnes Crossing Road, Tupelo,MS 38804, (662) 844-5799"},{"latitude":"35.156574","longitude":"-79.418339","name":"Dicks Sporting Goods-Aberdeen,NC","address":"[Center Park], 11109 Highway 15\/501 Suite A, Aberdeen,NC 28315, (910) 246-0778"},{"latitude":"35.71352","longitude":"-79.010282","name":"Dicks Sporting Goods-Apex,NC","address":"[Beaver Creek Crossings], 1531 Beaver Creek Commons Drive, Apex,NC 27502, (919) 367-0194"},{"latitude":"35.4502208","longitude":"-82.5281274","name":"Dicks Sporting Goods-Arden,NC","address":"[The Landing], 329 Airport Rd, Arden,NC 28704, (828) 974-3371"},{"latitude":"35.574566","longitude":"-82.519566","name":"Dicks Sporting Goods-Asheville,NC","address":"[River Hills Shopping Center], 107 A River Hills Road, Asheville,NC 28805, (828) 299-0077"},{"latitude":"36.067467","longitude":"-79.511373","name":"Dicks Sporting Goods-Burlington,NC","address":"[Alamance West], 1465 Boone Station Drive, Burlington,NC 27215, (336) 584-7545"},{"latitude":"35.760339","longitude":"-78.736147","name":"Dicks Sporting Goods-Cary,NC","address":"[Crossroad Plaza], 401 Crossroads Blvd, Cary,NC 27511, (919) 851-7721"},{"latitude":"35.350032","longitude":"-80.852406","name":"Dicks Sporting Goods-Charlotte,NC","address":"[Northlake Mall], 6445 Northlake Mall Drive, Charlotte,NC 28216, (704) 598-2577"},{"latitude":"35.154629","longitude":"-80.836057","name":"Dicks Sporting Goods-Charlotte,NC","address":"[South Park Mall], 4325 Barclay Downs Drive, Charlotte,NC 28209, (704) 972-9400"},{"latitude":"35.418683","longitude":"-80.675761","name":"Dicks Sporting Goods-Concord,NC","address":"[Afton Ridge], 6080 Bayfield Parkway, Concord,NC 28027, (704) 262-7373"},{"latitude":"35.953988","longitude":"-78.995379","name":"Dicks Sporting Goods-Durham,NC","address":"[New Hope Commons], 5422 New Hope Commons Drive, Durham,NC 27707, (919) 493-9884"},{"latitude":"35.054898","longitude":"-78.972643","name":"Dicks Sporting Goods-Fayetteville,NC","address":"[Fayetteville Pavilion], 2051 Skibo Road, Fayetteville,NC 28314, (910) 867-8566"},{"latitude":"35.694693","longitude":"-78.581962","name":"Dicks Sporting Goods-Garner,NC","address":"[White Oak Crossing], 145 Shenstone Blvd, Garner,NC 27529, (919) 662-4177"},{"latitude":"35.262838","longitude":"-81.133516","name":"Dicks Sporting Goods-Gastonia,NC","address":"[Gaston Mall], 415 Cox Road Suite 100, Gastonia,NC 28054, (704) 810-0994"},{"latitude":"35.3681335","longitude":"-77.9036255","name":"Dicks Sporting Goods-Goldsboro,NC","address":"[Goldsboro], Berkeley Mall Ring Rd, Goldsboro,NC 27534, (919) 221-6331"},{"latitude":"36.059553","longitude":"-79.906442","name":"Dicks Sporting Goods-Greensboro,NC","address":"[Wendover Place Shopping Center], 1208-A Bridford Parkway, Greensboro,NC 27407, (336) 856-8875"},{"latitude":"35.568765","longitude":"-77.405064","name":"Dicks Sporting Goods-Greenville,NC","address":"[11 Galleria], 3500 Galleria Drive, Greenville,NC 27834, (252) 329-0241"},{"latitude":"35.702734","longitude":"-81.30893","name":"Dicks Sporting Goods-Hickory,NC","address":"[Hickory Ridge], 1860 Catawba Valley Blvd Se, Hickory,NC 28602, (828) 431-3025"},{"latitude":"35.639666","longitude":"-78.833704","name":"Dicks Sporting Goods-Holly Springs,NC","address":"[Holly Springs Towne Center], 168 Grand Hill Place, Holly Springs,NC 27540, (919) 552-4148"},{"latitude":"35.44471","longitude":"-80.878311","name":"Dicks Sporting Goods-Huntersville,NC","address":"[Birkdale Village], 8825 Townley Road, Huntersville,NC 28078, (704) 896-6244"},{"latitude":"34.78003","longitude":"-77.395169","name":"Dicks Sporting Goods-Jacksonville,NC","address":"[Jacksonville], 1112 Western Boulevard, Jacksonville,NC 28546, (910) 455-0928"},{"latitude":"35.797289","longitude":"-78.510539","name":"Dicks Sporting Goods-Knightdale,NC","address":"[Knightdale], 220 Hinton Oaks Blvd, Knightdale,NC 27545, (919) 266-7876"},{"latitude":"35.126566","longitude":"-80.699432","name":"Dicks Sporting Goods-Matthews,NC","address":"[Sycamore Commons], 10530 Ne Parkway Suite J, Matthews,NC 28105, (704) 841-3959"},{"latitude":"35.595455","longitude":"-80.871736","name":"Dicks Sporting Goods-Mooresville,NC","address":"[Winslow Bay Commons], 590 J River Highway, Mooresville,NC 28117, (704) 662-9066"},{"latitude":"34.737553","longitude":"-76.804891","name":"Dicks Sporting Goods-Morehead,NC","address":"[Crystal Coast Plaza], 5130 Highway 70 West, Morehead,NC 28557, (252) 222-3244"},{"latitude":"35.738","longitude":"-81.7139","name":"Dicks Sporting Goods-Morganton,NC","address":"[Morganton Heights], C138 Morganton Heights Blvd, Morganton,NC 28655, (828) 433-8332"},{"latitude":"35.08602","longitude":"-80.879706","name":"Dicks Sporting Goods-Pineville,NC","address":"[Pineville], 9600 Pineville-Matthews Road, Pineville,NC 28134, (704) 540-4750"},{"latitude":"35.911641","longitude":"-78.782631","name":"Dicks Sporting Goods-Raleigh,NC","address":"[Brier Creek Commons], 8021 Brier Creek Parkway Suite 100, Raleigh,NC 27617, (919) 806-5153"},{"latitude":"35.863546","longitude":"-78.577025","name":"Dicks Sporting Goods-Raleigh,NC","address":"[Tarrymore Square], 3630 Summer Blvd, Raleigh,NC 27616, (919) 792-9090"},{"latitude":"35.6199989","longitude":"-80.3940353","name":"Dicks Sporting Goods-Salisbury,NC","address":"[Shoppes At Summit Park], 125 Tingle Drive, Salisbury,NC 28146, (704) 212-2482"},{"latitude":"35.311421","longitude":"-80.752909","name":"Dicks Sporting Goods-University,NC","address":"[The Village At University Place], 8809 Jw Clay Blvd., University,NC 28262, (704) 295-4411"},{"latitude":"34.221284","longitude":"-77.883618","name":"Dicks Sporting Goods-Wilmington,NC","address":"816 South College Road, Wilmington,NC 28403, (910) 793-1904"},{"latitude":"34.2352029","longitude":"-77.8306313","name":"Dicks Sporting Goods-Wilmington,NC","address":"[Mayfair Town Center], 6810 Parker Farm Dr, Wilmington,NC 28405, (910) 208-4437"},{"latitude":"36.067298","longitude":"-80.303566","name":"Dicks Sporting Goods-Winston Salem,NC","address":"[Hanes Mall], 164 Hanes Mall Circle, Winston Salem,NC 27103, (336) 659-3557"},{"latitude":"40.9426593","longitude":"-98.3787563","name":"Dicks Sporting Goods-Grand Island,NE","address":"[Northwest Commons], 2250 N Webb Road, Grand Island,NE 68803, (308) 392-3226"},{"latitude":"41.229264","longitude":"-96.132174","name":"Dicks Sporting Goods-Omaha,NE","address":"[Oakview Plaza South], 3125 Oakview Drive, Omaha,NE 68144, (402) 330-1184"},{"latitude":"41.268842","longitude":"-96.065951","name":"Dicks Sporting Goods-Omaha,NE","address":"[Westroads Mall], 9901 Nicholas Street, Omaha,NE 68114, (402) 951-4400"},{"latitude":"41.134592","longitude":"-96.026069","name":"Dicks Sporting Goods-Papillion,NE","address":"[Shadow Lake Towne Center], 7403 Town Center Parkway, Papillion,NE 68046, (402) 592-1642"},{"latitude":"43.22661","longitude":"-71.485807","name":"Dicks Sporting Goods-Concord,NH","address":"[Patriot Place], 295 Loudon Road, Concord,NH 03301, (603) 224-1564"},{"latitude":"42.926707","longitude":"-72.303936","name":"Dicks Sporting Goods-Keene,NH","address":"[Monadnock Marketplace], 42 Ash Brook Road, Keene,NH 03431, (603) 357-0861"},{"latitude":"42.70279","longitude":"-71.440953","name":"Dicks Sporting Goods-Nashua,NH","address":"[Pheasant Lane Mall], 310 Daniel Webster Highway, Nashua,NH 03060, (603) 888-3579"},{"latitude":"43.093274","longitude":"-70.796209","name":"Dicks Sporting Goods-Portsmouth,NH","address":"[The Crossings At Foxrun], 45 Gosling Road, Portsmouth,NH 03801, (603) 431-8036"},{"latitude":"42.7661926","longitude":"-71.2276972","name":"Dicks Sporting Goods-Salem,NH","address":"[The Mall At Rockingham Park], 77 Rockingham Blvd, Salem,NH 03079, (603) 824-3152"},{"latitude":"42.8952096","longitude":"-70.8710975","name":"Dicks Sporting Goods-Seabrook,NH","address":"[Seabrook Town Center], 700 Lafayette Rd [Ste 212], Seabrook,NH 03874, (603) 760-7369"},{"latitude":"40.056664","longitude":"-74.153945","name":"Dicks Sporting Goods-Brick,NJ","address":"[Brick 70 Plaza] 487 Route 70, Brick,NJ 08723, (732) 477-4844"},{"latitude":"40.035323","longitude":"-74.824999","name":"Dicks Sporting Goods-Burlington Twp,NJ","address":"[Towne Crossing Shopping Center], 2703 Rt. 541 Suite 4, Burlington Twp,NJ 08016, (609) 747-0400"},{"latitude":"39.921629","longitude":"-75.03928","name":"Dicks Sporting Goods-Cherry Hill,NJ","address":"[Market Place At Garden State Park], 2130 Route 70 West, Cherry Hill,NJ 08002, (856) 317-8394"},{"latitude":"39.830456","longitude":"-75.100705","name":"Dicks Sporting Goods-Deptford,NJ","address":"[Deptford], 399 Almonesson Road, Deptford,NJ 08096, (856) 384-8533"},{"latitude":"40.455808","longitude":"-74.400531","name":"Dicks Sporting Goods-East Brunswick,NJ","address":"[East Brunswick], 325 State Route 18, East Brunswick,NJ 08816, (732) 651-3284"},{"latitude":"40.806929","longitude":"-74.372422","name":"Dicks Sporting Goods-East Hanover,NJ","address":"[East Hanover], 240 Route 10 West, East Hanover,NJ 07936, (973) 428-0889"},{"latitude":"40.251238","longitude":"-74.295581","name":"Dicks Sporting Goods-Freehold,NJ","address":"[Freehold Raceway Mall], 650 Trotter'S Way, Freehold,NJ 07728, (732) 358-1400"},{"latitude":"39.709895","longitude":"-74.286912","name":"Dicks Sporting Goods-Manahawkin,NJ","address":"[Stafford Park], 223 Stafford Park Blvd, Manahawkin,NJ 08050, (609) 597-5396"},{"latitude":"39.452484","longitude":"-74.63084","name":"Dicks Sporting Goods-Mays Landing,NJ","address":"[Wrangleborough Consumer Square], 210 Consumer Square, Mays Landing,NJ 08330, (609) 407-1711"},{"latitude":"39.422476","longitude":"-75.039556","name":"Dicks Sporting Goods-Millville,NJ","address":"[Union Lake Crossing], 2126 North 2Nd Street, Millville,NJ 08332, (856) 293-8520"},{"latitude":"39.941362","longitude":"-74.959622","name":"Dicks Sporting Goods-Mt Laurel,NJ","address":"[East Gate Square], 1300 Nixon Drive, Mt Laurel,NJ 08054, (856) 802-1225"},{"latitude":"40.935983","longitude":"-74.070896","name":"Dicks Sporting Goods-Paramus,NJ","address":"[Paramus Towne Square], 240 Route 17 North, Paramus,NJ 07652, (201) 261-2926"},{"latitude":"40.304652","longitude":"-74.679005","name":"Dicks Sporting Goods-Princeton,NJ","address":"[Nassau Park Pavilion], 530 Nassau Park Blvd, Princeton,NJ 08540, (609) 419-1661"},{"latitude":"40.90831","longitude":"-74.547009","name":"Dicks Sporting Goods-Rockaway,NJ","address":"[Rockaway Plaza], 387 Mount Hope Avenue, Rockaway,NJ 07866, (973) 659-1950"},{"latitude":"40.548674","longitude":"-74.429778","name":"Dicks Sporting Goods-South Plainfield,NJ","address":"[Hadley Center], 4999 Stelton Road, South Plainfield,NJ 07080, (908) 226-4912"},{"latitude":"40.688337","longitude":"-74.307699","name":"Dicks Sporting Goods-Union,NJ","address":"[Route 22 Retail Center], 2700A Route 22 East, Union,NJ 07083, (908) 964-2580"},{"latitude":"39.4330303","longitude":"-75.0405163","name":"Dicks Sporting Goods-Vineland,NJ","address":"[Cumberland Mall], 3849 S Delsea Drive, Space G0000, Vineland,NJ 08360, (856) 776-7630"},{"latitude":"40.8886041","longitude":"-74.2513025","name":"Dicks Sporting Goods-Wayne,NJ","address":"[Wayne Towne Center], 76 Willowbrook Blvd, Wayne,NJ 07470, (973) 200-8077"},{"latitude":"40.55514","longitude":"-74.302151","name":"Dicks Sporting Goods-Woodbridge,NJ","address":"[Woodbridge Center], 366 Woodbridge Center Drive, Woodbridge,NJ 07095, (732) 621-8400"},{"latitude":"35.205938","longitude":"-106.650937","name":"Dicks Sporting Goods-Albuquerque,NM","address":"[Cottonwood Place], 3550 State Highway 528 Nw, Albuquerque,NM 87114, (505) 899-0355"},{"latitude":"35.109039","longitude":"-106.570959","name":"Dicks Sporting Goods-Albuquerque,NM","address":"[Coronado Center], 6600 Menual Blvd NE, Albuquerque,NM 87110 (505) 884-4415"},{"latitude":"36.7698402","longitude":"-108.1459808","name":"Dicks Sporting Goods-Farmington,NM","address":"[Farmington Pavilion], 5050 Main St, Farmington,NM 87402, (505) 793-8034"},{"latitude":"32.320441","longitude":"-106.749817","name":"Dicks Sporting Goods-Las Cruces,NM","address":"[Las Cruces], 200 North Telshor Blvd, Las Cruces,NM 88011, (575) 522-9756"},{"latitude":"36.063823","longitude":"-115.04099","name":"Dicks Sporting Goods-Henderson,NV","address":"[Galleria At Sunset], 1308 West Sunset Road, Henderson,NV 89014, (702) 855-5000"},{"latitude":"36.1266441","longitude":"-115.1711502","name":"Dicks Sporting Goods-Las Vegas,NV","address":"[Fashion Show Mall], 3200 Las Vegas Blvd, Las Vegas,NV 89109, (702) 479-1266"},{"latitude":"39.4751523","longitude":"-119.7801221","name":"Dicks Sporting Goods-Reno,NV","address":"[Meadowood Mall], 5354 Meadowood Mall Circle, Reno,NV 89502, (775) 636-7838"},{"latitude":"42.687373","longitude":"-73.851247","name":"Dicks Sporting Goods-Albany,NY","address":"[Crossgates Mall], 1 Crossgates Mall Road, Albany,NY 12203, (518) 218-7410"},{"latitude":"42.9882581","longitude":"-78.8172946","name":"Dicks Sporting Goods-Amherst,NY","address":"[Boulevard Mall], 640 Alberta Dr, Amherst,NY 14226, (716) 242-6903"},{"latitude":"42.994436","longitude":"-78.812896","name":"Dicks Sporting Goods-Amherst,NY","address":"[Amherst], 281 Meyer Road, Amherst,NY 14226, (716) 833-4761"},{"latitude":"42.929258","longitude":"-76.606091","name":"Dicks Sporting Goods-Auburn,NY","address":"[Fingerlakes Crossing], 1620 Clark Street Road, Auburn,NY 13021, (315) 258-3750"},{"latitude":"43.011875","longitude":"-78.207755","name":"Dicks Sporting Goods-Batavia,NY","address":"[Towne Center at Batavia], 4180 Veterans Memorial Dr, Batavia,NY 14020, (585) 344-7150"},{"latitude":"42.10416","longitude":"-75.890347","name":"Dicks Sporting Goods-Binghamton,NY","address":"[Binghamton], 347 Court St, Binghamton,NY 13904, (607) 724-4361"},{"latitude":"42.908922","longitude":"-78.761986","name":"Dicks Sporting Goods-Buffalo,NY","address":"[Walden Galleria], 2 Walden Galleria, Buffalo,NY 14225, (716) 651-0600"},{"latitude":"43.186349","longitude":"-76.186067","name":"Dicks Sporting Goods-Clay,NY","address":"[Great Northern Mall], 4081 State Hwy 31, Clay,NY 13041, (315) 652-7674"},{"latitude":"42.75173","longitude":"-73.766354","name":"Dicks Sporting Goods-Colonie,NY","address":"[Latham Farms Shopping Center], 579 Troy\/Schenectady Road #124, Colonie,NY 12110, (518) 783-0701"},{"latitude":"40.841537","longitude":"-73.305857","name":"Dicks Sporting Goods-Commack,NY","address":"[Commack Shopping Center], 6070 Jericho Turnpike, Commack,NY 11725, (631) 499-1410"},{"latitude":"43.0448456","longitude":"-76.0668793","name":"Dicks Sporting Goods-Dewitt,NY","address":"[Erie Canal Centre], 3469 Erie Blvd, Dewitt,NY 13214, (315) 802-0005"},{"latitude":"43.038972","longitude":"-76.065902","name":"Dicks Sporting Goods-Dewitt,NY","address":"[Shoppingtown Mall], 3649 Erie Blvd East, Dewitt,NY 13214, (315) 449-2232"},{"latitude":"40.743112","longitude":"-73.615358","name":"Dicks Sporting Goods-Garden City,NY","address":"[Roosevelt Field], 630 Old Country Road, Garden City,NY 11530, (516) 247-6400"},{"latitude":"40.711241","longitude":"-73.859157","name":"Dicks Sporting Goods-Queens,NY","address":"[Woodhaven], 72-25 Woodhaven Blvd, Glendale,NY 11385, (347) 396-9636"},{"latitude":"42.159594","longitude":"-76.860483","name":"Dicks Sporting Goods-Horseheads,NY","address":"[Southern Tier Crossing], 1216 County Route 64, Horseheads,NY 14845, (607) 796-0850"},{"latitude":"42.48374","longitude":"-76.486681","name":"Dicks Sporting Goods-Ithaca,NY","address":"[Pyramid Mall], 40 Catherwood Road, Ithaca,NY 14850, (607) 257-5077"},{"latitude":"41.969112","longitude":"-73.988768","name":"Dicks Sporting Goods-Kingston,NY","address":"[Hudson Valley Mall], 1300 Ulster Ave Suite 127, Kingston,NY 12401, (845) 382-2151"},{"latitude":"40.863925","longitude":"-73.132498","name":"Dicks Sporting Goods-Lake Grove,NY","address":"[Smith Haven Mall], 620 Smith Haven Mall, Lake Grove,NY 11755, (631) 265-2987"},{"latitude":"42.7518488","longitude":"-73.7664617","name":"Dicks Sporting Goods-Latham,NY","address":"[Latham Farms], 579 Troy Schenectady Road #101, Suite A, Latham,NY 12110, (518) 213-3478"},{"latitude":"40.799734","longitude":"-73.412385","name":"Dicks Sporting Goods-Melville,NY","address":"[Melville Mall], 870 Walt Whitman Road, Melville,NY 11747, (631) 421-3028"},{"latitude":"40.7992134","longitude":"-73.4104309","name":"Dicks Sporting Goods-Melville,NY","address":"[Melville Mall], 870 Walt Whitman Road, Melville,NY 11747, (631) 421-3028"},{"latitude":"41.462849","longitude":"-74.372365","name":"Dicks Sporting Goods-Middletown,NY","address":"[Crystal Run Galleria], 1 N Galleria Drive Suite 132, Middletown,NY 10941, (845) 692-5035"},{"latitude":"43.083628","longitude":"-75.321376","name":"Dicks Sporting Goods-New Hartford,NY","address":"[Sangertown Square], Route 5 And 5A, New Hartford,NY 13413, (315) 798-9626"},{"latitude":"42.448389","longitude":"-75.047341","name":"Dicks Sporting Goods-Oneonta,NY","address":"[Southside Mall], 5006 State Highway 23 Suite 1C, Oneonta,NY 13820, (607) 432-0203"},{"latitude":"42.79138","longitude":"-78.782128","name":"Dicks Sporting Goods-Orchard Park,NY","address":"[Quaker Crossing], 3434 Amelia Drive, Orchard Park,NY 14127, (716) 821-1616"},{"latitude":"40.7796783","longitude":"-73.0097122","name":"Dicks Sporting Goods-Patchogue,NY","address":"[Gateway Center Li], 499-64 Sunrise Hwy, Patchogue,NY 11772, (631) 891-4044"},{"latitude":"44.700088","longitude":"-73.493536","name":"Dicks Sporting Goods-Plattsburgh,NY","address":"[Champlain Centre North] 60 Smithfield Blvd, Plattsburgh,NY 12901, (518) 562-1121"},{"latitude":"41.627184","longitude":"-73.91695","name":"Dicks Sporting Goods-Poughkeepsie,NY","address":"[Poughkeepsie Galleria], 2001 South Rd, Poughkeepsie,NY 12601, (845) 297-4767"},{"latitude":"43.328522","longitude":"-73.676358","name":"Dicks Sporting Goods-Queensbury,NY","address":"[Aviation Mall], 578 Aviation Road Space D-103, Queensbury,NY 12804, (518) 743-8790"},{"latitude":"40.924186","longitude":"-72.70416","name":"Dicks Sporting Goods-Riverhead,NY","address":"[Old Country Rd 58 Center], 1779 Old Country Rd, Riverhead,NY 11901, (631) 727-1395"},{"latitude":"43.206497","longitude":"-77.694313","name":"Dicks Sporting Goods-Rochester,NY","address":"[The Mall At Greece Ridge], 304 Greece Ridge Center, Rochester,NY 14626, (585) 227-3730"},{"latitude":"43.084613","longitude":"-77.637826","name":"Dicks Sporting Goods-Rochester,NY","address":"[Marketplace Mall], 305 Miracle Mile Drive, Rochester,NY 14623, (585) 697-7400"},{"latitude":"43.105007","longitude":"-73.741197","name":"Dicks Sporting Goods-Saratoga Springs,NY","address":"[Wilton Mall At Saratoga], 3065 Rt 50, Saratoga Springs,NY 12866, (518) 583-7218"},{"latitude":"40.585893","longitude":"-74.168426","name":"Dicks Sporting Goods-Staten Island,NY","address":"[Shops On Richmond Avenue], 2505 Richmond Avenue, Staten Island,NY 10314, (718) 982-7260"},{"latitude":"43.067624","longitude":"-76.1707583","name":"Dicks Sporting Goods-Syracuse,NY","address":"[Destiny Usa], 10311 Destiny Usa Dr, Syracuse,NY 13204, (315) 471-7770"},{"latitude":"40.6619644","longitude":"-73.7026062","name":"Dicks Sporting Goods-Valley Stream,NY","address":"[Green Acres Commons], 7 Green Acres Commons, Valley Stream,NY 11582, (516) 256-8722"},{"latitude":"42.094438","longitude":"-76.012451","name":"Dicks Sporting Goods-Vestal,NY","address":"[Town Square Mall], 2433 Vestal Pkwy East, Vestal,NY 13850, (607) 797-5220"},{"latitude":"43.029538","longitude":"-77.438469","name":"Dicks Sporting Goods-Victor,NY","address":"[Cobblestone Court], 20 Cobblestone Court Drive, Victor,NY 14564, (585) 223-1530"},{"latitude":"43.981899","longitude":"-75.949882","name":"Dicks Sporting Goods-Watertown,NY","address":"[Salmon Run Mall], 21143 Salmon Run Loop West, Watertown,NY 13601, (315) 786-8681"},{"latitude":"43.209952","longitude":"-77.450939","name":"Dicks Sporting Goods-Webster,NY","address":"[Towne Center At Webster], 1062 Ridge Road, Webster,NY 14580, (585) 872-1080"},{"latitude":"41.096524","longitude":"-73.960523","name":"Dicks Sporting Goods-West Nyack,NY","address":"[Palisades Center], 2400 Palisades Center Drive, West Nyack,NY 10994, (845) 353-1086"},{"latitude":"41.029522","longitude":"-73.759131","name":"Dicks Sporting Goods-White Plains,NY","address":"[The Source], 1 Maple Avenue, White Plains,NY 10605, (914) 328-3487"},{"latitude":"42.985604","longitude":"-78.696946","name":"Dicks Sporting Goods-Williamsville,NY","address":"[Eastgate Plaza], 5105 Transit Rd, Williamsville,NY 14221, (716) 565-0417"},{"latitude":"40.965007","longitude":"-73.844513","name":"Dicks Sporting Goods-Yonkers,NY","address":"[Ridge Hill], 45 Fitzgerald Street, Yonkers,NY 10710, (914) 964-0580"},{"latitude":"41.3312187","longitude":"-73.810173","name":"Dicks Sporting Goods-Yorktown Heights,NY","address":"[Jefferson Valley Mall], 850 Lee Blvd, Yorktown Heights,NY 10598, (914) 302-5452"},{"latitude":"41.135897","longitude":"-81.643028","name":"Dicks Sporting Goods-Akron,OH","address":"[Market Square At Montrose], 4036 Medina Road, Akron,OH 44333, (330) 668-1231"},{"latitude":"41.118891","longitude":"-81.465886","name":"Dicks Sporting Goods-Akron,OH","address":"[The Plaza at Chapel Hill], 498 Howe Ave, Akron,OH 44221, (330) 923-8224"},{"latitude":"41.349879","longitude":"-81.387741","name":"Dicks Sporting Goods-Aurora,OH","address":"[Bainbridge Shopping Center], 7305 Marketplace Drive, Aurora,OH 44202, (330) 562-4200"},{"latitude":"39.767786","longitude":"-84.053634","name":"Dicks Sporting Goods-Beavercreek,OH","address":"[Mall At Fairfield Commons], 2727 Fairfield Commons Unit 6, Beavercreek,OH 45431, (937) 426-2955"},{"latitude":"41.024297","longitude":"-80.645723","name":"Dicks Sporting Goods-Boardman,OH","address":"[Applewood Commons], 550 Boardman Poland Road, Boardman,OH 44514, (330) 629-6871"},{"latitude":"40.861494","longitude":"-81.432432","name":"Dicks Sporting Goods-Canton,OH","address":"[Belden Parke Crossings], 5544 NW Dressler Road, Canton,OH 44720, (330) 966-0990"},{"latitude":"39.3618698","longitude":"-82.9749527","name":"Dicks Sporting Goods-Chillicothe,OH","address":"[Guernsey Crossing], 1251 N Bridge Street, Chillicothe,OH 45601, (740) 772-2424"},{"latitude":"39.131615","longitude":"-84.609587","name":"Dicks Sporting Goods-Cincinnati,OH","address":"[Western Hills Market Place] 5555 Glenway Ave, Cincinnati,OH 45238, (513) 347-7570"},{"latitude":"39.19896","longitude":"-84.380301","name":"Dicks Sporting Goods-Cincinnati,OH","address":"[Sycamore Plaza At Kenwood], 7800 Montgomery Road, Cincinnati,OH 45236, (513) 793-1033"},{"latitude":"39.095666","longitude":"-84.271732","name":"Dicks Sporting Goods-Cincinnati,OH","address":"[Eastgate Pavilion], 650 Eastgate South Drive, Cincinnati,OH 45245, (513) 752-5525"},{"latitude":"39.2595926","longitude":"-84.6024178","name":"Dicks Sporting Goods-Cincinnati,OH","address":"[Colerain Town Center] 10180 Colerain Ave, Cincinnati,OH 45251, (513) 741-0800"},{"latitude":"40.1414726","longitude":"-82.9789123","name":"Dicks Sporting Goods-Columbus,OH","address":"[Polaris Fashion Place], 1510 Polaris Pkwy ste A, Columbus,OH 43240, (614) 410-0018"},{"latitude":"40.0483203","longitude":"-82.9108565","name":"Dicks Sporting Goods-Columbus,OH","address":"[Easton Gateway Shopping Center], 4304 Easton Gateway Dr, Columbus,OH 43219, (614) 472-4250"},{"latitude":"39.636716","longitude":"-84.218972","name":"Dicks Sporting Goods-Dayton,OH","address":"[Dayton Mall], 2700 Miamisburg Centerville Road Suite 388, Dayton,OH 45459, (937) 436-5754"},{"latitude":"40.091433","longitude":"-83.091861","name":"Dicks Sporting Goods-Dublin,OH","address":"[Dublin], 6111 Sawmill Rd, Dublin,OH 43017, (614) 798-1111"},{"latitude":"41.391332","longitude":"-82.10962","name":"Dicks Sporting Goods-Elyria,OH","address":"[Midway Market Square], 360 Market Dr, Elyria,OH 44035, (440) 324-4100"},{"latitude":"41.05385","longitude":"-83.60787","name":"Dicks Sporting Goods-Findlay,OH","address":"[Hobby Lobby Plaza], 1960 Tiffin Avenue, Findlay,OH 45840, (419) 423-5830"},{"latitude":"39.878617","longitude":"-83.039765","name":"Dicks Sporting Goods-Grove City,OH","address":"[Parkway Centre], 1656 Stringtown Road, Grove City,OH 43123, (614) 801-1033"},{"latitude":"39.390701","longitude":"-84.503564","name":"Dicks Sporting Goods-Hamilton,OH","address":"[Bridgewater Falls], 3363 Princeton Road, Hamilton,OH 45011, (513) 892-4302"},{"latitude":"40.031113","longitude":"-82.443201","name":"Dicks Sporting Goods-Heath,OH","address":"[Indian Mound Mall], 771 South 30Th Street, Heath,OH 43056, (740) 522-5555"},{"latitude":"39.988476","longitude":"-83.151445","name":"Dicks Sporting Goods-Hilliard,OH","address":"[Tanglewood Plaza], 1825 Hilliard-Rome Road, Hilliard,OH 43026, (614) 777-1396"},{"latitude":"41.613957","longitude":"-83.697752","name":"Dicks Sporting Goods-Holland,OH","address":"[Spring Meadow], 1407 Spring Meadow Drive, Holland,OH 43528, (419) 867-0810"},{"latitude":"39.874426","longitude":"-84.137181","name":"Dicks Sporting Goods-Huber Heights,OH","address":"[North Heights Plaza], 8220 Old Troy Pike, Huber Heights,OH 45424, (937) 237-1900"},{"latitude":"39.732402","longitude":"-82.625015","name":"Dicks Sporting Goods-Lancaster,OH","address":"[River Valley Mall], 1500 River Valley Circle, Lancaster,OH 43130, (740) 654-6215"},{"latitude":"39.3983002","longitude":"-84.4163971","name":"Dicks Sporting Goods-Liberty Township,OH","address":"[Liberty Center], 7675 Warehouse Row, Liberty Township,OH 45069, (513) 712-9048"},{"latitude":"41.501343","longitude":"-81.504151","name":"Dicks Sporting Goods-Lyndhurst,OH","address":"[Legacy Village], 24545 Cedar Road, Lyndhurst,OH 44124, (216) 706-9400"},{"latitude":"39.307985","longitude":"-84.317353","name":"Dicks Sporting Goods-Mason,OH","address":"[Deerfield Town Center], 5700 Deerfield Boulevard, Mason,OH 45040, (513) 770-4070"},{"latitude":"41.6613029","longitude":"-81.3597833","name":"Dicks Sporting Goods-Mentor,OH","address":"[Great Lakes Mall], 7850 Mentor Ave [Ste 1044], Mentor,OH 44060, (440) 299-6005"},{"latitude":"40.4611053","longitude":"-81.4525146","name":"Dicks Sporting Goods-New Philadelphia,OH","address":"[New Towne Mall], 400 Mill Ave SE [ste C], New Philadelphia,OH 44663, (330) 556-5296"},{"latitude":"41.20935","longitude":"-80.747757","name":"Dicks Sporting Goods-Niles,OH","address":"[Romar Plaza], 5809 Youngstown Warren Road, Niles,OH 44446, (330) 505-9233"},{"latitude":"41.418729","longitude":"-81.909513","name":"Dicks Sporting Goods-North Olmstead,OH","address":"[Great Northern Mall], 200 Great Northern Mall, North Olmstead,OH 44070, (440) 686-2400"},{"latitude":"40.788075","longitude":"-82.595284","name":"Dicks Sporting Goods-Ontario,OH","address":"[Ontario Towne Center], 2235 Walker Lake Road, Ontario,OH 44903, (419) 747-2727"},{"latitude":"41.384505","longitude":"-81.7409936","name":"Dicks Sporting Goods-Parma,OH","address":"[The Shoppes at Parma], 8113 W Ridgewood Dr, Parma,OH 44129, (440) 345-3035"},{"latitude":"41.43484","longitude":"-82.690349","name":"Dicks Sporting Goods-Sandusky,OH","address":"[Sandusky Pavillion], 4020 Milan Road [Rte 250], Sandusky,OH 44870, (419) 621-1660"},{"latitude":"39.9477817","longitude":"-83.8334177","name":"Dicks Sporting Goods-Springfield,OH","address":"[Bechtle Crossing], 1690 N Bechtle Ave, Springfield,OH 45504, (937) 523-0027"},{"latitude":"40.367486","longitude":"-80.674676","name":"Dicks Sporting Goods-Steubenville,OH","address":"[Fort Steuben Mall], 100 Mall Drive, Steubenville,OH 43952, (740) 266-6323"},{"latitude":"41.310936","longitude":"-81.818688","name":"Dicks Sporting Goods-Strongsville,OH","address":"[Westfield Shoppingtown South Park], 17071 Southpark Center, Strongsville,OH 44136, (440) 268-9153"},{"latitude":"41.698194","longitude":"-83.642137","name":"Dicks Sporting Goods-Toledo,OH","address":"[Westfield Shoppingtown Franklin Park], 5001 Monroe Street, Toledo,OH 43623, (419) 474-0170"},{"latitude":"41.459592","longitude":"-81.953044","name":"Dicks Sporting Goods-Westlake,OH","address":"[Crocker Park], 300 Crocker Park Blvd, Westlake,OH 44145, (440) 835-3723"},{"latitude":"40.8482462","longitude":"-81.9454799","name":"Dicks Sporting Goods-Wooster,OH","address":"[Wayne Town Center], 4027 Burbank Road, Wooster,OH 44691, (330) 234-5183"},{"latitude":"36.064888","longitude":"-95.774262","name":"Dicks Sporting Goods-Broken Arrow,OK","address":"[Shops At Broken Arrow], 1620 E Hillside Drive, Broken Arrow,OK 74012, (918) 355-3310"},{"latitude":"34.6121451","longitude":"-98.3903957","name":"Dicks Sporting Goods-Lawton,OK","address":"[Lawton Town Center], 261 NW 2nd St, Lawton,OK 73501, (580) 350-3079"},{"latitude":"35.435257","longitude":"-97.404672","name":"Dicks Sporting Goods-Midwest City,OK","address":"[Town Center Plaza], 7095 Se 29Th Street, Midwest City,OK 73110, (405) 732-0820"},{"latitude":"35.319816","longitude":"-97.502209","name":"Dicks Sporting Goods-Moore,OK","address":"[Fritts Farm], 760 Sw 19Th Street, Moore,OK 73160, (405) 237-1585"},{"latitude":"35.7694653","longitude":"-95.3684487","name":"Dicks Sporting Goods-Muskogee,OK","address":"[Three Rivers Plaza], 701 West Shawnee Ave, Muskogee,OK 74401, (918) 913-3855"},{"latitude":"35.461647","longitude":"-97.62937","name":"Dicks Sporting Goods-Oklahoma City,OK","address":"[Westgate Marketplace], 6601 Sw 3Rd Street, Oklahoma City,OK 73128, (405) 491-2570"},{"latitude":"35.615019","longitude":"-97.549501","name":"Dicks Sporting Goods-Oklahoma City,OK","address":"[Shops At Quail Spring], 14200 N Pennsylvania Avenue, Oklahoma City,OK 73134, (405) 749-4610"},{"latitude":"36.057473","longitude":"-96.003097","name":"Dicks Sporting Goods-Tulsa,OK","address":"[Tulsa Hills Shopping Center], 7523 S Olympia Avenue, Tulsa,OK 74132, (918) 447-1100"},{"latitude":"36.060988","longitude":"-95.863313","name":"Dicks Sporting Goods-Tulsa,OK","address":"[Sollco Union Plaza], 10021 E 71St Street, Tulsa,OK 74133, (918) 249-4444"},{"latitude":"44.10253","longitude":"-121.299287","name":"Dicks Sporting Goods-Bend,OR","address":"[Cascade Village Shopping Center], 63455 N Highway 97 Suite 8, Bend,OR 97701, (541) 317-4820"},{"latitude":"45.45301","longitude":"-122.579129","name":"Dicks Sporting Goods-Clackamas,OR","address":"[Johnson Creek Crossing], 9600 Se 82Nd Street, Clackamas,OR 97086, (503) 788-7616"},{"latitude":"44.093782","longitude":"-123.096719","name":"Dicks Sporting Goods-Eugene,OR","address":"[Delta Oaks], 1030 Greenacres Road, Eugene,OR 97408, (541) 344-9622"},{"latitude":"45.502569","longitude":"-122.436136","name":"Dicks Sporting Goods-Gresham,OR","address":"[Gresham Town Fair], 700 Nw Eastman Parkway, Gresham,OR 97030, (503) 667-1950"},{"latitude":"45.537208","longitude":"-122.903141","name":"Dicks Sporting Goods-Hillsboro,OR","address":"[Crossroads Shopping Center], 7280 Nw Butler Street, Hillsboro,OR 97124, (503) 547-2904"},{"latitude":"45.396673","longitude":"-122.743258","name":"Dicks Sporting Goods-Lake Oswego,OR","address":"[Meridian Square], 17799 Lower Boones Ferry Road, Lake Oswego,OR 97035, (503) 635-3800"},{"latitude":"42.3429032","longitude":"-122.8860685","name":"Dicks Sporting Goods-Medford,OR","address":"[Northgate Marketplace], 293 Rossanley Drive - Suite A, Medford,OR 97501, (541) 930-3254"},{"latitude":"45.593953","longitude":"-122.678611","name":"Dicks Sporting Goods-Portland,OR","address":"[Hayden Meadows Square], 1140 N Hayden Meadows Drive, Portland,OR 97217, (503) 285-5040"},{"latitude":"44.931373","longitude":"-122.983275","name":"Dicks Sporting Goods-Salem,OR","address":"[Salem], 275 Lancaster Drive, Salem,OR 97301, (503) 363-4860"},{"latitude":"45.450433","longitude":"-122.783513","name":"Dicks Sporting Goods-Tigard,OR","address":"[Washington Square], 9402 Sw Washington Square Road, Tigard,OR 97223, (503) 598-3081"},{"latitude":"40.5657806","longitude":"-75.5674896","name":"Dicks Sporting Goods-Allentown,PA","address":"[Hamilton Crossing], 707 North Krocks Rd, Suite 101, Allentown,PA 18106, (484) 866-9428"},{"latitude":"40.487781","longitude":"-78.385791","name":"Dicks Sporting Goods-Altoona,PA","address":"[Logan Town Center], 149 Falon Lane, Altoona,PA 16602, (814) 941-2273"},{"latitude":"40.896528","longitude":"-79.907741","name":"Dicks Sporting Goods-Butler,PA","address":"[Clearview Mall], 1521 N Main Street, Butler,PA 16001, (724) 284-8140"},{"latitude":"39.9273507","longitude":"-77.628966","name":"Dicks Sporting Goods-Chambersburg,PA","address":"[Franklin Center], 1320 Lincoln Way E, Chambersburg,PA 17202, (717) 446-8115"},{"latitude":"40.164749","longitude":"-75.477989","name":"Dicks Sporting Goods-Collegeville,PA","address":"[Providence Town Center], 400 Front Street, Collegeville,PA 19426, (610) 409-9790"},{"latitude":"40.705526","longitude":"-80.110796","name":"Dicks Sporting Goods-Cranberry Twp,PA","address":"[Cranberry Crossroads], 2021 Mackenzie Way, Cranberry Twp,PA 16066, (724) 778-3010"},{"latitude":"41.462132","longitude":"-75.647127","name":"Dicks Sporting Goods-Dickson City,PA","address":"[Dickson City Crossing], 600 Commerce Blvd, Dickson City,PA 18519, (570) 963-1550"},{"latitude":"40.017844","longitude":"-75.680344","name":"Dicks Sporting Goods-Downingtown,PA","address":"[Brandywine Square], 1026 E Lancaster Avenue, Downingtown,PA 19335, (610) 518-5200"},{"latitude":"40.656473","longitude":"-75.286235","name":"Dicks Sporting Goods-Easton,PA","address":"[The Village At Southmont Center], 4423 Birkland Place, Easton,PA 18045, (610) 330-0383"},{"latitude":"42.065399","longitude":"-80.103771","name":"Dicks Sporting Goods-Erie,PA","address":"[Millcreek Pavilion], 2088 Interchange Rd, Erie,PA 16565, (814) 864-3500"},{"latitude":"40.185443","longitude":"-74.868578","name":"Dicks Sporting Goods-Fairless Hills,PA","address":"[Court At Oxford Valley], 150 Commerce Blvd, Fairless Hills,PA 19030, (215) 946-8750"},{"latitude":"40.301943","longitude":"-79.540364","name":"Dicks Sporting Goods-Greensburg,PA","address":"[Hempfield Pointe Plaza], Rr 17 Box 18, Greensburg,PA 15601, (724) 522-9777"},{"latitude":"40.303168","longitude":"-79.511592","name":"Dicks Sporting Goods-Greensburg,PA","address":"[Westmoreland Mall], 5289 Route 30, Greensburg,PA 15601, (724) 853-1752"},{"latitude":"39.821974","longitude":"-76.996803","name":"Dicks Sporting Goods-Hanover,PA","address":"[North Hanover Mall], 1155 Carlisle Street, Hanover,PA 17331, (717) 632-9362"},{"latitude":"40.310647","longitude":"-76.802173","name":"Dicks Sporting Goods-Harrisburg,PA","address":"[Colonial Commons], 5086 Jonestown Rd, Harrisburg,PA 17112, (717) 652-3174"},{"latitude":"40.412079","longitude":"-79.911037","name":"Dicks Sporting Goods-Homestead,PA","address":"[The Waterfront], 350 East Waterfront Drive, Homestead,PA 15120, (412) 476-9940"},{"latitude":"40.0840882","longitude":"-75.3860264","name":"Dicks Sporting Goods-King Of Prussia,PA","address":"[King of Prussia Mall], 160 Gulph Rd [Ste 4000], King of Prussia,PA 19406, (484) 751-0071"},{"latitude":"40.6865365","longitude":"-79.9791545","name":"Dicks Sporting Goods-McCandless,PA","address":"[McCandless], 830 Providence Blvd, McCandless,PA 15237, (412) 548-0012"},{"latitude":"40.189212","longitude":"-76.991665","name":"Dicks Sporting Goods-Mechanicsburg,PA","address":"[Hampden Commons], 5950 Carlisle Pike\/Us Rt 11, Mechanicsburg,PA 17055, (717) 766-8377"},{"latitude":"40.629215","longitude":"-80.389932","name":"Dicks Sporting Goods-Monaca,PA","address":"[Beaver Valley Mall], 675 Route 18, Monaca,PA 15061, (724) 770-9081"},{"latitude":"40.431044","longitude":"-79.7952253","name":"Dicks Sporting Goods-Monroeville,PA","address":"[Monroeville Mall], 501 Monroeville Mall, Monroiville,PA 15146, (412) 834-0024"},{"latitude":"40.234151","longitude":"-75.241951","name":"Dicks Sporting Goods-North Wales,PA","address":"[Montgomery Mall], 113 Montgomery Mall, North Wales,PA 19454, (215) 368-2186"},{"latitude":"40.083495","longitude":"-74.965808","name":"Dicks Sporting Goods-Philadelphia,PA","address":"[Liberty Plaza], 20 Franklin Mills Blvd, Philadelphia,PA 19154, (215) 637-3230"},{"latitude":"40.454761","longitude":"-80.15501","name":"Dicks Sporting Goods-Pittsburgh,PA","address":"[Robinson Town Centre], 5000 Robinson Centre Drive, Pittsburgh,PA 15205, (412) 787-1330"},{"latitude":"40.342015","longitude":"-80.053267","name":"Dicks Sporting Goods-Pittsburgh,PA","address":"[South Hills Village], 301 South Hills Village Drive Suite #201, Pittsburgh,PA 15241, (412) 831-5570"},{"latitude":"40.102058","longitude":"-75.291928","name":"Dicks Sporting Goods-Plymouth Meeting,PA","address":"[The Metroplex], 2430 Chemical Road, Plymouth Meeting,PA 19462, (610) 260-4400"},{"latitude":"40.23337","longitude":"-75.660259","name":"Dicks Sporting Goods-Pottstown,PA","address":"[Coventry Mall], Route 724 And Route 100, Pottstown,PA 19465, (610) 323-7100"},{"latitude":"40.359303","longitude":"-75.986352","name":"Dicks Sporting Goods-Reading,PA","address":"[Broadcasting Square], 2767 Paper Mill Road Space F, Reading,PA 19610, (610) 373-7366"},{"latitude":"40.818574","longitude":"-76.868144","name":"Dicks Sporting Goods-Selinsgrove,PA","address":"[Monroe Commons], 486 Martketplace, Selinsgrove,PA 17870, (570) 743-1780"},{"latitude":"40.812184","longitude":"-77.90503","name":"Dicks Sporting Goods-State College,PA","address":"[The Colonnade At State College], 325 Lowes Blvd, State College,PA 16803, (814) 861-1350"},{"latitude":"40.998615","longitude":"-75.266002","name":"Dicks Sporting Goods-Stroudsburg,PA","address":"[Bartonsville Square], 500 Commerce Blvd, Stroudsburg,PA 18360, (570) 421-7501"},{"latitude":"40.572652","longitude":"-79.791859","name":"Dicks Sporting Goods-Tarentum,PA","address":"[Galleria At Pittsburgh Mills], 329 Pittsburgh Mills Circle, Tarentum,PA 15084, (724) 274-0240"},{"latitude":"39.9151768","longitude":"-79.7561395","name":"Dicks Sporting Goods-Uniontown,PA","address":"[Fayette Crossing], 320 Walmart Drive, Uniontown,PA 15401, (724) 415-3460"},{"latitude":"40.186715","longitude":"-80.221917","name":"Dicks Sporting Goods-Washington,PA","address":"[Strabane Square], 347 Washington Road, Washington,PA 15301, (724) 229-7556"},{"latitude":"40.338026","longitude":"-79.937641","name":"Dicks Sporting Goods-West Mifflin,PA","address":"[Century lll Mall], 3075 Clairton Road Space 800, West Mifflin,PA 15123, (412) 650-0132"},{"latitude":"40.645022","longitude":"-75.492807","name":"Dicks Sporting Goods-Whitehall,PA","address":"[Allentown], 2631 Macarther Road, Whitehall,PA 18052, (610) 231-0691"},{"latitude":"41.240903","longitude":"-75.841659","name":"Dicks Sporting Goods-Wilkes Barre,PA","address":"[Arena Hub Plaza], 479 Arena Hub Plaza, Wilkes Barre,PA 18702, (570) 823-8288"},{"latitude":"41.213334","longitude":"-76.749886","name":"Dicks Sporting Goods-Williamsport,PA","address":"[Lycoming Mall], 300 Lyncoming Mall Circle, Williamsport,PA 17756, (570) 546-2625"},{"latitude":"40.143509","longitude":"-75.12069","name":"Dicks Sporting Goods-Willow Grove,PA","address":"[Plaza At Willow Grove], 2510 Moreland Rd, Willow Grove,PA 19090, (215) 657-8977"},{"latitude":"39.97448","longitude":"-76.764899","name":"Dicks Sporting Goods-York,PA","address":"[Market Square], Rt 30 & Kenneth Road, York,PA 17404, (717) 848-1696"},{"latitude":"39.983228","longitude":"-76.666332","name":"Dicks Sporting Goods-York,PA","address":"[York Town Center], 2925 Concord Raod, York,PA 17402, (717) 751-4450"},{"latitude":"41.870189","longitude":"-71.521669","name":"Dicks Sporting Goods-Smithfield,RI","address":"[The Crossing At Smithfield], 371 Putnam Pike Suite 300, Smithfield,RI 02917, (401) 232-0051"},{"latitude":"41.701712","longitude":"-71.495132","name":"Dicks Sporting Goods-Warwick,RI","address":"[Warwick Centre], 1350 East Bald Hill Road, Warwick,RI 02886, (401) 823-8079"},{"latitude":"34.553851","longitude":"-82.676714","name":"Dicks Sporting Goods-Anderson,SC","address":"[Midtown Park], 140 Fritz Drive, Anderson,SC 29621, (864) 225-7252"},{"latitude":"32.255613","longitude":"-80.848704","name":"Dicks Sporting Goods-Bluffton,SC","address":"[Bluffton Target Center], 1050 Fording Island Road Suite B, Bluffton,SC 29230, (843) 815-3000"},{"latitude":"32.792206","longitude":"-80.030911","name":"Dicks Sporting Goods-Charleston,SC","address":"[Citadel Mall], 2070 Sam Rittenburg Blvd, Charleston,SC 29407, (843) 573-0891"},{"latitude":"34.069264","longitude":"-81.161993","name":"Dicks Sporting Goods-Columbia,SC","address":"[Columbiana Station Shopping Center], 1110 Bower Parkway, Columbia,SC 29212, (803) 749-0756"},{"latitude":"34.120414","longitude":"-80.877448","name":"Dicks Sporting Goods-Columbia,SC","address":"[Target Center], 10204A Two Notch Road, Ne Columbia,SC 29229, (803) 699-8380"},{"latitude":"34.189899","longitude":"-79.836829","name":"Dicks Sporting Goods-Florence,SC","address":"[Magnolia Mall], David Mcleod Blvd Suite 1500, Florence,SC 29501, (843) 413-1321"},{"latitude":"34.826763","longitude":"-82.299191","name":"Dicks Sporting Goods-Greenville,SC","address":"[The Shops At Greenridge], 1125 Woodruff Road, Greenville,SC 29607, (864) 284-6199"},{"latitude":"32.8116768","longitude":"-79.8540207","name":"Dicks Sporting Goods-Mount Pleasant,SC","address":"[Kmart Center], 1114 Bowman Rd, Mount Plesant,SC 29464, (843) 800-3032"},{"latitude":"33.704185","longitude":"-78.925865","name":"Dicks Sporting Goods-Myrtle Beach,SC","address":"[Mall Of South Carolina], 600 Costal Grand Circle, Myrtle Beach,SC 29577, (843) 916-9148"},{"latitude":"33.8423236","longitude":"-78.6615079","name":"Dicks Sporting Goods-North Myrtle Beach,SC","address":"[Coastal North Town center], 1536 Hwy 17 North, North Myrtle Beach,SC 29582, (843) 213-2103"},{"latitude":"34.942524","longitude":"-80.979364","name":"Dicks Sporting Goods-Rock Hill,SC","address":"[Manchester Village], 548 John Ross Parkway, Rock Hill,SC 29730, (803) 324-2393"},{"latitude":"34.938988","longitude":"-81.991108","name":"Dicks Sporting Goods-Spartanburg,SC","address":"[Westgate Plaza], 205 West Blackstock Road Suite 960, Spartanburg,SC 29301, (864) 595-9455"},{"latitude":"33.038667","longitude":"-80.159497","name":"Dicks Sporting Goods-Summerville,SC","address":"[Azalea Square], 355 Azalea Sq Blvd, Summerville,SC 29483, (843) 873-4065"},{"latitude":"43.512923","longitude":"-96.777089","name":"Dicks Sporting Goods-Sioux Falls,SD","address":"[Empire Mall], 1080 W Empire Mall, Sioux Falls,SD 57106, (605) 362-6550"},{"latitude":"35.768769","longitude":"-83.986374","name":"Dicks Sporting Goods-Alcoa,TN","address":"[Hamilton Crossing], 221 Hamitlon Crossing Drive, Alcoa,TN 37701, (865) 379-1480"},{"latitude":"36.59311","longitude":"-82.2618","name":"Dicks Sporting Goods-Bristol,TN","address":"[The Pinnacle], 434 Pinnacle Pkwy, Bristol,TN 37620, (423) 217-6696"},{"latitude":"35.030982","longitude":"-85.155124","name":"Dicks Sporting Goods-Chattanooga,TN","address":"[Hamilton Village], 2020 Gunbarrel Road Sutie 182, Chattanooga,TN 37421, (423) 892-3122"},{"latitude":"36.587695","longitude":"-87.293853","name":"Dicks Sporting Goods-Clarksville,TN","address":"[Governor'S Square], 2801 Wilma Rudolph Blvd Unit 195, Clarksville,TN 37040, (931) 645-2255"},{"latitude":"35.190814","longitude":"-89.792639","name":"Dicks Sporting Goods-Cordova,TN","address":"[Countrywood Crossings], 2393 N Germantown Parkway, Cordova,TN 38016, (901) 386-5302"},{"latitude":"35.951369","longitude":"-86.818091","name":"Dicks Sporting Goods-Franklin,TN","address":"[Cool Springs Market], 2000 Malory Lane Suite 270, Franklin,TN 37067, (615) 778-0595"},{"latitude":"35.663947","longitude":"-88.859492","name":"Dicks Sporting Goods-Jackson,TN","address":"[The Columns], 1165 Vann Drive, Jackson,TN 38305, (731) 660-4344"},{"latitude":"36.302367","longitude":"-82.295511","name":"Dicks Sporting Goods-Johnson City,TN","address":"[Mall At Johnson City], 2011 North Road Street, Johnson City,TN 37601, (423) 282-4430"},{"latitude":"36.545993","longitude":"-82.555744","name":"Dicks Sporting Goods-Kingsport,TN","address":"[Kingsport Pavilion], 2626 East Stpme Drove, Kingsport,TN 37660, (423) 245-3412"},{"latitude":"35.91622","longitude":"-84.0837","name":"Dicks Sporting Goods-Knoxville,TN","address":"[The Commons], 221 North Peters Road, Knoxville,TN 37923, (865) 531-2221"},{"latitude":"36.307917","longitude":"-86.683484","name":"Dicks Sporting Goods-Madison,TN","address":"[Northside Marketplace], 2305 Gallatin Pike, Madison,TN 37115, (615) 855-1443"},{"latitude":"35.05102","longitude":"-89.808129","name":"Dicks Sporting Goods-Memphis,TN","address":"[Centennial Commons], 766 Polo Grounds Blvd, Memphis,TN 38125, (901) 737-2216"},{"latitude":"36.1771317","longitude":"-83.2652893","name":"Dicks Sporting Goods-Morristown,TN","address":"[College Square Mall], 2550 E Morris Blvd [ste 9], Morristown,TN 37813, (423) 438-0444"},{"latitude":"36.166386","longitude":"-86.514374","name":"Dicks Sporting Goods-Mt Juliet,TN","address":"[Providence Market Place], 401 South Mt Juliet Road Suite 605, Mt. Juliet,TN 37122, (615) 773-6160"},{"latitude":"35.860617","longitude":"-86.442926","name":"Dicks Sporting Goods-Murfreesboro,TN","address":"[The Avenue Murfreesboro], 2615 Medical Center Parkway, Murfreesboro,TN 37129, (615) 896-8882"},{"latitude":"36.134137","longitude":"-86.889581","name":"Dicks Sporting Goods-Nashville,TN","address":"[Nashville West], 6812 Charlotte Pike, Nashville,TN 37209, (615) 354-0102"},{"latitude":"35.882611","longitude":"-83.572532","name":"Dicks Sporting Goods-Sevierville,TN","address":"[River Landing], 713 Winfield Dunn Pkwy, Sevierville,TN 37876, (865) 868-3410"},{"latitude":"33.129777","longitude":"-96.654569","name":"Dicks Sporting Goods-Allen,TX","address":"[The Village At Allen], 170 E Stacy Road, Allen,TX 75002, (972) 678-0650"},{"latitude":"32.682869","longitude":"-97.133318","name":"Dicks Sporting Goods-Arlington,TX","address":"[Parks At Arlington], 3891 South Cooper Street, Arlington,TX 76015, (817) 987-4800"},{"latitude":"30.398161","longitude":"-97.72632","name":"Dicks Sporting Goods-Austin,TX","address":"[Domain Crossing], 3210 Kramer Lane, Austin,TX 78758, (512) 339-3299"},{"latitude":"30.308118","longitude":"-97.936842","name":"Dicks Sporting Goods-Bee Cave,TX","address":"[Hill Country Galleria], 3921 Market Street, Bee Cave,TX 78738, (512) 263-2953"},{"latitude":"25.9488159","longitude":"-97.5044842","name":"Dicks Sporting Goods-Brownsville,TX","address":"[Sunrise Mall], 2370 N Expressway, Brownsville,TX 78521, (956) 465-2013"},{"latitude":"32.60052","longitude":"-96.944352","name":"Dicks Sporting Goods-Cedar Hill,TX","address":"[Uptown Village], 305 West Fm 1382, Cedar Hill,TX 75104, (972) 291-5530"},{"latitude":"30.530797","longitude":"-97.819367","name":"Dicks Sporting Goods-Cedar Park,TX","address":"[The Parke], 5001 183a Toll Rd [ste A], Cedar Park,TX 78613, (512) 528-0091"},{"latitude":"27.71044","longitude":"-97.36939","name":"Dicks Sporting Goods-Corpus Christi,TX","address":"[The Shops At La Palmera], 4938 South Staples Street, Corpus Christi,TX 78411, (361) 980-1535"},{"latitude":"32.935452","longitude":"-96.821657","name":"Dicks Sporting Goods-Dallas,TX","address":"[Galleria], 13838 Dallas Parkway, Dallas,TX 75240, (972) 239-5455"},{"latitude":"32.871909","longitude":"-96.768196","name":"Dicks Sporting Goods-Dallas,TX","address":"[Park Lane], 8030 Park Lane, Dallas,TX 75231, (214) 696-5800"},{"latitude":"31.770931","longitude":"-106.375307","name":"Dicks Sporting Goods-El Paso,TX","address":"[The Fountains Of Farah], 8889 Gateway West Blvd, El Paso,TX 79925, (915) 633-1120"},{"latitude":"33.06421","longitude":"-97.079343","name":"Dicks Sporting Goods-Flower Mound,TX","address":"[The Highlands], 5801 Long Prairie Road, Flower Mound,TX 75028, (972) 355-1111"},{"latitude":"32.906707","longitude":"-97.315278","name":"Dicks Sporting Goods-Fort Worth,TX","address":"[Alliance Town Center] 9356 Sage Meadow Trail, Fort Worth,TX 76177, (817) 750-1170"},{"latitude":"33.101216","longitude":"-96.805803","name":"Dicks Sporting Goods-Frisco,TX","address":"[Stonebriar Center], 2611 Preston Road, Frisco,TX 75034, (214) 618-0200"},{"latitude":"32.951195","longitude":"-96.613428","name":"Dicks Sporting Goods-Garland,TX","address":"[Firewheel Town Center], 205 Coneflower Drive, Garland,TX 75040, (972) 495-3208"},{"latitude":"31.071504","longitude":"-97.669788","name":"Dicks Sporting Goods-Harker Heights,TX","address":"[Market Heights], 201 East Central Texas Expressway, Harker Heights,TX 76548, (254) 690-4220"},{"latitude":"29.9784927","longitude":"-95.5733719","name":"Dicks Sporting Goods-Houston,TX","address":"[Willowbrook Mall], 7925 Fm1960 Rd W, Houston,TX 77070, (281) 571-7051"},{"latitude":"32.828775","longitude":"-97.197294","name":"Dicks Sporting Goods-Hurst,TX","address":"[Northeast Mall], 1101 Melbourne Road, Hurst,TX 76053, (817) 590-0740"},{"latitude":"32.921758","longitude":"-96.972123","name":"Dicks Sporting Goods-Irving,TX","address":"[Las Colinas], 2000 Market Place Blvd, Irving,TX 75063, (972) 402-0600"},{"latitude":"32.537364","longitude":"-94.752738","name":"Dicks Sporting Goods-Longview,TX","address":"[Longview Mall], 3500 Mccann Road, Suite K101, Longview,TX 75605, (903) 653-1437"},{"latitude":"29.726627","longitude":"-98.070081","name":"Dicks Sporting Goods-New Braunfels,TX","address":"[Towne Center At Creekside], 303 Creekside Way, New Braunfels,TX 78130, (830) 629-3100"},{"latitude":"30.471506","longitude":"-97.595086","name":"Dicks Sporting Goods-Pflugerville,TX","address":"[Stone Hill Town Center], 19000 Limestone Commercial Drive, Pflugerville,TX 78660, (512) 252-2800"},{"latitude":"32.906773","longitude":"-96.451624","name":"Dicks Sporting Goods-Rockwall,TX","address":"[The Plaza At Rockwall], 1005 E Ih30, Rockwall,TX 75087, (972) 722-4434"},{"latitude":"29.487638","longitude":"-98.708969","name":"Dicks Sporting Goods-San Antonio,TX","address":"[Alamo Ranch Market], 5503 West Loop 1604 North, San Antonio,TX 78253, (210) 680-2288"},{"latitude":"29.613059","longitude":"-98.602843","name":"Dicks Sporting Goods-San Antonio,TX","address":"[The Rim Center], 18103 Rim Drive, San Antonio,TX 78257, (210) 558-3444"},{"latitude":"29.355974","longitude":"-98.531082","name":"Dicks Sporting Goods-South San Antonio,TX","address":"[South Park Mall], 2310 SW Military Dr [Ste 2002], South San Antonio,TX 78224, (210) 202-2206"},{"latitude":"40.3804929","longitude":"-111.8196457","name":"Dicks Sporting Goods-American Fork,UT","address":"[American Fork], 841 W Pacific Dr, American Fork,UT 84003, (801) 692-6137"},{"latitude":"41.07751","longitude":"-111.97352","name":"Dicks Sporting Goods-Layton,UT","address":"[Layton Hills Mall], 1201 N Hill Field Road #1024, Layton,UT 84041, (801) 444-6656"},{"latitude":"40.617428","longitude":"-111.862576","name":"Dicks Sporting Goods-Midvale,UT","address":"[Family Center At Fort Union], 7171 S 1000 E, Midvale,UT 84047, (801) 566-2920"},{"latitude":"40.273407","longitude":"-111.692186","name":"Dicks Sporting Goods-Orem,UT","address":"[Family Center At Orem], 130 E University Parkway, Orem,UT 84058, (801) 225-7073"},{"latitude":"37.108005","longitude":"-113.554898","name":"Dicks Sporting Goods-Saint George,UT","address":"[Red Rocks Commons], 15 South River Rd Suite 240, Saint George,UT 84790, (435) 673-4261"},{"latitude":"40.769005","longitude":"-111.904127","name":"Dicks Sporting Goods-Salt Lake City,UT","address":"[The Gateway], 41 South Rio Grande, Salt Lake City,UT 84101, (801) 456-0200"},{"latitude":"38.851593","longitude":"-77.126481","name":"Dicks Sporting Goods-Bailey'S Crossroads,VA","address":"[Crossroads Center], 5716 Columbia Pike, Bailey'S Crossroads,VA 22041, (703) 933-0736"},{"latitude":"38.088398","longitude":"-78.474112","name":"Dicks Sporting Goods-Charlottesville,VA","address":"[Rio Hill Shopping Center], 1940 Rio Hill Center, Charlottesville,VA 22901, (434) 974-5640"},{"latitude":"37.9524078","longitude":"-78.4751205","name":"Dicks Sporting Goods-Charlottesville,VA","address":"[5th Street Station], 120 Wegmans Way, Building 200, Suite A, Charlottesville,VA 22902, (434) 270-7117"},{"latitude":"36.7796593","longitude":"-76.2557602","name":"Dicks Sporting Goods-Chesapeake,VA","address":"[Greenbrier Square], 1501 Sentinel Drive, Suite A, Chesapeake,VA 23320, (757) 386-4274"},{"latitude":"37.163183","longitude":"-80.427893","name":"Dicks Sporting Goods-Christiansburg,VA","address":"[River Valley Mall], 100 New River Road, Christiansburg,VA 24073, (540) 381-0102"},{"latitude":"37.253289","longitude":"-77.39567","name":"Dicks Sporting Goods-Colonial Heights,VA","address":"[Southpark Mall] 324 Southpark Circle, Colonial Heights,VA 23834, (804) 526-2745 (opening soon)"},{"latitude":"38.4817956","longitude":"-77.9683299","name":"Dicks Sporting Goods-Culpeper,VA","address":"[Culpeper Colonnade], 15359 Montanus Dr, Culpeper,VA 22701, (540) 317-4839"},{"latitude":"38.650759","longitude":"-77.29479","name":"Dicks Sporting Goods-Dale City,VA","address":"[Smoke Town Station], 13080 Worth Avenue, Dale City,VA 22192, (703) 491-9432"},{"latitude":"36.599516","longitude":"-79.417584","name":"Dicks Sporting Goods-Danville,VA","address":"[Coleman Marketplace], 145 Holt Garrison Parkway, Danville,VA 24540, (434) 792-9612"},{"latitude":"39.02895","longitude":"-77.423095","name":"Dicks Sporting Goods-Dulles,VA","address":"[Dulles Town Center], 21070 Dulles Town Circle, Dulles,VA 20166, (571) 434-0046"},{"latitude":"38.858756","longitude":"-77.380009","name":"Dicks Sporting Goods-Fairfax,VA","address":"[East Market], 12501 Fairlakes Circle, Fairfax,VA 22033, (703) 803-0300"},{"latitude":"38.293988","longitude":"-77.514189","name":"Dicks Sporting Goods-Fredericksburg,VA","address":"[Spotsylvania Mall], 137 Spotsylvania Mall Unit 290, Fredericksburg,VA 22407, (540) 548-1200"},{"latitude":"38.225086","longitude":"-77.505788","name":"Dicks Sporting Goods-Fredericksburg,VA","address":"[Cosner'S Corner], 9721 Jefferson Davis Parkway, Fredericksburg,VA 22408, (540) 834-4561"},{"latitude":"38.784861","longitude":"-77.649714","name":"Dicks Sporting Goods-Gainesville,VA","address":"[Shops At Stonewall], 8009 Stonewall Shops Square, Gainesville,VA 20155, (571) 248-6261"},{"latitude":"37.669677","longitude":"-77.46101","name":"Dicks Sporting Goods-Glen Allen,VA","address":"[The Creeks], 9940 Brook Road, Glen Allen,VA 23059, (804) 261-1853"},{"latitude":"38.429801","longitude":"-78.842108","name":"Dicks Sporting Goods-Harrisonburg,VA","address":"[Valley Mall], 1925 East Market Street, Harrisonburg,VA 22801, (540) 433-1268"},{"latitude":"39.1135725","longitude":"-77.5365968","name":"Dicks Sporting Goods-Leesburg,VA","address":"[Battlefield Shopping Center], 1079 Edwards Ferry Road, Leesburg,VA 20176, (571) 707-3344"},{"latitude":"37.346954","longitude":"-79.189012","name":"Dicks Sporting Goods-Lynchburg,VA","address":"[Ward'S Crossing], 4026-C Wards Road, Lynchburg,VA 24502, (434) 832-5666"},{"latitude":"38.78689","longitude":"-77.516281","name":"Dicks Sporting Goods-Manassas,VA","address":"[Bull Run Plaza], 10800 Sudley Manor Drive, Manassas,VA 20109, (703) 257-4300"},{"latitude":"37.112279","longitude":"-76.499243","name":"Dicks Sporting Goods-Newport News,VA","address":"[Patrick Henry Mall], 12300 Jefferson Avenue, Newport News,VA 23602, (757) 249-2140"},{"latitude":"37.512026","longitude":"-77.608396","name":"Dicks Sporting Goods-North Chesterfield,VA","address":"[Chesterfield Plaza], 1520 W Koger Center Blvd, North Chesterfield,VA 23235, (804) 897-5299"},{"latitude":"37.654414","longitude":"-77.62354","name":"Dicks Sporting Goods-Richmond,VA","address":"[Short Pump Town Center], 11800 W Broad Street Suite 1096, Richmond,VA 23233, (804) 360-8165"},{"latitude":"37.547478","longitude":"-77.573165","name":"Dicks Sporting Goods-Richmond,VA","address":"[Stony Point Fashion Park], 9204 Stony Point Pkwy, Richmond,VA 23235, (804) 253-0800"},{"latitude":"37.307883","longitude":"-79.963168","name":"Dicks Sporting Goods-Roanoke,VA","address":"[Valley View Mall], 1910 Valley View Blvd Nw, Roanoke,VA 24012, (540) 265-0861"},{"latitude":"38.7721903","longitude":"-77.1761421","name":"Dicks Sporting Goods-Springfield,VA","address":"[Springfield Town Center], 6601 Springfield Mall, Springfield,VA 22150, (571) 255-6367"},{"latitude":"38.9734802","longitude":"-77.4631653","name":"Dicks Sporting Goods-Sterling,VA","address":"[Dulles Landing], 24670 Dulles Landing Dr, Sterling,VA 20166, (571) 367-5120"},{"latitude":"36.881708","longitude":"-76.425724","name":"Dicks Sporting Goods-Suffolk,VA","address":"[Harbour View East], 6253 College Drive Suite 200, Suffolk,VA 23435, (757) 638-2001"},{"latitude":"36.840913","longitude":"-76.136533","name":"Dicks Sporting Goods-Virginia Beach,VA","address":"[Town Center At Virginia Beach], 4621 Columbus Street Suite 100, Virginia Beach,VA 23462, (757) 493-6400"},{"latitude":"36.819988","longitude":"-76.067012","name":"Dicks Sporting Goods-Virginia Beach,VA","address":"[Lynnhaven Mall], 701 Lynnhaven Parkway Suite 1001, Virginia Beach,VA 23452, (757) 463-4379"},{"latitude":"37.40168","longitude":"-77.679959","name":"Dicks Sporting Goods-West Chesterfield,VA","address":"[Hancock Village], 14629 Hancock Village Street, West Chesterfield,VA 23832, (804) 639-1107"},{"latitude":"37.256065","longitude":"-76.63949","name":"Dicks Sporting Goods-Williamsburg,VA","address":"[The Marquis], 120 Gristmil Plaza, Williamsburg,VA 23185, (757) 258-3364"},{"latitude":"39.1671181","longitude":"-78.1663589","name":"Dicks Sporting Goods-Winchester,VA","address":"[Winchester Plaza], 1675 South Pleasant Valley Rd, Winchester,VA 22601, (540) 431-3487"},{"latitude":"43.585022","longitude":"-72.967976","name":"Dicks Sporting Goods-Rutland,VT","address":"[Green Mountain Plaza], 320 Us Route 7 South, Rutland,VT 05701, (802) 773-2710"},{"latitude":"44.443792","longitude":"-73.110873","name":"Dicks Sporting Goods-Williston,VT","address":"[Maple Tree Place] 1355 Maple Tree Place, Williston,VT 05495, (802) 288-9854"},{"latitude":"48.44794","longitude":"-122.333976","name":"Dicks Sporting Goods-Burlington,WA","address":"[Burlington], 2000 S Burlington Blvd, Burlington,WA 98233, (360) 419-6072"},{"latitude":"47.314055","longitude":"-122.3096001","name":"Dicks Sporting Goods-Federal Way,WA","address":"[The Commons], 1819 S Commons, Federal Way,WA 98003, (206) 400-2811"},{"latitude":"47.54384","longitude":"-122.01614","name":"Dicks Sporting Goods-Issaquah,WA","address":"[Grandridge Plaza], 1422 10Th Way Ne, Issaquah,WA 98029, (425) 427-9284"},{"latitude":"48.1531754","longitude":"-122.1949921","name":"Dicks Sporting Goods-Marysville,WA","address":"[Smokey Point TC], 2609 172 St NE, Marysville,WA 98271, (360) 287-5822"},{"latitude":"47.0410846","longitude":"-122.9302412","name":"Dicks Sporting Goods-Olympia,WA","address":"[Capital Mall], 625 Black Lane Blvd SW, Olympia,WA 98502, (360) 999-5607"},{"latitude":"47.157917","longitude":"-122.293106","name":"Dicks Sporting Goods-Puyallup,WA","address":"[South Hills], 3500 S Meridian Street #600, Puyallup,WA 98373, (253) 845-5188"},{"latitude":"47.496552","longitude":"-122.203811","name":"Dicks Sporting Goods-Renton,WA","address":"[The Landing In Renton], 915 North Landing Way, Renton,WA 98057, (425) 255-3070"},{"latitude":"47.708774","longitude":"-122.324935","name":"Dicks Sporting Goods-Seattle,WA","address":"[Northgate North], 328 NE Northgate Way, Seattle,WA 98125, (206) 962-5894"},{"latitude":"47.6551857","longitude":"-122.6910324","name":"Dicks Sporting Goods-Silverdale,WA","address":"[Kitsap Mall], 10315 Silverdale Way Nw, Suite E20, Silverdale,WA 98383, (360) 633-2287"},{"latitude":"47.675916","longitude":"-117.2132","name":"Dicks Sporting Goods-Spokane Valley,WA","address":"[Spokane Valley Mall], 14014 East Indiana Avenue, Spokane Valley,WA 99216, (509) 891-0977"},{"latitude":"46.5658011","longitude":"-120.4740525","name":"Dicks Sporting Goods-Union Gap,WA","address":"[Rainier Plaza], 2500 Rudkin Rd, Union Gap,WA 98903, (509) 654-9111"},{"latitude":"44.274081","longitude":"-88.472346","name":"Dicks Sporting Goods-Appleton,WI","address":"[Appleton], 4350 Greenville Drive, Appleton,WI 54915, (920) 954-9266"},{"latitude":"43.0505295","longitude":"-88.0336914","name":"Dicks Sporting Goods-Brookfield,WI","address":"[The Corridor], 345 Discovery Drive, Building E, Brookfield,WI 53045, (414) 455-5370"},{"latitude":"43.325064","longitude":"-87.925251","name":"Dicks Sporting Goods-Grafton,WI","address":"[Grafton Commons], 1020 Port Washington Road, Grafton,WI 53024, (262) 377-6349"},{"latitude":"44.481788","longitude":"-88.067373","name":"Dicks Sporting Goods-Green Bay,WI","address":"[Maverick Phase Ii], 811 Pilgrim Way, Green Bay,WI 54304, (920) 490-8488"},{"latitude":"42.7125511","longitude":"-89.0014397","name":"Dicks Sporting Goods-Janesville,WI","address":"[Janesville Mall], 2500 Milton Avenue, Janesville,WI 53545, (608) 302-4093"},{"latitude":"42.565798","longitude":"-87.928863","name":"Dicks Sporting Goods-Kenosha,WI","address":"[Shops Of Prarie Ridge], 9899 76Th Street, Kenosha,WI 53158, (262) 697-5764"},{"latitude":"43.871601","longitude":"-91.19239","name":"Dicks Sporting Goods-La Crosse,WI","address":"[Valley View Mall], 4400 WI 16, La Crosse,WI 54650, (608) 406-3684"},{"latitude":"43.058451","longitude":"-89.503817","name":"Dicks Sporting Goods-Madison,WI","address":"[West Towne Mall], 237 West Towne Mall, Madison,WI 53719, (608) 829-1313"},{"latitude":"43.12737","longitude":"-89.302899","name":"Dicks Sporting Goods-Madison,WI","address":"[East Towne Mall], 350 East Towne Mall, Madison,WI 53704, (608) 241-2764"},{"latitude":"42.699806","longitude":"-87.853643","name":"Dicks Sporting Goods-Mount Pleasant,WI","address":"[Southland Center], 2710-B South Green Bay Road, Mount Pleasant,WI 53406, (262) 554-8117"},{"latitude":"44.0282866","longitude":"-88.5826859","name":"Dicks Sporting Goods-Oshkosh,WI","address":"[Oshkosh], 1015 North Washburn Street, Oshkosh,WI 54904, (920) 252-8271"},{"latitude":"44.9148521","longitude":"-89.6511612","name":"Dicks Sporting Goods-Wausau,WI","address":"[Wausau], 4600 Rib Mountain Drive, Wausau,WI 54401, (715) 241-7403"},{"latitude":"43.074928","longitude":"-88.038107","name":"Dicks Sporting Goods-Wauwatosa,WI","address":"[Mayfair Collection], 11500 Burleigh St Ste 140, Wauwatosa,WI 53222, (414) 203-1380"},{"latitude":"39.315316","longitude":"-80.272243","name":"Dicks Sporting Goods-Bridgeport,WV","address":"[Meadowbrook Mall], 2399 Meadowbrook Mall Unit #10, Bridgeport,WV 26330, (304) 848-0482"},{"latitude":"39.5559998","longitude":"-80.1816025","name":"Dicks Sporting Goods-Granville,WV","address":"[University Towne Centre], 596 Giant St, Granville,WV 26501, (304) 598-0554"},{"latitude":"38.422074","longitude":"-82.262105","name":"Dicks Sporting Goods-Huntington,WV","address":"[Huntington Mall], Rt 60 Mall Road Unit 500, Huntington,WV 25504, (304) 733-9720"},{"latitude":"39.438321","longitude":"-77.990915","name":"Dicks Sporting Goods-Martinsburg,WV","address":"[The Commons], 398 Retail Commons Parkway, Martinsburg,WV 25403, (304) 263-1225"},{"latitude":"37.846905","longitude":"-81.195325","name":"Dicks Sporting Goods-Mt Hope,WV","address":"[Crossroads Mall], 5475 Robert C Byrd Drive Unit 6, Mt Hope,WV 25880, (304) 252-3425"},{"latitude":"38.335313","longitude":"-81.713204","name":"Dicks Sporting Goods-South Charleston,WV","address":"[The Shoppes Of Trace Fork Plaza], 51 R H L Blvd, South Charleston,WV 25309, (304) 746-6256"},{"latitude":"42.845101","longitude":"-106.267841","name":"Dicks Sporting Goods-Casper,WY","address":"[Eastridge Mall], 601 SE Wyoming Blvd, Casper,WY 82609, (307) 265-4266"}]