[{"latitude":"31.5629787","longitude":"-85.2521439","name":"Dollar General-Abbeville,AL","address":"103 W Alabama Rd, Abbeville,AL 36310-2132, (334) 575-3044"},{"latitude":"34.199198","longitude":"-87.170155","name":"Dollar General-Addison,AL","address":"31631 Hwy 278 E, Addison,AL 35540-0207, (256) 747-3932"},{"latitude":"32.8656536","longitude":"-87.6993493","name":"Dollar General-Akron,AL","address":"2517 County Rd 36, Akron,AL 35441-2048, (205) 372-6599"},{"latitude":"33.214217","longitude":"-86.824958","name":"Dollar General-Alabaster,AL","address":"2260 Kent Dairy Rd, Alabaster,AL 35007-0692, (205) 621-0905"},{"latitude":"33.239497","longitude":"-86.81778","name":"Dollar General-Alabaster,AL","address":"515 First Street Sw, Alabaster,AL 35007-9744, (205) 663-8924"},{"latitude":"34.266999","longitude":"-86.206111","name":"Dollar General-Albertville,AL","address":"220 E Main St, Albertville,AL 35950-1708, (256) 878-9329"},{"latitude":"34.2789752","longitude":"-86.1998469","name":"Dollar General-Albertville,AL","address":"336 Al Hwy 75 N, Albertville,AL 35951, (256) 279-8881"},{"latitude":"34.2417207","longitude":"-86.2792906","name":"Dollar General-Albertville,AL","address":"4240 High Point Rd, Albertville,AL 35950-9714, (256) 400-3303"},{"latitude":"34.262041","longitude":"-86.188579","name":"Dollar General-Albertville,AL","address":"5850 Us Highway 431 Ste 4, Albertville,AL 35950-2049, (256) 891-8143"},{"latitude":"32.930977","longitude":"-85.948343","name":"Dollar General-Alexander City,AL","address":"1235 Cherokee Rd, Alexander City,AL 35010-3920, (256) 234-9012"},{"latitude":"32.936296","longitude":"-85.972485","name":"Dollar General-Alexander City,AL","address":"1538 Mill Sq, Alexander City,AL 35010-2674, (256) 215-5511"},{"latitude":"33.0229598","longitude":"-85.9426244","name":"Dollar General-Alexander City,AL","address":"6278 Alabama 63, Alexander City,AL 35771-7175, (256) 414-3086"},{"latitude":"32.955069","longitude":"-85.945398","name":"Dollar General-Alexander City,AL","address":"819 K St, Alexander City,AL 35010-1325, (256) 409-1495"},{"latitude":"33.764321","longitude":"-85.892048","name":"Dollar General-Alexandria,AL","address":"6433 US Hwy 431, Alexandria,AL 36250, (256) 820-1873"},{"latitude":"33.127206","longitude":"-88.145364","name":"Dollar General-Aliceville,AL","address":"601 Memorial Pkwy Ne, Aliceville,AL 35442-2741, (205) 373-2030"},{"latitude":"34.06699","longitude":"-86.299276","name":"Dollar General-Altoona,AL","address":"4340 US Hwy 278, Altoona,AL 35952-5502, (205) 589-2609"},{"latitude":"31.3196846","longitude":"-86.4617237","name":"Dollar General-Andalusia,AL","address":"118 Shelby Street, Andalusia,AL 36420-2403, (334) 222-5456"},{"latitude":"31.308227","longitude":"-86.484979","name":"Dollar General-Andalusia,AL","address":"225 Church St, Andalusia,AL 36420-3701, (334) 222-4642"},{"latitude":"31.3993549","longitude":"-86.4794552","name":"Dollar General-Andalusia,AL","address":"28513 US Hwy 29, Andalusia,AL 36421-1315, (334) 388-2771"},{"latitude":"31.31455","longitude":"-86.495167","name":"Dollar General-Andalusia,AL","address":"925 River Fall St, Andalusia,AL 36420-2557, (334) 222-1762"},{"latitude":"34.921686","longitude":"-87.269779","name":"Dollar General-Anderson,AL","address":"7051 Hwy 207, Anderson,AL 35610, (256) 247-7445"},{"latitude":"33.627918","longitude":"-85.78598","name":"Dollar General-Anniston,AL","address":"1421 Golden Springs Rd, Anniston,AL 36207-6923, (256) 831-8356"},{"latitude":"33.647234","longitude":"-85.861063","name":"Dollar General-Anniston,AL","address":"2363 Al Highway 202 Ste D, Anniston,AL 36201-5331, (256) 240-2939"},{"latitude":"33.715829","longitude":"-85.86024","name":"Dollar General-Anniston,AL","address":"2605 Us Highway 431 N, Anniston,AL 36206-1006, (256) 820-1110"},{"latitude":"33.686131","longitude":"-85.829786","name":"Dollar General-Anniston,AL","address":"3115 Noble Street, Anniston,AL 36201, (256) 231-4895"},{"latitude":"33.649725","longitude":"-85.72774","name":"Dollar General-Anniston,AL","address":"3440 Choccolocco Rd, Anniston,AL 36207-1640, (256) 238-6112"},{"latitude":"33.654335","longitude":"-85.8993758","name":"Dollar General-Anniston,AL","address":"5011 Eulaton Rd, Anniston,AL 36201, (256) 403-0249"},{"latitude":"33.638181","longitude":"-85.825559","name":"Dollar General-Anniston,AL","address":"704 S Quintard Ave, Anniston,AL 36201-6677, (256) 238-6802"},{"latitude":"34.316761","longitude":"-86.503324","name":"Dollar General-Arab,AL","address":"15 N Brindlee Mountain Pkwy, Arab,AL 35016-1318, (256) 586-7090"},{"latitude":"31.600279","longitude":"-85.712604","name":"Dollar General-Ariton,AL","address":"300 E Main St, Ariton,AL 36311-5016, (334) 762-2744"},{"latitude":"34.068882","longitude":"-87.217947","name":"Dollar General-Arley,AL","address":"6178 County Rd 41, Arley,AL 35541-3372, (205) 221-9449"},{"latitude":"31.182915","longitude":"-85.237528","name":"Dollar General-Ashford,AL","address":"1932 Old Hwy 84, Ashford,AL 36312-0554, (334) 899-8011"},{"latitude":"33.274132","longitude":"-85.843596","name":"Dollar General-Ashland,AL","address":"40976 Hwy 77 S, Ashland,AL 36251-0519, (256) 354-4510"},{"latitude":"33.845969","longitude":"-86.270333","name":"Dollar General-Ashville,AL","address":"35781 US Hwy 231, Ashville,AL 35954-3056, (205) 594-3442"},{"latitude":"33.7818177","longitude":"-86.2776618","name":"Dollar General-Ashville,AL","address":"40 County Hwy 33, Ashville,AL 35953, (205) 594-4939"},{"latitude":"34.785661","longitude":"-86.954561","name":"Dollar General-Athens,AL","address":"1031 A Hwy 72 E, Athens,AL 35611-4330, (256) 771-1577"},{"latitude":"34.8151","longitude":"-86.971845","name":"Dollar General-Athens,AL","address":"1210 N Jefferson St, Athens,AL 35611-1615, (256) 216-0902"},{"latitude":"34.806887","longitude":"-86.950568","name":"Dollar General-Athens,AL","address":"1233 E Pryor St, Athens,AL 35611, (256) 233-5496"},{"latitude":"34.792682","longitude":"-87.100288","name":"Dollar General-Athens,AL","address":"12375 Us Highway 72, Athens,AL 35611-8577, (256) 729-0601"},{"latitude":"34.7917163","longitude":"-87.0605966","name":"Dollar General-Athens,AL","address":"14565 US Hwy 72, Athens,AL 35611, (256) 278-3202"},{"latitude":"34.7760221","longitude":"-86.9216368","name":"Dollar General-Athens,AL","address":"15297 Pike Road, Athens,AL 35613-2863, (256) 434-8277"},{"latitude":"34.824273","longitude":"-86.904476","name":"Dollar General-Athens,AL","address":"16521 Al Highway 251, Athens,AL 35613-5047, (256) 233-2138"},{"latitude":"34.790973","longitude":"-87.003163","name":"Dollar General-Athens,AL","address":"17837 Us Highway 72, Athens,AL 35611-3903, (256) 771-0018"},{"latitude":"34.833503","longitude":"-87.018484","name":"Dollar General-Athens,AL","address":"19300 Al Highway 99, Athens,AL 35614-5473, (256) 233-4006"},{"latitude":"34.796979","longitude":"-86.97267","name":"Dollar General-Athens,AL","address":"600 S Jefferson St, Athens,AL 35611-3544, (256) 233-1255"},{"latitude":"31.006095","longitude":"-87.493884","name":"Dollar General-Atmore,AL","address":"1420 S Main St, Atmore,AL 36502-3510, (251) 446-1091"},{"latitude":"31.0869949","longitude":"-87.5403707","name":"Dollar General-Atmore,AL","address":"4850 Jack Springs Rd, Atmore,AL 36502-6049, (251) 446-3990"},{"latitude":"31.022837","longitude":"-87.486767","name":"Dollar General-Atmore,AL","address":"609 E Church St, Atmore,AL 36502-2627, (251) 368-3482"},{"latitude":"34.019423","longitude":"-86.091861","name":"Dollar General-Attalla,AL","address":"204 3rd St NW, Attalla,AL 35954-2209, (256) 570-0062"},{"latitude":"34.1014914","longitude":"-86.1137299","name":"Dollar General-Attalla,AL","address":"50 Piemons Rd, Attalla,AL 35954, (256) 840-7377"},{"latitude":"33.997009","longitude":"-86.099903","name":"Dollar General-Attalla,AL","address":"700 Gilbert Ferry Rd Se, Attalla,AL 35954-3302, (256) 538-5059"},{"latitude":"32.6199874","longitude":"-85.458874","name":"Dollar General-Auburn,AL","address":"1106 Opelika Rd, Auburn,AL 36830-3312, (334) 246-5254"},{"latitude":"32.5793457","longitude":"-85.4893036","name":"Dollar General-Auburn,AL","address":"196 East University Dr, Auburn,AL 36832-6726, (334) 501-1319"},{"latitude":"32.5816083","longitude":"-85.520149","name":"Dollar General-Auburn,AL","address":"1961 Wire Rd, Auburn,AL 36832, (334) 246-0839"},{"latitude":"32.5379091","longitude":"-85.5179235","name":"Dollar General-Auburn,AL","address":"4250 US Hwy 29 S, Auburn,AL 36830, (334) 625-7030"},{"latitude":"32.600422","longitude":"-85.5807904","name":"Dollar General-Auburn,AL","address":"5334 AL Hwy 14 W, Auburn,AL 36832-1861, (334) 521-3301"},{"latitude":"32.431544","longitude":"-86.655409","name":"Dollar General-Autaugaville,AL","address":"108 S Washington Street, Autaugaville,AL 36003-2565, (334) 380-4587"},{"latitude":"34.279613","longitude":"-86.597351","name":"Dollar General-Baileyton,AL","address":"13600 Al Hwy 69 N, Baileyton,AL 35019-9379, (256) 796-6629"},{"latitude":"30.8346004","longitude":"-87.7726669","name":"Dollar General-Bay Minette,AL","address":"101 Old Daphne Rd, Bay Minette,AL 36507-8473, (251) 937-8871"},{"latitude":"30.89147","longitude":"-87.750999","name":"Dollar General-Bay Minette,AL","address":"800 Mcmeans Ave, Bay Minette,AL 36507-3302, (251) 937-2008"},{"latitude":"30.4190431","longitude":"-88.2441549","name":"Dollar General-Bayou La Batre,AL","address":"13045 N Wintzell Ave, Bayou La Batre,AL 36509-2114, (251) 824-9256"},{"latitude":"33.6594647","longitude":"-87.60409","name":"Dollar General-Berry,AL","address":"17719 Highway 18 E [P O Box 483], Berry,AL 35546-0483, (205) 689-4232"},{"latitude":"33.353238","longitude":"-86.994274","name":"Dollar General-Bessemer,AL","address":"1750 4Th Ave Sw, Bessemer,AL 35022-5223, (205) 424-9007"},{"latitude":"33.418536","longitude":"-86.981344","name":"Dollar General-Bessemer,AL","address":"2417 19th St N, Bessemer,AL 35020, (205) 428-6494"},{"latitude":"33.419247","longitude":"-86.949779","name":"Dollar General-Bessemer,AL","address":"3011 9th Ave N, Bessemer,AL 35020, (205) 424-4820"},{"latitude":"33.4630995","longitude":"-87.0242453","name":"Dollar General-Bessemer,AL","address":"3459 Warrior River Road, Bessemer,AL 35023-1039, (205) 461-1513"},{"latitude":"33.345268","longitude":"-86.960497","name":"Dollar General-Bessemer,AL","address":"3979 Parwood Rd-Ste#117, Bessemer,AL 35022-5627, (205) 424-8076"},{"latitude":"33.4796783","longitude":"-87.0629878","name":"Dollar General-Bessemer,AL","address":"6607 Warrior River Rd, Bessemer,AL 35023, (205) 417-2315"},{"latitude":"33.38575","longitude":"-86.98021","name":"Dollar General-Bessemer,AL","address":"671 9th Ave SW, Bessemer,AL 35022-4503, (205) 428-0906"},{"latitude":"33.580622","longitude":"-86.776885","name":"Dollar General-Birmingham,AL","address":"1200 Pinson Valley Pkwy, Birmingham,AL 35217-2327, (205) 841-0903"},{"latitude":"33.567022","longitude":"-86.8976","name":"Dollar General-Birmingham,AL","address":"1552 Forestdale Blvd, Birmingham,AL 35214-3018, (205) 791-6795"},{"latitude":"33.631809","longitude":"-86.684644","name":"Dollar General-Birmingham,AL","address":"1687 Center Point Pkwy Ste 121, Birmingham,AL 35215-5525, (205) 815-0132"},{"latitude":"33.5101242","longitude":"-86.8943863","name":"Dollar General-Birmingham,AL","address":"2007 Avenue H, Birmingham,AL 35218-1625, (205) 383-3862"},{"latitude":"33.653061","longitude":"-86.648151","name":"Dollar General-Birmingham,AL","address":"2260 Brewster Rd, Birmingham,AL 35235-3501, (205) 853-0113"},{"latitude":"33.498156","longitude":"-86.877031","name":"Dollar General-Birmingham,AL","address":"2314 Warrior Rd, Birmingham,AL 35208-3514, (205) 781-2035"},{"latitude":"33.646795","longitude":"-86.684017","name":"Dollar General-Birmingham,AL","address":"2328 Center Point Rd, Birmingham,AL 35215-3608, (205) 520-9502"},{"latitude":"33.580464","longitude":"-86.921604","name":"Dollar General-Birmingham,AL","address":"2419 Palomino Lane, Birmingham,AL 35214-1917, (205) 798-3835"},{"latitude":"33.52984","longitude":"-86.941233","name":"Dollar General-Birmingham,AL","address":"3150 Birmingport Rd, Birmingham,AL 35224-2861, (205) 785-6457"},{"latitude":"33.6327591","longitude":"-86.7844162","name":"Dollar General-Birmingham,AL","address":"3194 New Castle Rd, Birmingham,AL 36017-4127, (205) 386-3071"},{"latitude":"33.554852","longitude":"-86.819284","name":"Dollar General-Birmingham,AL","address":"3301 26th Street North, Birmingham,AL 35207, (205) 208-0290"},{"latitude":"33.634879","longitude":"-86.727789","name":"Dollar General-Birmingham,AL","address":"3931 Pinson Valley Pkwy, Birmingham,AL 35217-1857, (205) 856-6999"},{"latitude":"33.5272989","longitude":"-86.7622907","name":"Dollar General-Birmingham,AL","address":"4600 5th Avenue South, Birmingham,AL 35222-2904, (205) 206-4348"},{"latitude":"33.584619","longitude":"-86.70466","name":"Dollar General-Birmingham,AL","address":"9088 Parkway E, Birmingham,AL 35206-1505, (205) 836-3907"},{"latitude":"33.505408","longitude":"-86.851509","name":"Dollar General-Birmingham,AL","address":"915 3rd Ave West, Birmingham,AL 35204, (205) 623-3245"},{"latitude":"33.480477","longitude":"-86.843732","name":"Dollar General-Birmingham,AL","address":"917 Dennison Avenue, Birmingham,AL 35211, (205) 326-8007"},{"latitude":"34.099663","longitude":"-86.574882","name":"Dollar General-Blountsville,AL","address":"70670 Main St, Blountsville,AL 35031-3454, (205) 429-1199"},{"latitude":"34.179209","longitude":"-86.142949","name":"Dollar General-Boaz,AL","address":"12575 Us Highway 431, Boaz,AL 35956-2104, (256) 593-3030"},{"latitude":"34.198374","longitude":"-86.152867","name":"Dollar General-Boaz,AL","address":"981 Bethsaida Rd, Boaz,AL 35957-1917, (256) 840-0501"},{"latitude":"31.580836","longitude":"-86.256922","name":"Dollar General-Brantley,AL","address":"9650 S Main St, Brantley,AL 36009-2606, (334) 527-0054"},{"latitude":"33.9518711","longitude":"-87.0332757","name":"Dollar General-Bremen,AL","address":"13101 Al Hwy 69 South, Bremen,AL 35033, (256) 887-5326"},{"latitude":"31.134404","longitude":"-87.068567","name":"Dollar General-Brewton,AL","address":"1646 Douglas Ave, Brewton,AL 36426-1116, (251) 867-9180"},{"latitude":"31.099544","longitude":"-87.079181","name":"Dollar General-Brewton,AL","address":"471 South Blvd, Brewton,AL 36426-2777, (251) 809-2926"},{"latitude":"34.940138","longitude":"-85.726403","name":"Dollar General-Bridgeport,AL","address":"50470 Al Hwy 277, Bridgeport,AL 35740-6517, (256) 495-2015"},{"latitude":"34.027655","longitude":"-87.76253","name":"Dollar General-Brilliant,AL","address":"10066 State Hwy 129, Brilliant,AL 35548-0197, (205) 465-2587"},{"latitude":"33.260914","longitude":"-87.314733","name":"Dollar General-Brookwood,AL","address":"16124 Hwy 216, Brookwood,AL 35444-3756, (205) 633-1717"},{"latitude":"31.720479","longitude":"-85.827518","name":"Dollar General-Brundidge,AL","address":"418 S A Graham Blvd, Brundidge,AL 36010-1201, (334) 735-0017"},{"latitude":"34.860628","longitude":"-85.609963","name":"Dollar General-Bryant,AL","address":"30357 Al Hwy 71, Bryant,AL 35958-5030, (256) 597-2013"},{"latitude":"32.089899","longitude":"-88.2197475","name":"Dollar General-Butler,AL","address":"223 E Pushmataha St, Butler,AL 36904-2539, (205) 459-5660"},{"latitude":"33.102964","longitude":"-86.748819","name":"Dollar General-Calera,AL","address":"11040 Hwy 25, Calera,AL 35040-0705, (205) 668-1214"},{"latitude":"31.997218","longitude":"-87.279235","name":"Dollar General-Camden,AL","address":"22 Camden Byp, Camden,AL 36726-1770, (334) 682-9750"},{"latitude":"32.79055","longitude":"-85.653319","name":"Dollar General-Camp Hill,AL","address":"589 County Rd 89 S, Camp Hill,AL 36850-3237, (256) 896-4388"},{"latitude":"33.879294","longitude":"-87.503446","name":"Dollar General-Carbon Hill,AL","address":"31366 NE 1st Ave, Carbon Hill,AL 35549-0708, (205) 924-0270"},{"latitude":"33.249704","longitude":"-88.093507","name":"Dollar General-Carrollton,AL","address":"625 Commerce Ave, Carrollton,AL 35447-2205, (205) 367-2151"},{"latitude":"31.296153","longitude":"-87.021977","name":"Dollar General-Castleberry,AL","address":"2612 S Jackson St, Castleberry,AL 36432, (251) 966-7088"},{"latitude":"34.218117","longitude":"-85.602251","name":"Dollar General-Cedar Bluff,AL","address":"3950 Al Hwy 9, Cedar Bluff,AL 35959-5174, (256) 779-4100"},{"latitude":"34.160444","longitude":"-85.711806","name":"Dollar General-Centre,AL","address":"1830 W Main St, Centre,AL 35960-2810, (256) 927-4811"},{"latitude":"34.15245","longitude":"-85.677427","name":"Dollar General-Centre,AL","address":"730 Cherokee Plz, Centre,AL 35960-1645, (256) 927-4470"},{"latitude":"34.106169","longitude":"-85.552481","name":"Dollar General-Centre,AL","address":"8565 US Hwy 411 N, Centre,AL 35960, (256) 475-3367"},{"latitude":"32.945552","longitude":"-87.143904","name":"Dollar General-Centreville,AL","address":"155 Birmingham Rd, Centreville,AL 35042-2949, (205) 225-0201"},{"latitude":"31.4626694","longitude":"-88.2503586","name":"Dollar General-Chatom,AL","address":"13485 St Stephens Ave, Chatom,AL 36518-0955, (251) 847-6742"},{"latitude":"34.751698","longitude":"-87.964933","name":"Dollar General-Cherokee,AL","address":"8582 Hwy 72, Cherokee,AL 35616-4455, (256) 359-4088"},{"latitude":"30.767337","longitude":"-88.075106","name":"Dollar General-Chickasaw,AL","address":"288 N Craft Hwy, Chickasaw,AL 36611, (251) 457-5912"},{"latitude":"33.283341","longitude":"-86.36195","name":"Dollar General-Childersburg,AL","address":"32300 US Hwy 280, Childersburg,AL 35044-1295, (256) 378-5682"},{"latitude":"30.920024","longitude":"-88.199418","name":"Dollar General-Chunchula,AL","address":"10961 Highway 45, Chunchula,AL 36521, (251) 243-0160"},{"latitude":"31.097862","longitude":"-88.237945","name":"Dollar General-Citronelle,AL","address":"19500 N 3Rd St, Citronelle,AL 36522-2017, (251) 866-7288"},{"latitude":"32.81155","longitude":"-86.600699","name":"Dollar General-Clanton,AL","address":"1696 7Th Street South, Clanton,AL 35045-8777, (205) 755-5709"},{"latitude":"32.853745","longitude":"-86.636759","name":"Dollar General-Clanton,AL","address":"1827 7th St N, Clanton,AL 35045-2246, (205) 755-8699"},{"latitude":"33.6947183","longitude":"-86.6048511","name":"Dollar General-Clay,AL","address":"6680 Deerfoot Pkwy, Clay,AL 35048, (205) 681-2305"},{"latitude":"31.878118","longitude":"-85.447429","name":"Dollar General-Clayton,AL","address":"37 Eufaula Ave, Clayton,AL 36016-2000, (334) 775-8755"},{"latitude":"33.985127","longitude":"-86.587449","name":"Dollar General-Cleveland,AL","address":"36321 St Hwy 79 Ste 1, Cleveland,AL 35049-0204, (205) 274-8298"},{"latitude":"31.713725","longitude":"-85.608246","name":"Dollar General-Clio,AL","address":"3199 Louisville St, Clio,AL 36017-4127, (334) 397-2060"},{"latitude":"33.170085","longitude":"-87.340835","name":"Dollar General-Coaling,AL","address":"15343 Hwy 11 N, Coaling,AL 35453-2408, (205) 562-8281"},{"latitude":"30.3627811","longitude":"-88.1155886","name":"Dollar General-Coden,AL","address":"3231 Hwy 188, Coden,AL 36523, (251) 301-1861"},{"latitude":"33.251154","longitude":"-87.685422","name":"Dollar General-Coker,AL","address":"14590 Hwy 82 W, Coker,AL 35452-3500, (205) 339-8360"},{"latitude":"34.2561644","longitude":"-85.8664765","name":"Dollar General-Collinsville,AL","address":"637 S Valley Ave [Po Box 314], Collinsville,AL 35578-3731, (256) 524-7557"},{"latitude":"31.341383","longitude":"-85.145336","name":"Dollar General-Columbia,AL","address":"100 Green Dr, Columbia,AL 36319-3546, (334) 696-4220"},{"latitude":"33.182061","longitude":"-86.615221","name":"Dollar General-Columbiana,AL","address":"325 Columbiana Sq, Columbiana,AL 35051-4210, (205) 669-6618"},{"latitude":"33.755047","longitude":"-87.168663","name":"Dollar General-Cordova,AL","address":"6783 Horsecreek Blvd, Cordova,AL 35550-4359, (205) 483-8782"},{"latitude":"31.047687","longitude":"-85.30285","name":"Dollar General-Cottonwood,AL","address":"165 Hood St, Cottonwood,AL 36320-4339, (334) 691-2494"},{"latitude":"34.672376","longitude":"-87.308714","name":"Dollar General-Courtland,AL","address":"12240 Jessie Jackson Pkwy, Courtland,AL 35618-3118, (256) 637-0556"},{"latitude":"31.193999","longitude":"-85.324729","name":"Dollar General-Cowarts,AL","address":"30 Eddins Rd, Cowarts,AL 36321, (334) 678-0060"},{"latitude":"34.09623","longitude":"-87.05716","name":"Dollar General-Crane Hill,AL","address":"14765 County Rd 222, Crane Hill,AL 35053-3213, (256) 747-4701"},{"latitude":"30.898643","longitude":"-88.038141","name":"Dollar General-Creola,AL","address":"10230 US Hwy 43, Creola,AL 36525-0185, (251) 442-3757"},{"latitude":"33.49565","longitude":"-86.32558","name":"Dollar General-Cropwell,AL","address":"25 Lakeshore Drive, Cropwell,AL 35054, (205) 753-4500"},{"latitude":"33.553076","longitude":"-86.276414","name":"Dollar General-Cropwell,AL","address":"2704 Martin St S, Cropwell,AL 35054-3852, (205) 884-0441"},{"latitude":"34.28772","longitude":"-85.996893","name":"Dollar General-Crossville,AL","address":"14752 Al Hwy 68, Crossville,AL 35962-3462, (256) 528-4083"},{"latitude":"34.255661","longitude":"-86.070503","name":"Dollar General-Crossville,AL","address":"54 County Rd 478, Crossville,AL 35962, (256) 528-2070"},{"latitude":"34.20989","longitude":"-87.053871","name":"Dollar General-Cullman,AL","address":"11511 Us Highway 278 W, Cullman,AL 35057-6241, (256) 747-2506"},{"latitude":"34.23962","longitude":"-86.948499","name":"Dollar General-Cullman,AL","address":"11590 Al Highway 157, Cullman,AL 35057-6718, (256) 734-7998"},{"latitude":"34.1696698","longitude":"-86.8812467","name":"Dollar General-Cullman,AL","address":"120 Us Hwy 278, Cullman,AL 35057, (256) 841-3594"},{"latitude":"34.247595","longitude":"-86.683392","name":"Dollar General-Cullman,AL","address":"120 Wesley Avenue North, Cullman,AL 35058, (256) 796-5037"},{"latitude":"34.171909","longitude":"-86.851215","name":"Dollar General-Cullman,AL","address":"1208 4Th St Sw, Cullman,AL 35055-3923, (256) 735-0066"},{"latitude":"34.2099915","longitude":"-86.828598","name":"Dollar General-Cullman,AL","address":"121 CR 1435, Cullman,AL 35058-1474, (256) 841-4499"},{"latitude":"34.18211","longitude":"-86.815853","name":"Dollar General-Cullman,AL","address":"1600 3Rd St Se, Cullman,AL 35055-2074, (256) 734-5478"},{"latitude":"34.160263","longitude":"-86.836086","name":"Dollar General-Cullman,AL","address":"1642 Town Sq Sw, Cullman,AL 35055-5263, (256) 734-4392"},{"latitude":"34.176203","longitude":"-86.843341","name":"Dollar General-Cullman,AL","address":"203 1St Ave Sw, Cullman,AL 35055-3413, (256) 739-5456"},{"latitude":"34.106817","longitude":"-86.871628","name":"Dollar General-Cullman,AL","address":"31 Megan Ln, Cullman,AL 35057-3369, (256) 734-0560"},{"latitude":"34.2638512","longitude":"-86.7406998","name":"Dollar General-Cullman,AL","address":"6091 Cr 747, Cullman,AL 35038, (256) 615-4688"},{"latitude":"34.184465","longitude":"-86.84947","name":"Dollar General-Cullman,AL","address":"801 2Nd Ave Nw, Cullman,AL 35055-2401, (256) 775-1519"},{"latitude":"32.75955","longitude":"-85.215189","name":"Dollar General-Cusseta,AL","address":"8282 Hwy 29, Cusseta,AL 36852, (334) 705-5443"},{"latitude":"32.8371236","longitude":"-85.7641093","name":"Dollar General-Dadeville,AL","address":"17957 Hwy 280, Dadeville,AL 36853-2100, (256) 825-4947"},{"latitude":"32.7695346","longitude":"-85.7874023","name":"Dollar General-Dadeville,AL","address":"8273 County 34, Dadeville,AL 36853, (256) 269-1833"},{"latitude":"31.307351","longitude":"-85.717509","name":"Dollar General-Daleville,AL","address":"185 Old Hwy 134, Daleville,AL 36322-2511, (334) 503-9623"},{"latitude":"31.2368453","longitude":"-85.7077199","name":"Dollar General-Daleville,AL","address":"501 East Main St, Daleville,AL 36322-5611, (334) 598-2133"},{"latitude":"34.414926","longitude":"-87.090135","name":"Dollar General-Danville,AL","address":"5835 Hwy 36 W, Danville,AL 35619-6643, (256) 751-9030"},{"latitude":"30.6072027","longitude":"-87.8520776","name":"Dollar General-Daphne,AL","address":"26250 Highway 181, Daphne,AL 36330-6560, (251) 581-9744"},{"latitude":"30.631656","longitude":"-87.911231","name":"Dollar General-Daphne,AL","address":"27955 Highway 98 Ste Hh, Daphne,AL 36526-4700, (251) 625-1772"},{"latitude":"30.641163","longitude":"-87.866604","name":"Dollar General-Daphne,AL","address":"28580 County Road 13, Daphne,AL 36526, (251) 626-2528"},{"latitude":"32.58359","longitude":"-86.464301","name":"Dollar General-Deatsville,AL","address":"2007 Hwy 31 North, Deatsville,AL 36022, (205) 258-0164"},{"latitude":"32.638664","longitude":"-86.320465","name":"Dollar General-Deatsville,AL","address":"215 Lightwood Rd, Deatsville,AL 36022-3482, (334) 569-0071"},{"latitude":"32.554448","longitude":"-86.392881","name":"Dollar General-Deatsville,AL","address":"54 Myrick Rd, Deatsville,AL 36022-3261, (334) 290-7059"},{"latitude":"34.5603","longitude":"-87.001919","name":"Dollar General-Decatur,AL","address":"1000 Beltline Rd Sw Ste U, Decatur,AL 35601-6280, (256) 350-7377"},{"latitude":"34.523282","longitude":"-86.982764","name":"Dollar General-Decatur,AL","address":"1218 Mill Rd, Decatur,AL 35603-4817, (256) 308-2336"},{"latitude":"34.583979","longitude":"-86.98035","name":"Dollar General-Decatur,AL","address":"1502B 6Th Ave Se, Decatur,AL 35601-4918, (256) 350-6577"},{"latitude":"34.604216","longitude":"-87.012109","name":"Dollar General-Decatur,AL","address":"1731 Moulton St W, Decatur,AL 35601-7235, (256) 350-0494"},{"latitude":"34.574358","longitude":"-87.009244","name":"Dollar General-Decatur,AL","address":"2006 Danville Rd Sw, Decatur,AL 35601-4640, (256) 351-0022"},{"latitude":"34.588599","longitude":"-87.032933","name":"Dollar General-Decatur,AL","address":"2400 Old Moulton Rd Sw, Decatur,AL 35603-4474, (256) 353-4300"},{"latitude":"32.49967","longitude":"-87.844187","name":"Dollar General-Demopolis,AL","address":"543 Us Highway 80 W, Demopolis,AL 36732-4100, (334) 289-5379"},{"latitude":"32.053754","longitude":"-87.794139","name":"Dollar General-Dixons Mills,AL","address":"25734 Hwy 10, Dixons Mills,AL 36736, (334) 992-4759"},{"latitude":"33.7301979","longitude":"-87.0891246","name":"Dollar General-Dora,AL","address":"2375 Sharon Blvd, Dora,AL 36575-7119, (205) 417-2852"},{"latitude":"33.71434","longitude":"-86.995769","name":"Dollar General-Dora,AL","address":"957 Hwy 78, Dora,AL 35062-4327, (205) 648-3335"},{"latitude":"31.226458","longitude":"-85.405309","name":"Dollar General-Dothan,AL","address":"1060 W Main St Ste 4, Dothan,AL 36301-1469, (334) 678-6036"},{"latitude":"31.2373441","longitude":"-85.398187","name":"Dollar General-Dothan,AL","address":"1071 Montgomery Hwy 231, Dothan,AL 36303, (334) 803-8824"},{"latitude":"31.193269","longitude":"-85.375218","name":"Dollar General-Dothan,AL","address":"1702 E Cottonwood Rd, Dothan,AL 36301-5060, (334) 794-1543"},{"latitude":"31.218559","longitude":"-85.364248","name":"Dollar General-Dothan,AL","address":"1815 E Main St Ste 1, Dothan,AL 36301-3013, (334) 702-7897"},{"latitude":"31.255949","longitude":"-85.388274","name":"Dollar General-Dothan,AL","address":"2301 Reeves St, Dothan,AL 36303-5815, (334) 673-0926"},{"latitude":"31.243572","longitude":"-85.419088","name":"Dollar General-Dothan,AL","address":"2505 Montgomery Hwy, Dothan,AL 36303-2603, (334) 678-9865"},{"latitude":"31.2004497","longitude":"-85.4346375","name":"Dollar General-Dothan,AL","address":"2757 Hartford Hwy, Dothan,AL 36305-4901, (334) 702-7652"},{"latitude":"31.216803","longitude":"-85.430808","name":"Dollar General-Dothan,AL","address":"2890 Ross Clark Cir, Dothan,AL 36301-2017, (334) 671-7041"},{"latitude":"31.174393","longitude":"-85.402246","name":"Dollar General-Dothan,AL","address":"3600 S Oates St, Dothan,AL 36301-0604, (334) 671-4785"},{"latitude":"31.23867","longitude":"-85.524922","name":"Dollar General-Dothan,AL","address":"41 North Bay Springs Rd, Dothan,AL 36303, (334) 692-3038"},{"latitude":"31.210717","longitude":"-85.485463","name":"Dollar General-Dothan,AL","address":"6130 Fortner St, Dothan,AL 36305-6822, (334) 671-2715"},{"latitude":"31.1239015","longitude":"-85.3311619","name":"Dollar General-Dothan,AL","address":"670 Gene Terry Road, Dothan,AL 35022-4503, (334) 803-8223"},{"latitude":"31.20988","longitude":"-85.401197","name":"Dollar General-Dothan,AL","address":"767 W Selma St Unit 1, Dothan,AL 36301-3467, (334) 794-0660"},{"latitude":"34.164853","longitude":"-87.417515","name":"Dollar General-Double Springs,AL","address":"26222 Hwy 195 North, Double Springs,AL 35553-2553, (205) 489-8371"},{"latitude":"33.089509","longitude":"-87.45723","name":"Dollar General-Duncanville,AL","address":"11573 Hwy 82 E, Duncanville,AL 35456, (205) 752-7650"},{"latitude":"34.6062317","longitude":"-85.9184113","name":"Dollar General-Dutton,AL","address":"12 College Rd, Dutton,AL 35744, (256) 228-0080"},{"latitude":"31.092224","longitude":"-87.061261","name":"Dollar General-East Brewton,AL","address":"805 Forest Ave, East Brewton,AL 36426, (205) 935-3352"},{"latitude":"33.6043567","longitude":"-86.0217845","name":"Dollar General-Eastaboga,AL","address":"25 Mudd St, Eastaboga,AL 36606-1639, (256) 835-1832"},{"latitude":"32.654338","longitude":"-86.048628","name":"Dollar General-Eclectic,AL","address":"1826 Kowaliga Rd, Eclectic,AL 36024-5403, (334) 541-5299"},{"latitude":"30.765148","longitude":"-88.129888","name":"Dollar General-Eight Mile,AL","address":"1627 Lott Rd, Eight Mile,AL 36613-3807, (251) 452-9406"},{"latitude":"30.8144349","longitude":"-88.1569402","name":"Dollar General-Eight Mile,AL","address":"5950 Hwy 45, Eight Mile,AL 36613, (251) 259-4008"},{"latitude":"30.81876","longitude":"-88.258279","name":"Dollar General-Eight Mile,AL","address":"6180 Lott Rd, Eight Mile,AL 36613, (251) 645-0704"},{"latitude":"31.424865","longitude":"-86.082439","name":"Dollar General-Elba,AL","address":"804 Al Highway 203, Elba,AL 36323-4220, (334) 897-8529"},{"latitude":"30.414183","longitude":"-87.601363","name":"Dollar General-Elberta,AL","address":"24816 State St, Elberta,AL 36530-0785, (251) 986-3708"},{"latitude":"30.3703181","longitude":"-87.6014755","name":"Dollar General-Elberta,AL","address":"9931 CR 83, Elberta,AL 36530, none listed"},{"latitude":"34.9255","longitude":"-86.988428","name":"Dollar General-Elkmont,AL","address":"25486 Al Hwy 127, Elkmont,AL 35620-6608, (256) 732-3545"},{"latitude":"32.5312691","longitude":"-86.34272","name":"Dollar General-Elmore,AL","address":"67 Al Hwy 14, Elmore,AL 36025, (334) 472-0210"},{"latitude":"31.33492","longitude":"-85.851055","name":"Dollar General-Enterprise,AL","address":"1032 Boll Weevil Cir Ste B, Enterprise,AL 36330-1319, (334) 393-7939"},{"latitude":"31.29809","longitude":"-85.791529","name":"Dollar General-Enterprise,AL","address":"26500 Hwy 134, Enterprise,AL 36330, (334) 308-0105 "},{"latitude":"31.3371384","longitude":"-85.7859747","name":"Dollar General-Enterprise,AL","address":"3585 Rucker Blvd, Enterprise,AL 36330, (334) 515-7897"},{"latitude":"31.308359","longitude":"-85.842313","name":"Dollar General-Enterprise,AL","address":"711 E Park Ave, Enterprise,AL 36330-3927, (334) 308-1555"},{"latitude":"31.260885","longitude":"-85.89006","name":"Dollar General-Enterprise,AL","address":"8950 County Road 636, Enterprise,AL 36330, (334) 347-3103"},{"latitude":"31.323871","longitude":"-85.827363","name":"Dollar General-Enterprise,AL","address":"913 Rucker Blvd, Enterprise,AL 36330-2734, (334) 393-6260"},{"latitude":"31.8730458","longitude":"-85.1541147","name":"Dollar General-Eufaula,AL","address":"1485 S Eufaula Ave, Eufaula,AL 36027-3158, (334) 687-3339"},{"latitude":"31.798699","longitude":"-85.165889","name":"Dollar General-Eufaula,AL","address":"6 Highway 95, Eufaula,AL 36027-5021, (334) 688-2110"},{"latitude":"31.9168892","longitude":"-85.1474541","name":"Dollar General-Eufaula,AL","address":"7 Lake Drive, Eufaula,AL 36867-6533, (334) 232-5818"},{"latitude":"32.839969","longitude":"-87.884769","name":"Dollar General-Eutaw,AL","address":"120 Greensboro St, Eutaw,AL 35462-1450, (205) 372-2929"},{"latitude":"34.3321949","longitude":"-86.7605587","name":"Dollar General-Eva,AL","address":"4445 Hwy 55 E, Eva,AL 35621-7927, (256) 796-2147"},{"latitude":"31.428242","longitude":"-86.96752","name":"Dollar General-Evergreen,AL","address":"516 W Front St, Evergreen,AL 36401, (251) 578-5787"},{"latitude":"31.43663","longitude":"-87.343479","name":"Dollar General-Excel,AL","address":"3747 Excel Hwy, Excel,AL 36439, (251) 765-3184"},{"latitude":"30.421396","longitude":"-87.883056","name":"Dollar General-Fairhope,AL","address":"8085 Us Highway 98, Fairhope,AL 36532-5863, (251) 928-8516"},{"latitude":"30.733052","longitude":"-88.0940511","name":"Dollar General-Fairhope,AL","address":"904 Murphy Ave, Fairhope,AL 36532-2046, (251) 990-8847"},{"latitude":"30.4724251","longitude":"-87.8591499","name":"Dollar General-Fairhope,AL","address":"9782 County Road 32, Fairhope,AL 35957-1917, (251) 929-8592"},{"latitude":"34.36849","longitude":"-86.900119","name":"Dollar General-Falkville,AL","address":"262 E Pike Rd, Falkville,AL 35622-5102, (256) 784-1105"},{"latitude":"33.702839","longitude":"-87.826651","name":"Dollar General-Fayette,AL","address":"1400 Temple Ave N, Fayette,AL 35555-1718, (205) 932-8875"},{"latitude":"33.684256","longitude":"-87.82706","name":"Dollar General-Fayette,AL","address":"404 Columbus St E, Fayette,AL 35555-2615, (205) 932-2377"},{"latitude":"31.006701","longitude":"-87.264669","name":"Dollar General-Flomaton,AL","address":"935 Sidney E Manning Blvd, Flomaton,AL 36441-5435, (251) 296-2730"},{"latitude":"31.002684","longitude":"-86.325426","name":"Dollar General-Florala,AL","address":"958 2Nd St, Florala,AL 36442-3549, (334) 858-8776"},{"latitude":"34.816548","longitude":"-87.662784","name":"Dollar General-Florence,AL","address":"1115 Florence Blvd, Florence,AL 35630-2723, (256) 765-2254"},{"latitude":"34.937911","longitude":"-87.77035","name":"Dollar General-Florence,AL","address":"11233 Highway 157, Florence,AL 35633, (256) 740-0722"},{"latitude":"34.888517","longitude":"-87.797778","name":"Dollar General-Florence,AL","address":"11300 Highway 20, Florence,AL 35633-2702, (256) 764-0463"},{"latitude":"34.820885","longitude":"-87.681702","name":"Dollar General-Florence,AL","address":"1501 N Wood Ave, Florence,AL 35630-2103, (256) 764-3687"},{"latitude":"34.815402","longitude":"-87.640964","name":"Dollar General-Florence,AL","address":"2929 Huntsville Rd, Florence,AL 35630-4454, (256) 760-0786"},{"latitude":"34.850388","longitude":"-87.690393","name":"Dollar General-Florence,AL","address":"3308 Cloverdale Rd, Florence,AL 35633-1403, (256) 765-2008"},{"latitude":"34.873776","longitude":"-87.623034","name":"Dollar General-Florence,AL","address":"4317 County Road 47, Florence,AL 35630-8001, (256) 740-6778"},{"latitude":"34.89629","longitude":"-87.671068","name":"Dollar General-Florence,AL","address":"5481 Highway 17, Florence,AL 35634-9008, (256) 766-5259"},{"latitude":"34.843968","longitude":"-87.666409","name":"Dollar General-Florence,AL","address":"736 Cox Creek Parkway, Florence,AL 35630, (256) 764-7700"},{"latitude":"30.418663","longitude":"-87.683381","name":"Dollar General-Foley,AL","address":"1121 N Mckenzie St, Foley,AL 36535-3550, (251) 943-5836"},{"latitude":"30.3877591","longitude":"-87.6834083","name":"Dollar General-Foley,AL","address":"1704 S Mckenzie St, Foley,AL 36535-3449, (251) 971-6814"},{"latitude":"30.4068","longitude":"-87.71789","name":"Dollar General-Foley,AL","address":"17977 US Hwy 98, Foley,AL 36535-9437, (251) 943-9343"},{"latitude":"30.333762","longitude":"-87.680438","name":"Dollar General-Foley,AL","address":"20052 Richard Childress Ln, Foley,AL 36535, (256) 764-0463"},{"latitude":"31.9873756","longitude":"-86.5794083","name":"Dollar General-Fort Deposit,AL","address":"121 Old Fort Rd W, Fort Deposit,AL 36032, (334) 227-3843"},{"latitude":"32.281746","longitude":"-85.006862","name":"Dollar General-Fort Mitchell,AL","address":"252 Sweetwater Branch Rd, Fort Mitchell,AL 36856, (334) 855-2053"},{"latitude":"32.3568378","longitude":"-85.0307974","name":"Dollar General-Fort Mitchell,AL","address":"7 Griggs Rd, Fort Mitchell,AL 36856, (334) 408-2676"},{"latitude":"34.424446","longitude":"-85.73792","name":"Dollar General-Fort Payne,AL","address":"104 19th St, Fort Payne,AL 35967-3420, (256) 845-2992"},{"latitude":"34.432374","longitude":"-85.733514","name":"Dollar General-Fort Payne,AL","address":"200 De Kalb Plaza Blvd, Fort Payne,AL 35967-4877, (256) 997-9004"},{"latitude":"34.440065","longitude":"-85.723294","name":"Dollar General-Fort Payne,AL","address":"219 Gault Ave S, Fort Payne,AL 35967-1909, (256) 845-9031"},{"latitude":"33.09235","longitude":"-87.6859055","name":"Dollar General-Fosters,AL","address":"13491 Hwy 11 South, Fosters,AL 35463, (205) 535-3104"},{"latitude":"31.4375174","longitude":"-87.3961484","name":"Dollar General-Frisco City,AL","address":"3750 Bowden St [Po Box 86], Frisco City,AL 36445-0086, (251) 267-3115"},{"latitude":"33.613681","longitude":"-86.797216","name":"Dollar General-Fultondale,AL","address":"1729 Decature Hwy, Fultondale,AL 35068-0846, (205) 841-1778"},{"latitude":"34.44428","longitude":"-85.908333","name":"Dollar General-Fyffe,AL","address":"1258 Main St, Fyffe,AL 35971-0350, (256) 623-6162"},{"latitude":"34.008992","longitude":"-85.99374","name":"Dollar General-Gadsden,AL","address":"108 N Hood Ave, Gadsden,AL 35903-1540, (256) 543-7258"},{"latitude":"34.020207","longitude":"-86.01959","name":"Dollar General-Gadsden,AL","address":"124 N 12Th St, Gadsden,AL 35901-3548, (256) 543-9950"},{"latitude":"34.036854","longitude":"-86.022906","name":"Dollar General-Gadsden,AL","address":"1311 Noccalula Rd, Gadsden,AL 35904-3303, (256) 547-3837"},{"latitude":"34.0496521","longitude":"-85.9225616","name":"Dollar General-Gadsden,AL","address":"1401 JR Countryman Hwy, Gadsden,AL 35901, (256) 547-2402"},{"latitude":"33.996926","longitude":"-86.027337","name":"Dollar General-Gadsden,AL","address":"1407 S 11Th St, Gadsden,AL 35904-4903, (256) 546-1135"},{"latitude":"33.99792","longitude":"-85.967864","name":"Dollar General-Gadsden,AL","address":"1622 E Meighan Blvd, Gadsden,AL 35903-1928, (256) 492-6632"},{"latitude":"34.0231438","longitude":"-86.0424652","name":"Dollar General-Gadsden,AL","address":"2501 W Meighan Blvd, Gadsden,AL 35904-1713, (256) 547-6752"},{"latitude":"33.97404","longitude":"-85.950953","name":"Dollar General-Gadsden,AL","address":"3022 E Meighan Blvd, Gadsden,AL 35903-3916, (256) 494-9860"},{"latitude":"33.652984","longitude":"-86.811772","name":"Dollar General-Gardendale,AL","address":"1026 Main St, Gardendale,AL 35071-2670, (205) 631-3540"},{"latitude":"33.642644","longitude":"-86.850242","name":"Dollar General-Gardendale,AL","address":"4809 Phillips Drive, Gardendale,AL 35071, (205) 386-8084"},{"latitude":"31.049524","longitude":"-85.899883","name":"Dollar General-Geneva,AL","address":"1507 W Magnolia Ave, Geneva,AL 36340-1213, (334) 684-6911"},{"latitude":"31.0494252","longitude":"-85.8588235","name":"Dollar General-Geneva,AL","address":"715 Enterprise Rd, Geneva,AL 36340-6381, (334) 684-0864"},{"latitude":"31.644917","longitude":"-86.741835","name":"Dollar General-Georgiana,AL","address":"119 Hwy 106 E, Georgiana,AL 36033-0153, (334) 376-2055"},{"latitude":"34.095549","longitude":"-86.4093811","name":"Dollar General-Geraldine,AL","address":"41102 Hwy 75, Geraldine,AL 35974-3724, (256) 659-5937"},{"latitude":"31.879869","longitude":"-88.32205","name":"Dollar General-Gilbertown,AL","address":"13661 Choctaw Ave, Gilbertown,AL 36908-0024, (251) 843-6362"},{"latitude":"33.9475118","longitude":"-85.9272131","name":"Dollar General-Glencoe,AL","address":"604 Hwy 431 South, Glencoe,AL 35905, (none listed)"},{"latitude":"33.1018","longitude":"-86.009179","name":"Dollar General-Goodwater,AL","address":"22108 Alabama Hwy 9, Goodwater,AL 35072, (256) 839-5811"},{"latitude":"33.34309","longitude":"-87.944139","name":"Dollar General-Gordo,AL","address":"25157 Hwy 82 E, Gordo,AL 35466-0229, (205) 364-6292"},{"latitude":"30.56736","longitude":"-88.343221","name":"Dollar General-Grand Bay,AL","address":"5925 Grand Bay Wilmer Rd S, Grand Bay,AL 36541, (251) 865-1905"},{"latitude":"30.48315","longitude":"-88.340952","name":"Dollar General-Grand Bay,AL","address":"9964 Grand Bay Wilmer Rd S, Grand Bay,AL 36541-5006, (251) 865-1120"},{"latitude":"34.514565","longitude":"-86.25912","name":"Dollar General-Grant,AL","address":"4397 Cathedral Caverns Hwy, Grant,AL 35747, (256) 728-8045 "},{"latitude":"33.612017","longitude":"-86.963958","name":"Dollar General-Graysville,AL","address":"1509 S Main, Graysville,AL 35073, (205) 674-9787"},{"latitude":"32.706467","longitude":"-87.595304","name":"Dollar General-Greensboro,AL","address":"1101 Tuscaloosa St, Greensboro,AL 36744-1226, (334) 624-1397"},{"latitude":"31.829716","longitude":"-86.61562","name":"Dollar General-Greenville,AL","address":"100 Short St, Greenville,AL 36037-2324, (334) 382-1220"},{"latitude":"31.848113","longitude":"-86.638817","name":"Dollar General-Greenville,AL","address":"122 Butler Sq, Greenville,AL 36037-3746, (334) 382-6543"},{"latitude":"31.8020191","longitude":"-86.6463699","name":"Dollar General-Greenville,AL","address":"3028 Kolb City Rd, Greenville,AL 36037, (334) 617-3260"},{"latitude":"31.703042","longitude":"-87.776074","name":"Dollar General-Grove Hill,AL","address":"199 S Jackson St Ste D, Grove Hill,AL 36451-3009, (251) 275-8340"},{"latitude":"30.252662","longitude":"-87.752577","name":"Dollar General-Gulf Shores,AL","address":"15827 A State Hwy 180, Gulf Shores,AL 36542, (251) 968-2773"},{"latitude":"30.294611","longitude":"-87.683344","name":"Dollar General-Gulf Shores,AL","address":"224 Gulf Shores Parkway, Gulf Shores,AL 36542, (251) 967-1158"},{"latitude":"34.300362","longitude":"-86.274458","name":"Dollar General-Guntersville,AL","address":"11611 Us Highway 431 Ste G, Guntersville,AL 35976-5658, (256) 878-0550"},{"latitude":"34.320455","longitude":"-86.311251","name":"Dollar General-Guntersville,AL","address":"14230 Us Highway 431, Guntersville,AL 35976-2541, (256) 505-3402"},{"latitude":"34.352623","longitude":"-86.315716","name":"Dollar General-Guntersville,AL","address":"1473 Sunset Dr, Guntersville,AL 35976-1628, (256) 582-4924"},{"latitude":"34.422963","longitude":"-86.263187","name":"Dollar General-Guntersville,AL","address":"22325 Hwy 431, Guntersville,AL 35976, (334) 222-1762"},{"latitude":"34.362907","longitude":"-86.421555","name":"Dollar General-Guntersville,AL","address":"8029 Al Highway 69, Guntersville,AL 35976-7140, (256) 753-5006"},{"latitude":"34.7689934","longitude":"-86.4290009","name":"Dollar General-Gurley,AL","address":"1102 Brownsboro Road, Gurley,AL 35748, (256) 585-6634"},{"latitude":"34.700329","longitude":"-86.386417","name":"Dollar General-Gurley,AL","address":"5980 Hwy 72, Gurley,AL 35748-0400, (256) 776-4782"},{"latitude":"34.276545","longitude":"-87.832051","name":"Dollar General-Hackleburg,AL","address":"1429 Old Hackleburg Rd, Hackleburg,AL 35564, (205) 935-3352"},{"latitude":"34.240274","longitude":"-87.591864","name":"Dollar General-Haleyville,AL","address":"42165 Highway 195, Haleyville,AL 35565-7053, (205) 485-2066"},{"latitude":"34.233717","longitude":"-87.637391","name":"Dollar General-Haleyville,AL","address":"430 Highway 13, Haleyville,AL 35565-1497, (205) 486-7202"},{"latitude":"34.132192","longitude":"-87.989916","name":"Dollar General-Hamilton,AL","address":"1141 Military St S, Hamilton,AL 35570-5006, (205) 921-5684"},{"latitude":"34.665362","longitude":"-86.486924","name":"Dollar General-Hampton Cove,AL","address":"6466 Hwy 431, Hampton Cove,AL 35763-9214, (256) 533-5070"},{"latitude":"34.0521","longitude":"-86.869303","name":"Dollar General-Hanceville,AL","address":"171 Al Highway 69 S, Hanceville,AL 35077-3433, (256) 287-1950"},{"latitude":"34.075128","longitude":"-86.780484","name":"Dollar General Market-Hanceville,AL","address":"872 Main St Ne, Hanceville,AL 35077, (256) 505-3402"},{"latitude":"33.34152","longitude":"-86.433051","name":"Dollar General-Harpersville,AL","address":"4962 Hwy 280, Harpersville,AL 35078-0562, (205) 672-7999"},{"latitude":"31.097197","longitude":"-85.707021","name":"Dollar General-Hartford,AL","address":"801 W Main St, Hartford,AL 36344-2117, (334) 588-2251"},{"latitude":"34.4492807","longitude":"-86.9086817","name":"Dollar General-Hartselle,AL","address":"1505 Main St E, Hartselle,AL 35640-2009, (256) 778-1035"},{"latitude":"34.441542","longitude":"-86.942097","name":"Dollar General-Hartselle,AL","address":"241 Highway 31 Sw Ste 25, Hartselle,AL 35640-2855, (256) 751-0350"},{"latitude":"34.4654236","longitude":"-87.0594735","name":"Dollar General-Hartselle,AL","address":"6996 Danville Rd, Hartselle,AL 35640, (256) 502-6444"},{"latitude":"34.774198","longitude":"-86.832341","name":"Dollar General-Harvest,AL","address":"15024 E Limestone Rd, Harvest,AL 35749-7264, (256) 233-1056"},{"latitude":"34.844831","longitude":"-86.711431","name":"Dollar General-Harvest,AL","address":"5836 Hwy 53, Harvest,AL 35749-9282, (256) 746-0066"},{"latitude":"34.8579865","longitude":"-86.7494736","name":"Dollar General-Harvest,AL","address":"9120 Wall Triana Hwy, Harvest,AL 35749-8114, (256) 824-0761"},{"latitude":"33.906506","longitude":"-86.730644","name":"Dollar General-Hayden,AL","address":"7285 Hwy 160, Hayden,AL 35079, (205) 590-3050"},{"latitude":"32.1848472","longitude":"-86.5724064","name":"Dollar General-Hayneville,AL","address":"506 Tuskeena St [Po Box 1118], Hayneville,AL 35121-7193, (334) 548-6166"},{"latitude":"34.946844","longitude":"-86.57011","name":"Dollar General-Hazel Green,AL","address":"101 Twin Rivers Rd, Hazel Green,AL 35750, (256) 829-0066"},{"latitude":"31.3348605","longitude":"-85.3340567","name":"Dollar General-Headland,AL","address":"156 Country Road 22, Headland,AL 36345-2100, (334) 693-9317"},{"latitude":"33.647888","longitude":"-85.587436","name":"Dollar General-Heflin,AL","address":"740 Ross St, Heflin,AL 36264-1372, (256) 463-1078"},{"latitude":"33.525711","longitude":"-85.638478","name":"Dollar General-Heflin,AL","address":"8447 Highway 431, Heflin,AL 36264-3940, (256) 253-1329"},{"latitude":"33.276617","longitude":"-86.852479","name":"Dollar General-Helena,AL","address":"4979 Highway 17, Helena,AL 35080-3510, (205) 685-0267"},{"latitude":"34.6641197","longitude":"-85.7354965","name":"Dollar General-Henagar,AL","address":"132 Bellview Rd, Henagar,AL 35978-5616, (256) 657-2371"},{"latitude":"31.948748","longitude":"-86.313734","name":"Dollar General-Highland Home,AL","address":"17805 Montgomery Hwy, Highland Home,AL 36041-3502, (334) 537-4391"},{"latitude":"34.6479714","longitude":"-87.1684858","name":"Dollar General-Hillsboro,AL","address":"15861 Cr 400, Hillsboro,AL 35643, (256) 567-3056"},{"latitude":"33.985741","longitude":"-85.86745","name":"Dollar General-Hokes Bluff,AL","address":"5698 US Hwy 278 E, Hokes Bluff,AL 35903-7205, (256) 492-0470"},{"latitude":"34.174379","longitude":"-86.612787","name":"Dollar General-Holly Pond,AL","address":"11073 US Hwy 278 E, Holly Pond,AL 35083-6841, (256) 796-5030"},{"latitude":"33.416992","longitude":"-86.843123","name":"Dollar General-Hoover,AL","address":"2144 Tyler Rd, Hoover,AL 35226-1305, (205) 823-2217"},{"latitude":"34.16992","longitude":"-86.330477","name":"Dollar General-Horton,AL","address":"9455 Al Hwy 75, Horton,AL 35980-8399, (256) 840-2045"},{"latitude":"33.446066","longitude":"-86.99648","name":"Dollar General-Hueytown,AL","address":"1345 Hueytown Rd, Hueytown,AL 35023-2439, (205) 497-1156"},{"latitude":"33.449213","longitude":"-86.986262","name":"Dollar General-Hueytown,AL","address":"208 Forest Rd, Hueytown,AL 35023-1614, (205) 491-6514"},{"latitude":"34.746142","longitude":"-86.576463","name":"Dollar General-Huntsville,AL","address":"1008 Andrew Jackson Way Ne, Huntsville,AL 35801-3509, (856) 533-9484"},{"latitude":"34.57105","longitude":"-86.571989","name":"Dollar General-Huntsville,AL","address":"12879 South Us Hwy 231, Huntsville,AL 35803, (256) 881-9798"},{"latitude":"34.829154","longitude":"-86.569676","name":"Dollar General-Huntsville,AL","address":"136 Countess Rd Ne, Huntsville,AL 35810-6312, (256) 859-5108"},{"latitude":"34.644123","longitude":"-86.540238","name":"Dollar General-Huntsville,AL","address":"1400 Weatherly Plz, Huntsville,AL 35803-2616, (256) 885-0405"},{"latitude":"34.804085","longitude":"-86.522881","name":"Dollar General-Huntsville,AL","address":"1604 Winchester Rd Ne, Huntsville,AL 35811-8658, (256) 851-0095"},{"latitude":"34.813057","longitude":"-86.713384","name":"Dollar General-Huntsville,AL","address":"1935 Jeff Rd Nw, Huntsville,AL 35806-1038, (256) 830-4714"},{"latitude":"34.75172","longitude":"-86.581698","name":"Dollar General-Huntsville,AL","address":"2210 Meridian St N, Huntsville,AL 35811-1836, (256) 539-4881"},{"latitude":"34.713616","longitude":"-86.575367","name":"Dollar General-Huntsville,AL","address":"2340 Whitesburg Dr S, Huntsville,AL 35801-3818, (256) 551-0503"},{"latitude":"34.754988","longitude":"-86.638427","name":"Dollar General-Huntsville,AL","address":"2420 Jordan Ln Nw, Huntsville,AL 35816-1031, (256) 837-6606"},{"latitude":"34.758245","longitude":"-86.592909","name":"Dollar General-Huntsville,AL","address":"2601 N Memorial Pkwy, Huntsville,AL 35810-3965, (256) 851-2668"},{"latitude":"34.769801","longitude":"-86.484257","name":"Dollar General-Huntsville,AL","address":"272 Ryland Pike, Huntsville,AL 35811-9568, (256) 851-0885"},{"latitude":"34.729555","longitude":"-86.606749","name":"Dollar General-Huntsville,AL","address":"2806 Holmes Ave, Huntsville,AL 35816, (256) 824-0760"},{"latitude":"34.707636","longitude":"-86.589996","name":"Dollar General-Huntsville,AL","address":"2806 Memorial Pkwy Sw Ste Fan, Huntsville,AL 35801-6508, (256) 539-3330"},{"latitude":"34.710323","longitude":"-86.60948","name":"Dollar General-Huntsville,AL","address":"2900A Triana Blvd Sw Ste B, Huntsville,AL 35805-4652, (256) 518-9089"},{"latitude":"34.771387","longitude":"-86.598747","name":"Dollar General Market-Huntsville,AL","address":"3700 J Blue Spring Road, Huntsville,AL 35810-3479, (256) 746-9209"},{"latitude":"34.7378006","longitude":"-86.6280136","name":"Dollar General-Huntsville,AL","address":"4061 Independence Dr, Huntsville,AL 35816-3013, (256) 715-9856"},{"latitude":"34.6910172","longitude":"-86.6103821","name":"Dollar General-Huntsville,AL","address":"4120 Triana Blvd, Huntsville,AL 35670-5804, (256) 469-1759"},{"latitude":"34.735932","longitude":"-86.647906","name":"Dollar General-Huntsville,AL","address":"4710 University Dr Nw, Huntsville,AL 35816-3434, (256) 864-0339"},{"latitude":"34.6511129","longitude":"-86.7437768","name":"Dollar General-Huntsville,AL","address":"495 Old Jim Williams Rd, Huntsville,AL 35824, (none listed)"},{"latitude":"34.792679","longitude":"-86.616241","name":"Dollar General-Huntsville,AL","address":"5991 Pulaski Pike, Huntsville,AL 35810, (256) 301-0605"},{"latitude":"34.71303","longitude":"-86.65866","name":"Dollar General-Huntsville,AL","address":"6201 Old Madison Pike, Huntsville,AL 35806, (256) 837-6378"},{"latitude":"32.28475","longitude":"-85.416569","name":"Dollar General-Hurtsboro,AL","address":"1541 Hwy 51, Hurtsboro,AL 36860, (334) 667-5405"},{"latitude":"34.697296","longitude":"-85.669366","name":"Dollar General-Ider,AL","address":"19906 Al Hwy 117, Ider,AL 35981-4650, (256) 657-4546"},{"latitude":"33.531789","longitude":"-86.706605","name":"Dollar General-Irondale,AL","address":"1721 Crestwood Boulevard, Irondale,AL 35210-1914, (205) 951-9520"},{"latitude":"30.499443","longitude":"-88.234064","name":"Dollar General-Irvington,AL","address":"9210 Irvington Blb Hwy, Irvington,AL 36544-2802, (251) 957-0245"},{"latitude":"31.55434","longitude":"-87.877721","name":"Dollar General-Jackson,AL","address":"4107 N College Ave, Jackson,AL 36545-2202, (251) 246-6558"},{"latitude":"31.519447","longitude":"-87.895786","name":"Dollar General-Jackson,AL","address":"803 College Ave, Jackson,AL 36545-2532, (251) 246-4278"},{"latitude":"32.8853188","longitude":"-85.8638144","name":"Dollar General-Jacksons Gap,AL","address":"10778 Hwy 280, Jacksons Gap,AL 36861, (256) 269-1685"},{"latitude":"33.826038","longitude":"-85.76783","name":"Dollar General-Jacksonville,AL","address":"339 Nisbet St Nw, Jacksonville,AL 36265-1025, (256) 435-3919"},{"latitude":"33.8099668","longitude":"-85.7613896","name":"Dollar General-Jacksonville,AL","address":"619 Pelham Rd S, Jacksonville,AL 36265-2736, (256) 435-5008"},{"latitude":"33.855751","longitude":"-87.290758","name":"Dollar General-Jasper,AL","address":"171 Highway 5, Jasper,AL 35503-6547, (205) 221-1935"},{"latitude":"33.828077","longitude":"-87.282338","name":"Dollar General-Jasper,AL","address":"1902 7Th Ave W, Jasper,AL 35501-5151, (205) 387-1220"},{"latitude":"33.870842","longitude":"-87.267049","name":"Dollar General-Jasper,AL","address":"1981 N Airport Rd, Jasper,AL 35504-7307, (205) 384-9994"},{"latitude":"33.828427","longitude":"-87.270469","name":"Dollar General-Jasper,AL","address":"24 Hollis Crump Dr, Jasper,AL 35501, (205) 387-2050"},{"latitude":"33.911633","longitude":"-87.082811","name":"Dollar General-Jasper,AL","address":"27654 Hwy 69, Jasper,AL 35504, (205) 221-3499 "},{"latitude":"33.907202","longitude":"-87.302371","name":"Dollar General-Jasper,AL","address":"4717 Hwy 195, Jasper,AL 35503, (205) 221-8781 "},{"latitude":"33.940822","longitude":"-87.220482","name":"Dollar General-Jasper,AL","address":"5100 Curry Hwy Ste 138, Jasper,AL 35503-5867, (205) 387-0065"},{"latitude":"33.848698","longitude":"-87.282246","name":"Dollar General-Jasper,AL","address":"573 Highway 78 W, Jasper,AL 35501-3745, (205) 384-9240"},{"latitude":"32.959017","longitude":"-86.740219","name":"Dollar General-Jemison,AL","address":"8961 County Rd 42, Jemison,AL 35085-0819, (205) 688-1021"},{"latitude":"32.4686866","longitude":"-86.8829915","name":"Dollar General-Jones,AL","address":"620 County Rd 79, Jones,AL 35806-2025, (334) 526-3205"},{"latitude":"34.856191","longitude":"-87.552708","name":"Dollar General-Killen,AL","address":"1121 Hwy 72, Killen,AL 35645-9101, (256) 757-3953"},{"latitude":"34.908835","longitude":"-87.53185","name":"Dollar General-Killen,AL","address":"4833 Hwy 43, Killen,AL 35645-5341, (256) 757-6067"},{"latitude":"31.2185948","longitude":"-86.1723416","name":"Dollar General-Kinston,AL","address":"614 Hwy 52, Kinston,AL 36453-3434, (334) 565-3371"},{"latitude":"34.477097","longitude":"-86.573373","name":"Dollar General-Laceys Spring,AL","address":"4110 Hwy 231 Ste B, Laceys Spring,AL 35754-6429, (256) 498-1055"},{"latitude":"32.910591","longitude":"-85.401349","name":"Dollar General-Lafayette,AL","address":"17409 US Hwy 431, Lafayette,AL 36862-5101, (334) 864-5040"},{"latitude":"32.833402","longitude":"-85.229011","name":"Dollar General-Lanett,AL","address":"3038 S Phillips Rd, Lanett,AL 36863-6232, (334) 576-4045"},{"latitude":"33.558956","longitude":"-86.523467","name":"Dollar General-Leeds,AL","address":"1725 Ashville Rd Ste 113, Leeds,AL 35094-7557, (205) 699-3464"},{"latitude":"33.544523","longitude":"-86.555872","name":"Dollar General-Leeds,AL","address":"7488 Parkway Dr, Leeds,AL 35094-4818, (205) 699-6253"},{"latitude":"34.182225","longitude":"-85.762072","name":"Dollar General-Leesburg,AL","address":"360 Industrial Blvd, Leesburg,AL 35983-3751, (256) 526-4444"},{"latitude":"31.5100249","longitude":"-87.9546741","name":"Dollar General-Leroy,AL","address":"40 Palmer Cr, Leroy,AL 36548, (251) 387-6633"},{"latitude":"34.971067","longitude":"-87.372653","name":"Dollar General-Lexington,AL","address":"134 Old Mill Rd, Lexington,AL 35648-3454, (256) 229-9001"},{"latitude":"30.4141722","longitude":"-87.4486298","name":"Dollar General-Lillian,AL","address":"33880 Us Hwy 98 [PO Box 313], Lillian,AL 36549-4049, (251) 962-2086"},{"latitude":"33.603876","longitude":"-86.122412","name":"Dollar General-Lincoln,AL","address":"47529 Us Highway 78, Lincoln,AL 35096-6709, (205) 763-2877"},{"latitude":"32.296439","longitude":"-87.80041","name":"Dollar General-Linden,AL","address":"103 Miller Ave, Linden,AL 36748, (334) 295-4700"},{"latitude":"33.312419","longitude":"-85.74784","name":"Dollar General-Lineville,AL","address":"24 6th Ave, Lineville,AL 36266-0055, (256) 396-1876"},{"latitude":"32.584673","longitude":"-88.187886","name":"Dollar General-Livingston,AL","address":"117 Washington St, Livingston,AL 35470-1499, (205) 652-9903"},{"latitude":"33.907046","longitude":"-86.6168741","name":"Dollar General-Locust Fork,AL","address":"30282 Al Hwy 79, Locust Fork,AL 35097-5877, (205) 683-0025"},{"latitude":"30.617748","longitude":"-87.753134","name":"Dollar General-Loxley,AL","address":"3300 S Hickory St, Loxley,AL 36551-0458, (251) 964-2571"},{"latitude":"31.700131","longitude":"-86.265569","name":"Dollar General-Luverne,AL","address":"1257 S Forest Ave, Luverne,AL 36049-7314, (334) 335-6613"},{"latitude":"34.747825","longitude":"-86.788561","name":"Dollar General-Madison,AL","address":"30664 Us Highway 72, Madison,AL 35756-3200, (256) 233-6030"},{"latitude":"34.794106","longitude":"-86.750171","name":"Dollar General-Madison,AL","address":"329 Pine Grove Rd, Madison,AL 35757-8026, (256) 217-0845"},{"latitude":"34.771409","longitude":"-86.731911","name":"Dollar General-Madison,AL","address":"610 Nance Rd, Madison,AL 35757-7806, (256) 895-0803"},{"latitude":"34.752849","longitude":"-86.747584","name":"Dollar General-Madison,AL","address":"7950 Highway 72 W Ste D, Madison,AL 35758-6420, (256) 722-4922"},{"latitude":"34.706789","longitude":"-86.740344","name":"Dollar General Market-Madison,AL","address":"8466 Old Madison Pike, Madison,AL 35758-1123, (256) 461-0990"},{"latitude":"31.1393067","longitude":"-85.5218006","name":"Dollar General-Malvern,AL","address":"207 West Malvern Highway, Malvern,AL 36349, (334) 794-0230"},{"latitude":"32.77343","longitude":"-86.875305","name":"Dollar General-Maplesville,AL","address":"8315 Hwy 22, Maplesville,AL 36750-0012, (334) 366-2571"},{"latitude":"32.6164448","longitude":"-87.3171412","name":"Dollar General-Marion,AL","address":"1290 S Washington St, Marion,AL 36756-3417, (334) 683-8733"},{"latitude":"33.2793694","longitude":"-87.1532516","name":"Dollar General-Mccalla,AL","address":"13079 Broadway Dr, Mccalla,AL 35111, (205) 994-6094"},{"latitude":"33.278349","longitude":"-87.088422","name":"Dollar General-Mccalla,AL","address":"22583 Highway 216, Mccalla,AL 35111-2705, (205) 477-0704"},{"latitude":"33.3097725","longitude":"-87.0242462","name":"Dollar General-Mccalla,AL","address":"5545 Eastern Valley Road, Mccalla,AL 36117-2113, (205) 417-2791"},{"latitude":"31.155175","longitude":"-88.009909","name":"Dollar General-McIntosh,AL","address":"7835 Hwy 43, McIntosh,AL 36553-6613, (251) 944-0603"},{"latitude":"31.5354972","longitude":"-86.7179746","name":"Dollar General-Mckenzie,AL","address":"558 Hartley St, Mckenzie,AL 36456, (334) 362-2070"},{"latitude":"34.869804","longitude":"-86.569439","name":"Dollar General-Meridianville,AL","address":"110 Crossing Blvd, Meridianville,AL 35759-1639, (256) 829-0405"},{"latitude":"31.3094285","longitude":"-85.496445","name":"Dollar General-Midland City,AL","address":"12628 S County Rd 59, Midland City,AL 36350-3697, (334) 983-1259"},{"latitude":"32.464779","longitude":"-86.360229","name":"Dollar General-Millbrook,AL","address":"2440 Main Street, Millbrook,AL 36054, (334) 290-1413"},{"latitude":"32.5186729","longitude":"-86.3704254","name":"Dollar General-Millbrook,AL","address":"4041 Highway 14, Millbrook,AL 36054-1979, (334) 285-9533"},{"latitude":"33.560149","longitude":"-88.079688","name":"Dollar General-Millport,AL","address":"12231 Hwy 96, Millport,AL 35576-0505, (205) 662-8921"},{"latitude":"31.65442","longitude":"-88.306949","name":"Dollar General-Millry,AL","address":"30023 Hwy 17, Millry,AL 36558-4631, (251) 846-2648"},{"latitude":"30.670267","longitude":"-88.282983","name":"Dollar General-Mobile,AL","address":"10190 Airport Blvd, Mobile,AL 36608-9530, (251) 634-3060"},{"latitude":"30.692799","longitude":"-88.066104","name":"Dollar General-Mobile,AL","address":"1310 Springhill Blvd, Mobile,AL 36604-3213, (251) 434-8109"},{"latitude":"30.659423","longitude":"-88.225143","name":"Dollar General-Mobile,AL","address":"1491 Schillinger Rd S, Mobile,AL 36695-8920, (251) 634-0594"},{"latitude":"30.680017","longitude":"-88.073736","name":"Dollar General-Mobile,AL","address":"1551 Government St, Mobile,AL 36604-1105, (251) 473-8141"},{"latitude":"30.653606","longitude":"-88.076408","name":"Dollar General-Mobile,AL","address":"1565 Eagle Dr, Mobile,AL 36605-2134, (251) 478-1826"},{"latitude":"30.627448","longitude":"-88.089022","name":"Dollar General-Mobile,AL","address":"2158 Dauphin Island Pkwy, Mobile,AL 36605-3328, (251) 478-5351"},{"latitude":"30.6240292","longitude":"-88.3369675","name":"Dollar General-Mobile,AL","address":"2335 Newman Rd, Mobile,AL 36695-9808, (251) 206-0863"},{"latitude":"30.642519","longitude":"-88.247162","name":"Dollar General-Mobile,AL","address":"2381 Dawes Rd, Mobile,AL 36695-8073, (251) 607-7001"},{"latitude":"30.5509494","longitude":"-88.0954767","name":"Dollar General-Mobile,AL","address":"2461 Island Rd, Mobile,AL 36605, (251) 303-8906"},{"latitude":"30.672392","longitude":"-88.099033","name":"Dollar General-Mobile,AL","address":"2501 Government Blvd, Mobile,AL 36606-1639, (251) 476-1641"},{"latitude":"30.629146","longitude":"-88.084288","name":"Dollar General-Mobile,AL","address":"2601 #50 Dauphin Island Pkwy, Mobile,AL 36605-3408, (251) 478-8161"},{"latitude":"30.648946","longitude":"-88.111843","name":"Dollar General-Mobile,AL","address":"2912 N McVay Dr, Mobile,AL 36606, (251) 471-2848"},{"latitude":"30.673473","longitude":"-88.148667","name":"Dollar General-Mobile,AL","address":"300 Azalea Rd, Mobile,AL 36609-1981, (251) 343-7512"},{"latitude":"30.689541","longitude":"-88.120766","name":"Dollar General-Mobile,AL","address":"3226 Dauphin St, Mobile,AL 36606-4001, (251) 476-5259"},{"latitude":"30.698217","longitude":"-88.12144","name":"Dollar General-Mobile,AL","address":"3251 Old Shell Rd Ste B, Mobile,AL 36607-2519, (251) 471-3710"},{"latitude":"30.751782","longitude":"-88.11636","name":"Dollar General-Mobile,AL","address":"3449 Saint Stephens Rd, Mobile,AL 36612-1238, (251) 452-3708"},{"latitude":"30.619859","longitude":"-88.19095","name":"Dollar General-Mobile,AL","address":"3450 Hillcrest Rd, Mobile,AL 36695-3180, (251) 661-2732"},{"latitude":"30.636715","longitude":"-88.141405","name":"Dollar General-Mobile,AL","address":"4005 Government Blvd, Mobile,AL 36693-4727, (251) 661-1735"},{"latitude":"30.705416","longitude":"-88.150189","name":"Dollar General-Mobile,AL","address":"4690 Springhill Ave, Mobile,AL 36608-5723, (251) 342-3950"},{"latitude":"30.675813","longitude":"-88.174416","name":"Dollar General-Mobile,AL","address":"4693 Airport Blvd Ste 160, Mobile,AL 36608, (251) 342-4666"},{"latitude":"30.719936","longitude":"-88.153199","name":"Dollar General-Mobile,AL","address":"4821 Moffett Rd, Mobile,AL 36618-2218, (251) 344-6302"},{"latitude":"30.648933","longitude":"-88.158981","name":"Dollar General-Mobile,AL","address":"5029 Cottage Hill Rd, Mobile,AL 36609-4204, (251) 662-8145"},{"latitude":"30.591961","longitude":"-88.167961","name":"Dollar General-Mobile,AL","address":"5451 Halls Mill Rd, Mobile,AL 36619-8801, (251) 661-1694"},{"latitude":"30.7252501","longitude":"-88.1684891","name":"Dollar General-Mobile,AL","address":"5475 Moffett Rd, Mobile,AL 36618-2980, (251) 298-5393"},{"latitude":"30.7216263","longitude":"-88.0844193","name":"Dollar General-Mobile,AL","address":"603 S Wilson Ave, Mobile,AL 36617, (251) 206-0864"},{"latitude":"30.68702","longitude":"-88.209707","name":"Dollar General-Mobile,AL","address":"7156B Airport Blvd, Mobile,AL 36608-4556, (251) 380-1163"},{"latitude":"30.755021","longitude":"-88.212289","name":"Dollar General-Mobile,AL","address":"7241 Moffett Rd, Mobile,AL 36618-4143, (251) 645-2352"},{"latitude":"30.589013","longitude":"-88.220609","name":"Dollar General-Mobile,AL","address":"7600 Three Notch Rd, Mobile,AL 36619-1106, (251) 660-0399"},{"latitude":"30.706903","longitude":"-88.276404","name":"Dollar General-Mobile,AL","address":"769 Snow Rd N, Mobile,AL 36608-9715, (251) 649-1020"},{"latitude":"30.7072934","longitude":"-88.2255122","name":"Dollar General-Mobile,AL","address":"795 Schillinger Rd N [#2], Mobile,AL 36608-5209, (251) 776-5909"},{"latitude":"30.6681982","longitude":"-88.0555205","name":"Dollar General-Mobile,AL","address":"901 S Broad St, Mobile,AL 36603-1002, (251) 298-5281"},{"latitude":"31.506988","longitude":"-87.317333","name":"Dollar General-Monroeville,AL","address":"1886 S Highway 21 Byp, Monroeville,AL 36460-3034, (251) 743-2369"},{"latitude":"31.526122","longitude":"-87.332814","name":"Dollar General-Monroeville,AL","address":"486 W Claiborne St, Monroeville,AL 36460-1723, (251) 575-4647"},{"latitude":"33.09284","longitude":"-86.864522","name":"Dollar General-Montevallo,AL","address":"4004 Hwy 25, Montevallo,AL 35115-4113, (205) 665-2979"},{"latitude":"32.366495","longitude":"-86.244327","name":"Dollar General-Montgomery,AL","address":"1030 Perry Hill Rd, Montgomery,AL 36109-4503, (334) 271-4732"},{"latitude":"32.35555","longitude":"-86.377945","name":"Dollar General-Montgomery,AL","address":"1218 West Blvd, Montgomery,AL 36108, (334) 649-6097"},{"latitude":"32.326656","longitude":"-86.265503","name":"Dollar General-Montgomery,AL","address":"2280 E South Blvd, Montgomery,AL 36116-2485, (334) 281-9071"},{"latitude":"32.344749","longitude":"-86.222795","name":"Dollar General-Montgomery,AL","address":"2769 Eastern Blvd, Montgomery,AL 36117-1549, (334) 396-2503"},{"latitude":"32.421709","longitude":"-86.28466","name":"Dollar General-Montgomery,AL","address":"3439 Lower Wetumpka Rd, Montgomery,AL 36110-1728, (334) 834-6754"},{"latitude":"32.332669","longitude":"-86.246432","name":"Dollar General-Montgomery,AL","address":"3439 Mcgehee Rd Ste C, Montgomery,AL 36111-3334, (334) 286-4043"},{"latitude":"32.3288899","longitude":"-86.1802521","name":"Dollar General-Montgomery,AL","address":"3631 Malcolm Dr, Montgomery,AL 36116, (334) 651-8265"},{"latitude":"32.324842","longitude":"-86.299036","name":"Dollar General-Montgomery,AL","address":"4105 Norman Bridge Rd, Montgomery,AL 36105-3231, (334) 284-7606"},{"latitude":"32.391393","longitude":"-86.25763","name":"Dollar General-Montgomery,AL","address":"431 Coliseum Blvd, Montgomery,AL 36109-2713, (334) 396-0021"},{"latitude":"32.3073196","longitude":"-86.3491821","name":"Dollar General-Montgomery,AL","address":"4949 Mobile Hwy, Montgomery,AL 36108-5129, (334) 544-1190"},{"latitude":"32.334088","longitude":"-86.298916","name":"Dollar General-Montgomery,AL","address":"502 E Patton Ave, Montgomery,AL 36111-2404, (334) 281-4233"},{"latitude":"32.381619","longitude":"-86.213298","name":"Dollar General-Montgomery,AL","address":"5456 Atlanta Hwy, Montgomery,AL 36109-3326, (334) 213-0042"},{"latitude":"32.3922557","longitude":"-86.2074637","name":"Dollar General-Montgomery,AL","address":"5560 Wares Ferry Rd, Montgomery,AL 36117-2113, (334) 277-9063"},{"latitude":"32.3118525","longitude":"-86.225521","name":"Dollar General-Montgomery,AL","address":"5840 Cherry Hill Rd, Montgomery,AL 36116-5010, (334) 239-0473"},{"latitude":"32.38205","longitude":"-86.192456","name":"Dollar General-Montgomery,AL","address":"6220 Atlanta Hwy, Montgomery,AL 36117-2802, (334) 396-2160"},{"latitude":"32.3516121","longitude":"-86.4535294","name":"Dollar General-Montgomery,AL","address":"6510 Old Selma Rd, Montgomery,AL 35405-7756, (334) 394-3892"},{"latitude":"32.4053141","longitude":"-86.1695138","name":"Dollar General-Montgomery,AL","address":"7700 Wares Ferry Rd, Montgomery,AL 36117-4459, (334) 460-1133"},{"latitude":"33.59467","longitude":"-86.497883","name":"Dollar General-Moody,AL","address":"1009 Crossroads Plaza Dr, Moody,AL 35004-2615, (205) 640-3611"},{"latitude":"33.75724","longitude":"-86.814603","name":"Dollar General-Morris,AL","address":"8590 Hwy 31 N, Morris,AL 35116-1242, (205) 590-0308"},{"latitude":"34.482475","longitude":"-87.276542","name":"Dollar General-Moulton,AL","address":"15304 Court St, Moulton,AL 35650-1308, (256) 905-0086"},{"latitude":"34.560558","longitude":"-87.275245","name":"Dollar General-Moulton,AL","address":"20222 Highway 33 North, Moulton,AL 35650, (256) 974-1178"},{"latitude":"34.539583","longitude":"-87.155585","name":"Dollar General-Moulton,AL","address":"22995 Al Highway 24-Ste-A, Moulton,AL 35650-8017, (256) 974-6133"},{"latitude":"32.998276","longitude":"-87.6228","name":"Dollar General-Moundville,AL","address":"40707 AL Hwy 69, Moundville,AL 35474-4354, (205) 371-4644"},{"latitude":"34.484834","longitude":"-87.454349","name":"Dollar General-Mount Hope,AL","address":"4800 Al Hwy 24, Mount Hope,AL 35651-2706, (256) 905-0300"},{"latitude":"33.672726","longitude":"-86.837908","name":"Dollar General-Mount Olive,AL","address":"2264 Mount Olive Rd, Mount Olive,AL 35117-3900, (205) 631-0406"},{"latitude":"31.0997428","longitude":"-88.0109818","name":"Dollar General-Mount Vernon,AL","address":"19644 Hwy 43 [Po Box 339], Mount Vernon,AL 36560-0339, (251) 829-5384"},{"latitude":"33.532608","longitude":"-85.939817","name":"Dollar General-Munford,AL","address":"44399 Al Hwy 21, Munford,AL 36268-6801, (256) 358-4051"},{"latitude":"34.76183","longitude":"-87.528942","name":"Dollar General-Muscle Shoals,AL","address":"14473 County Line Rd, Muscle Shoals,AL 35661-4433, (256) 446-5003"},{"latitude":"34.72997","longitude":"-87.640106","name":"Dollar General-Muscle Shoals,AL","address":"1811 E 6Th St, Muscle Shoals,AL 35661-3609, (256) 381-8207"},{"latitude":"34.7587","longitude":"-87.635116","name":"Dollar General-Muscle Shoals,AL","address":"300 S Wilson Dam Rd, Muscle Shoals,AL 35661-3660, (256) 389-2842"},{"latitude":"34.754122","longitude":"-87.667615","name":"Dollar General-Muscle Shoals,AL","address":"716 Woodward Ave, Muscle Shoals,AL 35661-2230, (256) 383-2886"},{"latitude":"33.98908","longitude":"-87.486919","name":"Dollar General-Nauvoo,AL","address":"643 2nd Ave, Nauvoo,AL 35578-3731, (205) 697-5244"},{"latitude":"31.395923","longitude":"-85.964227","name":"Dollar General-New Brockton,AL","address":"18341 Us Highway 84, New Brockton,AL 36351-6504, (334) 894-0294"},{"latitude":"34.550255","longitude":"-86.432434","name":"Dollar General-New Hope,AL","address":"10129 Hwy 431 S, New Hope,AL 35760, (256) 723-7884"},{"latitude":"34.892478","longitude":"-86.433362","name":"Dollar General-New Market,AL","address":"4991 Winchester Rd, New Market,AL 35761-9020, (256) 379-4868"},{"latitude":"33.036887","longitude":"-85.774653","name":"Dollar General-New Site,AL","address":"13016 Hwy 22 E, New Site,AL 36256, (256) 329-9368"},{"latitude":"31.323726","longitude":"-85.592782","name":"Dollar General-Newton,AL","address":"1010 South College St, Newton,AL 36352, (334) 299-3005"},{"latitude":"33.464415","longitude":"-87.626797","name":"Dollar General-Northport,AL","address":"19026 Highway 43 N, Northport,AL 35475-2101, (205) 330-9699"},{"latitude":"33.24042","longitude":"-87.580261","name":"Dollar General-Northport,AL","address":"2300 Mcfarland Blvd, Northport,AL 35476-2927, (205) 333-5847"},{"latitude":"33.240631","longitude":"-87.586837","name":"Dollar General-Northport,AL","address":"3069 Mcfarland Blvd, Northport,AL 35476-3171, (205) 333-0455"},{"latitude":"33.250079","longitude":"-87.602637","name":"Dollar General-Northport,AL","address":"4419 Highway 43 N, Northport,AL 35473-2424, (205) 330-8085"},{"latitude":"33.303865","longitude":"-87.606347","name":"Dollar General-Northport,AL","address":"4801 Rose Blvd, Northport,AL 35476-5950, (205) 339-1200"},{"latitude":"33.257307","longitude":"-87.570808","name":"Dollar General-Northport,AL","address":"5225 Highway 69 N, Northport,AL 35473-2042, (205) 330-0400"},{"latitude":"32.559302","longitude":"-85.674946","name":"Dollar General-Notasulga,AL","address":"10045 Tuskegee St, Notasulga,AL 36866-2518, (334) 257-2728"},{"latitude":"33.71482","longitude":"-87.388009","name":"Dollar General-Oakman,AL","address":"10003 Main St, Oakman,AL 35579-0431, (205) 622-4081"},{"latitude":"33.672037","longitude":"-86.442015","name":"Dollar General-Odenville,AL","address":"120 Council Blvd, Odenville,AL 35120-0759, (205) 629-5277"},{"latitude":"33.673911","longitude":"-86.489118","name":"Dollar General-Odenville,AL","address":"141 County Road 12, Odenville,AL 35120-3510, (205) 629-7065"},{"latitude":"33.6201804","longitude":"-86.4552502","name":"Dollar General-Odenville,AL","address":"7879 Moody Pkwy, Odenville,AL 35120, (205) 533-6549"},{"latitude":"33.8499565","longitude":"-85.9156327","name":"Dollar General-Ohatchee,AL","address":"12518 Us Hwy 431, Ohatchee,AL 36271-7129, (256) 294-7185"},{"latitude":"33.779932","longitude":"-86.038034","name":"Dollar General-Ohatchee,AL","address":"7774 Alabama Hwy 77, Ohatchee,AL 36271, (256) 892-8481"},{"latitude":"33.95246","longitude":"-86.472832","name":"Dollar General-Oneonta,AL","address":"300 7Th St N, Oneonta,AL 35121-1571, (205) 274-8098"},{"latitude":"33.9425437","longitude":"-86.414655","name":"Dollar General-Oneonta,AL","address":"50944 Us Hwy 231, Oneonta,AL 36572-0181, (205) 274-0008"},{"latitude":"32.642611","longitude":"-85.390646","name":"Dollar General-Opelika,AL","address":"1515 B Second Avenue, Opelika,AL 36801, (334) 737-1473"},{"latitude":"32.59762","longitude":"-85.337408","name":"Dollar General-Opelika,AL","address":"20 Lee Road 621, Opelika,AL 36804, (334) 745-5345 "},{"latitude":"32.62797","longitude":"-85.371572","name":"Dollar General-Opelika,AL","address":"2000 Marvyn Parkway, Opelika,AL 36801-7485, (334) 749-2564"},{"latitude":"32.637222","longitude":"-85.415237","name":"Dollar General-Opelika,AL","address":"2488 Pepperell Pkwy, Opelika,AL 36801-6257, (334) 704-0409"},{"latitude":"32.632681","longitude":"-85.434231","name":"Dollar General-Opelika,AL","address":"3706 Pepperell Pkwy, Opelika,AL 36801-6004, (334) 749-1752"},{"latitude":"32.6443257","longitude":"-85.340388","name":"Dollar General-Opelika,AL","address":"55 N Uniroyal Road, Opelika,AL 35111-3307, (334) 203-2739"},{"latitude":"32.542537","longitude":"-85.370483","name":"Dollar General-Opelika,AL","address":"7943 Al Highway 51, Opelika,AL 36804-9171, (334) 749-0099"},{"latitude":"31.26448","longitude":"-86.250619","name":"Dollar General-Opp,AL","address":"905 E Cummings Ave, Opp,AL 36467-3344, (334) 493-2558"},{"latitude":"30.2666534","longitude":"-87.5997374","name":"Dollar General-Orange Beach,AL","address":"24881 Perdido Beach Blvd, Orange Beach,AL 36561, (251) 974-1005"},{"latitude":"30.2902823","longitude":"-87.5959729","name":"Dollar General-Orange Beach,AL","address":"25130 Canal Rd, Orange Beach,AL 36561-3892, (251) 981-2821"},{"latitude":"30.267948","longitude":"-87.594294","name":"Dollar General-Orange Beach,AL","address":"25241 Perdido Beach Blvd, Orange Beach,AL 36561-3102, (251) 981-7614"},{"latitude":"32.30715","longitude":"-87.241961","name":"Dollar General-Orrville,AL","address":"14344 Main St, Orrville,AL 36767, (334) 966-3010"},{"latitude":"33.597634","longitude":"-85.869051","name":"Dollar General-Oxford,AL","address":"1106 Caffey Dr, Oxford,AL 36203-4008, (256) 831-7326"},{"latitude":"33.586824","longitude":"-85.806539","name":"Dollar General-Oxford,AL","address":"1800 Friendship Rd, Oxford,AL 36203-3230, (256) 832-2850"},{"latitude":"33.595985","longitude":"-85.921237","name":"Dollar General-Oxford,AL","address":"4545 Us Highway 78 W, Oxford,AL 36203-6445, (256) 835-3881"},{"latitude":"33.615884","longitude":"-85.825654","name":"Dollar General-Oxford,AL","address":"675 Creekside Dr, Oxford,AL 36203-1267, (256) 835-7776"},{"latitude":"31.44894","longitude":"-85.655593","name":"Dollar General-Ozark,AL","address":"1177 Andrews Ave, Ozark,AL 36360-3721, (334) 774-0249"},{"latitude":"31.458531","longitude":"-85.639416","name":"Dollar General-Ozark,AL","address":"131 S East Ave, Ozark,AL 36360-0923, (334) 445-0153"},{"latitude":"33.744017","longitude":"-87.269178","name":"Dollar General-Parrish,AL","address":"6123 Hwy 269, Parrish,AL 35580-0206, (205) 686-9463"},{"latitude":"33.294674","longitude":"-86.812235","name":"Dollar General-Pelham,AL","address":"3048 Pelham Pkwy, Pelham,AL 35124-2020, (205) 621-0086"},{"latitude":"33.267281","longitude":"-86.810156","name":"Dollar General-Pelham,AL","address":"3588 Us Highway 31 South, Pelham,AL 35124, (205) 663-8892"},{"latitude":"33.335971","longitude":"-86.80913","name":"Dollar General-Pelham,AL","address":"8340 Hwy 261, Pelham,AL 35124-2581, (205) 402-0650"},{"latitude":"33.587315","longitude":"-86.282661","name":"Dollar General-Pell City,AL","address":"2208 Cogswell Ave, Pell City,AL 35125-1733, (205) 338-0681"},{"latitude":"33.649144","longitude":"-86.280841","name":"Dollar General-Pell City,AL","address":"9 Old Drive In Rd, Pell City,AL 35125-3772, (205) 338-3261"},{"latitude":"31.00414","longitude":"-87.623471","name":"Dollar General-Perdido,AL","address":"23512 County Rd 47, Perdido,AL 36562-5005, (251) 937-7063"},{"latitude":"32.4612328","longitude":"-85.0014997","name":"Dollar General-Phenix City,AL","address":"109 Seale Rd, Phenix City,AL 36869-7330, (334) 408-7487"},{"latitude":"32.4694128","longitude":"-85.0512908","name":"Dollar General-Phenix City,AL","address":"1289 43rd Ave, Phenix City,AL 36869, (334) 408-0336"},{"latitude":"32.4734955","longitude":"-85.0003357","name":"Dollar General-Phenix City,AL","address":"1402 Broad St, Phenix City,AL 36867-5010, (334) 408-7053"},{"latitude":"32.473211","longitude":"-85.017144","name":"Dollar General-Phenix City,AL","address":"1707 Crawford Rd, Phenix City,AL 36867-4230, (334) 448-5002"},{"latitude":"32.443079","longitude":"-85.019898","name":"Dollar General-Phenix City,AL","address":"3207 Martin Luther King Jr Pkwy, Phenix City,AL 36869-8415, (334) 448-2325"},{"latitude":"32.4754105","longitude":"-85.0399704","name":"Dollar General-Phenix City,AL","address":"3902 US Hwy 80 W, Phenix City,AL 36867, (334) 298-9039"},{"latitude":"32.456673","longitude":"-85.191096","name":"Dollar General-Phenix City,AL","address":"4514 Us Hwy 80 West, Phenix City,AL 36870, (334) 408-0335"},{"latitude":"32.7665443","longitude":"-86.8402863","name":"Dollar General-Phenix City,AL","address":"7333 Lee Rd 240, Phenix,City,AL 36870, (334) 408-2645"},{"latitude":"34.345587","longitude":"-87.702483","name":"Dollar General-Phil Campbell,AL","address":"3621 Broad St, Phil Campbell,AL 35581-3737, (205) 993-8845"},{"latitude":"33.960361","longitude":"-85.560268","name":"Dollar General Market-Piedmont,AL","address":"615 Hwy 278, Piedmont,AL 36272, (256) 792-2088"},{"latitude":"32.3469606","longitude":"-86.0880652","name":"Dollar General-Pike Road,AL","address":"9711 Vaughn Rd, Pike Road,AL 36064-2470, (334) 245-0240"},{"latitude":"31.979279","longitude":"-87.588631","name":"Dollar General-Pine Hill,AL","address":"3831 Broad St, Pine Hill,AL 36769, (334) 963-4000"},{"latitude":"33.697113","longitude":"-86.680199","name":"Dollar General-Pinson,AL","address":"6662 Hwy 75, Pinson,AL 35126-3254, (205) 680-9066"},{"latitude":"34.660983","longitude":"-85.841696","name":"Dollar General-Pisgah,AL","address":"2420 County Rd 58, Pisgah,AL 35765-8251, (256) 451-1167"},{"latitude":"33.489474","longitude":"-86.954235","name":"Dollar General-Pleasant Grove,AL","address":"27 Park Rd Ste 202, Pleasant Grove,AL 35127-1900, (205) 781-4464"},{"latitude":"32.437178","longitude":"-86.476271","name":"Dollar General-Prattville,AL","address":"1014 Highway 14 W, Prattville,AL 36067-4702, (334) 358-9665"},{"latitude":"32.465403","longitude":"-86.451099","name":"Dollar General-Prattville,AL","address":"109 N Memorial Dr, Prattville,AL 36067-3336, (334) 361-6391"},{"latitude":"32.45941","longitude":"-86.417994","name":"Dollar General-Prattville,AL","address":"601 Mcqueen Smith Rd-N, Prattville,AL 36066, (334) 361-4888"},{"latitude":"32.4653915","longitude":"-86.5289506","name":"Dollar General-Prattville,AL","address":"694 Golson Rd, Prattville,AL 36067, (334) 380-5181"},{"latitude":"34.529432","longitude":"-86.900057","name":"Dollar General-Priceville,AL","address":"15 Robinson St, Priceville,AL 35603-5410, (256) 301-0605"},{"latitude":"30.734057","longitude":"-88.102195","name":"Dollar General-Prichard,AL","address":"1645 St Stephens Rd, Prichard,AL 36613, (251) 330-1913"},{"latitude":"33.74326","longitude":"-86.153613","name":"Dollar General-Ragland,AL","address":"26 9th St, Ragland,AL 35131, (205) 472-0606"},{"latitude":"33.961656","longitude":"-86.032703","name":"Dollar General-Rainbow City,AL","address":"3225 Rainbow Dr Ste 201, Rainbow City,AL 35906-5857, (256) 442-4969"},{"latitude":"34.4987534","longitude":"-85.8441089","name":"Dollar General-Rainsville,AL","address":"389 Mccurdy Ave N, Rainsville,AL 36277-1355, (256) 638-2208"},{"latitude":"33.523962","longitude":"-85.342585","name":"Dollar General-Ranburne,AL","address":"21236 Main St, Ranburne,AL 36273-4211, (256) 568-3399"},{"latitude":"34.439851","longitude":"-88.139253","name":"Dollar General Market-Red Bay,AL","address":"212 4th Ave Sw, Red Bay,AL 35582, (256) 333-1671"},{"latitude":"31.413213","longitude":"-86.606855","name":"Dollar General-Red Level,AL","address":"35747 SR 55, Red Level,AL 36474, (334) 469-2019"},{"latitude":"33.383323","longitude":"-88.024561","name":"Dollar General-Reform,AL","address":"719 1St Ave W, Reform,AL 35481-0520, (205) 375-9513"},{"latitude":"31.125361","longitude":"-85.448901","name":"Dollar General-Rehobeth,AL","address":"5676 County Rd 203, Rehobeth,AL 36301, (334) 673-3923"},{"latitude":"33.76584","longitude":"-86.633939","name":"Dollar General-Remlap,AL","address":"13400 State Hwy 75, Remlap,AL 35133, (256) 383-2886"},{"latitude":"33.593378","longitude":"-86.229248","name":"Dollar General-Riverside,AL","address":"10980 US Hwy 78, Riverside,AL 35135-1069, (205) 884-1090"},{"latitude":"33.154197","longitude":"-85.367747","name":"Dollar General-Roanoke,AL","address":"104 East Ave, Roanoke,AL 36274-2312, (334) 863-7353"},{"latitude":"30.563885","longitude":"-87.697984","name":"Dollar General-Robertsdale,AL","address":"19160 Us Hwy 90, Robertsdale,AL 36567, (251) 616-6264"},{"latitude":"30.542011","longitude":"-87.708494","name":"Dollar General-Robertsdale,AL","address":"21797 A Hwy 59 S, Robertsdale,AL 36567-1483, (251) 947-5858"},{"latitude":"32.845916","longitude":"-86.283227","name":"Dollar General-Rockford,AL","address":"25 Circle Dr, Rockford,AL 35136, (256) 377-4590"},{"latitude":"34.850605","longitude":"-87.396165","name":"Dollar General-Rogersville,AL","address":"10247 Hwy 72, Rogersville,AL 35652-5824, (256) 247-9917"},{"latitude":"34.822552","longitude":"-87.287335","name":"Dollar General-Rogersville,AL","address":"16493 Hwy 72, Rogersville,AL 35652-8116, (256) 247-5929"},{"latitude":"34.508543","longitude":"-87.717506","name":"Dollar General-Russellville,AL","address":"15043 Highway 43, Russellville,AL 35653-1973, (256) 332-8045"},{"latitude":"34.510542","longitude":"-87.670713","name":"Dollar General-Russellville,AL","address":"1814 George Wallace Hwy, Russellville,AL 35654-3285, (256) 331-9306"},{"latitude":"34.504361","longitude":"-87.731935","name":"Dollar General-Russellville,AL","address":"212 Montgomery St Sw, Russellville,AL 35653-2243, (256) 332-4921"},{"latitude":"31.113005","longitude":"-86.0402099","name":"Dollar General-Samson,AL","address":"605 E Main St, Samson,AL 36477-1227, (334) 898-1288"},{"latitude":"30.826487","longitude":"-88.069627","name":"Dollar General-Saraland,AL","address":"207 Us Hwy 43, Saraland,AL 36571-2803, (251) 675-9939"},{"latitude":"30.829763","longitude":"-88.091546","name":"Dollar General-Saraland,AL","address":"811 Celeste Rd, Saraland,AL 36571-2204, (251) 679-6964"},{"latitude":"30.80104","longitude":"-88.07215","name":"Dollar General-Saraland,AL","address":"947 Highway 43 S, Saraland,AL 36571-3608, (251) 675-1644"},{"latitude":"30.851393","longitude":"-88.058807","name":"Dollar General-Satsuma,AL","address":"51 W Orange Ave, Satsuma,AL 36572-0181, (251) 675-0320"},{"latitude":"34.676231","longitude":"-86.015792","name":"Dollar General-Scottsboro,AL","address":"1523 E Willow St, Scottsboro,AL 35768-2253, (256) 574-6115"},{"latitude":"34.796717","longitude":"-86.120933","name":"Dollar General-Scottsboro,AL","address":"21455 Al Highway 79, Scottsboro,AL 35768-5921, (256) 587-3110"},{"latitude":"34.627193","longitude":"-86.051465","name":"Dollar General-Scottsboro,AL","address":"3509 S Broad St Ste 205, Scottsboro,AL 35769-7445, (256) 259-5254"},{"latitude":"32.3289623","longitude":"-85.1702622","name":"Dollar General-Seale,AL","address":"5 Carden Rd, Seale,AL 36875-6011, (334) 560-1339"},{"latitude":"34.584428","longitude":"-85.98914","name":"Dollar General-Section,AL","address":"63 Main St S, Section,AL 35771-7175, (256) 228-3676"},{"latitude":"32.4168701","longitude":"-87.0247116","name":"Dollar General-Selma,AL","address":"1205 Broad St, Selma,AL 36701, (334) 877-4556"},{"latitude":"32.3981331","longitude":"-87.0645938","name":"Dollar General-Selma,AL","address":"1908 W Dallas Ave, Selma,AL 36701-7029, (334) 877-3700"},{"latitude":"32.4335276","longitude":"-87.0556372","name":"Dollar General-Selma,AL","address":"2100 West Highland Ave, Selma,AL 36701, (334) 375-4444"},{"latitude":"32.3550148","longitude":"-86.9705582","name":"Dollar General-Selma,AL","address":"4691 US Hwy 80 E, Selma,AL 36701, (334) 375-9002"},{"latitude":"32.371401","longitude":"-87.007623","name":"Dollar General-Selma,AL","address":"701 Roosevelt St, Selma,AL 36701-7984, (334) 875-3663"},{"latitude":"30.5162209","longitude":"-87.4771746","name":"Dollar General-Seminole,AL","address":"32225 Hwy 90, Seminole,AL 36574-7809, (251) 616-1262"},{"latitude":"30.784634","longitude":"-88.27699","name":"Dollar General-Semmes,AL","address":"10601 Moffett Road, Semmes,AL 36575, (251) 662-9299"},{"latitude":"30.740005","longitude":"-88.276541","name":"Dollar General-Semmes,AL","address":"2375 Snow Rd N, Semmes,AL 36575-7119, (251) 645-9601"},{"latitude":"30.77824","longitude":"-88.252003","name":"Dollar General-Semmes,AL","address":"8865 Moffett Rd, Semmes,AL 36575-2344, (251) 645-4228"},{"latitude":"34.763074","longitude":"-87.696203","name":"Dollar General-Sheffield,AL","address":"510 N Columbia Ave, Sheffield,AL 35660-2936, (256) 383-5222"},{"latitude":"34.750931","longitude":"-87.698645","name":"Dollar General-Sheffield,AL","address":"803 S Montgomery Ave, Sheffield,AL 35660-3813, (256) 383-3248"},{"latitude":"33.07475","longitude":"-86.571639","name":"Dollar General-Shelby,AL","address":"7181 Hwy 47, Shelby,AL 35143, (205) 670-0334"},{"latitude":"32.4019586","longitude":"-85.9520832","name":"Dollar General-Shorter,AL","address":"235 Main St, Shorter,AL 35907-7906, (334) 226-7000"},{"latitude":"30.545384","longitude":"-87.747981","name":"Dollar General-Silverhill,AL","address":"16170 Silverhill Ave, Silverhill,AL 36576-0115, (251) 945-1058"},{"latitude":"33.825799","longitude":"-87.090984","name":"Dollar General-Sipsey,AL","address":"3687 Sipsey Rd, Sipsey,AL 35584, (205) 648-4241"},{"latitude":"31.11004","longitude":"-85.586459","name":"Dollar General Market-Slocomb,AL","address":"140 North Kelly Rd, Slocomb,AL 36375, (334) 803-8808"},{"latitude":"32.558437","longitude":"-85.118715","name":"Dollar General-Smiths Station,AL","address":"16541 US Hwy 280 E, Smiths Station,AL 36877-2691, (334) 297-1005"},{"latitude":"32.538505","longitude":"-85.085617","name":"Dollar General-Smiths Station,AL","address":"19260 US Hwy 280 E, Smiths Station,AL 36877-2554, (334) 291-0504"},{"latitude":"32.500591","longitude":"-85.066933","name":"Dollar General-Smiths Station,AL","address":"9120 Lee Rd, Smiths Station,AL 36877-3756, (334) 732-0117"},{"latitude":"34.1206129","longitude":"-86.3967224","name":"Dollar General-Snead,AL","address":"87000 Us Highway 278 [Po Box 600], Snead,AL 35077, (205) 466-7138"},{"latitude":"34.445876","longitude":"-86.754547","name":"Dollar General-Somerville,AL","address":"4143 Hwy 36 E, Somerville,AL 35670-5804, (256) 778-0155"},{"latitude":"33.8623497","longitude":"-86.0424368","name":"Dollar General-Southside,AL","address":"1856 Lakemont Dr, Southside,AL 35907, (256) 399-0174"},{"latitude":"33.918996","longitude":"-86.022143","name":"Dollar General-Southside,AL","address":"2351 Hwy 77, Southside,AL 35907-7906, (256) 442-7613"},{"latitude":"30.6702881","longitude":"-87.9079895","name":"Dollar General-Spanish Fort,AL","address":"30585a Hwy 225, Spanish Fort,AL 36527-5059, (251) 626-0030"},{"latitude":"30.6773701","longitude":"-87.8607712","name":"Dollar General-Spanish Fort,AL","address":"31051 Stagecoach Rd, Spanish Fort,AL 36527, (251) 662-9249"},{"latitude":"33.779273","longitude":"-86.460342","name":"Dollar General-Springville,AL","address":"7160 Us Highway 11, Springville,AL 35146-3804, (205) 467-6872"},{"latitude":"30.734981","longitude":"-87.794353","name":"Dollar General-Stapleton,AL","address":"13434 Finley Ln, Stapleton,AL 36578-0040, (251) 937-7096"},{"latitude":"33.9182549","longitude":"-86.2519226","name":"Dollar General-Steele,AL","address":"20 Herb Collette Dr, Steele,AL 35987-1711, (256) 344-0329"},{"latitude":"34.847609","longitude":"-85.827061","name":"Dollar General-Stevenson,AL","address":"41125 US Hwy 72, Stevenson,AL 35772-4560, (256) 437-1107"},{"latitude":"30.993253","longitude":"-87.857991","name":"Dollar General-Stockton,AL","address":"52755 Highway 59 Stockton, Stockton,AL 36579, (251) 937-7482"},{"latitude":"33.903797","longitude":"-88.130049","name":"Dollar General-Sulligent,AL","address":"635 Front Street, Sulligent,AL 35586-0718, (205) 698-0340"},{"latitude":"33.75765","longitude":"-87.063929","name":"Dollar General-Sumiton,AL","address":"2244 Hwy 78, Sumiton,AL 35148-0250, (205) 648-3766"},{"latitude":"30.486523","longitude":"-87.708214","name":"Dollar General-Summerdale,AL","address":"110 Highway 59 S, Summerdale,AL 36580-3690, (251) 989-2520"},{"latitude":"30.473545","longitude":"-87.79266","name":"Dollar General-Summerdale,AL","address":"13516 County Road 32, Summerdale,AL 36580, (251) 989-2119"},{"latitude":"33.2551","longitude":"-86.212629","name":"Dollar General-Sycamore,AL","address":"19 Main St, Sycamore,AL 35149, (256) 249-8743"},{"latitude":"33.185209","longitude":"-86.245167","name":"Dollar General-Sylacauga,AL","address":"1275 Talladega Hwy, Sylacauga,AL 35150-1604, (256) 249-0668"},{"latitude":"33.164285","longitude":"-86.274313","name":"Dollar General-Sylacauga,AL","address":"1383 W Fort Williams St, Sylacauga,AL 35150-2775, (256) 249-8883"},{"latitude":"33.167804","longitude":"-86.250949","name":"Dollar General-Sylacauga,AL","address":"19 N Broadway Ave, Sylacauga,AL 35150-2521, (256) 249-0745"},{"latitude":"33.104217","longitude":"-86.251052","name":"Dollar General-Sylacauga,AL","address":"23868 Hwy 231, Sylacauga,AL 35151, (256) 245-2980"},{"latitude":"33.2215807","longitude":"-86.3212652","name":"Dollar General-Sylacauga,AL","address":"50 Center Point Rd, Sylacauga,AL 35151, (256) 401-9015"},{"latitude":"33.1439944","longitude":"-86.4095192","name":"Dollar General-Sylacauga,AL","address":"58 W W Averitte Dr, Sylacauga,AL 35151-5457, (256) 208-0335"},{"latitude":"33.5091133","longitude":"-87.0269394","name":"Dollar General-Sylvan Springs,AL","address":"115 Rock Creek Road, Sylvan Springs,AL 35118, (205) 267-5424"},{"latitude":"34.564259","longitude":"-85.797421","name":"Dollar General-Sylvania,AL","address":"22679 Al Hwy 75, Sylvania,AL 35988-2133, (256) 638-1034"},{"latitude":"33.439913","longitude":"-86.103491","name":"Dollar General-Talladega,AL","address":"232 East St N, Talladega,AL 35160-2060, (256) 362-0160"},{"latitude":"33.4487852","longitude":"-86.2359113","name":"Dollar General-Talladega,AL","address":"45 Stemley Road, Talladega,AL 35160, (256) 474-4580"},{"latitude":"33.511586","longitude":"-86.21384","name":"Dollar General-Talladega,AL","address":"4710 Stemly Rd, Talladega,AL 35160, (256) 268-9927"},{"latitude":"33.438568","longitude":"-86.084852","name":"Dollar General-Talladega,AL","address":"809 Battle St E, Talladega,AL 35160-2548, (256) 362-3201"},{"latitude":"32.5492334","longitude":"-85.9148401","name":"Dollar General-Tallasee,AL","address":"1119 Gilmer Ave, Tallassee,AL 36078-1026, (334) 283-8540"},{"latitude":"32.551718","longitude":"-85.864858","name":"Dollar General-Tallassee,AL","address":"2361 Notasulga Rd, Tallassee,AL 36078, (334) 283-2588"},{"latitude":"34.6784","longitude":"-86.949091","name":"Dollar General-Tanner,AL","address":"20174 Swanner Blvd, Tanner,AL 35671, (256) 232-4365"},{"latitude":"30.5348099","longitude":"-88.2829591","name":"Dollar General-Theodore,AL","address":"10148 Old Pascagula Rd, Theodore,AL 36582-9481, (251) 214-0268"},{"latitude":"30.466658","longitude":"-88.114616","name":"Dollar General-Theodore,AL","address":"10800 Dauphin Island Pkwy, Theodore,AL 36582-7454, (251) 973-9252"},{"latitude":"30.555875","longitude":"-88.172655","name":"Dollar General-Theodore,AL","address":"5808 Highway 90 W, Theodore,AL 36582-1696, (251) 653-8565"},{"latitude":"30.566699","longitude":"-88.218376","name":"Dollar General-Theodore,AL","address":"7519 Theodore Dawes Rd, Theodore,AL 36582-9475, (251) 653-5658"},{"latitude":"31.914925","longitude":"-87.73411","name":"Dollar General-Thomasville,AL","address":"138 Alabama Ave W, Thomasville,AL 36784-3100, (334) 636-4665"},{"latitude":"31.926728","longitude":"-87.738507","name":"Dollar General-Thomasville,AL","address":"425 Foster Ave, Thomasville,AL 36784-5314, (334) 636-0090"},{"latitude":"32.915674","longitude":"-86.715044","name":"Dollar General-Thorsby,AL","address":"15 Summit St, Thorsby,AL 35171, (205) 646-0191"},{"latitude":"34.924372","longitude":"-86.767333","name":"Dollar General-Toney,AL","address":"8810 Hwy 53, Toney,AL 35773-8522, (256) 420-8444"},{"latitude":"34.900546","longitude":"-86.671446","name":"Dollar General-Toney,AL","address":"9868 Pulaski Pike, Toney,AL 35773, (256) 715-9639"},{"latitude":"34.681159","longitude":"-87.41011","name":"Dollar General-Town Creek,AL","address":"2336 Al Hwy 20, Town Creek,AL 35672-3922, (256) 685-0607"},{"latitude":"34.588617","longitude":"-87.424378","name":"Dollar General-Town Creek,AL","address":"8964 Al Hwy 101, Town Creek,AL 35672-5749, (256) 685-3175"},{"latitude":"33.81423","longitude":"-86.672589","name":"Dollar General-Trafford,AL","address":"22711 State Hwy 79, Trafford,AL 35172, (205) 681-0804"},{"latitude":"33.8223647","longitude":"-86.7473723","name":"Dollar General-Trafford,AL","address":"2450 Warrior Trafford Road, Trafford,AL 35172, (205) 543-5024"},{"latitude":"34.588685","longitude":"-87.090837","name":"Dollar General-Trinity,AL","address":"1334 Old Hwy 24, Trinity,AL 35673-5663, (256) 351-5034"},{"latitude":"31.783226","longitude":"-85.9651","name":"Dollar General-Troy,AL","address":"111B Southland Vlg, Troy,AL 36079-3044, (334) 670-0087"},{"latitude":"31.807162","longitude":"-85.972108","name":"Dollar General-Troy,AL","address":"212 S 3 Notch St, Troy,AL 36081-1908, (334) 808-8600"},{"latitude":"31.7067604","longitude":"-85.9587708","name":"Dollar General-Troy,AL","address":"7550 Elba Hwy, Troy,AL 36079, (334) 566-4338"},{"latitude":"33.619375","longitude":"-86.609684","name":"Dollar General-Trussville,AL","address":"218 Main St, Trussville,AL 35173-1475, (205) 655-0099"},{"latitude":"33.078306","longitude":"-87.562375","name":"Dollar General-Tuscaloosa,AL","address":"13870 Highway 69 S, Tuscaloosa,AL 35405, (205) 345-6763 "},{"latitude":"33.233621","longitude":"-87.481273","name":"Dollar General-Tuscaloosa,AL","address":"1650 Crescent Ridge Rd NE, Tuscaloosa,AL 35404-1724, (205) 553-4456"},{"latitude":"33.168396","longitude":"-87.515807","name":"Dollar General-Tuscaloosa,AL","address":"1717 Skyland Blvd E, Tuscaloosa,AL 35405-4235, (205) 556-8845"},{"latitude":"33.200029","longitude":"-87.537277","name":"Dollar General-Tuscaloosa,AL","address":"200 14Th St, Tuscaloosa,AL 35401-2082, (205) 758-4460"},{"latitude":"33.185467","longitude":"-87.526304","name":"Dollar General-Tuscaloosa,AL","address":"2600 Mcfarland Blvd E Ste 0, Tuscaloosa,AL 35405-1810, (205) 248-6722"},{"latitude":"33.206272","longitude":"-87.502287","name":"Dollar General-Tuscaloosa,AL","address":"2715 University Blvd E, Tuscaloosa,AL 35404-3226, (205) 507-0810"},{"latitude":"33.203403","longitude":"-87.576494","name":"Dollar General-Tuscaloosa,AL","address":"3116 Stillman Blvd, Tuscaloosa,AL 35401-2211, (205) 345-4373"},{"latitude":"33.181478","longitude":"-87.610429","name":"Dollar General-Tuscaloosa,AL","address":"3600 Culver Rd, Tuscaloosa,AL 35401, (205) 759-3891 "},{"latitude":"33.194512","longitude":"-87.473983","name":"Dollar General-Tuscaloosa,AL","address":"4628 University Blvd E Ste A, Tuscaloosa,AL 35404-5189, (205) 553-0162"},{"latitude":"33.146533","longitude":"-87.472955","name":"Dollar General-Tuscaloosa,AL","address":"6520 Hargrove Rd E, Tuscaloosa,AL 35405-7756, (205) 462-1452"},{"latitude":"33.145686","longitude":"-87.5458","name":"Dollar General-Tuscaloosa,AL","address":"655 Bear Creek Rd, Tuscaloosa,AL 35405-5958, (205) 366-0171"},{"latitude":"34.744926","longitude":"-87.682705","name":"Dollar General-Tuscumbia,AL","address":"1310 E Avalon Ave, Tuscumbia,AL 35674-1767, (256) 381-1558"},{"latitude":"34.731229","longitude":"-87.705238","name":"Dollar General-Tuscumbia,AL","address":"207 W 6Th St, Tuscumbia,AL 35674-2403, (256) 386-0877"},{"latitude":"34.692481","longitude":"-87.620469","name":"Dollar General-Tuscumbia,AL","address":"2821 Highway 20, Tuscumbia,AL 35674-9362, (256) 383-9787"},{"latitude":"34.712956","longitude":"-87.713508","name":"Dollar General-Tuscumbia,AL","address":"721 Highway 72 W, Tuscumbia,AL 35674-8713, (256) 383-0427"},{"latitude":"32.422198","longitude":"-85.69264","name":"Dollar General-Tuskegee,AL","address":"309 W Martin Luther King Hwy, Tuskegee,AL 36083-2146, (334) 724-8906"},{"latitude":"32.146023","longitude":"-85.713203","name":"Dollar General-Union Springs,AL","address":"202 E Conecuh Ave E, Union Springs,AL 36089-1411, (334) 738-4200"},{"latitude":"32.4492","longitude":"-87.520847","name":"Dollar General-Uniontown,AL","address":"106 Washington St, Uniontown,AL 36786, (334) 628-4435"},{"latitude":"31.322697","longitude":"-87.563462","name":"Dollar General-Uriah,AL","address":"25 Davis Ave Po Box 113, Uriah,AL 36480-3084, (251) 862-9355"},{"latitude":"32.845828","longitude":"-85.182823","name":"Dollar General-Valley,AL","address":"2918 20Th Ave Ste F, Valley,AL 36854-2844, (334) 768-3564"},{"latitude":"32.786603","longitude":"-85.192464","name":"Dollar General-Valley,AL","address":"4531 Fairfax Byp, Valley,AL 36854-7173, (334) 756-9241"},{"latitude":"32.7115647","longitude":"-85.1869878","name":"Dollar General-Valley,AL","address":"4919 Lee Road 270, Valley,AL 36854-6910, (334) 745-3599"},{"latitude":"32.376203","longitude":"-87.094765","name":"Dollar General-Valley Grande,AL","address":"4260 Al Hwy 22, Valley Grande,AL 36703-0535, (334) 872-2527"},{"latitude":"34.556968","longitude":"-85.613914","name":"Dollar General-Valley Head,AL","address":"8356 AL Hwy 117, Valley Head,AL 35989-0322, (256) 635-3394"},{"latitude":"33.2172546","longitude":"-87.2286758","name":"Dollar General-Vance,AL","address":"10630 Lamar Pkwy, Vance,AL 35490, (205) 409-4512"},{"latitude":"33.750992","longitude":"-88.109983","name":"Dollar General-Vernon,AL","address":"44165 Hwy 17, Vernon,AL 35592-1198, (205) 695-0098"},