[{"latitude":"31.271993","longitude":"-85.449351","name":"Gander Mtn - Dothan","address":"5105 Montgomery Hwy Dothan AL 36303 334-984-0084"},{"latitude":"34.837034","longitude":"-87.627202","name":"Gander Mtn - Florence","address":"340 Seville St Florence AL 35634 256-712-3067"},{"latitude":"34.769581","longitude":"-86.586308","name":"Gander Mtn - Huntsville","address":"3418 Memorial Pkwy NW Huntsville AL 35810 256-858-8045"},{"latitude":"32.621539","longitude":"-85.400797","name":"Gander Mtn - Opelika","address":"1640 Parker Way Opelika AL 36801 334-363-3028"},{"latitude":"33.178133","longitude":"-87.524559","name":"Gander Mtn - Tuscaloosa","address":"3325 McFarland Blvd East Tuscaloosa AL 35405 205-535-3990"},{"latitude":"34.786739","longitude":"-92.230225","name":"Gander Mtn - Sherwood","address":"5450 Landers Rd Sherwood AR 72117 501-945-4070"},{"latitude":"39.558521","longitude":"-104.774520","name":"Gander Mtn - Parker","address":"18420 Cottonwood Dr Parker CO 80138 303-317-4961"},{"latitude":"30.474567","longitude":"-81.640472","name":"Gander Mtn - Jacksonville","address":"13075 City Square Dr Jacksonville FL 32218 904-714-3557"},{"latitude":"28.754489","longitude":"-81.358856","name":"Gander Mtn - Lake Mary","address":"3750 Flagg Ln Lake Mary FL 32746 407-804-0514"},{"latitude":"29.183302","longitude":"-82.186983","name":"Gander Mtn - Ocala","address":"3970 SW 3rd St Ocala FL 34474  352-351-6186"},{"latitude":"26.8038728","longitude":"-80.0962784","name":"Gander Mtn - Palm Beach Gardens","address":"100 Gander Way Palm Beach Gardens FL 33403 561-627-5642"},{"latitude":"30.480656","longitude":"-87.215457","name":"Gander Mtn - Pensacola","address":"1220 Airport Blvd Pensacola FL 32504 850-308-1289"},{"latitude":"29.927734","longitude":"-81.416024","name":"Gander Mtn - St. Augustine","address":"550 Prime Outlets Blvd St. Augustine FL 32084 904-829-1946"},{"latitude":"28.017075","longitude":"-82.615127","name":"Gander Mtn - Tampa","address":"11655 W Hillsborough Av Tampa FL 33635 813-343-6010"},{"latitude":"31.619554","longitude":"-84.220633","name":"Gander Mtn - Albany","address":"832 N Westover Blvd Albany GA 31707 229-518-4090"},{"latitude":"33.491294","longitude":"-82.105048","name":"Gander Mtn - Augusta","address":"145 Mason McKnight Jr Pkwy Augusta GA 30907 706-664-2013"},{"latitude":"33.465763","longitude":"-84.218903","name":"Gander Mtn - McDonough","address":"1970 Jonesboro Rd McDonough GA 30253 678-604-8530"},{"latitude":"33.386497","longitude":"-84.762371","name":"Gander Mtn - Newnan","address":"361 Newnan Crossing Bypass Newnan GA 30265 678-854-8033"},{"latitude":"33.901841","longitude":"-84.002569","name":"Gander Mtn - Snellville","address":"1200 Scenic Hwy  Ste G Lawrenceville GA 30045 678-317-3097"},{"latitude":"30.826687","longitude":"-83.317952","name":"Gander Mtn - Valdosta","address":"278 Norman Dr  Valdosta GA 31601 229-415-7023"},{"latitude":"42.157081","longitude":"-88.339704","name":"Gander Mtn - Algonquin","address":"1400 S Randall Rd Algonquin IL 60102 847-915-3984"},{"latitude":"41.865847","longitude":"-88.340458","name":"Gander Mtn - Geneva","address":"2100 S Randall Rd Geneva IL 60134 630-845-0505"},{"latitude":"41.580264","longitude":"-88.161978","name":"Gander Mtn - Joliet","address":"3301 Essington Rd Joliet IL 60435 815-254-2264"},{"latitude":"37.748303","longitude":"-88.956294","name":"Gander Mtn - Marion","address":"2480 Blue Heron Dr Marion IL 62959 618-964-9546"},{"latitude":"38.578475","longitude":"-89.934500","name":"Gander Mtn - O'Fallon","address":"1230 Central Park Dr O'Fallon IL 62269 618-589-0078"},{"latitude":"40.774792","longitude":"-89.672839","name":"Gander Mtn - Peoria","address":"5114 Holiday Dr Peoria IL 61615 309-692-4110"},{"latitude":"42.308667","longitude":"-88.978008","name":"Gander Mtn - Rockford","address":"3068 McFarland Rd Rockford IL 61114 815-637-9600"},{"latitude":"39.740267","longitude":"-89.697453","name":"Gander Mtn - Springfield","address":"2371 Chuckwagon Dr Springfield IL 62711 217-726-8219"},{"latitude":"39.765686","longitude":"-86.349711","name":"Gander Mtn - Avon","address":"216 Gable Crossing Dr Avon IN 46123 317-653-5154"},{"latitude":"37.9745","longitude":"-87.5735","name":"Gander Mtn - Evansville","address":"5476 E Indiana St Evansville IN 47715 812-473-9117"},{"latitude":"41.134997","longitude":"-85.16135","name":"Gander Mtn - Fort Wayne","address":"6043 Lima Rd Fort Wayne IN 46818 260-416-0943"},{"latitude":"39.817825","longitude":"-85.766707","name":"Gander Mtn - Greenfield","address":"2175 Barrett Dr Greenfield IN 46140 317-586-4436"},{"latitude":"39.631889","longitude":"-86.082711","name":"Gander Mtn - Greenwood","address":"1049 N Emerson Av Greenwood IN 46143 317-865-1734"},{"latitude":"39.912559","longitude":"-86.070862","name":"Gander Mtn - Indianapolis","address":"5702 E 86th St Indianapolis IN 46250 317-577-1114"},{"latitude":"40.415555","longitude":"-86.837925","name":"Gander Mtn - Lafayette","address":"150 S Creasy Ln  Ste 1000 Lafayette IN 47905 765-237-3089"},{"latitude":"41.468578","longitude":"-87.315792","name":"Gander Mtn - Merrillville","address":"1630 Southlake Mall Merrillville IN 46410 219-793-1700"},{"latitude":"39.422931","longitude":"-87.416178","name":"Gander Mtn - Terre Haute","address":"3602 S US Hwy 41 Terre Haute IN 47802 812-237-0940"},{"latitude":"41.560792","longitude":"-90.5272","name":"Gander Mtn - Davenport","address":"3940 Elmore Av Davenport IA 52807 563-344-8880"},{"latitude":"37.678819","longitude":"-97.340764","name":"Gander Mtn - Wichita","address":"605 S Wichita St Wichita KS 67202 316-303-9333"},{"latitude":"36.925986","longitude":"-86.419639","name":"Gander Mtn - Bowling Green","address":"725 Bluegrass Farms Blvd  Ste 1 Bowling Green KY 42104 270-842-0855"},{"latitude":"37.075447","longitude":"-88.683478","name":"Gander Mtn - Paducah","address":"3240 James Sanders Blvd Paducah KY 42001 270-538-0444"},{"latitude":"38.404456","longitude":"-75.568669","name":"Gander Mtn - Salisbury","address":"2410 N Salisbury Blvd Salisbury MD 21801 410-334-2677"},{"latitude":"41.940014","longitude":"-84.971258","name":"Gander Mtn - Coldwater","address":"373 N Willowbrook Rd  Ste Y Coldwater MI 49036 517-279-2900"},{"latitude":"42.975589","longitude":"-83.77325","name":"Gander Mtn - Flint","address":"5038 Miller Rd  Ste A Flint MI 48507 810-230-1212"},{"latitude":"43.026628","longitude":"-82.456006","name":"Gander Mtn - Fort Gratiot","address":"4055 24th Av Fort Gratiot MI 48059 810-385-6700"},{"latitude":"42.879992","longitude":"-85.772325","name":"Gander Mtn - Grandville","address":"4655 Canal Av SW Grandville MI 49418 616-249-0400"},{"latitude":"42.910367","longitude":"-85.559528","name":"Gander Mtn - Kentwood","address":"2890 Acquest Av SE Kentwood MI 49512 616-975-1000"},{"latitude":"42.738852","longitude":"-84.681655","name":"Gander Mtn - Lansing","address":"8757 Delta Market Dr Delta Twp MI  48917 517-622-4662"},{"latitude":"46.50235","longitude":"-87.361886","name":"Gander Mtn - Marquette","address":"3465 US Hwy 41 W Marquette MI 49855 906-226-8300"},{"latitude":"42.491808","longitude":"-83.481289","name":"Gander Mtn - Novi","address":"43825 W Oaks Dr Novi MI 48377 248-380-4000"},{"latitude":"42.2395","longitude":"-85.589611","name":"Gander Mtn - Portage","address":"5348 S Westnedge Av Portage MI 49024 269-388-9770"},{"latitude":"43.479933","longitude":"-83.962883","name":"Gander Mtn - Saginaw","address":"2270 Tittabawassee Rd Saginaw MI 48604 989-791-3500"},{"latitude":"42.204297","longitude":"-83.257483","name":"Gander Mtn - Taylor","address":"14100 Pardee Rd Taylor MI 48180 734-287-7420"},{"latitude":"44.732106","longitude":"-85.646192","name":"Gander Mtn - Traverse City","address":"3500 MarketPlace Cir Traverse City MI 49684 231-929-5590"},{"latitude":"42.627467","longitude":"-82.990783","name":"Gander Mtn - Utica","address":"13975 Hall Rd Utica MI 48315 586-247-9900"},{"latitude":"46.361956","longitude":"-94.24505","name":"Gander Mtn - Baxter","address":"14275 Edgewood Dr  Ste 100 Baxter MN 56425 218-828-1736"},{"latitude":"47.492225","longitude":"-94.898436","name":"Gander Mtn - Bemidji","address":"1313 Paul Bunyon Dr Bemidji MN 56601 218-755-6150"},{"latitude":"45.163561","longitude":"-93.233103","name":"Gander Mtn - Blaine","address":"10650 Baltimore St NE Blaine MN 55449 763-783-7200"},{"latitude":"44.863556","longitude":"-93.433331","name":"Gander Mtn - Eden Prairie","address":"12160 Technology Dr Eden Prairie MN 55344 952-944-5422"},{"latitude":"45.236517","longitude":"-93.029097","name":"Gander Mtn - Forest Lake","address":"14640 W Freeway Dr Forest Lake MN 55025 651-464-0707"},{"latitude":"46.820486","longitude":"-92.174822","name":"Gander Mtn - Hermantown","address":"4275 Haines Rd Hermantown MN 55811 218-786-9800"},{"latitude":"44.7041","longitude":"-93.28615","name":"Gander Mtn - Lakeville","address":"16861 Kenyon Av Lakeville MN 55044 952-435-3805"},{"latitude":"44.170469","longitude":"-93.948375","name":"Gander Mtn - Mankato","address":"1940 Adams St Mankato MN 56001 507-345-3600"},{"latitude":"44.079539","longitude":"-92.520842","name":"Gander Mtn - Rochester","address":"3470 55th St NW Rochester MN 55901 507-252-2033"},{"latitude":"45.192116","longitude":"-93.545873","name":"Gander Mtn - Rogers","address":"20870 Rogers Dr  Rogers MN 55347 763-496-0919"},{"latitude":"45.54955","longitude":"-94.222903","name":"Gander Mtn - Waite Park","address":"614 2nd St S Waite Park MN 56387 320-654-6600"},{"latitude":"44.944503","longitude":"-92.894322","name":"Gander Mtn - Woodbury","address":"10470 Hudson Rd Woodbury MN 55129 651-735-6101"},{"latitude":"31.324453","longitude":"-89.357436","name":"Gander Mtn - Hattiesburg","address":"4501 Hardy St  Ste 100 Hattiesburg MS 39402 601-268-6845"},{"latitude":"38.673863","longitude":"-90.658937","name":"Gander Mtn - Chesterfield","address":"18491 Outlet Blvd Chesterfield MO 63005 636-237-8062"},{"latitude":"38.507025","longitude":"-90.448460","name":"Gander Mtn - Fenton","address":"751 Gravois Bluffs Blvd Fenton MO 63026 636-203-4360"},{"latitude":"42.123170","longitude":"-75.967780","name":"Gander Mtn - Binghamton","address":"528 Harry L Dr Johnson City NY 13790 607-240-4031"},{"latitude":"43.180686","longitude":"-76.109728","name":"Gander Mtn - Cicero","address":"5864 Carmenica Dr Cicero NY 13039 315-698-1100"},{"latitude":"41.970128","longitude":"-73.985206","name":"Gander Mtn - Kingston","address":"705 Frank Scottile Blvd Kingston NY 12401 845-382-2500"},{"latitude":"41.462306","longitude":"-74.371994","name":"Gander Mtn - Middletown","address":"100 N Galleria Dr Middletown NY 10941 845-692-5600"},{"latitude":"43.089925","longitude":"-75.315747","name":"Gander Mtn - New Hartford","address":"8635 Clinton St New Hartford NY 13413 315-768-8800"},{"latitude":"44.700733","longitude":"-73.493686","name":"Gander Mtn - Plattsburgh","address":"60 Smithfield Blvd Plattsburgh NY 12901 518-566-6100"},{"latitude":"43.090625","longitude":"-77.629708","name":"Gander Mtn - Rochester","address":"300 Jay Scutti Blvd Rochester NY 14623 585-424-4100"},{"latitude":"43.002256","longitude":"-78.856083","name":"Gander Mtn - Tonawanda","address":"880 Young St Tonawanda NY 14150 716-743-2300"},{"latitude":"43.975628","longitude":"-75.95455","name":"Gander Mtn - Watertown","address":"21182 Salmon Run Mall Loop W Watertown NY 13601 315-779-1200"},{"latitude":"35.868193","longitude":"-78.582086","name":"Gander Mtn - East Raleigh","address":"6101 Capital Blvd Raleigh NC 27616 919-322-3214"},{"latitude":"35.069403","longitude":"-78.96615","name":"Gander Mtn - Fayetteville","address":"1912 Skibo Rd Fayetteville NC 28314 910-487-4036"},{"latitude":"35.258741","longitude":"-81.113863","name":"Gander Mtn - Gastonia","address":"3704 E Franklin Blvd Gastonia NC 28056 704-478-6008"},{"latitude":"36.040414","longitude":"-79.833078","name":"Gander Mtn - Greensboro","address":"2223 Vanstory St Greensboro NC 27403 336-852-4224"},{"latitude":"35.023756","longitude":"-80.582845","name":"Gander Mtn - Monroe","address":"3151 W US Hwy 74  Monroe NC 28110 704-218-3237"},{"latitude":"35.590017","longitude":"-80.8569","name":"Gander Mtn - Mooresville","address":"236 Norman Station Blvd Mooresville NC 28117 704-658-0822"},{"latitude":"35.808116","longitude":"-78.814818","name":"Gander Mtn - Raleigh","address":"2100 Village Market Pl Morrisville NC 27560 919-238-3935"},{"latitude":"36.064651","longitude":"-80.310467","name":"Gander Mtn - Winston-Salem","address":"1950 S Stratford Rd Winston-Salem NC 27103 336-231-3261"},{"latitude":"46.790081","longitude":"-96.936964","name":"Gander Mtn - Fargo","address":"2121 43rd St SW Fargo ND 58104 701-277-9979"},{"latitude":"39.984714","longitude":"-83.148217","name":"Gander Mtn - Columbus","address":"5388 Westpointe Plaza Dr Columbus OH 43228 614-921-2223"},{"latitude":"39.871009","longitude":"-84.144860","name":"Gander Mtn - Huber Heights","address":"8001 Old Troy Pike Huber Heights OH 45424 937-236-9786"},{"latitude":"41.714659","longitude":"-81.292928","name":"Gander Mtn - Mentor","address":"9620 Diamond Centre Dr Mentor OH 44060 440-639-8545"},{"latitude":"40.878213","longitude":"-81.441157","name":"Gander Mtn - North Canton","address":"4938 Portage St NW North Canton OH 44720 330-498-0995"},{"latitude":"39.937197","longitude":"-82.788242","name":"Gander Mtn - Reynoldsburg","address":"2644 Taylor Rd SW Reynoldsburg OH 43068 614-856-0066"},{"latitude":"41.615776","longitude":"-83.686762","name":"Gander Mtn - Toledo","address":"1320 Holland-Sylvania Rd Holland OH 43528 419-861-4800"},{"latitude":"41.307607","longitude":"-81.437874","name":"Gander Mtn - Twinsburg","address":"2695 Creekside Dr Twinsburg OH 44087 330-405-2999"},{"latitude":"41.210811","longitude":"-80.742178","name":"Gander Mtn - Niles","address":"2390 Niles Cortland Rd SE Warren OH 44484 330-544-5800"},{"latitude":"36.043433","longitude":"-96.006870","name":"Gander Mtn - Tulsa Hills","address":"8310 S Olympia Av W Tulsa OK 74132 918-894-5700"},{"latitude":"39.960524","longitude":"-77.577214","name":"Gander Mtn - Chambersburg","address":"3285 Black Gap Rd Chambersburg PA 17202 717-263-8433"},{"latitude":"41.458664","longitude":"-75.651967","name":"Gander Mtn - Dickson City","address":"955 Viewmont Dr Dickson City PA 18519 570-347-9077"},{"latitude":"42.0652","longitude":"-80.103086","name":"Gander Mtn - Erie","address":"2088 Interchange Rd Erie PA 16565 814-868-0880"},{"latitude":"40.289578","longitude":"-79.528392","name":"Gander Mtn - Greensburg","address":"1040 Towne Square Dr Greensburg PA 15601 724-834-2400"},{"latitude":"40.30275","longitude":"-78.833094","name":"Gander Mtn - Johnstown","address":"600 Galleria Dr Johnstown PA 15904 814-266-1777"},{"latitude":"40.439566","longitude":"-79.741228","name":"Gander Mtn - Monroeville","address":"4680 Old William Penn Hwy  Ste 100 Monroeville PA 15146 412-843-0033"},{"latitude":"41.237933","longitude":"-76.828433","name":"Gander Mtn - Pensdale","address":"66 Mall Pkwy Pensdale PA 17756 570-546-1040"},{"latitude":"40.214712","longitude":"-75.140886","name":"Gander Mtn - Warrington","address":"100 Easton Rd\t Warrington PA 18976 267-482-9102"},{"latitude":"39.972033","longitude":"-76.774239","name":"Gander Mtn - York","address":"725 Town Center Dr York PA 17408 717-767-2002"},{"latitude":"33.752573","longitude":"-78.962219","name":"Gander Mtn - Myrtle Beach","address":"1049 Glenforest Rd Myrtle Beach SC 29579 843-236-6250"},{"latitude":"32.947612","longitude":"-80.038059","name":"Gander Mtn - North Charleston","address":"7800 Rivers Av  Ste 1500 North Charleston SC 29406 843-277-8586"},{"latitude":"35.154070","longitude":"-85.248570","name":"Gander Mtn - Chattanooga","address":"5877 Grubb Rd Suite F Hixson TN 37343 423-800-7529"},{"latitude":"35.900703","longitude":"-84.156122","name":"Gander Mtn - Farragut","address":"11501 Parkside Dr NW Farragut TN 37934 865-671-2790"},{"latitude":"35.669794","longitude":"-88.850719","name":"Gander Mtn - Jackson","address":"1523 Vann Dr Jackson TN 38305 731-660-8059"},{"latitude":"36.170646","longitude":"-86.506864","name":"Gander Mtn - Mount Juliet","address":"66 Belinda Pkwy Mount Juliet TN 37122 615-773-0550"},{"latitude":"35.191672","longitude":"-101.956642","name":"Gander Mtn - Amarillo","address":"10300 W Interstate 40 Amarillo TX 79124 806-354-9095"},{"latitude":"32.678454","longitude":"-97.101252","name":"Gander Mtn - Arlington","address":"459 E Interstate 20 Arlington TX 76018 682-323-0090"},{"latitude":"30.125461","longitude":"-94.155775","name":"Gander Mtn - Beaumont","address":"5855 Eastex Freeway Beaumont TX 77706 409-347-3055"},{"latitude":"30.624747","longitude":"-96.298667","name":"Gander Mtn - College Station","address":"2301 Earl Rudder Fwy S College Station TX 77845 979-693-6412"},{"latitude":"31.764494","longitude":"-106.264622","name":"Gander Mtn - El Paso","address":"2036 N Zaragoza Rd El Paso TX 79938 915-249-4686"},{"latitude":"33.178499","longitude":"-96.843346","name":"Gander Mtn - Frisco","address":"12277 Dallas Pkwy Frisco TX 75034 214-305-2992"},{"latitude":"29.913792","longitude":"-95.613608","name":"Gander Mtn - Houston","address":"19820 Hempstead Hwy Houston TX 77065 832-237-7900"},{"latitude":"31.095938","longitude":"-97.734179","name":"Gander Mtn - Killeen","address":"701 E Central Texas Expy Killeen TX 76541 254-781-3707"},{"latitude":"32.805056","longitude":"-97.426831","name":"Gander Mtn - Lake Worth","address":"6001 Quebec St Fort Worth TX 76135 817-231-6848"},{"latitude":"33.010118","longitude":"-96.968725","name":"Gander Mtn - Lewisville","address":"723 Hebron Pkwy Lewisville TX 75057 469-444-6072"},{"latitude":"33.558667","longitude":"-101.942283","name":"Gander Mtn - Lubbock","address":"4006 W Loop 289 Lubbock TX 79407 806-785-1591"},{"latitude":"32.815535","longitude":"-96.627004","name":"Gander Mtn - Mesquite","address":"3777 Childress Av Mesquite TX 75150 214-377-2354"},{"latitude":"30.475892","longitude":"-97.671998","name":"Gander Mtn - Round Rock","address":"3203 South I-35 Round Rock TX 78664 512-368-2133"},{"latitude":"29.439331","longitude":"-98.646594","name":"Gander Mtn - San Antonio","address":"8203 State Hwy 151 San Antonio TX 78245 210-202-2822"},{"latitude":"33.610383","longitude":"-96.608689","name":"Gander Mtn - Sherman","address":"2725 N US Hwy 75 Sherman TX 75090 903-891-8585"},{"latitude":"30.048333","longitude":"-95.429408","name":"Gander Mtn - Spring","address":"19302 Interstate 45 Spring TX 77373 281-288-2620"},{"latitude":"29.59615","longitude":"-95.625539","name":"Gander Mtn - Sugar Land","address":"19890 SW Freeway Sugar Land TX 77479 281-239-6720"},{"latitude":"33.452053","longitude":"-94.109008","name":"Gander Mtn - Texarkana","address":"2301 University Av Texarcana TX 75503 903-832-3607"},{"latitude":"32.247637","longitude":"-95.306707","name":"Gander Mtn - Tyler","address":"151 Market Square Blvd Tyler TX 75703 903-839-8205"},{"latitude":"38.091796","longitude":"-78.467772","name":"Gander Mtn - Charlottesville","address":"440 Gander Dr Charlottesville VA 22901 434-326-0007"},{"latitude":"38.292222","longitude":"-77.524131","name":"Gander Mtn - Fredericksburg","address":"3708 Plank Rd Fredericksburg VA 22407 540-548-1330"},{"latitude":"37.359333","longitude":"-79.957678","name":"Gander Mtn - Roanoke","address":"8195 Gander Way Roanoke VA 24019 540-362-3658"},{"latitude":"39.130047","longitude":"-78.191925","name":"Gander Mtn - Winchester","address":"251 Commonwealth Ct Winchester VA 22602 540-868-9312"},{"latitude":"38.647744","longitude":"-77.294477","name":"Gander Mtn - Woodbridge","address":"14011 Worth Av Woodbridge VA 22192 571-409-5365"},{"latitude":"38.322886","longitude":"-81.712478","name":"Gander Mtn - Charleston","address":"2600 Mountaineer Blvd Charleston WV 25309 304-746-6130"},{"latitude":"44.2656","longitude":"-88.460997","name":"Gander Mtn - Appleton","address":"535 N Westhill Blvd Appleton WI 54914 920-731-9400"},{"latitude":"43.186286","longitude":"-89.328831","name":"Gander Mtn - De Forest","address":"6199 Metro Dr De Forest WI 53532 608-242-9532"},{"latitude":"44.761780","longitude":"-91.414338","name":"Gander Mtn - Eau Claire","address":"6440 Sculy Dr Eau Claire WI 54701 715-834-4594"},{"latitude":"42.918547","longitude":"-87.94995","name":"Gander Mtn - Franklin","address":"6939 S 27th St Franklin WI 53132 414-761-1500"},{"latitude":"43.213176","longitude":"-88.145720","name":"Gander Mtn - Germantown","address":"W190 N10768 Commerce Cir Germantown WI 53022 262-250-0600"},{"latitude":"44.546592","longitude":"-88.071944","name":"Gander Mtn - Green Bay","address":"2323 Woodman Dr Green Bay WI 54303 920-491-9110"},{"latitude":"42.716317","longitude":"-88.979722","name":"Gander Mtn - Janesville","address":"2900 Deerfield Dr #8 Janesville WI 53546 608-757-2010"},{"latitude":"42.571383","longitude":"-87.952286","name":"Gander Mtn - Kenosha","address":"6801 120th Av Kenosha WI 53140 262-857-3757"},{"latitude":"43.883553","longitude":"-91.170678","name":"Gander Mtn - Onalaska","address":"9519 State Hwy 16 Onalaska WI 54650 608-783-2820"},{"latitude":"44.858275","longitude":"-89.634947","name":"Gander Mtn - Rothschild","address":"1560 County Rd XX Rothschild WI 54474 715-355-5500"},{"latitude":"43.789939","longitude":"-87.763256","name":"Gander Mtn - Sheboygan","address":"4308 County Rd J Sheboygan WI 53083 920-208-0800"},{"latitude":"43.033806","longitude":"-88.173889","name":"Gander Mtn - Waukesha","address":"2440 E Moreland Blvd Waukesha WI 53186 262-798-0424"},{"latitude":"43.472344","longitude":"-89.768836","name":"Gander Mtn - West Baraboo","address":"315 W Pine West Baraboo WI 53913 608-356-9800 "}]