[{"latitude":"49.19079","longitude":"-123.0826","name":"IKEA Richmond","address":"6042732051"},{"latitude":"49.23567","longitude":"-122.8675","name":"IKEA Coquitlam","address":"6046361000"},{"latitude":"45.57182","longitude":"-122.55647","name":"IKEA Portland","address":" (503) 282-4532"},{"latitude":"37.83058","longitude":"-122.29188","name":"IKEA Emeryville","address":" (510)-420-4532"},{"latitude":"47.4433","longitude":"-122.22579","name":"IKEA Seattle ","address":"(425)-656-2980"},{"latitude":"37.45714","longitude":"-122.13437","name":"IKEA East Palo Alto ","address":"(650)-323-4532"},{"latitude":"38.59198","longitude":"-121.54912","name":"IKEA West Sacramento ","address":"(916)-371-4532"},{"latitude":"34.18434","longitude":"-118.31367","name":"IKEA Burbank","address":" (818) 842-4532"},{"latitude":"33.84379","longitude":"-118.26317","name":"IKEA Carson","address":"(310)527 4532"},{"latitude":"33.69153","longitude":"-117.91842","name":"IKEA Orange County Costa Mesa ","address":"714) 444-4532"},{"latitude":"34.12775","longitude":"-117.88133","name":"IKEA Covina ","address":"626) 732-4532"},{"latitude":"32.77928","longitude":"-117.12745","name":"IKEA San Diego ","address":"619)-563-4532"},{"latitude":"50.98862","longitude":"-114.0394","name":"IKEA Calgary","address":"4032734338"},{"latitude":"53.44715","longitude":"-113.4882","name":"IKEA Edmonton","address":"7804336000"},{"latitude":"33.34331","longitude":"-111.96582","name":"IKEA Tempe ","address":"480)-496-5658"},{"latitude":"40.51138","longitude":"-111.89281","name":"IKEA Draper ","address":"801) 572-4532"},{"latitude":"30.55643","longitude":"-97.69197","name":"IKEA Round Rock ","address":"512) 828-4532"},{"latitude":"33.10035","longitude":"-96.82237","name":"IKEA Frisco","address":"972)-712-4532"},{"latitude":"29.87815","longitude":"-95.47391","name":"IKEA Houston ","address":"713)-688-7867"},{"latitude":"44.85804","longitude":"-93.24352","name":"IKEA Twin Cities","address":"952) 858-8088"},{"latitude":"41.72238","longitude":"-88.04026","name":"IKEA Bolingbrook","address":"630)-972-7900"},{"latitude":"42.05316","longitude":"-88.02944","name":"IKEA Schaumburg","address":"847)-969-9700"},{"latitude":"39.31784","longitude":"-84.43379","name":"IKEA West Chester","address":"513) 779-7100"},{"latitude":"33.79002","longitude":"-84.3998","name":"IKEA Atlanta","address":"404)-745-4532"},{"latitude":"26.12103","longitude":"-80.33021","name":"IKEA Sunrise","address":"954) 838-9292"},{"latitude":"27.95506","longitude":"-82.43349","name":"IKEA Tampa","address":"813) 623-5454"},{"latitude":"28.48425","longitude":"-81.42826","name":"IKEA Orlando","address":"407) 355-3155"},{"latitude":"35.29004","longitude":"-80.76581","name":"IKEA Charlotte ","address":"704) 549-4532"},{"latitude":"38.6445","longitude":"-77.2999","name":"IKEA Woodbridge","address":"703)-494-4532"},{"latitude":"39.02082","longitude":"-76.92571","name":"IKEA College Park","address":"301)-345-6552"},{"latitude":"39.37459","longitude":"-76.46138","name":"IKEA Baltimore ","address":"410)931-5400"},{"latitude":"39.91992","longitude":"-75.14084","name":"IKEA South Philadelphia","address":"215)551-4532"},{"latitude":"40.09521","longitude":"-75.3078","name":"IKEA Conshohocken","address":"610)834-1520"},{"latitude":"40.39317","longitude":"-79.99237","name":"IKEA Pittsburgh ","address":"412)747-0747"},{"latitude":"40.67222","longitude":"-74.01103","name":"IKEA Brooklyn","address":"718) 246-4532"},{"latitude":"40.67386","longitude":"-74.16986","name":"IKEA Elizabeth","address":"908)-289-4488"},{"latitude":"40.7601","longitude":"-73.55946","name":"IKEA Hicksville","address":"516)681-4532"},{"latitude":"40.77422","longitude":"-73.53055","name":"IKEA Hicksville","address":"516) 681-4532"},{"latitude":"40.92372","longitude":"-74.07638","name":"IKEA Paramus","address":"201)-843-1881"},{"latitude":"41.29582","longitude":"-72.91855","name":"IKEA New Haven","address":"203)-865-4532"},{"latitude":"42.1367","longitude":"-71.07615","name":"IKEA Stoughton","address":"781) 344-4532"},{"latitude":"42.32276","longitude":"-83.45125","name":"IKEA Canton","address":"734)-981-6300"},{"latitude":"43.32622","longitude":"-79.82763","name":"IKEA Burlington","address":"9056814532"},{"latitude":"43.61859","longitude":"-79.53115","name":"IKEA Etobicoke","address":"4166464532"},{"latitude":"43.76846","longitude":"-79.36907","name":"IKEA North York","address":"4162224532"},{"latitude":"43.7888","longitude":"-79.52899","name":"IKEA Vaughan","address":"905) 695-5075"},{"latitude":"45.35064","longitude":"-75.78258","name":"IKEA Ottawa","address":"6138294530"},{"latitude":"45.59905","longitude":"-73.41508","name":"IKEA Boucherville","address":"4504496755"},{"latitude":"44.71008","longitude":"-63.56197","name":"Countryview Drive","address":""},{"latitude":"35.18999","longitude":"-89.7993","name":"Ikea memphis","address":""},{"latitude":"39.57195","longitude":"-104.87504","name":"Ikea Centennial","address":""}]