[{"latitude":" 34.82347","longitude":"-82.57860","name":" JCPenney","address":" USA-(SC) Easley"},{"latitude":" 40.56367","longitude":"-111.89262","name":" JCPenney","address":" USA-(UT) Sandy"},{"latitude":" 44.72277","longitude":"-85.64053","name":" JCPenney","address":" USA-(MI) Traverse City"},{"latitude":" 40.07520","longitude":"-83.13011","name":" JCPenney","address":" USA-(OH) Dublin"},{"latitude":" 36.33212","longitude":"-78.44251","name":" JCPenney","address":" USA-(NC) Henderson"},{"latitude":" 36.80514","longitude":"-119.77788","name":" JCPenney","address":" USA-(CA) Fresno"},{"latitude":" 40.15008","longitude":"-84.22270","name":" JCPenney","address":" USA-(OH) Piqua"},{"latitude":" 43.57945","longitude":"-72.96520","name":" JCPenney","address":" USA-(VT) Rutland"},{"latitude":" 35.10539","longitude":"-106.57298","name":" JCPenney","address":" USA-(NM) Albuquerque"},{"latitude":" 46.86091","longitude":"-96.84662","name":" JCPenney","address":" USA-(ND) Fargo"},{"latitude":" 28.56082","longitude":"-81.51639","name":" JCPenney","address":" USA-(FL) Ocoee"},{"latitude":" 39.17933","longitude":"-96.56021","name":" JCPenney","address":" USA-(KS) Manhattan"},{"latitude":" 31.51783","longitude":"-97.18800","name":" JCPenney","address":" USA-(TX) Waco"},{"latitude":" 27.70898","longitude":"-97.37200","name":" JCPenney","address":" USA-(TX) Corpus Christi"},{"latitude":" 31.33933","longitude":"-109.56235","name":" JCPenney","address":" USA-(AZ) Douglas"},{"latitude":" 37.60069","longitude":"-77.56395","name":" JCPenney","address":" USA-(VA) Richmond"},{"latitude":" 34.04761","longitude":"-84.29101","name":" JCPenney","address":" USA-(GA) Alpharetta"},{"latitude":" 33.11078","longitude":"-83.25638","name":" JCPenney","address":" USA-(GA) Milledgeville"},{"latitude":" 37.05442","longitude":"-100.92227","name":" JCPenney","address":" USA-(KS) Liberal"},{"latitude":" 36.22250","longitude":"-83.26129","name":" JCPenney","address":" USA-(TN) Morristown"},{"latitude":" 39.91769","longitude":"-88.95744","name":" JCPenney","address":" USA-(IL) Forsyth"},{"latitude":" 46.81690","longitude":"-95.84536","name":" JCPenney","address":" USA-(MN) Detroit Lakes"},{"latitude":" 42.87060","longitude":"-77.25098","name":" JCPenney","address":" USA-(NY) Canandaigua"},{"latitude":" 42.57211","longitude":"-76.21700","name":" JCPenney","address":" USA-(NY) Cortland"},{"latitude":" 33.96229","longitude":"-84.12386","name":" JCPenney","address":" USA-(GA) Duluth"},{"latitude":" 42.24747","longitude":"-84.43766","name":" JCPenney","address":" USA-(MI) Jackson"},{"latitude":" 42.22225","longitude":"-85.59252","name":" JCPenney","address":" USA-(MI) Portage"},{"latitude":" 39.48284","longitude":"-88.34341","name":" JCPenney","address":" USA-(IL) Mattoon"},{"latitude":" 42.04932","longitude":"-87.83371","name":" JCPenney","address":" USA-(IL) Niles"},{"latitude":" 40.38890","longitude":"-104.71325","name":" JCPenney","address":" USA-(CO) Greeley"},{"latitude":" 46.32624","longitude":"-119.99647","name":" JCPenney","address":" USA-(WA) Sunnyside"},{"latitude":" 32.74082","longitude":"-97.43947","name":" JCPenney","address":" USA-(TX) Fort Worth"},{"latitude":" 39.94674","longitude":"-83.85263","name":" JCPenney","address":" USA-(OH) Springfield"},{"latitude":" 33.19254","longitude":"-87.52595","name":" JCPenney","address":" USA-(AL) Tuscaloosa"},{"latitude":" 39.72392","longitude":"-91.39377","name":" JCPenney","address":" USA-(MO) Hannibal"},{"latitude":" 38.95809","longitude":"-85.87061","name":" JCPenney","address":" USA-(IN) Seymour"},{"latitude":" 37.25506","longitude":"-77.39074","name":" JCPenney","address":" USA-(VA) Colonial Heights"},{"latitude":" 48.11844","longitude":"-96.18171","name":" JCPenney","address":" USA-(MN) Thief River Falls"},{"latitude":" 35.18184","longitude":"-101.92714","name":" JCPenney","address":" USA-(TX) Amarillo"},{"latitude":" 38.61584","longitude":"-76.92343","name":" JCPenney","address":" USA-(MD) Waldorf"},{"latitude":" 32.73887","longitude":"-97.79503","name":" JCPenney","address":" USA-(TX) Weatherford"},{"latitude":" 41.36139","longitude":"-71.81211","name":" JCPenney","address":" USA-(RI) Westerly"},{"latitude":" 42.09695","longitude":"-72.07248","name":" JCPenney","address":" USA-(MA) Sturbridge"},{"latitude":" 40.74074","longitude":"-89.62662","name":" JCPenney","address":" USA-(IL) Peoria"},{"latitude":" 33.58274","longitude":"-79.02768","name":" JCPenney","address":" USA-(SC) Murrells Inlet"},{"latitude":" 31.61346","longitude":"-94.63925","name":" JCPenney","address":" USA-(TX) Nacagdoches"},{"latitude":" 31.46047","longitude":"-83.52681","name":" JCPenney","address":" USA-(GA) Tifton"},{"latitude":" 30.67339","longitude":"-88.12301","name":" JCPenney","address":" USA-(AL) Mobile"},{"latitude":" 35.36619","longitude":"-94.37761","name":" JCPenney","address":" USA-(AR) Fort Smith"},{"latitude":" 36.03867","longitude":"-79.83891","name":" JCPenney","address":" USA-(NC) Greensboro"},{"latitude":" 31.25397","longitude":"-85.42187","name":" JCPenney","address":" USA-(AL) Dothan"},{"latitude":" 27.49086","longitude":"-81.48523","name":" JCPenney","address":" USA-(FL) Sebring"},{"latitude":" 38.94546","longitude":"-104.79810","name":" JCPenney","address":" USA-(CO) Colorado Springs"},{"latitude":" 42.95516","longitude":"-71.43024","name":" JCPenney","address":" USA-(NH) Manchester"},{"latitude":" 29.51788","longitude":"-98.49915","name":" JCPenney","address":" USA-(TX) San Antonio"},{"latitude":" 29.16176","longitude":"-82.17326","name":" JCPenney","address":" USA-(FL) Ocala"},{"latitude":" 38.84660","longitude":"-76.88504","name":" JCPenney","address":" USA-(MD) Forestville"},{"latitude":" 41.26790","longitude":"-96.06535","name":" JCPenney","address":" USA-(NE) Omaha"},{"latitude":" 34.93898","longitude":"-81.99114","name":" JCPenney","address":" USA-(SC) Spartanburg"},{"latitude":" 44.10552","longitude":"-103.21461","name":" JCPenney","address":" USA-(SD) Rapid City"},{"latitude":" 33.98805","longitude":"-117.70647","name":" JCPenney","address":" USA-(CA) Chino"},{"latitude":" 39.03705","longitude":"-77.05268","name":" JCPenney","address":" USA-(MD) Wheaton"},{"latitude":" 40.40263","longitude":"-82.44441","name":" JCPenney","address":" USA-(OH) Mt. Vernon"},{"latitude":" 42.01903","longitude":"-97.43288","name":" JCPenney","address":" USA-(NE) Norfolk"},{"latitude":" 42.23069","longitude":"-83.18193","name":" JCPenney","address":" USA-(MI) Lincoln Park"},{"latitude":" 47.49275","longitude":"-94.89981","name":" JCPenney","address":" USA-(MI) Bemidji"},{"latitude":" 32.79485","longitude":"-80.03236","name":" JCPenney","address":" USA-(SC) Charleston"},{"latitude":" 42.10056","longitude":"-88.29733","name":" JCPenney","address":" USA-(IL) West Dundee Spring Hill Mall"},{"latitude":" 30.00679","longitude":"-90.15927","name":" JCPenney","address":" USA-(LA) Metairie"},{"latitude":" 32.36047","longitude":"-88.67055","name":" JCPenney","address":" USA-(MS) Meridian"},{"latitude":" 35.33584","longitude":"-119.03126","name":" JCPenney","address":" USA-(CA) Bakersfield"},{"latitude":" 39.08952","longitude":"-108.60163","name":" JCPenney","address":" USA-(CO) Grand Junction"},{"latitude":" 33.60842","longitude":"-86.80496","name":" JCPenney","address":" USA-(AL) Fultondale"},{"latitude":" 39.25286","longitude":"-84.59953","name":" JCPenney","address":" USA-(OH) Colrain Township"},{"latitude":" 40.17613","longitude":"-92.57193","name":" JCPenney","address":" USA-(MO) Kirksville"},{"latitude":" 35.75182","longitude":"-95.36799","name":" JCPenney","address":" USA-(OK) Muskogee"},{"latitude":" 33.61248","longitude":"-117.70580","name":" JCPenney","address":" USA-(CA) Laguna Hills"},{"latitude":" 39.67256","longitude":"-85.13179","name":" JCPenney","address":" USA-(IN) Connersville"},{"latitude":" 43.15104","longitude":"-86.20582","name":" JCPenney","address":" USA-(MI) Muskegon"},{"latitude":" 40.73906","longitude":"-73.24710","name":" JCPenney","address":" USA-(NY) Bay Shore"},{"latitude":" 47.61513","longitude":"-122.20164","name":" JCPenney","address":" USA-(WA) Bellevue"},{"latitude":" 34.21413","longitude":"-77.90832","name":" JCPenney","address":" USA-(NC) Wilmington"},{"latitude":" 40.48281","longitude":"-81.44099","name":" JCPenney","address":" USA-(OH) New Philadelphia"},{"latitude":" 41.19362","longitude":"-79.39272","name":" JCPenney","address":" USA-(PA) Clarion"},{"latitude":" 37.69762","longitude":"-121.93078","name":" JCPenney","address":" USA-(CA) Pleasanton"},{"latitude":" 41.18570","longitude":"-111.98641","name":" JCPenney","address":" USA-(UT) Riverdale"},{"latitude":" 27.46714","longitude":"-82.56514","name":" JCPenney","address":" USA-(FL) Bradenton"},{"latitude":" 35.70030","longitude":"-79.78541","name":" JCPenney","address":" USA-(NC) Asheboro Hwy"},{"latitude":" 40.24501","longitude":"-76.80342","name":" JCPenney","address":" USA-(PA) Harrisburg"},{"latitude":" 38.31446","longitude":"-85.76172","name":" JCPenney","address":" USA-(IN) Clarksville"},{"latitude":" 32.90341","longitude":"-96.45462","name":" JCPenney","address":" USA-(TX) Rockwall"},{"latitude":" 34.71899","longitude":"-112.00188","name":" JCPenney","address":" USA-(AZ) Cottonwood"},{"latitude":" 40.14068","longitude":"-88.24442","name":" JCPenney","address":" USA-(IL) Champaign"},{"latitude":" 43.63191","longitude":"-70.33025","name":" JCPenney","address":" USA-(ME) South Portland"},{"latitude":" 44.52422","longitude":"-89.58581","name":" JCPenney","address":" USA-(WI) Stevens Point"},{"latitude":" 32.53995","longitude":"-94.75439","name":" JCPenney","address":" USA-(TX) Longview"},{"latitude":" 33.22810","longitude":"-86.80386","name":" JCPenney","address":" USA-(AL) Alabaster"},{"latitude":" 39.71501","longitude":"-86.35921","name":" JCPenney","address":" USA-(IN) Plainfield"},{"latitude":" 32.42703","longitude":"-80.72755","name":" JCPenney","address":" USA-(SC) Beaufort"},{"latitude":" 42.16996","longitude":"-72.63939","name":" JCPenney","address":" USA-(MA) Holyoke"},{"latitude":" 36.10440","longitude":"-95.92018","name":" JCPenney","address":" USA-(OK) Tulsa"},{"latitude":" 31.76703","longitude":"-106.26747","name":" JCPenney","address":" USA-(TX) El Paso"},{"latitude":" 35.68173","longitude":"-101.37837","name":" JCPenney","address":" USA-(TX) Borger"},{"latitude":" 32.59373","longitude":"-96.94483","name":" JCPenney","address":" USA-(TX) Cedar Hill"},{"latitude":" 48.14759","longitude":"-103.62197","name":" JCPenney","address":" USA-(ND) Williston"},{"latitude":" 40.33611","longitude":"-79.94672","name":" JCPenney","address":" USA-(PA) West Mifflin"},{"latitude":" 33.38876","longitude":"-111.69278","name":" JCPenney","address":" USA-(AZ) Mesa"},{"latitude":" 41.72856","longitude":"-72.20144","name":" JCPenney","address":" USA-(CT) Willimantic"},{"latitude":" 29.80071","longitude":"-94.98188","name":" JCPenney","address":" USA-(TX) Baytown"},{"latitude":" 36.06124","longitude":"-95.88163","name":" JCPenney","address":" USA-(OK) Tulsa"},{"latitude":" 43.31926","longitude":"-70.97368","name":" JCPenney","address":" USA-(NH) Rochester"},{"latitude":" 40.55829","longitude":"-90.03379","name":" JCPenney","address":" USA-(IL) Canton)"},{"latitude":" 36.86588","longitude":"-89.58148","name":" JCPenney","address":" USA-(MO) Sikeston"},{"latitude":" 43.03252","longitude":"-88.11164","name":" JCPenney","address":" USA-(WI) Brookfield"},{"latitude":" 41.55101","longitude":"-72.80351","name":" JCPenney","address":" USA-(CT) Meriden"},{"latitude":" 43.18036","longitude":"-85.27833","name":" JCPenney","address":" USA-(MI) Greenwood"},{"latitude":" 38.28904","longitude":"-77.51440","name":" JCPenney","address":" USA-(VA) Fredericksburg"},{"latitude":" 33.06479","longitude":"-97.07986","name":" JCPenney","address":" USA-(TX) Flower Mound"},{"latitude":" 33.50899","longitude":"-81.71200","name":" JCPenney","address":" USA-(SC) Aiken"},{"latitude":" 36.30499","longitude":"-86.69837","name":" JCPenney","address":" USA-(TN) Goodlettsville"},{"latitude":" 30.21895","longitude":"-85.87293","name":" JCPenney","address":" USA-(FL) Panama City Beach Pier Park"},{"latitude":" 37.46820","longitude":"-105.86599","name":" JCPenney","address":" USA-(CO) Alamosa"},{"latitude":" 40.98765","longitude":"-75.22315","name":" JCPenney","address":" USA-(PA) Stroudsburg"},{"latitude":" 33.85023","longitude":"-87.27333","name":" JCPenney","address":" USA-(AL) Jasper"},{"latitude":" 42.04931","longitude":"-88.04083","name":" JCPenney","address":" USA-(IL) Schaumburg"},{"latitude":" 40.25008","longitude":"-103.80153","name":" JCPenney","address":" USA-(CO) Fort Morgan"},{"latitude":" 34.30223","longitude":"-85.17583","name":" JCPenney","address":" USA-(GA) Rome"},{"latitude":" 42.01570","longitude":"-92.91170","name":" JCPenney","address":" USA-(IA) Marshalltown"},{"latitude":" 38.96142","longitude":"-92.37352","name":" JCPenney","address":" USA-(MO) Columbia"},{"latitude":" 36.71611","longitude":"-91.87350","name":" JCPenney","address":" USA-(MO) West Plains"},{"latitude":" 35.92579","longitude":"-84.03451","name":" JCPenney","address":" USA-(TN) Knoxville"},{"latitude":" 28.35269","longitude":"-80.68314","name":" JCPenney","address":" USA-(FL) Merritt Island"},{"latitude":" 42.54289","longitude":"-70.94183","name":" JCPenney","address":" USA-(MA) Peabody Rt"},{"latitude":" 34.11083","longitude":"-117.53498","name":" JCPenney","address":" USA-(CA) Rancho Cucamonga"},{"latitude":" 42.74686","longitude":"-73.76151","name":" JCPenney","address":" USA-(NY) Latham"},{"latitude":" 42.52733","longitude":"-82.91625","name":" JCPenney","address":" USA-(MI) Roseville"},{"latitude":" 35.34744","longitude":"-80.16747","name":" JCPenney","address":" USA-(NC) Albemarle"},{"latitude":" 43.07985","longitude":"-75.31466","name":" JCPenney","address":" USA-(NY) New Hartford"},{"latitude":" 34.54067","longitude":"-82.66809","name":" JCPenney","address":" USA-(SC) Anderson"},{"latitude":" 35.77541","longitude":"-78.75859","name":" JCPenney","address":" USA-(NC) Cary"},{"latitude":" 38.86711","longitude":"-86.51844","name":" JCPenney","address":" USA-(IN) Bedford"},{"latitude":" 39.77690","longitude":"-94.80004","name":" JCPenney","address":" USA-(MO) St. Joseph"},{"latitude":" 37.99481","longitude":"-121.30920","name":" JCPenney","address":" USA-(CA) Stockton"},{"latitude":" 34.76659","longitude":"-77.37995","name":" JCPenney","address":" USA-(NC) Jacksonville"},{"latitude":" 37.52778","longitude":"-121.99925","name":" JCPenney","address":" USA-(CA) Newark"},{"latitude":" 28.66575","longitude":"-81.37455","name":" JCPenney","address":" USA-(FL) Altamonte Springs"},{"latitude":" 46.58980","longitude":"-90.88716","name":" JCPenney","address":" USA-(WI) Ashland"},{"latitude":" 36.50595","longitude":"-80.62347","name":" JCPenney","address":" USA-(NC) Mount Airy Hwy"},{"latitude":" 30.16174","longitude":"-97.78929","name":" JCPenney","address":" USA-(TX) Austin"},{"latitude":" 39.10297","longitude":"-88.54699","name":" JCPenney","address":" USA-(IL) Effingham"},{"latitude":" 43.40660","longitude":"-124.23450","name":" JCPenney","address":" USA-(OR) North Bend"},{"latitude":" 26.18302","longitude":"-98.23363","name":" JCPenney","address":" USA-(TX) McAllen"},{"latitude":" 41.80094","longitude":"-88.36877","name":" JCPenney","address":" USA-(IL) North Aurora"},{"latitude":" 41.87627","longitude":"-84.04316","name":" JCPenney","address":" USA-(MI) Adrian"},{"latitude":" 36.31475","longitude":"-95.62134","name":" JCPenney","address":" USA-(OK) Claremore"},{"latitude":" 26.17165","longitude":"-81.79951","name":" JCPenney","address":" USA-(FL) Naples"},{"latitude":" 37.09092","longitude":"-94.47697","name":" JCPenney","address":" USA-(MO) Joplin"},{"latitude":" 37.25333","longitude":"-83.20265","name":" JCPenney","address":" USA-(KY) Hazard Black Gold Blvd"},{"latitude":" 27.55215","longitude":"-99.49710","name":" JCPenney","address":" USA-(TX) Laredo"},{"latitude":" 33.52110","longitude":"-80.88236","name":" JCPenney","address":" USA-(SC) Orangeburg"},{"latitude":" 42.72503","longitude":"-84.41605","name":" JCPenney","address":" USA-(MI) Okemos"},{"latitude":" 32.93046","longitude":"-96.81031","name":" JCPenney","address":" USA-(TX) Dallas"},{"latitude":" 40.66329","longitude":"-73.71693","name":" JCPenney","address":" USA-(NY) Valley Stream"},{"latitude":" 42.44762","longitude":"-75.04577","name":" JCPenney","address":" USA-(NY) Oneonta Rt"},{"latitude":" 33.45111","longitude":"-104.52317","name":" JCPenney","address":" USA-(NM) Roswell"},{"latitude":" 38.77010","longitude":"-77.50378","name":" JCPenney","address":" USA-(VA) Manassas"},{"latitude":" 45.67185","longitude":"-111.07657","name":" JCPenney","address":" USA-(MT) Bozeman"},{"latitude":" 40.86299","longitude":"-73.12968","name":" JCPenney","address":" USA-(NY) Lake Grove Smith Haven Mall"},{"latitude":" 39.01171","longitude":"-74.86968","name":" JCPenney","address":" USA-(NJ) Rio Grande"},{"latitude":" 33.23139","longitude":"-92.66559","name":" JCPenney","address":" USA-(AR) El Dorado"},{"latitude":" 41.79482","longitude":"-110.53791","name":" JCPenney","address":" USA-(WY) Kemmerer"},{"latitude":" 46.80586","longitude":"-92.16243","name":" JCPenney","address":" USA-(MN) Duluth"},{"latitude":" 32.52689","longitude":"-94.35492","name":" JCPenney","address":" USA-(TX) Marshall"},{"latitude":" 36.94848","longitude":"-86.42542","name":" JCPenney","address":" USA-(KY) Bowling Green"},{"latitude":" 34.28332","longitude":"-118.44325","name":" JCPenney","address":" USA-(CA) San Fernando"},{"latitude":" 38.25014","longitude":"-85.62367","name":" JCPenney","address":" USA-(KY) Louisville"},{"latitude":" 34.20879","longitude":"-110.02314","name":" JCPenney","address":" USA-(AZ) Show Low"},{"latitude":" 36.59593","longitude":"-79.42238","name":" JCPenney","address":" USA-(VA) Danville"},{"latitude":" 40.68545","longitude":"-75.15216","name":" JCPenney","address":" USA-(NJ) Phillipsburg"},{"latitude":" 41.82787","longitude":"-71.41759","name":" JCPenney","address":" USA-(RI) Providence"},{"latitude":" 31.31123","longitude":"-94.72458","name":" JCPenney","address":" USA-(TX) Lufkin"},{"latitude":" 42.27285","longitude":"-89.63139","name":" JCPenney","address":" USA-(IL) Freeport"},{"latitude":" 35.37628","longitude":"-77.94124","name":" JCPenney","address":" USA-(NC) Goldsboro"},{"latitude":" 42.50298","longitude":"-94.16309","name":" JCPenney","address":" USA-(IA) Fort Dodge"},{"latitude":" 29.19386","longitude":"-81.06498","name":" JCPenney","address":" USA-(FL) Daytona Beach"},{"latitude":" 46.96201","longitude":"-123.80260","name":" JCPenney","address":" USA-(WA) Aberdeen"},{"latitude":" 32.30024","longitude":"-95.30072","name":" JCPenney","address":" USA-(TX) Tyler"},{"latitude":" 32.43147","longitude":"-87.01689","name":" JCPenney","address":" USA-(AL) Selma"},{"latitude":" 42.48953","longitude":"-73.20608","name":" JCPenney","address":" USA-(MA) Lanesborough"},{"latitude":" 39.05073","longitude":"-94.37272","name":" JCPenney","address":" USA-(MO) Independence"},{"latitude":" 44.17050","longitude":"-93.95246","name":" JCPenney","address":" USA-(MN) Mankato"},{"latitude":" 34.60267","longitude":"-118.15135","name":" JCPenney","address":" USA-(CA) Palmdale"},{"latitude":" 36.17021","longitude":"-115.19979","name":" JCPenney","address":" USA-(NV) Las Vegas"},{"latitude":" 25.95679","longitude":"-80.14597","name":" JCPenney","address":" USA-(FL) Aventura"},{"latitude":" 37.67586","longitude":"-97.39607","name":" JCPenney","address":" USA-(KS) Wichita"},{"latitude":" 41.12155","longitude":"-78.72970","name":" JCPenney","address":" USA-(PA) DuBois"},{"latitude":" 37.34719","longitude":"-85.36055","name":" JCPenney","address":" USA-(KY) Campbellsville"},{"latitude":" 37.97157","longitude":"-122.06350","name":" JCPenney","address":" USA-(CA) Concord"},{"latitude":" 29.48617","longitude":"-98.70907","name":" JCPenney","address":" USA-(TX) San Antonio"},{"latitude":" 36.32534","longitude":"-119.67288","name":" JCPenney","address":" USA-(CA) Hanford"},{"latitude":" 33.17974","longitude":"-117.33021","name":" JCPenney","address":" USA-(CA) Carlsbad"},{"latitude":" 32.65443","longitude":"-117.06731","name":" JCPenney","address":" USA-(CA) National City"},{"latitude":" 39.62818","longitude":"-79.99557","name":" JCPenney","address":" USA-(WV) Morgantown"},{"latitude":" 30.18697","longitude":"-85.64441","name":" JCPenney","address":" USA-(FL) Panama City"},{"latitude":" 29.65955","longitude":"-82.41226","name":" JCPenney","address":" USA-(FL) Gainesville"},{"latitude":" 30.38979","longitude":"-91.08495","name":" JCPenney","address":" USA-(LA) Baton Rouge"},{"latitude":" 38.77202","longitude":"-77.17546","name":" JCPenney","address":" USA-(VA) Springfield"},{"latitude":" 35.00378","longitude":"-80.56183","name":" JCPenney","address":" USA-(NC) Monroe"},{"latitude":" 39.60106","longitude":"-104.70720","name":" JCPenney","address":" USA-(CO) Aurora"},{"latitude":" 42.91046","longitude":"-112.46822","name":" JCPenney","address":" USA-(ID) Pocatello"},{"latitude":" 30.16669","longitude":"-95.45472","name":" JCPenney","address":" USA-(TX) The Woodlands"},{"latitude":" 35.11107","longitude":"-92.42966","name":" JCPenney","address":" USA-(AR) Conway"},{"latitude":" 38.92351","longitude":"-95.26146","name":" JCPenney","address":" USA-(KS) Lawrence"},{"latitude":" 33.69741","longitude":"-84.09233","name":" JCPenney","address":" USA-(GA) Lithonia"},{"latitude":" 31.19903","longitude":"-82.32523","name":" JCPenney","address":" USA-(GA) Waycross"},{"latitude":" 47.10466","longitude":"-88.59394","name":" JCPenney","address":" USA-(MI) Houghton Copper Country Mall"},{"latitude":" 34.08505","longitude":"-117.69353","name":" JCPenney","address":" USA-(CA) Montclair"},{"latitude":" 30.01011","longitude":"-95.27247","name":" JCPenney","address":" USA-(TX) Humble"},{"latitude":" 41.62597","longitude":"-73.91801","name":" JCPenney","address":" USA-(NY) Poughkeepsie"},{"latitude":" 44.94200","longitude":"-92.93709","name":" JCPenney","address":" USA-(MN) Woodbury"},{"latitude":" 34.18853","longitude":"-79.83038","name":" JCPenney","address":" USA-(SC) Florence"},{"latitude":" 33.46199","longitude":"-112.34740","name":" JCPenney","address":" USA-(AZ) Goodyear"},{"latitude":" 34.72989","longitude":"-92.39485","name":" JCPenney","address":" USA-(AR) Little Rock"},{"latitude":" 39.96169","longitude":"-104.99150","name":" JCPenney","address":" USA-(CO) Westminster"},{"latitude":" 35.82115","longitude":"-90.66651","name":" JCPenney","address":" USA-(AR) Jonesboro"},{"latitude":" 43.09462","longitude":"-70.80588","name":" JCPenney","address":" USA-(NH) Newington"},{"latitude":" 40.55296","longitude":"-84.40785","name":" JCPenney","address":" USA-(OH) St. Marys"},{"latitude":" 41.95518","longitude":"-88.72256","name":" JCPenney","address":" USA-(IL DeKalb"},{"latitude":" 40.60696","longitude":"-79.18166","name":" JCPenney","address":" USA-(PA) Indiana"},{"latitude":" 33.72226","longitude":"-116.39436","name":" JCPenney","address":" USA-(CA) Palm Desert"},{"latitude":" 27.94500","longitude":"-82.52733","name":" JCPenney","address":" USA-(FL) Tampa"},{"latitude":" 38.40146","longitude":"-75.56856","name":" JCPenney","address":" USA-(MD) Salisbury"},{"latitude":" 40.30239","longitude":"-79.50794","name":" JCPenney","address":" USA-(PA) Greensburg"},{"latitude":" 30.12788","longitude":"-94.16045","name":" JCPenney","address":" USA-(TX) Beaumont"},{"latitude":" 34.12594","longitude":"-80.87401","name":" JCPenney","address":" USA-(SC) Columbia"},{"latitude":" 40.73378","longitude":"-73.87043","name":" JCPenney","address":" USA-(NY) Elmhurst"},{"latitude":" 36.78113","longitude":"-76.22552","name":" JCPenney","address":" USA-(VA) Chesepeake"},{"latitude":" 42.24780","longitude":"-88.97588","name":" JCPenney","address":" USA-(IL) Rockford"},{"latitude":" 42.59200","longitude":"-114.45507","name":" JCPenney","address":" USA-(ID) Twin Falls"},{"latitude":" 33.32083","longitude":"-111.97606","name":" JCPenney","address":" USA-(AZ) Phoenix"},{"latitude":" 41.23426","longitude":"-73.03293","name":" JCPenney","address":" USA-(CT) Milford"},{"latitude":" 37.50918","longitude":"-77.60665","name":" JCPenney","address":" USA-(VA) Richmond"},{"latitude":" 44.77617","longitude":"-91.44569","name":" JCPenney","address":" USA-(WI) Eau Claire"},{"latitude":" 38.07144","longitude":"-83.95501","name":" JCPenney","address":" USA-(KY) Mt. Sterling"},{"latitude":" 28.80504","longitude":"-81.34021","name":" JCPenney","address":" USA-(FL) Sanford"},{"latitude":" 33.87048","longitude":"-98.53380","name":" JCPenney","address":" USA-(TX) Wichita Falls"},{"latitude":" 37.63446","longitude":"-122.41981","name":" JCPenney","address":" USA-(CA) San Bruno"},{"latitude":" 30.32421","longitude":"-81.54821","name":" JCPenney","address":" USA-(FL) Jacksonville"},{"latitude":" 35.58138","longitude":"-82.52401","name":" JCPenney","address":" USA-(NC) Asheville"},{"latitude":" 29.56101","longitude":"-95.38447","name":" JCPenney","address":" USA-(TX) Pearland"},{"latitude":" 40.97374","longitude":"-90.38338","name":" JCPenney","address":" USA-(IL) Galesburg"},{"latitude":" 32.52783","longitude":"-93.70860","name":" JCPenney","address":" USA-(LA) Bossier City"},{"latitude":" 34.79251","longitude":"-92.22330","name":" JCPenney","address":" USA-(AR) North Little Rock"},{"latitude":" 37.29410","longitude":"-81.16548","name":" JCPenney","address":" USA-(WV) Bluefield Mercer Mall"},{"latitude":" 37.11756","longitude":"-113.54684","name":" JCPenney","address":" USA-(UT) St. George"},{"latitude":" 40.28546","longitude":"-74.05439","name":" JCPenney","address":" USA-(NJ) Eatontown Monmouth Mall"},{"latitude":" 42.44011","longitude":"-123.31291","name":" JCPenney","address":" USA-(OR) Grants Pass"},{"latitude":" 33.38198","longitude":"-86.80991","name":" JCPenney","address":" USA-(AL) Hoover"},{"latitude":" 39.45266","longitude":"-77.98796","name":" JCPenney","address":" USA-(WV) Martinsburg"},{"latitude":" 41.72116","longitude":"-72.76198","name":" JCPenney","address":" USA-(CT) Farmington"},{"latitude":" 44.29497","longitude":"-96.76829","name":" JCPenney","address":" USA-(SD) Brookings"},{"latitude":" 45.22795","longitude":"-123.17602","name":" JCPenney","address":" USA-(OR) McMinnville"},{"latitude":" 30.86171","longitude":"-93.28756","name":" JCPenney","address":" USA-(LA) Deridder"},{"latitude":" 44.95907","longitude":"-89.63041","name":" JCPenney","address":" USA-(WI) Wausau"},{"latitude":" 35.44187","longitude":"-80.60375","name":" JCPenney","address":" USA-(NC) Concord"},{"latitude":" 37.77788","longitude":"-100.01629","name":" JCPenney","address":" USA-(KS) Dodge City"},{"latitude":" 36.31143","longitude":"-119.31396","name":" JCPenney","address":" USA-(CA) Visalia"},{"latitude":" 31.54237","longitude":"-91.40300","name":" JCPenney","address":" USA-(MS) Natchez"},{"latitude":" 30.17937","longitude":"-82.67209","name":" JCPenney","address":" USA-(FL) Lake City"},{"latitude":" 43.47475","longitude":"-89.77079","name":" JCPenney","address":" USA-(WI) Baraboo"},{"latitude":" 31.06927","longitude":"-97.36656","name":" JCPenney","address":" USA-(TX) Temple"},{"latitude":" 39.19256","longitude":"-75.54196","name":" JCPenney","address":" USA-(DE) Dover"},{"latitude":" 28.55678","longitude":"-81.34316","name":" JCPenney","address":" USA-(FL) Orlando"},{"latitude":" 38.14247","longitude":"-85.67476","name":" JCPenney","address":" USA-(KY) Louisville"},{"latitude":" 31.09074","longitude":"-97.71734","name":" JCPenney","address":" USA-(TX) Killeen"},{"latitude":" 42.76853","longitude":"-71.22975","name":" JCPenney","address":" USA-(NH) Salem"},{"latitude":" 46.14047","longitude":"-122.90143","name":" JCPenney","address":" USA-(WA) Kelso"},{"latitude":" 35.08317","longitude":"-80.87579","name":" JCPenney","address":" USA-(NC) Pineville"},{"latitude":" 43.97481","longitude":"-75.95425","name":" JCPenney","address":" USA-(NY) Watertown"},{"latitude":" 32.68124","longitude":"-97.12684","name":" JCPenney","address":" USA-(TX) Arlington"},{"latitude":" 34.57892","longitude":"-92.57488","name":" JCPenney","address":" USA-(AR) Benton"},{"latitude":" 30.19831","longitude":"-93.22700","name":" JCPenney","address":" USA-(LA) Lake Charles"},{"latitude":" 33.04218","longitude":"-84.98265","name":" JCPenney","address":" USA-(GA) LaGrange"},{"latitude":" 33.79039","longitude":"-78.76572","name":" JCPenney","address":" USA-(SC) Myrtle Beach"},{"latitude":" 30.55587","longitude":"-97.68910","name":" JCPenney","address":" USA-(TX) Round Rock"},{"latitude":" 42.67373","longitude":"-82.82706","name":" JCPenney","address":" USA-(MI) Chesterfield Township"},{"latitude":" 45.08034","longitude":"-87.66001","name":" JCPenney","address":" USA-(WI) Marinette"},{"latitude":" 43.07071","longitude":"-76.17008","name":" JCPenney","address":" USA-(NY) Syracuse"},{"latitude":" 40.69570","longitude":"-111.95641","name":" JCPenney","address":" USA-(UT) Salt Lake City"},{"latitude":" 32.43862","longitude":"-93.71561","name":" JCPenney","address":" USA-(LA) Shreveport"},{"latitude":" 47.15558","longitude":"-122.29852","name":" JCPenney","address":" USA-(WA) Puyallup"},{"latitude":" 33.99690","longitude":"-86.00460","name":" JCPenney","address":" USA-(AL) Gadsden"},{"latitude":" 31.31572","longitude":"-86.49680","name":" JCPenney","address":" USA-(AL) Andalusia"},{"latitude":" 37.73619","longitude":"-84.32814","name":" JCPenney","address":" USA-(KY) Richmond"},{"latitude":" 38.80171","longitude":"-97.61240","name":" JCPenney","address":" USA-(KS) Salina"},{"latitude":" 37.36041","longitude":"-118.39527","name":" JCPenney","address":" USA-(CA) Bishop"},{"latitude":" 36.71698","longitude":"-121.65551","name":" JCPenney","address":" USA-(CA) Salinas"},{"latitude":" 39.98856","longitude":"-82.02292","name":" JCPenney","address":" USA-(OH) Zanesville"},{"latitude":" 41.71644","longitude":"-88.28517","name":" JCPenney","address":" USA-(IL) Montgomery"},{"latitude":" 34.95927","longitude":"-89.99445","name":" JCPenney","address":" USA-(MS) Southaven"},{"latitude":" 42.68947","longitude":"-73.84576","name":" JCPenney","address":" USA-(NY) Albany"},{"latitude":" 40.08541","longitude":"-75.39337","name":" JCPenney","address":" USA-(PA) King of Prussia"},{"latitude":" 37.29915","longitude":"-89.57470","name":" JCPenney","address":" USA-(MO) Cape Girardeau"},{"latitude":" 28.18685","longitude":"-82.35344","name":" JCPenney","address":" USA-(FL) Wesley Chapel"},{"latitude":" 44.74245","longitude":"-93.29275","name":" JCPenney","address":" USA-(MN) Burnsville"},{"latitude":" 38.95486","longitude":"-94.72343","name":" JCPenney","address":" USA-(KS) Overland Park"},{"latitude":" 40.06660","longitude":"-76.34271","name":" JCPenney","address":" USA-(PA) Lancaster"},{"latitude":" 39.02985","longitude":"-77.42543","name":" JCPenney","address":" USA-(VA) Sterling"},{"latitude":" 40.19974","longitude":"-100.62873","name":" JCPenney","address":" USA-(NE) McCook"},{"latitude":" 40.54267","longitude":"-80.00610","name":" JCPenney","address":" USA-(PA) Pittsburgh"},{"latitude":" 28.70172","longitude":"-100.48329","name":" JCPenney","address":" USA-(TX) Eagle Pass"},{"latitude":" 37.99239","longitude":"-84.52784","name":" JCPenney","address":" USA-(KY) Lexington"},{"latitude":" 34.76057","longitude":"-84.93447","name":" JCPenney","address":" USA-(GA) Dalton"},{"latitude":" 32.00121","longitude":"-81.11590","name":" JCPenney","address":" USA-(GA) Savannah"},{"latitude":" 35.25150","longitude":"-91.69168","name":" JCPenney","address":" USA-(AR) Searcy"},{"latitude":" 47.65524","longitude":"-122.68907","name":" JCPenney","address":" USA-(WA) Silverdale"},{"latitude":" 37.38177","longitude":"-94.70416","name":" JCPenney","address":" USA-(KS) Pittsburg"},{"latitude":" 33.68441","longitude":"-96.60750","name":" JCPenney","address":" USA-(TX) Sherman"},{"latitude":" 44.96764","longitude":"-93.44278","name":" JCPenney","address":" USA-(MN) Minnetonka"},{"latitude":" 44.85669","longitude":"-93.42678","name":" JCPenney","address":" USA-(MN) Eden Prarie"},{"latitude":" 38.97028","longitude":"-76.95965","name":" JCPenney","address":" USA-(MD) Hyattsville"},{"latitude":" 26.25901","longitude":"-80.10149","name":" JCPenney","address":" USA-(FL) Pompano Beach"},{"latitude":" 40.04085","longitude":"-74.82216","name":" JCPenney","address":" USA-(NJ) Burlington"},{"latitude":" 39.39054","longitude":"-84.50025","name":" JCPenney","address":" USA-(OH) Hamilton"},{"latitude":" 44.11688","longitude":"-69.10738","name":" JCPenney","address":" USA-(ME) Rockland Rockland Plaza"},{"latitude":" 40.89536","longitude":"-79.90646","name":" JCPenney","address":" USA-(PA) Butler"},{"latitude":" 39.38563","longitude":"-77.40833","name":" JCPenney","address":" USA-(MD) Frederick"},{"latitude":" 40.21700","longitude":"-111.66095","name":" JCPenney","address":" USA-(UT) Provo"},{"latitude":" 43.03859","longitude":"-76.06338","name":" JCPenney","address":" USA-(NY) De Witt"},{"latitude":" 39.16215","longitude":"-78.16329","name":" JCPenney","address":" USA-(VA) Winchester"},{"latitude":" 41.39531","longitude":"-82.11366","name":" JCPenney","address":" USA-(OH) Elyria"},{"latitude":" 41.12437","longitude":"-100.76281","name":" JCPenney","address":" USA-(NE) North Platte"},{"latitude":" 31.32644","longitude":"-89.37807","name":" JCPenney","address":" USA-(MS) Hattiesburg"},{"latitude":" 36.82431","longitude":"-76.41455","name":" JCPenney","address":" USA-(VA) Chesapeake"},{"latitude":" 42.46043","longitude":"-92.32517","name":" JCPenney","address":" USA-(IA) Waterloo"},{"latitude":" 38.25020","longitude":"-122.62772","name":" JCPenney","address":" USA-(CA) Petaluma"},{"latitude":" 38.06499","longitude":"-97.90096","name":" JCPenney","address":" USA-(KS) Hutchinson"},{"latitude":" 37.24271","longitude":"-107.87205","name":" JCPenney","address":" USA-(CO) Durango"},{"latitude":" 37.50860","longitude":"-120.87615","name":" JCPenney","address":" USA-(CA) Turlock"},{"latitude":" 46.90058","longitude":"-102.78989","name":" JCPenney","address":" USA-(ND) Dickinson1607"},{"latitude":" 46.88360","longitude":"-98.71717","name":" JCPenney","address":" USA-(ND) Jamestown"},{"latitude":" 36.17272","longitude":"-82.79666","name":" JCPenney","address":" USA-(TN) Greenville"},{"latitude":" 29.05158","longitude":"-95.46077","name":" JCPenney","address":" USA-(TX) Lake Jackson"},{"latitude":" 30.16900","longitude":"-92.07702","name":" JCPenney","address":" USA-(LA) Lafayette"},{"latitude":" 35.79079","longitude":"-80.85792","name":" JCPenney","address":" USA-(NC) Statesville"},{"latitude":" 36.60032","longitude":"-82.21754","name":" JCPenney","address":" USA-(VA) Bristol"},{"latitude":" 43.58041","longitude":"-84.76739","name":" JCPenney","address":" USA-(MI) Mt. Pleasant"},{"latitude":" 32.28719","longitude":"-110.97524","name":" JCPenney","address":" USA-(AZ) Tuscon"},{"latitude":" 39.10375","longitude":"-84.27490","name":" JCPenney","address":" USA-(OH) Cincinnati"},{"latitude":" 38.36675","longitude":"-98.76377","name":" JCPenney","address":" USA-(KS) Great Bend"},{"latitude":" 38.77302","longitude":"-121.26657","name":" JCPenney","address":" USA-(CA) Roseville"},{"latitude":" 32.80549","longitude":"-96.62154","name":" JCPenney","address":" USA-(TX) Mesquite"},{"latitude":" 42.06511","longitude":"-94.86909","name":" JCPenney","address":" USA-(IA) Carroll"},{"latitude":" 42.74540","longitude":"-84.62614","name":" JCPenney","address":" USA-(MI) Lansing"},{"latitude":" 42.99917","longitude":"-78.18272","name":" JCPenney","address":" USA-(NY) Batavia"},{"latitude":" 32.39950","longitude":"-99.75982","name":" JCPenney","address":" USA-(TX) Abilene"},{"latitude":" 38.78028","longitude":"-76.07953","name":" JCPenney","address":" USA-(MD) Easton"},{"latitude":" 30.71772","longitude":"-95.57510","name":" JCPenney","address":" USA-(TX) Huntsville"},{"latitude":" 40.45370","longitude":"-80.16014","name":" JCPenney","address":" USA-(PA) Pittsburgh"},{"latitude":" 35.98966","longitude":"-80.00292","name":" JCPenney","address":" USA-(NC) High Point"},{"latitude":" 37.79102","longitude":"-90.43688","name":" JCPenney","address":" USA-(MO) Farmington"},{"latitude":" 43.63114","longitude":"-95.58595","name":" JCPenney","address":" USA-(MN) Worthington"},{"latitude":" 36.06584","longitude":"-89.39496","name":" JCPenney","address":" USA-(TN) Dyersburg"},{"latitude":" 31.36699","longitude":"-110.93529","name":" JCPenney","address":" USA-(AZ) Nogales"},{"latitude":" 38.42079","longitude":"-82.26375","name":" JCPenney","address":" USA-(WV) Barboursville"},{"latitude":" 40.53454","longitude":"-105.07599","name":" JCPenney","address":" USA-(CO) Fort Collins"},{"latitude":" 33.51167","longitude":"-88.43311","name":" JCPenney","address":" USA-(MS) Columbus"},{"latitude":" 27.01104","longitude":"-82.14516","name":" JCPenney","address":" USA-(FL) Port Charlotte"},{"latitude":" 45.47106","longitude":"-91.73560","name":" JCPenney","address":" USA-(WI) Rice Lake"},{"latitude":" 32.40412","longitude":"-90.13172","name":" JCPenney","address":" USA-(MS) Ridgeland"},{"latitude":" 32.42198","longitude":"-96.83994","name":" JCPenney","address":" USA-(TX) Waxahachie"},{"latitude":" 36.03209","longitude":"-83.87858","name":" JCPenney","address":" USA-(TN) Knoxville"},{"latitude":" 38.92434","longitude":"-90.17269","name":" JCPenney","address":" USA-(IL) Alton"},{"latitude":" 33.46333","longitude":"-82.08139","name":" JCPenney","address":" USA-(GA) Augusta"},{"latitude":" 39.26067","longitude":"-94.65868","name":" JCPenney","address":" USA-(MO) Kansas City"},{"latitude":" 33.61373","longitude":"-85.82735","name":" JCPenney","address":" USA-(AL) Oxford"},{"latitude":" 33.84437","longitude":"-118.25907","name":" JCPenney","address":" USA-(CA) Carson"},{"latitude":" 33.70048","longitude":"-78.92243","name":" JCPenney","address":" USA-(SC) Myrtle Beach"},{"latitude":" 34.60414","longitude":"-98.39040","name":" JCPenney","address":" USA-(OK) Lawton"},{"latitude":" 44.48562","longitude":"-88.06203","name":" JCPenney","address":" USA-(WI) Ashwaubenon"},{"latitude":" 33.18821","longitude":"-97.10603","name":" JCPenney","address":" USA-(TX) Denton"},{"latitude":" 34.06629","longitude":"-83.98693","name":" JCPenney","address":" USA-(GA) Buford"},{"latitude":" 44.29133","longitude":"-93.30292","name":" JCPenney","address":" USA-(MN) Faribault"},{"latitude":" 39.13111","longitude":"-119.76763","name":" JCPenney","address":" USA-(NV) Carson City"},{"latitude":" 37.68064","longitude":"-97.24687","name":" JCPenney","address":" USA-(KS) Wichita"},{"latitude":" 40.57284","longitude":"-85.67747","name":" JCPenney","address":" USA-(IN) Marion"},{"latitude":" 39.15275","longitude":"-123.19911","name":" JCPenney","address":" USA-(CA) Ukiah"},{"latitude":" 41.16039","longitude":"-104.80644","name":" JCPenney","address":" USA-(WY) Cheyenne"},{"latitude":" 33.91048","longitude":"-117.45999","name":" JCPenney","address":" USA-(CA) Riverside"},{"latitude":" 42.14244","longitude":"-72.49017","name":" JCPenney","address":" USA-(MA) Springfield"},{"latitude":" 34.06959","longitude":"-117.93522","name":" JCPenney","address":" USA-(CA) West Covina"},{"latitude":" 37.84562","longitude":"-81.20011","name":" JCPenney","address":" USA-(WV) Mt. Hope"},{"latitude":" 39.40503","longitude":"-76.79157","name":" JCPenney","address":" USA-(MD) Owings Mills"},{"latitude":" 40.76297","longitude":"-84.14953","name":" JCPenney","address":" USA-(OH) Lima"},{"latitude":" 40.90018","longitude":"-81.15751","name":" JCPenney","address":" USA-(OH) Alliance"},{"latitude":" 43.22791","longitude":"-123.36391","name":" JCPenney","address":" USA-(OR) Roseburg"},{"latitude":" 40.18273","longitude":"-80.23345","name":" JCPenney","address":" USA-(PA) Washington"},{"latitude":" 33.72736","longitude":"-84.74158","name":" JCPenney","address":" USA-(GA) Douglasville"},{"latitude":" 39.29208","longitude":"-76.51052","name":" JCPenney","address":" USA-(MD) Baltimore"},{"latitude":" 26.23977","longitude":"-80.25159","name":" JCPenney","address":" USA-(FL) Coral Springs"},{"latitude":" 47.82963","longitude":"-122.27686","name":" JCPenney","address":" USA-(WA) Lynnwood"},{"latitude":" 41.68033","longitude":"-86.89822","name":" JCPenney","address":" USA-(IN) Michigan City"},{"latitude":" 41.05301","longitude":"-83.61411","name":" JCPenney","address":" USA-(OH) Findlay"},{"latitude":" 39.72307","longitude":"-90.24123","name":" JCPenney","address":" USA-(IL) Jacksonville"},{"latitude":" 30.14999","longitude":"-96.38767","name":" JCPenney","address":" USA-(TX) Brenham"},{"latitude":" 28.07997","longitude":"-80.65237","name":" JCPenney","address":" USA-(FL) Melbourne"},{"latitude":" 45.03107","longitude":"-93.01920","name":" JCPenney","address":" USA-(MN) Maplewood"},{"latitude":" 38.99640","longitude":"-84.64717","name":" JCPenney","address":" USA-(KY) Florence"},{"latitude":" 41.64130","longitude":"-85.93517","name":" JCPenney","address":" USA-(IN) Elkhart"},{"latitude":" 32.61838","longitude":"-83.68606","name":" JCPenney","address":" USA-(GA) Centerville"},{"latitude":" 42.35865","longitude":"-72.54751","name":" JCPenney","address":" USA-(MA) Hadley"},{"latitude":" 43.05875","longitude":"-89.50381","name":" JCPenney","address":" USA-(WI) Madison"},{"latitude":" 36.12438","longitude":"-115.13721","name":" JCPenney","address":" USA-(NV) Las Vegas"},{"latitude":" 41.57666","longitude":"-88.16908","name":" JCPenney","address":" USA-(IL) Joliet"},{"latitude":" 36.12794","longitude":"-97.05147","name":" JCPenney","address":" USA-(OK) Stillwater"},{"latitude":" 34.47208","longitude":"-117.34569","name":" JCPenney","address":" USA-(CA) Victorville"},{"latitude":" 42.31834","longitude":"-83.21842","name":" JCPenney","address":" USA-(MI) Dearborn"},{"latitude":" 47.49417","longitude":"-111.29045","name":" JCPenney","address":" USA-(MT) Great Falls"},{"latitude":" 40.46245","longitude":"-86.11133","name":" JCPenney","address":" USA-(IN) Kokomo"},{"latitude":" 40.58177","longitude":"-74.16314","name":" JCPenney","address":" USA-(NY) Staten Island"},{"latitude":" 34.65273","longitude":"-86.03549","name":" JCPenney","address":" USA-(AL) Scottsboro"},{"latitude":" 39.03190","longitude":"-95.76223","name":" JCPenney","address":" USA-(KS) Topeka"},{"latitude":" 42.86057","longitude":"-73.77828","name":" JCPenney","address":" USA-(NY) Clifton Park"},{"latitude":" 46.40096","longitude":"-117.00627","name":" JCPenney","address":" USA-(ID) Lewiston"},{"latitude":" 36.10933","longitude":"-115.30613","name":" JCPenney","address":" USA-(NV) Las Vegas"},{"latitude":" 43.46090","longitude":"-76.48501","name":" JCPenney","address":" USA-(NY) Oswego"},{"latitude":" 35.12988","longitude":"-85.23732","name":" JCPenney","address":" USA-(TN) Chattanooga"},{"latitude":" 33.93745","longitude":"-118.12170","name":" JCPenney","address":" USA-(CA) Downey"},{"latitude":" 38.66275","longitude":"-121.76210","name":" JCPenney","address":" USA-(CA) Woodland"},{"latitude":" 33.84802","longitude":"-118.14063","name":" JCPenney","address":" USA-(CA) Lakewood"},{"latitude":" 44.39528","longitude":"-89.83151","name":" JCPenney","address":" USA-(WI) Wisconsin Rapids"},{"latitude":" 27.64087","longitude":"-80.45996","name":" JCPenney","address":" USA-(FL) Vero Beach"},{"latitude":" 42.89246","longitude":"-97.39737","name":" JCPenney","address":" USA-(SD) Yankton"},{"latitude":" 26.64839","longitude":"-80.20645","name":" JCPenney","address":" USA-(FL) Wellington"},{"latitude":" 34.13674","longitude":"-118.05409","name":" JCPenney","address":" USA-(CA) Arcadia"},{"latitude":" 42.94828","longitude":"-88.00834","name":" JCPenney","address":" USA-(WI) Greendale"},{"latitude":" 36.20319","longitude":"-81.66733","name":" JCPenney","address":" USA-(NC) Boone"},{"latitude":" 37.61847","longitude":"-84.77298","name":" JCPenney","address":" USA-(KY) Danville"},{"latitude":" 29.59296","longitude":"-98.34963","name":" JCPenney","address":" USA-(TX) San Antonio"},{"latitude":" 47.70502","longitude":"-122.32843","name":" JCPenney","address":" USA-(WA) Seattle"},{"latitude":" 33.52404","longitude":"-112.09544","name":" JCPenney","address":" USA-(AZ) Phoenix"},{"latitude":" 41.29591","longitude":"-92.64743","name":" JCPenney","address":" USA-(IA) Oskaloosa"},{"latitude":" 48.19960","longitude":"-114.31421","name":" JCPenney","address":" USA-(MT) Kalispell"},{"latitude":" 34.42553","longitude":"-103.19649","name":" JCPenney","address":" USA-(NM) Clovis"},{"latitude":" 35.95881","longitude":"-86.81551","name":" JCPenney","address":" USA-(TN) Franklin"},{"latitude":" 41.78085","longitude":"-70.74380","name":" JCPenney","address":" USA-(MA) Wareham"},{"latitude":" 33.52681","longitude":"-117.15717","name":" JCPenney","address":" USA-(CA) Temecula"},{"latitude":" 33.10493","longitude":"-96.10962","name":" JCPenney","address":" USA-(TX) Greenville"},{"latitude":" 28.08936","longitude":"-81.98029","name":" JCPenney","address":" USA-(FL) Lakeland"},{"latitude":" 43.32080","longitude":"-90.37718","name":" JCPenney","address":" USA-(WI) Richland Center"},{"latitude":" 35.72285","longitude":"-77.93546","name":" JCPenney","address":" USA-(NC) Wilson"},{"latitude":" 43.62589","longitude":"-83.89349","name":" JCPenney","address":" USA-(MI) Bay City"},{"latitude":" 30.62746","longitude":"-96.30480","name":" JCPenney","address":" USA-(TX) College Station"},{"latitude":" 41.35090","longitude":"-79.71571","name":" JCPenney","address":" USA-(PA) Cranberry"},{"latitude":" 30.66104","longitude":"-87.90758","name":" JCPenney","address":" USA-(AL) Spanish Fort"},{"latitude":" 36.31246","longitude":"-94.17262","name":" JCPenney","address":" USA-(AR) Rogers"},{"latitude":" 32.38319","longitude":"-86.20758","name":" JCPenney","address":" USA-(AL) Montgomery"},{"latitude":" 38.35519","longitude":"-81.63746","name":" JCPenney","address":" USA-(WV) Charleston"},{"latitude":" 38.12344","longitude":"-79.06536","name":" JCPenney","address":" USA-(VA) Staunton"},{"latitude":" 48.78422","longitude":"-122.48795","name":" JCPenney","address":" USA-(WA) Bellingham"},{"latitude":" 35.20115","longitude":"-89.79072","name":" JCPenney","address":" USA-(TN) Memphis"},{"latitude":" 39.67518","longitude":"-75.65205","name":" JCPenney","address":" USA-(DE) Newark"},{"latitude":" 29.56917","longitude":"-97.94302","name":" JCPenney","address":" USA-(TX) Seguin"},{"latitude":" 29.60872","longitude":"-98.59689","name":" JCPenney","address":" USA-(TX) San Antonio"},{"latitude":" 41.23930","longitude":"-76.82872","name":" JCPenney","address":" USA-(PA) Pennsdale"},{"latitude":" 43.64996","longitude":"-94.44740","name":" JCPenney","address":" USA-(MN) Fairmont"},{"latitude":" 42.89320","longitude":"-73.19802","name":" JCPenney","address":" USA-(VT) Bennington"},{"latitude":" 25.68939","longitude":"-80.30961","name":" JCPenney","address":" USA-(FL) Miami"},{"latitude":" 38.62798","longitude":"-83.79291","name":" JCPenney","address":" USA-(KY) Maysville US"},{"latitude":" 31.26129","longitude":"-90.47740","name":" JCPenney","address":" USA-(MS) McComb"},{"latitude":" 30.40910","longitude":"-97.67350","name":" JCPenney","address":" USA-(TX) Austin"},{"latitude":" 41.94742","longitude":"-88.11917","name":" JCPenney","address":" USA-(IL) Bloomingdale"},{"latitude":" 35.52284","longitude":"-97.54488","name":" JCPenney","address":" USA-(OK) Oklahoma City"},{"latitude":" 45.45035","longitude":"-122.77799","name":" JCPenney","address":" USA-(OR) Portland"},{"latitude":" 40.84850","longitude":"-81.94573","name":" JCPenney","address":" USA-(OH) Wooster"},{"latitude":" 34.07789","longitude":"-81.15950","name":" JCPenney","address":" USA-(SC) Columbia"},{"latitude":" 32.03167","longitude":"-102.12876","name":" JCPenney","address":" USA-(TX) Midland"},{"latitude":" 41.87921","longitude":"-80.75314","name":" JCPenney","address":" USA-(OH) Ashtabula"},{"latitude":" 41.80721","longitude":"-72.54169","name":" JCPenney","address":" USA-(CT) Manchester"},{"latitude":" 35.19797","longitude":"-106.66055","name":" JCPenney","address":" USA-(NM) Albuquerque"},{"latitude":" 35.21496","longitude":"-114.03532","name":" JCPenney","address":" USA-(AZ) Kingman"},{"latitude":" 44.79995","longitude":"-106.95588","name":" JCPenney","address":" USA-(WY) Sheridan"},{"latitude":" 32.83199","longitude":"-97.19732","name":" JCPenney","address":" USA-(TX) Hurst"},{"latitude":" 41.80599","longitude":"-89.66197","name":" JCPenney","address":" USA-(IL) Sterling"},{"latitude":" 45.80250","longitude":"-88.06998","name":" JCPenney","address":" USA-(MI) Kingsford"},{"latitude":" 38.11543","longitude":"-121.30424","name":" JCPenney","address":" USA-(CA) Lodi"},{"latitude":" 40.42392","longitude":"-74.38484","name":" JCPenney","address":" USA-(NJ) East Brunswick"},{"latitude":" 44.94250","longitude":"-123.03764","name":" JCPenney","address":" USA-(OR) Salem"},{"latitude":" 38.31317","longitude":"-88.94212","name":" JCPenney","address":" USA-(IL) Mt. Vernon"},{"latitude":" 37.92826","longitude":"-91.77925","name":" JCPenney","address":" USA-(MO) Rolla"},{"latitude":" 30.47372","longitude":"-97.80478","name":" JCPenney","address":" USA-(TX) Cedar Park"},{"latitude":" 44.56949","longitude":"-92.58464","name":" JCPenney","address":" USA-(MN) Red Wing"},{"latitude":" 30.18472","longitude":"-81.73174","name":" JCPenney","address":" USA-(FL) Orange Park"},{"latitude":" 39.12498","longitude":"-94.82838","name":" JCPenney","address":" USA-(KS) Kansas City"},{"latitude":" 31.73788","longitude":"-98.96315","name":" JCPenney","address":" USA-(TX) Early"},{"latitude":" 41.86452","longitude":"-71.04900","name":" JCPenney","address":" USA-(MA) Taunton"},{"latitude":" 31.73465","longitude":"-95.61147","name":" JCPenney","address":" USA-(TX) Palestine"},{"latitude":" 39.61293","longitude":"-105.10064","name":" JCPenney","address":" USA-(CO) Littleton"},{"latitude":" 37.04414","longitude":"-76.39045","name":" JCPenney","address":" USA-(VA) Hampton"},{"latitude":" 37.16321","longitude":"-80.42795","name":" JCPenney","address":" USA-(VA) Christiansburg"},{"latitude":" 41.46955","longitude":"-87.01715","name":" JCPenney","address":" USA-(IN) Valpariso"},{"latitude":" 44.83312","longitude":"-68.75108","name":" JCPenney","address":" USA-(ME) Bangor"},{"latitude":" 46.46405","longitude":"-84.37453","name":" JCPenney","address":" USA-(MI) Sault Ste. Marie"},{"latitude":" 34.03715","longitude":"-118.08604","name":" JCPenney","address":" USA-(CA) Montebello"},{"latitude":" 47.45824","longitude":"-122.25448","name":" JCPenney","address":" USA-(WA) Seattle"},{"latitude":" 41.30657","longitude":"-81.81885","name":" JCPenney","address":" USA-(OH) Strongsville"},{"latitude":" 35.48775","longitude":"-79.20143","name":" JCPenney","address":" USA-(NC) Stanford"},{"latitude":" 36.13634","longitude":"-85.49903","name":" JCPenney","address":" USA-(TN) Cookeville"},{"latitude":" 39.63121","longitude":"-86.12298","name":" JCPenney","address":" USA-(IN) Greenwood"},{"latitude":" 43.69810","longitude":"-85.48192","name":" JCPenney","address":" USA-(MI) Big Rapids"},{"latitude":" 39.73720","longitude":"-75.62517","name":" JCPenney","address":" USA-(DE) Wilmington"},{"latitude":" 47.39998","longitude":"-92.95617","name":" JCPenney","address":" USA-(MN) Hibbing"},{"latitude":" 46.18890","longitude":"-123.82890","name":" JCPenney","address":" USA-(OR) Astoria"},{"latitude":" 41.54111","longitude":"-81.49718","name":" JCPenney","address":" USA-(OH) Richmond Heights"},{"latitude":" 42.12676","longitude":"-75.97194","name":" JCPenney","address":" USA-(NY) Johnson City"},{"latitude":" 42.24498","longitude":"-87.95224","name":" JCPenney","address":" USA-(IL) Vernon Hills Rt"},{"latitude":" 36.57635","longitude":"-119.63340","name":" JCPenney","address":" USA-(CA) Selma"},{"latitude":" 41.02498","longitude":"-81.42145","name":" JCPenney","address":" USA-(OH) Akron"},{"latitude":" 39.62202","longitude":"-77.77276","name":" JCPenney","address":" USA-(MD) Hagerstown"},{"latitude":" 42.62192","longitude":"-82.98121","name":" JCPenney","address":" USA-(MI) Sterling Heights"},{"latitude":" 34.30869","longitude":"-88.70400","name":" JCPenney","address":" USA-(MS) Tupelo"},{"latitude":" 33.57754","longitude":"-84.35275","name":" JCPenney","address":" USA-(GA) Morrow"},{"latitude":" 39.92009","longitude":"-82.88519","name":" JCPenney","address":" USA-(OH) Columbus"},{"latitude":" 27.24467","longitude":"-80.27420","name":" JCPenney","address":" USA-(FL) Jensen Beach"},{"latitude":" 39.91346","longitude":"-86.22363","name":" JCPenney","address":" USA-(IN) Indianapolis"},{"latitude":" 26.18420","longitude":"-97.71656","name":" JCPenney","address":" USA-(TX) Harlingen"},{"latitude":" 32.81620","longitude":"-83.69210","name":" JCPenney","address":" USA-(GA) Macon"},{"latitude":" 38.68898","longitude":"-87.50300","name":" JCPenney","address":" USA-(IN) Vincennes"},{"latitude":" 42.33881","longitude":"-83.39091","name":" JCPenney","address":" USA-(MI) Westland"},{"latitude":" 33.74985","longitude":"-118.01214","name":" JCPenney","address":" USA-(CA) Westminster"},{"latitude":" 48.20723","longitude":"-101.30772","name":" JCPenney","address":" USA-(ND) Minot"},{"latitude":" 36.71707","longitude":"-95.93083","name":" JCPenney","address":" USA-(OK) Bartlettsville"},{"latitude":" 48.07970","longitude":"-123.11745","name":" JCPenney","address":" USA-(WA) Sequim"},{"latitude":" 39.37635","longitude":"-76.47124","name":" JCPenney","address":" USA-(MD) Baltimore"},{"latitude":" 34.36846","longitude":"-89.54657","name":" JCPenney","address":" USA-(MS) Oxford"},{"latitude":" 43.20765","longitude":"-77.69109","name":" JCPenney","address":" USA-(NY) Greece"},{"latitude":" 33.74745","longitude":"-116.99584","name":" JCPenney","address":" USA-(CA) Hemet"},{"latitude":" 40.88940","longitude":"-74.25230","name":" JCPenney","address":" USA-(NJ) Wayne"},{"latitude":" 35.65712","longitude":"-88.82897","name":" JCPenney","address":" USA-(TN) Jackson"},{"latitude":" 29.94763","longitude":"-93.99250","name":" JCPenney","address":" USA-(TX) Port Arthur"},{"latitude":" 32.20055","longitude":"-98.24327","name":" JCPenney","address":" USA-(TX) Stephenville"},{"latitude":" 41.46707","longitude":"-90.49955","name":" JCPenney","address":" USA-(IL) Moline"},{"latitude":" 35.69248","longitude":"-80.51239","name":" JCPenney","address":" USA-(NC) Salisbury"},{"latitude":" 32.91372","longitude":"-97.30539","name":" JCPenney","address":" USA-(TX) Fort Worth"},{"latitude":" 40.86627","longitude":"-73.82700","name":" JCPenney","address":" USA-(NY) Bronx"},{"latitude":" 38.42956","longitude":"-78.84196","name":" JCPenney","address":" USA-(VA) Harrisonburg"},{"latitude":" 41.13330","longitude":"-81.64290","name":" JCPenney","address":" USA-(OH) Akron"},{"latitude":" 32.92977","longitude":"-105.96216","name":" JCPenney","address":" USA-(NM) Alamogordo"},{"latitude":" 40.63419","longitude":"-103.20218","name":" JCPenney","address":" USA-(CO) Sterling"},{"latitude":" 42.91056","longitude":"-78.76092","name":" JCPenney","address":" USA-(NY) Cheektowaga"},{"latitude":" 36.52709","longitude":"-82.52210","name":" JCPenney","address":" USA-(TN) Kingsport"},{"latitude":" 40.74156","longitude":"-73.61425","name":" JCPenney","address":" USA-(NY) Garden City"},{"latitude":" 33.60061","longitude":"-111.98594","name":" JCPenney","address":" USA-(AZ) Phoenix"},{"latitude":" 30.49970","longitude":"-87.22184","name":" JCPenney","address":" USA-(FL) Pensacola"},{"latitude":" 33.98560","longitude":"-118.39528","name":" JCPenney","address":" USA-(CA) Culver City"},{"latitude":" 26.12049","longitude":"-80.25481","name":" JCPenney","address":" USA-(FL) Plantation"},{"latitude":" 36.62274","longitude":"-88.31482","name":" JCPenney","address":" USA-(KY) Murray"},{"latitude":" 41.96764","longitude":"-73.98885","name":" JCPenney","address":" USA-(NY) Kingston"},{"latitude":" 30.48358","longitude":"-90.46044","name":" JCPenney","address":" USA-(LA) Hammond"},{"latitude":" 36.85174","longitude":"-76.20859","name":" JCPenney","address":" USA-(VA) Norfolk"},{"latitude":" 37.68807","longitude":"-121.05602","name":" JCPenney","address":" USA-(CA) Modesto"},{"latitude":" 41.24419","longitude":"-75.84274","name":" JCPenney","address":" USA-(PA) Wilkes Barre East End Blvd"},{"latitude":" 31.33303","longitude":"-110.94121","name":" JCPenney","address":" USA-(AZ) Nogales"},{"latitude":" 42.48954","longitude":"-83.46841","name":" JCPenney","address":" USA-(MI) Novi"},{"latitude":" 42.54728","longitude":"-113.79242","name":" JCPenney","address":" USA-(ID) Burley"},{"latitude":" 40.12434","longitude":"-84.62073","name":" JCPenney","address":" USA-(OH) Greenville"},{"latitude":" 38.59203","longitude":"-90.29248","name":" JCPenney","address":" USA-(MO) St. Louis"},{"latitude":" 45.76600","longitude":"-108.57634","name":" JCPenney","address":" USA-(MT) Billings"},{"latitude":" 42.64946","longitude":"-83.49893","name":" JCPenney","address":" USA-(MI) White Lake"},{"latitude":" 31.77391","longitude":"-106.38074","name":" JCPenney","address":" USA-(TX) El Paso"},{"latitude":" 40.85093","longitude":"-115.74518","name":" JCPenney","address":" USA-(NV) Elko"},{"latitude":" 37.24124","longitude":"-96.97388","name":" JCPenney","address":" USA-(KS) Winfield"},{"latitude":" 41.54453","longitude":"-83.70393","name":" JCPenney","address":" USA-(OH) Maumee"},{"latitude":" 35.10341","longitude":"-77.08787","name":" JCPenney","address":" USA-(NC) New Bern"},{"latitude":" 34.26895","longitude":"-119.24695","name":" JCPenney","address":" USA-(CA) Ventura"},{"latitude":" 48.46263","longitude":"-122.33675","name":" JCPenney","address":" USA-(WA) Burlington"},{"latitude":" 42.71152","longitude":"-89.00206","name":" JCPenney","address":" USA-(WI) Janesville"},{"latitude":" 26.60997","longitude":"-81.94008","name":" JCPenney","address":" USA-(FL) Cape Coral"},{"latitude":" 41.04820","longitude":"-81.58094","name":" JCPenney","address":" USA-(OH) Akron"},{"latitude":" 41.13689","longitude":"-96.02952","name":" JCPenney","address":" USA-(NE) Papillion"},{"latitude":" 29.92315","longitude":"-90.03678","name":" JCPenney","address":" USA-(LA) Gretna"},{"latitude":" 42.49484","longitude":"-90.71835","name":" JCPenney","address":" USA-(IA) Dubuque"},{"latitude":" 36.06957","longitude":"-79.50655","name":" JCPenney","address":" USA-(NC) Burlington"},{"latitude":" 42.29918","longitude":"-71.38735","name":" JCPenney","address":" USA-(MA) Natick"},{"latitude":" 39.90825","longitude":"-79.74534","name":" JCPenney","address":" USA-(PA) Uniontown"},{"latitude":" 37.11039","longitude":"-76.49291","name":" JCPenney","address":" USA-(VA) Newport News"},{"latitude":" 42.99651","longitude":"-84.17072","name":" JCPenney","address":" USA-(MI) Owosso"},{"latitude":" 44.37796","longitude":"-100.31706","name":" JCPenney","address":" USA-(SD) Pierre"},{"latitude":" 35.27944","longitude":"-93.09597","name":" JCPenney","address":" USA-(AR) Russellville"},{"latitude":" 38.41776","longitude":"-96.21697","name":" JCPenney","address":" USA-(KS) Emporia"},{"latitude":" 42.92955","longitude":"-76.60816","name":" JCPenney","address":" USA-(NY) Auburn Finger Lakes Mall"},{"latitude":" 44.00434","longitude":"-92.47557","name":" JCPenney","address":" USA-(MN) Rochester"},{"latitude":" 38.37813","longitude":"-86.91648","name":" JCPenney","address":" USA-(IN) Jasper"},{"latitude":" 36.16629","longitude":"-86.51432","name":" JCPenney","address":" USA-(TN) Mt. Juliet"},{"latitude":" 33.09805","longitude":"-96.80830","name":" JCPenney","address":" USA-(TX) Frisco"},{"latitude":" 38.77828","longitude":"-85.38109","name":" JCPenney","address":" USA-(IN) Madison"},{"latitude":" 33.98115","longitude":"-118.22390","name":" JCPenney","address":" USA-(CA) Huntington Park"},{"latitude":" 38.79499","longitude":"-90.61302","name":" JCPenney","address":" USA-(MO) St. Peters"},{"latitude":" 37.36676","longitude":"-79.17419","name":" JCPenney","address":" USA-(VA) Lynchburg"},{"latitude":" 42.45785","longitude":"-79.33387","name":" JCPenney","address":" USA-(NY) Dunkirk"},{"latitude":" 31.69058","longitude":"-89.13787","name":" JCPenney","address":" USA-(MS) Laurel Beacon & Mason Street"},{"latitude":" 45.67332","longitude":"-118.78792","name":" JCPenney","address":" USA-(OR) Pendleton"},{"latitude":" 30.18519","longitude":"-81.55184","name":" JCPenney","address":" USA-(FL) Jacksonville"},{"latitude":" 36.23879","longitude":"-93.10319","name":" JCPenney","address":" USA-(AR) Harrison"},{"latitude":" 25.86950","longitude":"-80.32040","name":" JCPenney","address":" USA-(FL) Hialeah"},{"latitude":" 40.39163","longitude":"-86.85322","name":" JCPenney","address":" USA-(IN) Lafayette"},{"latitude":" 37.32646","longitude":"-121.81041","name":" JCPenney","address":" USA-(CA) San Jose"},{"latitude":" 41.54828","longitude":"-73.02695","name":" JCPenney","address":" USA-(CT) Waterbury"},{"latitude":" 37.30600","longitude":"-79.96281","name":" JCPenney","address":" USA-(VA) Roanoke"},{"latitude":" 40.63154","longitude":"-77.56967","name":" JCPenney","address":" USA-(PA) Burnham"},{"latitude":" 35.22453","longitude":"-111.58275","name":" JCPenney","address":" USA-(AZ) Flagstaff"},{"latitude":" 45.04255","longitude":"-83.45888","name":" JCPenney","address":" USA-(MI) Alpena"},{"latitude":" 44.87638","longitude":"-94.37572","name":" JCPenney","address":" USA-(MN) Hutchinson"},{"latitude":" 35.20445","longitude":"-84.84938","name":" JCPenney","address":" USA-(TN) Cleveland"},{"latitude":" 42.88188","longitude":"-85.75808","name":" JCPenney","address":" USA-(MI) Grandville"},{"latitude":" 43.99538","longitude":"-88.57905","name":" JCPenney","address":" USA-(WI) Oshkosh"},{"latitude":" 35.63651","longitude":"-106.01086","name":" JCPenney","address":" USA-(NM) Santa Fe"},{"latitude":" 32.62615","longitude":"-85.44380","name":" JCPenney","address":" USA-(AL) Auburn"},{"latitude":" 39.35932","longitude":"-82.97616","name":" JCPenney","address":" USA-(OH) Chillicothe"},{"latitude":" 28.29597","longitude":"-82.71360","name":" JCPenney","address":" USA-(FL) Port Richey"},{"latitude":" 39.83108","longitude":"-84.84565","name":" JCPenney","address":" USA-(IN) Richmond"},{"latitude":" 45.32788","longitude":"-118.09326","name":" JCPenney","address":" USA-(OR) La Grande"},{"latitude":" 33.52808","longitude":"-90.20115","name":" JCPenney","address":" USA-(MS) Greenwood"},{"latitude":" 46.84398","longitude":"-114.02515","name":" JCPenney","address":" USA-(MT) Missoula"},{"latitude":" 35.69427","longitude":"-85.74808","name":" JCPenney","address":" USA-(TN) McMinnville"},{"latitude":" 45.45923","longitude":"-98.44105","name":" JCPenney","address":" USA-(SD) Aberdeen"},{"latitude":" 44.21676","longitude":"-72.56444","name":" JCPenney","address":" USA-(VT) Berlin"},{"latitude":" 47.21761","longitude":"-122.46745","name":" JCPenney","address":" USA-(WA) Tacoma"},{"latitude":" 40.25465","longitude":"-74.29710","name":" JCPenney","address":" USA-(NJ) Freehold"},{"latitude":" 32.66670","longitude":"-115.49344","name":" JCPenney","address":" USA-(CA) Calexico"},{"latitude":" 36.61887","longitude":"-83.70372","name":" JCPenney","address":" USA-(KY) Middlesboro"},{"latitude":" 31.32407","longitude":"-85.83155","name":" JCPenney","address":" USA-(AL) Enterprise"},{"latitude":" 42.06640","longitude":"-80.09902","name":" JCPenney","address":" USA-(PA) Erie"},{"latitude":" 36.15014","longitude":"-81.19525","name":" JCPenney","address":" USA-(NC) Wilkesboro"},{"latitude":" 33.07101","longitude":"-117.06311","name":" JCPenney","address":" USA-(CA) Escondido"},{"latitude":" 43.22176","longitude":"-71.48736","name":" JCPenney","address":" USA-(NH) Concord"},{"latitude":" 41.56188","longitude":"-90.57253","name":" JCPenney","address":" USA-(IA) Davenport"},{"latitude":" 40.98268","longitude":"-76.01628","name":" JCPenney","address":" USA-(PA) Hazleton"},{"latitude":" 33.39402","longitude":"-84.76116","name":" JCPenney","address":" USA-(GA) Newnan"},{"latitude":" 39.63588","longitude":"-84.21890","name":" JCPenney","address":" USA-(OH) Centerville"},{"latitude":" 30.38961","longitude":"-88.98935","name":" JCPenney","address":" USA-(MS) Biloxi"},{"latitude":" 38.86060","longitude":"-77.35846","name":" JCPenney","address":" USA-(VA) Fairfax"},{"latitude":" 46.80107","longitude":"-100.78478","name":" JCPenney","address":" USA-(ND) Bismarck"},{"latitude":" 39.24012","longitude":"-94.46679","name":" JCPenney","address":" USA-(MO) Kansas City"},{"latitude":" 35.61138","longitude":"-97.56125","name":" JCPenney","address":" USA-(OK) Oklahoma City"},{"latitude":" 37.98135","longitude":"-122.33244","name":" JCPenney","address":" USA-(CA) Richmond"},{"latitude":" 28.82337","longitude":"-81.78453","name":" JCPenney","address":" USA-(FL) Leesburg"},{"latitude":" 43.21151","longitude":"-75.46109","name":" JCPenney","address":" USA-(NY) Rome Erie Blvd & S George Street"},{"latitude":" 27.75653","longitude":"-98.05681","name":" JCPenney","address":" USA-(TX) Alice"},{"latitude":" 42.04930","longitude":"-93.62075","name":" JCPenney","address":" USA-(IA) Ames"},{"latitude":" 41.75416","longitude":"-88.03127","name":" JCPenney","address":" USA-(IL) Woodridge"},{"latitude":" 44.56879","longitude":"-69.63939","name":" JCPenney","address":" USA-(ME) Waterville"},{"latitude":" 42.24204","longitude":"-83.75057","name":" JCPenney","address":" USA-(MI) Ann Arbor"},{"latitude":" 41.94549","longitude":"-71.34744","name":" JCPenney","address":" USA-(MA) North Attleboro"},{"latitude":" 35.97187","longitude":"-77.80785","name":" JCPenney","address":" USA-(NC) Rocky Mount"},{"latitude":" 25.95433","longitude":"-97.50531","name":" JCPenney","address":" USA-(TX) Brownsville"},{"latitude":" 45.10698","longitude":"-95.04268","name":" JCPenney","address":" USA-(MN) Willmar"},{"latitude":" 40.22424","longitude":"-76.92872","name":" JCPenney","address":" USA-(PA) Camp Hill"},{"latitude":" 35.21951","longitude":"-97.49436","name":" JCPenney","address":" USA-(OK) Norman"},{"latitude":" 40.81646","longitude":"-96.63304","name":" JCPenney","address":" USA-(NE) Lincoln"},{"latitude":" 29.68811","longitude":"-95.46324","name":" JCPenney","address":" USA-(TX) Houston"},{"latitude":" 36.06864","longitude":"-115.04170","name":" JCPenney","address":" USA-(NV) Henderson"},{"latitude":" 45.61692","longitude":"-122.47754","name":" JCPenney","address":" USA-(WA) Vancouver"},{"latitude":" 39.90663","longitude":"-86.06801","name":" JCPenney","address":" USA-(IN) Indianapolis"},{"latitude":" 26.53376","longitude":"-80.09354","name":" JCPenney","address":" USA-(FL) Boynton Beach"},{"latitude":" 38.44593","longitude":"-107.86673","name":" JCPenney","address":" USA-(CO) Montrose"},{"latitude":" 47.67591","longitude":"-117.20596","name":" JCPenney","address":" USA-(WA) Spokane"},{"latitude":" 36.33927","longitude":"-82.37556","name":" JCPenney","address":" USA-(TN) Johnson City"},{"latitude":" 40.82544","longitude":"-76.84564","name":" JCPenney","address":" USA-(PA) Hummels Wharf"},{"latitude":" 34.29485","longitude":"-83.84341","name":" JCPenney","address":" USA-(GA) Gainesville"},{"latitude":" 34.14477","longitude":"-118.25973","name":" JCPenney","address":" USA-(CA) Glendale"},{"latitude":" 34.63786","longitude":"-79.00799","name":" JCPenney","address":" USA-(NC) Lumberton"},{"latitude":" 40.90420","longitude":"-74.55438","name":" JCPenney","address":" USA-(NJ) Rockaway"},{"latitude":" 42.91586","longitude":"-85.58461","name":" JCPenney","address":" USA-(MI) Grand Rapids"},{"latitude":" 40.29355","longitude":"-74.67934","name":" JCPenney","address":" USA-(NJ) Trenton"},{"latitude":" 42.54065","longitude":"-83.11052","name":" JCPenney","address":" USA-(MI) Troy"},{"latitude":" 40.18051","longitude":"-74.87897","name":" JCPenney","address":" USA-(PA) Langhorne"},{"latitude":" 42.26157","longitude":"-85.18301","name":" JCPenney","address":" USA-(MI) Battle Creek"},{"latitude":" 42.78343","longitude":"-78.81122","name":" JCPenney","address":" USA-(NY) Blasdell"},{"latitude":" 39.63073","longitude":"-78.83449","name":" JCPenney","address":" USA-(MD) La Vale"},{"latitude":" 33.64020","longitude":"-112.22860","name":" JCPenney","address":" USA-(AZ) Glendale"},{"latitude":" 43.01659","longitude":"-83.63480","name":" JCPenney","address":" USA-(MI) Burton"},{"latitude":" 35.58736","longitude":"-77.36922","name":" JCPenney","address":" USA-(NC) Greenville"},{"latitude":" 30.39346","longitude":"-88.65744","name":" JCPenney","address":" USA-(MS) Gautier"},{"latitude":" 41.02315","longitude":"-80.65954","name":" JCPenney","address":" USA-(OH) Youngstown"},{"latitude":" 35.07494","longitude":"-78.96019","name":" JCPenney","address":" USA-(NC) Fayetteville"},{"latitude":" 38.89106","longitude":"-99.31755","name":" JCPenney","address":" USA-(KS) Hays"},{"latitude":" 32.80397","longitude":"-116.96531","name":" JCPenney","address":" USA-(CA) El Cajon"},{"latitude":" 47.73007","longitude":"-116.79057","name":" JCPenney","address":" USA-(ID) Coeur d'Alene"},{"latitude":" 33.82845","longitude":"-118.35074","name":" JCPenney","address":" USA-(CA) Torrance"},{"latitude":" 46.70154","longitude":"-68.00960","name":" JCPenney","address":" USA-(ME) Presque Isle"},{"latitude":" 44.94954","longitude":"-74.84378","name":" JCPenney","address":" USA-(NY) Massena State Rt"},{"latitude":" 30.26213","longitude":"-91.99388","name":" JCPenney","address":" USA-(LA) Lafayette"},{"latitude":" 39.78543","longitude":"-104.89058","name":" JCPenney","address":" USA-(CO) Denver"},{"latitude":" 29.65382","longitude":"-81.67122","name":" JCPenney","address":" USA-(FL) Palatka"},{"latitude":" 38.58369","longitude":"-92.25388","name":" JCPenney","address":" USA-(MO) Jefferson City"},{"latitude":" 39.42698","longitude":"-87.41741","name":" JCPenney","address":" USA-(IN) Terre Haute"},{"latitude":" 34.93845","longitude":"-120.43713","name":" JCPenney","address":" USA-(CA) Santa Maria"},{"latitude":" 41.95505","longitude":"-91.71620","name":" JCPenney","address":" USA-(IA) Cedar Rapids"},{"latitude":" 43.30423","longitude":"-91.78600","name":" JCPenney","address":" USA-(IA) Decorah"},{"latitude":" 39.56173","longitude":"-107.36465","name":" JCPenney","address":" USA-(CO) Glenwood Springs"},{"latitude":" 47.71520","longitude":"-104.15695","name":" JCPenney","address":" USA-(MT) Sidney"},{"latitude":" 35.84747","longitude":"-86.41620","name":" JCPenney","address":" USA-(TN) Murfreesboro"},{"latitude":" 41.11158","longitude":"-83.20521","name":" JCPenney","address":" USA-(OH) Tiffin"},{"latitude":" 38.60087","longitude":"-90.44909","name":" JCPenney","address":" USA-(MO) Des Peres"},{"latitude":" 33.82646","longitude":"-117.84010","name":" JCPenney","address":" USA-(CA) Orange"},{"latitude":" 38.53878","longitude":"-91.00091","name":" JCPenney","address":" USA-(MO) Washington"},{"latitude":" 27.23200","longitude":"-82.49621","name":" JCPenney","address":" USA-(FL) Sarasota"},{"latitude":" 44.05347","longitude":"-91.68827","name":" JCPenney","address":" USA-(MN) Winona"},{"latitude":" 35.90261","longitude":"-78.94416","name":" JCPenney","address":" USA-(NC) Durham"},{"latitude":" 47.44014","longitude":"-120.32485","name":" JCPenney","address":" USA-(WA) Wenatchee"},{"latitude":" 41.41966","longitude":"-82.67184","name":" JCPenney","address":" USA-(OH) Sandusky"},{"latitude":" 43.47535","longitude":"-83.97544","name":" JCPenney","address":" USA-(MI) Saginaw"},{"latitude":" 43.48216","longitude":"-111.98853","name":" JCPenney","address":" USA-(ID) Idaho Falls"},{"latitude":" 36.41082","longitude":"-89.07934","name":" JCPenney","address":" USA-(TN) Union City"},{"latitude":" 39.47293","longitude":"-119.78601","name":" JCPenney","address":" USA-(NV) Reno"},{"latitude":" 41.11442","longitude":"-81.47127","name":" JCPenney","address":" USA-(OH) Akron"},{"latitude":" 44.78339","longitude":"-88.58645","name":" JCPenney","address":" USA-(WI) Shawano"},{"latitude":" 36.95793","longitude":"-84.07073","name":" JCPenney","address":" USA-(KY) Corbin"},{"latitude":" 35.61510","longitude":"-120.68380","name":" JCPenney","address":" USA-(CA) Paso Robles"},{"latitude":" 32.87966","longitude":"-111.68392","name":" JCPenney","address":" USA-(AZ) Casa Grande"},{"latitude":" 34.44999","longitude":"-93.08048","name":" JCPenney","address":" USA-(AR) Hot Springs National Park"},{"latitude":" 41.65521","longitude":"-81.35942","name":" JCPenney","address":" USA-(OH) Mentor"},{"latitude":" 34.50468","longitude":"-114.34946","name":" JCPenney","address":" USA-(AZ) Lake Havasu City"},{"latitude":" 45.01477","longitude":"-93.17335","name":" JCPenney","address":" USA-(MN) Roseville"},{"latitude":" 25.78778","longitude":"-80.36787","name":" JCPenney","address":" USA-(FL) Miami"},{"latitude":" 41.09962","longitude":"-80.77337","name":" JCPenney","address":" USA-(OH) Youngstown"},{"latitude":" 35.59778","longitude":"-87.05655","name":" JCPenney","address":" USA-(TN) Columbia"},{"latitude":" 41.69683","longitude":"-83.63824","name":" JCPenney","address":" USA-(OH) Toledo"},{"latitude":" 39.99091","longitude":"-85.93010","name":" JCPenney","address":" USA-(IN) Noblesville"},{"latitude":" 40.66360","longitude":"-80.58957","name":" JCPenney","address":" USA-(OH) East Liverpool"},{"latitude":" 36.01224","longitude":"-84.25358","name":" JCPenney","address":" USA-(TN) Oak Ridge"},{"latitude":" 34.41750","longitude":"-118.55654","name":" JCPenney","address":" USA-(CA) Santa Clarita"},{"latitude":" 39.22310","longitude":"-85.90152","name":" JCPenney","address":" USA-(IN) Columbus"},{"latitude":" 41.50088","longitude":"-87.73010","name":" JCPenney","address":" USA-(IL) Matteson"},{"latitude":" 42.69915","longitude":"-87.85361","name":" JCPenney","address":" USA-(WI) Racine"},{"latitude":" 41.30302","longitude":"-84.36092","name":" JCPenney","address":" USA-(OH) Defiance"},{"latitude":" 41.84438","longitude":"-87.81005","name":" JCPenney","address":" USA-(IL) North Riverside"},{"latitude":" 32.46357","longitude":"-86.40307","name":" JCPenney","address":" USA-(AL) Prattville"},{"latitude":" 30.85459","longitude":"-83.94600","name":" JCPenney","address":" USA-(GA) Thomasville"},{"latitude":" 39.93582","longitude":"-91.36304","name":" JCPenney","address":" USA-(IL) Quincy"},{"latitude":" 30.41545","longitude":"-86.65478","name":" JCPenney","address":" USA-(FL) Mary Esther"},{"latitude":" 28.06698","longitude":"-82.57711","name":" JCPenney","address":" USA-(FL) Tampa"},{"latitude":" 36.58840","longitude":"-87.29002","name":" JCPenney","address":" USA-(TN) Clarksville"},{"latitude":" 32.62893","longitude":"-117.08859","name":" JCPenney","address":" USA-(CA) Chula Vista"},{"latitude":" 37.67705","longitude":"-77.45672","name":" JCPenney","address":" USA-(VA) Glen Allen"},{"latitude":" 43.19200","longitude":"-88.13895","name":" JCPenney","address":" USA-(WI) Menomonee Falls N96w18515 County Line Road"},{"latitude":" 41.75601","longitude":"-111.83434","name":" JCPenney","address":" USA-(UT) Logan"},{"latitude":" 39.45266","longitude":"-74.64492","name":" JCPenney","address":" USA-(NJ) Mays Landing"},{"latitude":" 35.27057","longitude":"-77.60811","name":" JCPenney","address":" USA-(NC) Kinston"},{"latitude":" 38.31097","longitude":"-76.53312","name":" JCPenney","address":" USA-(MD) California"},{"latitude":" 34.85251","longitude":"-82.33254","name":" JCPenney","address":" USA-(SC) Greenville"},{"latitude":" 38.48469","longitude":"-82.65178","name":" JCPenney","address":" USA-(KY) Ashland"},{"latitude":" 35.10305","longitude":"-114.59740","name":" JCPenney","address":" USA-(AZ) Bullhead City"},{"latitude":" 33.43198","longitude":"-111.90923","name":" JCPenney","address":" USA-(AZ) Tempe"},{"latitude":" 36.39060","longitude":"-97.93041","name":" JCPenney","address":" USA-(OK) Enid"},{"latitude":" 41.60030","longitude":"-87.55655","name":" JCPenney","address":" USA-(IL) Calumet City"},{"latitude":" 43.51307","longitude":"-96.77369","name":" JCPenney","address":" USA-(SD) Sioux Falls"},{"latitude":" 39.30067","longitude":"-81.54830","name":" JCPenney","address":" USA-(WV) Vienna"},{"latitude":" 32.56550","longitude":"-97.31937","name":" JCPenney","address":" USA-(TX) Burleson"},{"latitude":" 45.10416","longitude":"-93.45480","name":" JCPenney","address":" USA-(MN) Maple Grove"},{"latitude":" 47.91370","longitude":"-122.08605","name":" JCPenney","address":" USA-(WA) Snohomish"},{"latitude":" 28.01608","longitude":"-82.73058","name":" JCPenney","address":" USA-(FL) Clearwater"},{"latitude":" 40.67434","longitude":"-80.31205","name":" JCPenney","address":" USA-(PA) Monaca"},{"latitude":" 41.38055","longitude":"-81.74433","name":" JCPenney","address":" USA-(OH) Parma"},{"latitude":" 37.32565","longitude":"-122.01299","name":" JCPenney","address":" USA-(CA) Cupertino"},{"latitude":" 41.59818","longitude":"-93.75185","name":" JCPenney","address":" USA-(IA) West Des Moines"},{"latitude":" 26.20141","longitude":"-98.23491","name":" JCPenney","address":" USA-(TX) McAllen"},{"latitude":" 37.98141","longitude":"-87.49373","name":" JCPenney","address":" USA-(IN) Evansville"},{"latitude":" 40.14851","longitude":"-82.98421","name":" JCPenney","address":" USA-(OH) Columbus"},{"latitude":" 44.70270","longitude":"-73.49482","name":" JCPenney","address":" USA-(NY) Plattsburgh"},{"latitude":" 42.98107","longitude":"-83.76571","name":" JCPenney","address":" USA-(MI) Flint"},{"latitude":" 29.63397","longitude":"-90.75816","name":" JCPenney","address":" USA-(LA) Houma"},{"latitude":" 43.12838","longitude":"-95.16066","name":" JCPenney","address":" USA-(IA) Spencer"},{"latitude":" 44.10280","longitude":"-121.29915","name":" JCPenney","address":" USA-(OR) Bend"},{"latitude":" 29.35657","longitude":"-98.53110","name":" JCPenney","address":" USA-(TX) San Antonio"},{"latitude":" 43.14999","longitude":"-93.19953","name":" JCPenney","address":" USA-(IA) Mason City"},{"latitude":" 44.46546","longitude":"-73.18120","name":" JCPenney","address":" USA-(VT) South Burlington"},{"latitude":" 40.46794","longitude":"-78.40736","name":" JCPenney","address":" USA-(PA) Altoona"},{"latitude":" 40.33517","longitude":"-83.76172","name":" JCPenney","address":" USA-(OH) Bellefontaine"},{"latitude":" 44.46999","longitude":"-71.18046","name":" JCPenney","address":" USA-(NH) Berlin"},{"latitude":" 42.97432","longitude":"-78.69673","name":" JCPenney","address":" USA-(NY) Williamsville"},{"latitude":" 33.44663","longitude":"-88.84326","name":" JCPenney","address":" USA-(MS) Starkville"},{"latitude":" 36.81458","longitude":"-76.06787","name":" JCPenney","address":" USA-(VA) Virginia Beach"},{"latitude":" 43.03080","longitude":"-77.44924","name":" JCPenney","address":" USA-(NY) Victor"},{"latitude":" 41.52105","longitude":"-93.60578","name":" JCPenney","address":" USA-(IA) Des Moines"},{"latitude":" 38.84092","longitude":"-104.76144","name":" JCPenney","address":" USA-(CO) Colorado Springs"},{"latitude":" 36.72643","longitude":"-97.06717","name":" JCPenney","address":" USA-(OK) Ponca City"},{"latitude":" 39.98777","longitude":"-76.67477","name":" JCPenney","address":" USA-(PA) York"},{"latitude":" 40.77177","longitude":"-82.59171","name":" JCPenney","address":" USA-(OH) Mansfield"},{"latitude":" 38.30441","longitude":"-104.60653","name":" JCPenney","address":" USA-(CO) Pueblo"},{"latitude":" 40.55804","longitude":"-74.29642","name":" JCPenney","address":" USA-(NJ) Woodbridge"},{"latitude":" 44.46112","longitude":"-72.01547","name":" JCPenney","address":" USA-(VT) St. Johnsbury"},{"latitude":" 29.64958","longitude":"-95.16449","name":" JCPenney","address":" USA-(TX) Pasedena"},{"latitude":" 40.22033","longitude":"-85.37341","name":" JCPenney","address":" USA-(IN) Muncie"},{"latitude":" 29.88729","longitude":"-97.92194","name":" JCPenney","address":" USA-(TX) San Marcos"},{"latitude":" 34.64900","longitude":"-99.33391","name":" JCPenney","address":" USA-(OK) Altus"},{"latitude":" 41.43928","longitude":"-97.32744","name":" JCPenney","address":" USA-(NE) Columbus"},{"latitude":" 40.89311","longitude":"-85.50567","name":" JCPenney","address":" USA-(IN) Huntington"},{"latitude":" 35.70230","longitude":"-81.30771","name":" JCPenney","address":" USA-(NC) Hickory"},{"latitude":" 38.67440","longitude":"-121.26582","name":" JCPenney","address":" USA-(CA) Citrus Heights"},{"latitude":" 37.25827","longitude":"-76.63845","name":" JCPenney","address":" USA-(VA) Williamsburg"},{"latitude":" 44.89008","longitude":"-97.09644","name":" JCPenney","address":" USA-(SD) Watertown"},{"latitude":" 37.05674","longitude":"-120.86978","name":" JCPenney","address":" USA-(CA) Los Banos"},{"latitude":" 34.94176","longitude":"-80.96420","name":" JCPenney","address":" USA-(SC) Rock Hill"},{"latitude":" 38.25995","longitude":"-122.05080","name":" JCPenney","address":" USA-(CA) Fairfield"},{"latitude":" 40.03290","longitude":"-75.62643","name":" JCPenney","address":" USA-(PA) Exton"},{"latitude":" 35.83593","longitude":"-78.64529","name":" JCPenney","address":" USA-(NC) Raleigh"},{"latitude":" 39.70966","longitude":"-104.82575","name":" JCPenney","address":" USA-(CO) Aurora"},{"latitude":" 34.92741","longitude":"-95.74358","name":" JCPenney","address":" USA-(OK) McAlester"},{"latitude":" 32.31231","longitude":"-106.74243","name":" JCPenney","address":" USA-(NM) Las Cruces"},{"latitude":" 33.85152","longitude":"-84.25335","name":" JCPenney","address":" USA-(GA) Atlanta"},{"latitude":" 41.69309","longitude":"-91.60298","name":" JCPenney","address":" USA-(IA) Coralville"},{"latitude":" 41.62233","longitude":"-87.84564","name":" JCPenney","address":" USA-(IL) Orland Park"},{"latitude":" 31.42602","longitude":"-100.49626","name":" JCPenney","address":" USA-(TX) San Angelo"},{"latitude":" 42.93359","longitude":"-72.29456","name":" JCPenney","address":" USA-(NH) Keene"},{"latitude":" 47.04169","longitude":"-122.93543","name":" JCPenney","address":" USA-(WA) Olympia"},{"latitude":" 40.42712","longitude":"-79.79678","name":" JCPenney","address":" USA-(PA) Monroeville"},{"latitude":" 37.75826","longitude":"-121.46227","name":" JCPenney","address":" USA-(CA) Tracy"},{"latitude":" 35.77068","longitude":"-119.24602","name":" JCPenney","address":" USA-(CA) Delano"},{"latitude":" 31.89423","longitude":"-102.34259","name":" JCPenney","address":" USA-(TX) Odessa"},{"latitude":" 40.58657","longitude":"-122.35735","name":" JCPenney","address":" USA-(CA) Redding"},{"latitude":" 41.21774","longitude":"-80.74812","name":" JCPenney","address":" USA-(OH) Niles"},{"latitude":" 30.45596","longitude":"-91.08909","name":" JCPenney","address":" USA-(LA) Baton Rouge"},{"latitude":" 40.15233","longitude":"-105.13208","name":" JCPenney","address":" USA-(CO) Longmont"},{"latitude":" 36.29432","longitude":"-76.24137","name":" JCPenney","address":" USA-(NC) Elizabeth City"},{"latitude":" 42.81391","longitude":"-86.08727","name":" JCPenney","address":" USA-(MI) Holland"},{"latitude":" 41.72435","longitude":"-71.47815","name":" JCPenney","address":" USA-(RI) Warwick"},{"latitude":" 41.70185","longitude":"-122.64586","name":" JCPenney","address":" USA-(CA) Yreka"},{"latitude":" 44.88323","longitude":"-93.32675","name":" JCPenney","address":" USA-(MN) Edina"},{"latitude":" 33.42408","longitude":"-84.18473","name":" JCPenney","address":" USA-(GA) McDonough"},{"latitude":" 37.52312","longitude":"-82.57165","name":" JCPenney","address":" USA-(KY) Pikeville"},{"latitude":" 32.15816","longitude":"-110.99069","name":" JCPenney","address":" USA-(AZ) Tuscon"},{"latitude":" 42.53088","longitude":"-71.74062","name":" JCPenney","address":" USA-(MA) Leominster"},{"latitude":" 40.68292","longitude":"-73.43658","name":" JCPenney","address":" USA-(NY) Massapequa"},{"latitude":" 44.67705","longitude":"-90.16372","name":" JCPenney","address":" USA-(WI) Marshfield"},{"latitude":" 41.23346","longitude":"-80.44780","name":" JCPenney","address":" USA-(PA) Hermitage"},{"latitude":" 44.12281","longitude":"-70.22522","name":" JCPenney","address":" USA-(ME) Auburn"},{"latitude":" 36.12610","longitude":"-94.14972","name":" JCPenney","address":" USA-(AR) Fayetteville"},{"latitude":" 39.59955","longitude":"-110.80941","name":" JCPenney","address":" USA-(UT) Price"},{"latitude":" 43.72643","longitude":"-98.02572","name":" JCPenney","address":" USA-(SD) Mitchell"},{"latitude":" 48.41928","longitude":"-119.50759","name":" JCPenney","address":" USA-(WA) Omak"},{"latitude":" 29.96895","longitude":"-95.69123","name":" JCPenney","address":" USA-(TX) Cypress"},{"latitude":" 34.21028","longitude":"-82.18057","name":" JCPenney","address":" USA-(SC) Greenwood"},{"latitude":" 39.76991","longitude":"-84.05603","name":" JCPenney","address":" USA-(OH) Dayton"},{"latitude":" 32.22545","longitude":"-110.91759","name":" JCPenney","address":" USA-(AZ) Tuscon"},{"latitude":" 43.62972","longitude":"-72.32182","name":" JCPenney","address":" USA-(NH) West Lebanon"},{"latitude":" 33.53976","longitude":"-101.92252","name":" JCPenney","address":" USA-(TX) Lubbock"},{"latitude":" 42.09911","longitude":"-79.30297","name":" JCPenney","address":" USA-(NY) Lakewood"},{"latitude":" 41.37739","longitude":"-72.14646","name":" JCPenney","address":" USA-(CT) Waterford"},{"latitude":" 36.06878","longitude":"-80.29872","name":" JCPenney","address":" USA-(NC) Winston-Salem"},{"latitude":" 41.50346","longitude":"-87.88973","name":" JCPenney","address":" USA-(IL) Mokena"},{"latitude":" 39.56526","longitude":"-104.87651","name":" JCPenney","address":" USA-(CO) Lone Tree"},{"latitude":" 45.86273","longitude":"-95.38270","name":" JCPenney","address":" USA-(MN) Alexandria"},{"latitude":" 31.75844","longitude":"-106.48600","name":" JCPenney","address":" USA-(TX) El Paso"},{"latitude":" 40.23260","longitude":"-75.24393","name":" JCPenney","address":" USA-(PA) North Wales"},{"latitude":" 45.98003","longitude":"-112.50806","name":" JCPenney","address":" USA-(MT) Butte"},{"latitude":" 41.84059","longitude":"-88.00326","name":" JCPenney","address":" USA-(IL) Lombard"},{"latitude":" 39.21287","longitude":"-76.86020","name":" JCPenney","address":" USA-(MD) Columbia"},{"latitude":" 44.81529","longitude":"-73.08261","name":" JCPenney","address":" USA-(VT) St. Albans"},{"latitude":" 39.14186","longitude":"-121.63187","name":" JCPenney","address":" USA-(CA) Yuba City"},{"latitude":" 25.57725","longitude":"-80.37076","name":" JCPenney","address":" USA-(FL) Miami"},{"latitude":" 42.64357","longitude":"-83.33317","name":" JCPenney","address":" USA-(MI) Waterford"},{"latitude":" 37.72075","longitude":"-87.12453","name":" JCPenney","address":" USA-(KY) Owensboro"},{"latitude":" 40.79525","longitude":"-81.42503","name":" JCPenney","address":" USA-(OH) Canton"},{"latitude":" 40.75726","longitude":"-86.31448","name":" JCPenney","address":" USA-(IN) Logansport"},{"latitude":" 27.93428","longitude":"-82.32445","name":" JCPenney","address":" USA-(FL) Brandon"},{"latitude":" 40.45864","longitude":"-90.63897","name":" JCPenney","address":" USA-(IL) Macomb"},{"latitude":" 41.76918","longitude":"-76.42367","name":" JCPenney","address":" USA-(PA) Towanda R R"},{"latitude":" 34.54768","longitude":"-112.41224","name":" JCPenney","address":" USA-(AZ) Prescott"},{"latitude":" 39.20159","longitude":"-121.06350","name":" JCPenney","address":" USA-(CA) Grass Valley"},{"latitude":" 43.09952","longitude":"-73.73945","name":" JCPenney","address":" USA-(NY) Saratoga Springs"},{"latitude":" 38.48264","longitude":"-77.97452","name":" JCPenney","address":" USA-(VA) Culpepper"},{"latitude":" 37.96345","longitude":"-121.73682","name":" JCPenney","address":" USA-(CA) Antioch"},{"latitude":" 41.17232","longitude":"-87.84913","name":" JCPenney","address":" USA-(IL) Bourbonnais"},{"latitude":" 29.59103","longitude":"-95.62751","name":" JCPenney","address":" USA-(TX) Sugar Land"},{"latitude":" 35.38529","longitude":"-96.92768","name":" JCPenney","address":" USA-(OK) Shawnee"},{"latitude":" 39.73411","longitude":"-82.62955","name":" JCPenney","address":" USA-(OH) Lancaster"},{"latitude":" 39.94182","longitude":"-75.02852","name":" JCPenney","address":" USA-(NJ) Cherry Hill"},{"latitude":" 35.53223","longitude":"-108.76042","name":" JCPenney","address":" USA-(NM) Gallup"},{"latitude":" 44.26753","longitude":"-88.47414","name":" JCPenney","address":" USA-(WI) Appleton"},{"latitude":" 40.57133","longitude":"-79.79990","name":" JCPenney","address":" USA-(PA) Tarentum"},{"latitude":" 30.43858","longitude":"-81.69927","name":" JCPenney","address":" USA-(FL) Jacksonville"},{"latitude":" 32.94411","longitude":"-80.04173","name":" JCPenney","address":" USA-(SC) N. Charleston"},{"latitude":" 41.41457","longitude":"-81.90610","name":" JCPenney","address":" USA-(OH) N. Olmsted"},{"latitude":" 37.73003","longitude":"-89.19305","name":" JCPenney","address":" USA-(IL) Carbondale"},{"latitude":" 40.48793","longitude":"-88.95680","name":" JCPenney","address":" USA-(IL) Bloomington"},{"latitude":" 42.14561","longitude":"-70.84378","name":" JCPenney","address":" USA-(MA) Hanover"},{"latitude":" 33.66126","longitude":"-95.51117","name":" JCPenney","address":" USA-(TX) Paris"},{"latitude":" 34.18326","longitude":"-86.84879","name":" JCPenney","address":" USA-(AL) Cullman"},{"latitude":" 28.91124","longitude":"-82.60145","name":" JCPenney","address":" USA-(FL) Crystal River"},{"latitude":" 37.16121","longitude":"-93.26586","name":" JCPenney","address":" USA-(MO) Springfield"},{"latitude":" 32.43843","longitude":"-81.76252","name":" JCPenney","address":" USA-(GA) Statesboro"},{"latitude":" 31.21951","longitude":"-81.49134","name":" JCPenney","address":" USA-(GA) Brunswick One Mall Blvd"},{"latitude":" 41.63991","longitude":"-70.99136","name":" JCPenney","address":" USA-(MA) North Dartmouth"},{"latitude":" 36.83441","longitude":"-87.47411","name":" JCPenney","address":" USA-(KY) Hopkinsville"},{"latitude":" 29.77857","longitude":"-95.53995","name":" JCPenney","address":" USA-(TX) Houston"},{"latitude":" 35.43530","longitude":"-97.39811","name":" JCPenney","address":" USA-(OK) Midwest City"},{"latitude":" 43.32831","longitude":"-73.67926","name":" JCPenney","address":" USA-(NY) Queenbury"},{"latitude":" 41.46600","longitude":"-87.31251","name":" JCPenney","address":" USA-(IN) Merrillville"},{"latitude":" 48.63552","longitude":"-112.33078","name":" JCPenney","address":" USA-(MT) Cut Bank"},{"latitude":" 35.92703","longitude":"-89.87482","name":" JCPenney","address":" USA-(AR) Blytheville"},{"latitude":" 30.44346","longitude":"-90.14308","name":" JCPenney","address":" USA-(LA) Covington"},{"latitude":" 32.76643","longitude":"-117.16908","name":" JCPenney","address":" USA-(CA) San Diego"},{"latitude":" 45.60174","longitude":"-121.18281","name":" JCPenney","address":" USA-(OR) The Dalles"},{"latitude":" 43.78444","longitude":"-88.47558","name":" JCPenney","address":" USA-(WI) Fond Du Lac"},{"latitude":" 41.11286","longitude":"-85.13658","name":" JCPenney","address":" USA-(IN) Fort Wayne"},{"latitude":" 37.22956","longitude":"-79.97628","name":" JCPenney","address":" USA-(VA) Roanoke"},{"latitude":" 41.01621","longitude":"-92.43846","name":" JCPenney","address":" USA-(IA) Ottumwa"},{"latitude":" 32.50850","longitude":"-84.93900","name":" JCPenney","address":" USA-(GA) Columbus"},{"latitude":" 38.45638","longitude":"-122.72821","name":" JCPenney","address":" USA-(CA) Santa Rosa"},{"latitude":" 39.91399","longitude":"-75.43345","name":" JCPenney","address":" USA-(PA) Media"},{"latitude":" 42.16507","longitude":"-88.33540","name":" JCPenney","address":" USA-(IL) Algonquin"},{"latitude":" 42.70195","longitude":"-71.43971","name":" JCPenney","address":" USA-(NH) Nashua"},{"latitude":" 31.62095","longitude":"-84.21976","name":" JCPenney","address":" USA-(GA) Albany"},{"latitude":" 44.02034","longitude":"-71.11397","name":" JCPenney","address":" USA-(NH) North Conway State Hwy"},{"latitude":" 35.37852","longitude":"-86.22655","name":" JCPenney","address":" USA-(TN) Tullahoma"},{"latitude":" 34.02027","longitude":"-84.56617","name":" JCPenney","address":" USA-(GA) Kennesaw"},{"latitude":" 33.94811","longitude":"-80.37366","name":" JCPenney","address":" USA-(SC) Sumpter"},{"latitude":" 40.72788","longitude":"-74.03865","name":" JCPenney","address":" USA-(NJ) Jersey City"},{"latitude":" 41.44610","longitude":"-91.03031","name":" JCPenney","address":" USA-(IA) Muscatine"},{"latitude":" 38.07502","longitude":"-78.47601","name":" JCPenney","address":" USA-(VA) Charlottesville"},{"latitude":" 30.43548","longitude":"-84.25625","name":" JCPenney","address":" USA-(FL) Tallahassee"},{"latitude":" 33.94352","longitude":"-117.99404","name":" JCPenney","address":" USA-(CA) Whittier"},{"latitude":" 30.04361","longitude":"-99.14492","name":" JCPenney","address":" USA-(TX) Kerrville"},{"latitude":" 38.17560","longitude":"-84.89634","name":" JCPenney","address":" USA-(KY) Frankfort"},{"latitude":" 33.37510","longitude":"-91.03975","name":" JCPenney","address":" USA-(MS) Greenville"},{"latitude":" 39.98044","longitude":"-74.18099","name":" JCPenney","address":" USA-(NJ) Toms River"},{"latitude":" 27.95624","longitude":"-81.61623","name":" JCPenney","address":" USA-(FL) Lake Wales"},{"latitude":" 41.22983","longitude":"-96.13237","name":" JCPenney","address":" USA-(NE) Omaha"},{"latitude":" 41.35645","longitude":"-89.13011","name":" JCPenney","address":" USA-(IL) Peru"},{"latitude":" 37.97843","longitude":"-100.84298","name":" JCPenney","address":" USA-(KS) Garden City"},{"latitude":" 37.03363","longitude":"-84.62662","name":" JCPenney","address":" USA-(KY) Somerset"},{"latitude":" 41.80067","longitude":"-73.12911","name":" JCPenney","address":" USA-(CT) Torrington"},{"latitude":" 39.14036","longitude":"-76.60380","name":" JCPenney","address":" USA-(MD) Glen Burnie"},{"latitude":" 27.79468","longitude":"-82.73685","name":" JCPenney","address":" USA-(FL) St. Petersburg"},{"latitude":" 41.75561","longitude":"-88.21222","name":" JCPenney","address":" USA-(IL) Aurora"},{"latitude":" 42.08640","longitude":"-86.41993","name":" JCPenney","address":" USA-(MI) Benton Harbor"},{"latitude":" 34.23747","longitude":"-118.55792","name":" JCPenney","address":" USA-(CA) Northridge"},{"latitude":" 33.46914","longitude":"-84.44639","name":" JCPenney","address":" USA-(GA) Fayetteville"},{"latitude":" 41.02300","longitude":"-78.41539","name":" JCPenney","address":" USA-(PA) Clearfield"},{"latitude":" 41.23755","longitude":"-85.81619","name":" JCPenney","address":" USA-(IN) Warsaw"},{"latitude":" 33.94312","longitude":"-83.46482","name":" JCPenney","address":" USA-(GA) Athens"},{"latitude":" 41.87111","longitude":"-103.64801","name":" JCPenney","address":" USA-(NE) Scottsbluff"},{"latitude":" 28.86767","longitude":"-96.99668","name":" JCPenney","address":" USA-(TX) Victoria"},{"latitude":" 30.25567","longitude":"-97.81026","name":" JCPenney","address":" USA-(TX) Austin"},{"latitude":" 47.89218","longitude":"-97.06816","name":" JCPenney","address":" USA-(ND) Grand Forks"},{"latitude":" 30.34551","longitude":"-95.48233","name":" JCPenney","address":" USA-(TX) Conroe"},{"latitude":" 36.44155","longitude":"-77.64229","name":" JCPenney","address":" USA-(NC) Roanoke Rapids"},{"latitude":" 35.04925","longitude":"-89.80413","name":" JCPenney","address":" USA-(TN) Memphis"},{"latitude":" 38.76611","longitude":"-90.76542","name":" JCPenney","address":" USA-(MO) Dardenne Prairie"},{"latitude":" 43.03703","longitude":"-82.45654","name":" JCPenney","address":" USA-(MI) Fort Gratiot"},{"latitude":" 42.08303","longitude":"-78.42990","name":" JCPenney","address":" USA-(NY) Olean"},{"latitude":" 44.11617","longitude":"-87.63674","name":" JCPenney","address":" USA-(WI) Manitowoc"},{"latitude":" 33.00453","longitude":"-96.97317","name":" JCPenney","address":" USA-(TX) Lewisville"},{"latitude":" 48.05001","longitude":"-122.17715","name":" JCPenney","address":" USA-(WA) Marysville"},{"latitude":" 32.71349","longitude":"-103.13718","name":" JCPenney","address":" USA-(NM) Hobbs"},{"latitude":" 40.36777","longitude":"-80.67503","name":" JCPenney","address":" USA-(OH) Steubenville"},{"latitude":" 40.29742","longitude":"-78.83360","name":" JCPenney","address":" USA-(PA) Johnstown"},{"latitude":" 42.16183","longitude":"-76.87351","name":" JCPenney","address":" USA-(NY) Horseheads"},{"latitude":" 41.47096","longitude":"-82.01955","name":" JCPenney","address":" USA-(OH) Avon"},{"latitude":" 38.59868","longitude":"-121.42483","name":" JCPenney","address":" USA-(CA) Sacramento"},{"latitude":" 41.57940","longitude":"-109.26364","name":" JCPenney","address":" USA-(WY) Rock Springs"},{"latitude":" 38.98779","longitude":"-76.54792","name":" JCPenney","address":" USA-(MD) Annapolis"},{"latitude":" 40.03239","longitude":"-82.44454","name":" JCPenney","address":" USA-(OH) Heath"},{"latitude":" 42.50510","longitude":"-83.75371","name":" JCPenney","address":" USA-(MI) Brighton"},{"latitude":" 39.15458","longitude":"-77.20734","name":" JCPenney","address":" USA-(MD) Gaithersburg"},{"latitude":" 39.72736","longitude":"-121.80539","name":" JCPenney","address":" USA-(CA) Chico"},{"latitude":" 41.46035","longitude":"-75.65636","name":" JCPenney","address":" USA-(PA) Scranton Rt"},{"latitude":" 43.12764","longitude":"-89.30563","name":" JCPenney","address":" USA-(WI) Madison"},{"latitude":" 41.23019","longitude":"-73.22931","name":" JCPenney","address":" USA-(CT) Trumbull"},{"latitude":" 42.34206","longitude":"-122.87824","name":" JCPenney","address":" USA-(OR) Medford"},{"latitude":" 35.31595","longitude":"-97.48950","name":" JCPenney","address":" USA-(OK) Moore"},{"latitude":" 42.35604","longitude":"-71.60985","name":" JCPenney","address":" USA-(MA) Marlborough"},{"latitude":" 32.30926","longitude":"-90.88555","name":" JCPenney","address":" USA-(MS) Vicksburg"},{"latitude":" 61.21757","longitude":"-149.89028","name":" JCPenney","address":" USA-(AK) Anchorage"},{"latitude":" 41.71936","longitude":"-86.18779","name":" JCPenney","address":" USA-(IN) Mishawaka"},{"latitude":" 32.54182","longitude":"-82.95367","name":" JCPenney","address":" USA-(GA) Dublin"},{"latitude":" 41.75768","longitude":"-87.73420","name":" JCPenney","address":" USA-(IL) Chicago"},{"latitude":" 39.95597","longitude":"-77.57252","name":" JCPenney","address":" USA-(PA) Chambersburg"},{"latitude":" 38.59597","longitude":"-89.98361","name":" JCPenney","address":" USA-(IL) Fairview Heights"},{"latitude":" 41.23044","longitude":"-95.87912","name":" JCPenney","address":" USA-(IA) Council Bluffs"},{"latitude":" 39.29082","longitude":"-84.30501","name":" JCPenney","address":" USA-(OH) Cincinnati"},{"latitude":" 40.54127","longitude":"-111.87153","name":" JCPenney","address":" USA-(UT) South Jordan"},{"latitude":" 40.06220","longitude":"-80.59577","name":" JCPenney","address":" USA-(WV) Triadelphia"},{"latitude":" 34.18850","longitude":"-97.14316","name":" JCPenney","address":" USA-(OK) Ardmore"},{"latitude":" 35.33451","longitude":"-82.44714","name":" JCPenney","address":" USA-(NC) Hendersonville"},{"latitude":" 39.85742","longitude":"-105.05816","name":" JCPenney","address":" USA-(CO) Westminster"},{"latitude":" 29.95902","longitude":"-95.53552","name":" JCPenney","address":" USA-(TX) Houston"},{"latitude":" 26.72141","longitude":"-80.08777","name":" JCPenney","address":" USA-(FL) West Palm Beach"},{"latitude":" 43.39528","longitude":"-84.66670","name":" JCPenney","address":" USA-(MI) Alma"},{"latitude":" 34.20743","longitude":"-91.97036","name":" JCPenney","address":" USA-(AR) Pine Bluff"},{"latitude":" 42.84424","longitude":"-106.26679","name":" JCPenney","address":" USA-(WY) Casper"},{"latitude":" 48.31100","longitude":"-116.54620","name":" JCPenney","address":" USA-(ID) Sandpoint"},{"latitude":" 44.06946","longitude":"-123.10713","name":" JCPenney","address":" USA-(OR) Eugene"},{"latitude":" 45.55432","longitude":"-94.21375","name":" JCPenney","address":" USA-(MN) St. Cloud"},{"latitude":" 29.46676","longitude":"-98.62160","name":" JCPenney","address":" USA-(TX) San Antonio"},{"latitude":" 37.66672","longitude":"-95.45249","name":" JCPenney","address":" USA-(KS) Chanute"},{"latitude":" 42.36747","longitude":"-88.26774","name":" JCPenney","address":" USA-(IL) Johnsburg"},{"latitude":" 35.03441","longitude":"-85.16224","name":" JCPenney","address":" USA-(TN) Chattanooga"},{"latitude":" 28.44694","longitude":"-81.39981","name":" JCPenney","address":" USA-(FL) Orlando"},{"latitude":" 35.77499","longitude":"-91.64088","name":" JCPenney","address":" USA-(AR) Batesville"},{"latitude":" 35.74745","longitude":"-83.99846","name":" JCPenney","address":" USA-(TN) Maryville"},{"latitude":" 46.22640","longitude":"-119.22387","name":" JCPenney","address":" USA-(WA) Kennewick"},{"latitude":" 29.85944","longitude":"-81.32300","name":" JCPenney","address":" USA-(FL) St. Augustine"},{"latitude":" 42.44844","longitude":"-96.35632","name":" JCPenney","address":" USA-(IA) Sioux City"},{"latitude":" 38.50377","longitude":"-90.45421","name":" JCPenney","address":" USA-(MO) Fenton"},{"latitude":" 28.58455","longitude":"-80.80224","name":" JCPenney","address":" USA-(FL) Titusville"},{"latitude":" 39.78915","longitude":"-89.60585","name":" JCPenney","address":" USA-(IL) Springfield"},{"latitude":" 37.07664","longitude":"-88.68719","name":" JCPenney","address":" USA-(KY) Paducah"},{"latitude":" 34.18634","longitude":"-118.88785","name":" JCPenney","address":" USA-(CA) Thousand Oaks"},{"latitude":" 39.43108","longitude":"-75.04038","name":" JCPenney","address":" USA-(NJ) Vineland"},{"latitude":" 40.93157","longitude":"-98.38087","name":" JCPenney","address":" USA-(NE) Grand Island"},{"latitude":" 43.60606","longitude":"-116.27740","name":" JCPenney","address":" USA-(ID) Boise"},{"latitude":" 34.07117","longitude":"-117.20881","name":" JCPenney","address":" USA-(CA) Redlands"},{"latitude":" 43.86897","longitude":"-91.19955","name":" JCPenney","address":" USA-(WI) La Crosse"},{"latitude":" 38.50643","longitude":"-90.32896","name":" JCPenney","address":" USA-(MO) St. Louis"},{"latitude":" 47.70267","longitude":"-117.40587","name":" JCPenney","address":" USA-(WA) Spokane"},{"latitude":" 34.83813","longitude":"-87.63327","name":" JCPenney","address":" USA-(AL) Florence"},{"latitude":" 34.73968","longitude":"-86.66516","name":" JCPenney","address":" USA-(AL) Huntsville"},{"latitude":" 42.19797","longitude":"-83.25288","name":" JCPenney","address":" USA-(MI) Taylor"},{"latitude":" 40.83030","longitude":"-77.80272","name":" JCPenney","address":" USA-(PA) State College"},{"latitude":" 41.37608","longitude":"-73.48488","name":" JCPenney","address":" USA-(CT) Danbury"},{"latitude":" 33.01319","longitude":"-96.71361","name":" JCPenney","address":" USA-(TX) Plano"},{"latitude":" 33.93696","longitude":"-117.27372","name":" JCPenney","address":" USA-(CA) Moreno Valley"},{"latitude":" 41.45449","longitude":"-74.36757","name":" JCPenney","address":" USA-(NY) Middletown One N Galleria Drive"},{"latitude":" 45.37399","longitude":"-84.95535","name":" JCPenney","address":" USA-(MI) Petoskey"},{"latitude":" 34.92081","longitude":"-79.74799","name":" JCPenney","address":" USA-(NC) Rockingham"},{"latitude":" 29.54092","longitude":"-95.75265","name":" JCPenney","address":" USA-(TX) Rosenberg"},{"latitude":" 43.08600","longitude":"-77.63502","name":" JCPenney","address":" USA-(NY) Rochester"},{"latitude":" 45.65845","longitude":"-122.57905","name":" JCPenney","address":" USA-(WA) Vancouver"},{"latitude":" 41.07788","longitude":"-111.97976","name":" JCPenney","address":" USA-(UT) Layton"},{"latitude":" 26.60043","longitude":"-81.87037","name":" JCPenney","address":" USA-(FL) Fort Myers"},{"latitude":" 33.77790","longitude":"-117.87047","name":" JCPenney","address":" USA-(CA) Santa Ana"},{"latitude":" 38.88435","longitude":"-104.71700","name":" JCPenney","address":" USA-(CO) Colorado Springs"},{"latitude":" 45.19968","longitude":"-93.35044","name":" JCPenney","address":" USA-(MN) Coon Rapids"},{"latitude":" 41.01580","longitude":"-76.48846","name":" JCPenney","address":" USA-(PA) Bloomsburg"},{"latitude":" 40.72311","longitude":"-99.08379","name":" JCPenney","address":" USA-(NE) Kearney"},{"latitude":" 38.70920","longitude":"-93.26710","name":" JCPenney","address":" USA-(MO) Sedalia"},{"latitude":" 45.74753","longitude":"-87.07970","name":" JCPenney","address":" USA-(MI) Escanaba"},{"latitude":" 30.84161","longitude":"-83.31894","name":" JCPenney","address":" USA-(GA) Valdosta"},{"latitude":" 30.30561","longitude":"-89.82577","name":" JCPenney","address":" USA-(LA) Slidell"},{"latitude":" 37.65148","longitude":"-122.09898","name":" JCPenney","address":" USA-(CA) Hayward"},{"latitude":" 26.00891","longitude":"-80.30037","name":" JCPenney","address":" USA-(FL) Pembroke Pines"},{"latitude":" 29.38994","longitude":"-100.90516","name":" JCPenney","address":" USA-(TX) Del Rio"},{"latitude":" 41.45153","longitude":"-96.48350","name":" JCPenney","address":" USA-(NE) Fremont"},{"latitude":" 35.26449","longitude":"-81.14556","name":" JCPenney","address":" USA-(NC) Gastonia"},{"latitude":" 43.65840","longitude":"-84.24506","name":" JCPenney","address":" USA-(MI) Midland"},{"latitude":" 32.49628","longitude":"-92.05960","name":" JCPenney","address":" USA-(LA) Monroe"},{"latitude":" 41.36271","longitude":"-86.32886","name":" JCPenney","address":" USA-(IN) Plymouth"},{"latitude":" 45.63337","longitude":"-89.38268","name":" JCPenney","address":" USA-(WI) Rhinelander"},{"latitude":" 42.99039","longitude":"-78.82064","name":" JCPenney","address":" USA-(NY) Amherst"},{"latitude":" 45.43448","longitude":"-122.57105","name":" JCPenney","address":" USA-(OR) Portland"},{"latitude":" 42.32225","longitude":"-83.47188","name":" JCPenney","address":" USA-(MI) Canton"},{"latitude":" 37.32217","longitude":"-120.48354","name":" JCPenney","address":" USA-(CA) Merced"},{"latitude":" 33.91706","longitude":"-117.88745","name":" JCPenney","address":" USA-(CA) Brea"},{"latitude":" 37.73252","longitude":"-85.88636","name":" JCPenney","address":" USA-(KY) Elizabethtown"},{"latitude":" 41.09658","longitude":"-73.96058","name":" JCPenney","address":" USA-(NY) West Nyack"},{"latitude":" 36.76122","longitude":"-108.15236","name":" JCPenney","address":" USA-(NM) Farmington"},{"latitude":" 46.54956","longitude":"-87.45452","name":" JCPenney","address":" USA-(MI) Marquette"},{"latitude":" 40.91866","longitude":"-74.07805","name":" JCPenney","address":" USA-(NJ) Paramus"},{"latitude":" 39.31338","longitude":"-80.27447","name":" JCPenney","address":" USA-(WV) Bridgeport"},{"latitude":" 46.58982","longitude":"-112.01474","name":" JCPenney","address":" USA-(MT) Helena"},{"latitude":" 32.20587","longitude":"-95.83586","name":" JCPenney","address":" USA-(TX) Athens"},{"latitude":" 33.60007","longitude":"-86.64125","name":" JCPenney","address":" USA-(AL) Trussville"},{"latitude":" 40.82125","longitude":"-91.16997","name":" JCPenney","address":" USA-(IA) West Burlington"},{"latitude":" 34.92466","longitude":"-88.51727","name":" JCPenney","address":" USA-(MS) Corinth"},{"latitude":" 39.82831","longitude":"-75.09578","name":" JCPenney","address":" USA-(NJ) Deptford"},{"latitude":" 33.45657","longitude":"-94.08419","name":" JCPenney","address":" USA-(TX) Texarkana"},{"latitude":" 44.27323","longitude":"-85.40651","name":" JCPenney","address":" USA-(MI) Cadillac"},{"latitude":" 40.32830","longitude":"-94.87396","name":" JCPenney","address":" USA-(MO) Maryville"}]