[{"latitude":" 41.75563","longitude":"-87.74191","name":" Kohl's","address":" USA-United States"},{"latitude":" 38.79193","longitude":"-104.79462","name":" Kohl's","address":" USA-United States"},{"latitude":" 38.37640","longitude":"-121.94776","name":" Kohl's","address":" USA-United States"},{"latitude":" 40.41482","longitude":"-74.15451","name":" Kohl's","address":" USA-United States"},{"latitude":" 40.82658","longitude":"-73.11064","name":" Kohl's","address":" USA-United States"},{"latitude":" 39.03653","longitude":"-95.76430","name":" Kohl's","address":" USA-United States"},{"latitude":" 36.31054","longitude":"-119.31356","name":" Kohl's","address":" USA-United States"},{"latitude":" 43.05214","longitude":"-88.36729","name":" Kohl's","address":" USA-United States"},{"latitude":" 33.79336","longitude":"-118.33146","name":" Kohl's","address":" USA-United States"},{"latitude":" 37.61214","longitude":"-77.35466","name":" Kohl's","address":" USA-United States"},{"latitude":" 41.36226","longitude":"-74.27180","name":" Kohl's","address":" USA-United States"},{"latitude":" 42.99708","longitude":"-88.04728","name":" Kohl's","address":" USA-United States"},{"latitude":" 35.31423","longitude":"-80.74184","name":" Kohl's","address":" USA-United States"},{"latitude":" 42.91960","longitude":"-88.10670","name":" Kohl's","address":" USA-United States"},{"latitude":" 31.72438","longitude":"-106.30306","name":" Kohl's","address":" USA-United States"},{"latitude":" 34.05600","longitude":"-84.37850","name":" Kohl's","address":" USA-United States"},{"latitude":" 32.65146","longitude":"-116.96415","name":" Kohl's","address":" USA-United States"},{"latitude":" 31.49908","longitude":"-97.16404","name":" Kohl's","address":" USA-United States"},{"latitude":" 37.35510","longitude":"-77.41527","name":" Kohl's","address":" USA-United States"},{"latitude":" 35.91790","longitude":"-78.79880","name":" Kohl's","address":" USA-United States"},{"latitude":" 38.47182","longitude":"-77.41117","name":" Kohl's","address":" USA-United States"},{"latitude":" 41.13016","longitude":"-85.01074","name":" Kohl's","address":" USA-United States"},{"latitude":" 41.15681","longitude":"-81.40767","name":" Kohl's","address":" USA-United States"},{"latitude":" 41.28230","longitude":"-72.81097","name":" Kohl's","address":" USA-United States"},{"latitude":" 29.73636","longitude":"-95.58657","name":" Kohl's","address":" USA-United States"},{"latitude":" 38.61961","longitude":"-76.92735","name":" Kohl's","address":" USA-United States"},{"latitude":" 38.76869","longitude":"-77.14115","name":" Kohl's","address":" USA-United States"},{"latitude":" 29.57227","longitude":"-95.57111","name":" Kohl's","address":" USA-United States"},{"latitude":" 41.92143","longitude":"-88.26570","name":" Kohl's","address":" USA-United States"},{"latitude":" 42.13923","longitude":"-87.99158","name":" Kohl's","address":" USA-United States"},{"latitude":" 39.93877","longitude":"-75.02400","name":" Kohl's","address":" USA-United States"},{"latitude":" 32.99966","longitude":"-96.79674","name":" Kohl's","address":" USA-United States"},{"latitude":" 42.02639","longitude":"-88.14441","name":" Kohl's","address":" USA-United States"},{"latitude":" 30.06157","longitude":"-95.43284","name":" Kohl's","address":" USA-United States"},{"latitude":" 41.69573","longitude":"-91.61294","name":" Kohl's","address":" USA-United States"},{"latitude":" 40.21006","longitude":"-75.10597","name":" Kohl's","address":" USA-United States"},{"latitude":" 42.43511","longitude":"-83.43406","name":" Kohl's","address":" USA-United States"},{"latitude":" 40.88658","longitude":"-74.21585","name":" Kohl's","address":" USA-United States"},{"latitude":" 39.24836","longitude":"-94.59390","name":" Kohl's","address":" USA-United States"},{"latitude":" 39.25253","longitude":"-76.81662","name":" Kohl's","address":" USA-United States"},{"latitude":" 36.84456","longitude":"-119.78261","name":" Kohl's","address":" USA-United States"},{"latitude":" 28.31166","longitude":"-81.41589","name":" Kohl's","address":" USA-United States"},{"latitude":" 39.91779","longitude":"-75.33093","name":" Kohl's","address":" USA-United States"},{"latitude":" 38.74536","longitude":"-90.59297","name":" Kohl's","address":" USA-United States"},{"latitude":" 37.50557","longitude":"-77.60545","name":" Kohl's","address":" USA-United States"},{"latitude":" 42.53293","longitude":"-82.93311","name":" Kohl's","address":" USA-United States"},{"latitude":" 42.49150","longitude":"-83.47882","name":" Kohl's","address":" USA-United States"},{"latitude":" 39.39091","longitude":"-84.51021","name":" Kohl's","address":" USA-United States"},{"latitude":" 40.63957","longitude":"-74.41928","name":" Kohl's","address":" USA-United States"},{"latitude":" 42.63641","longitude":"-83.12705","name":" Kohl's","address":" USA-United States"},{"latitude":" 38.80158","longitude":"-77.52701","name":" Kohl's","address":" USA-United States"},{"latitude":" 41.31315","longitude":"-81.51486","name":" Kohl's","address":" USA-United States"},{"latitude":" 42.62034","longitude":"-82.99231","name":" Kohl's","address":" USA-United States"},{"latitude":" 43.12950","longitude":"-88.21048","name":" Kohl's","address":" USA-United States"},{"latitude":" 39.91651","longitude":"-104.94010","name":" Kohl's","address":" USA-United States"},{"latitude":" 41.85936","longitude":"-88.14241","name":" Kohl's","address":" USA-United States"},{"latitude":" 38.50605","longitude":"-90.44700","name":" Kohl's","address":" USA-United States"},{"latitude":" 39.62833","longitude":"-86.11980","name":" Kohl's","address":" USA-United States"},{"latitude":" 41.46847","longitude":"-87.31434","name":" Kohl's","address":" USA-United States"},{"latitude":" 39.00885","longitude":"-94.76633","name":" Kohl's","address":" USA-United States"},{"latitude":" 39.64477","longitude":"-84.11039","name":" Kohl's","address":" USA-United States"},{"latitude":" 36.12112","longitude":"-79.84360","name":" Kohl's","address":" USA-United States"},{"latitude":" 35.10837","longitude":"-80.88151","name":" Kohl's","address":" USA-United States"},{"latitude":" 40.44799","longitude":"-80.16148","name":" Kohl's","address":" USA-United States"},{"latitude":" 35.17556","longitude":"-106.57016","name":" Kohl's","address":" USA-United States"},{"latitude":" 38.79009","longitude":"-121.28592","name":" Kohl's","address":" USA-United States"},{"latitude":" 32.67896","longitude":"-97.00663","name":" Kohl's","address":" USA-United States"},{"latitude":" 35.93330","longitude":"-78.98050","name":" Kohl's","address":" USA-United States"},{"latitude":" 42.56979","longitude":"-87.88707","name":" Kohl's","address":" USA-United States"},{"latitude":" 39.96905","longitude":"-75.29831","name":" Kohl's","address":" USA-United States"},{"latitude":" 29.77206","longitude":"-95.71915","name":" Kohl's","address":" USA-United States"},{"latitude":" 41.43443","longitude":"-73.41030","name":" Kohl's","address":" USA-United States"},{"latitude":" 41.25154","longitude":"-96.02381","name":" Kohl's","address":" USA-United States"},{"latitude":" 32.93981","longitude":"-97.10193","name":" Kohl's","address":" USA-United States"},{"latitude":" 41.59953","longitude":"-87.55932","name":" Kohl's","address":" USA-United States"},{"latitude":" 38.87590","longitude":"-104.72027","name":" Kohl's","address":" USA-United States"},{"latitude":" 40.73918","longitude":"-73.22624","name":" Kohl's","address":" USA-United States"},{"latitude":" 34.07629","longitude":"-117.55848","name":" Kohl's","address":" USA-United States"},{"latitude":" 37.25026","longitude":"-121.85948","name":" Kohl's","address":" USA-United States"},{"latitude":" 40.82659","longitude":"-73.11002","name":" Kohl's","address":" USA-United States"},{"latitude":" 39.69101","longitude":"-86.13631","name":" Kohl's","address":" USA-United States"},{"latitude":" 40.97737","longitude":"-73.83089","name":" Kohl's","address":" USA-United States"},{"latitude":" 40.27071","longitude":"-75.62775","name":" Kohl's","address":" USA-United States"},{"latitude":" 35.46349","longitude":"-80.59309","name":" Kohl's","address":" USA-United States"},{"latitude":" 39.65332","longitude":"-104.77532","name":" Kohl's","address":" USA-United States"},{"latitude":" 38.59440","longitude":"-90.51821","name":" Kohl's","address":" USA-United States"},{"latitude":" 43.13106","longitude":"-89.29969","name":" Kohl's","address":" USA-United States"},{"latitude":" 35.20772","longitude":"-106.65348","name":" Kohl's","address":" USA-United States"},{"latitude":" 33.46101","longitude":"-112.34082","name":" Kohl's","address":" USA-United States"},{"latitude":" 41.41592","longitude":"-73.62860","name":" Kohl's","address":" USA-United States"},{"latitude":" 47.35940","longitude":"-122.11176","name":" Kohl's","address":" USA-United States"},{"latitude":" 39.19756","longitude":"-84.22994","name":" Kohl's","address":" USA-United States"},{"latitude":" 42.64659","longitude":"-83.32645","name":" Kohl's","address":" USA-United States"},{"latitude":" 45.03276","longitude":"-92.83782","name":" Kohl's","address":" USA-United States"},{"latitude":" 38.70356","longitude":"-121.34547","name":" Kohl's","address":" USA-United States"},{"latitude":" 41.30631","longitude":"-73.87751","name":" Kohl's","address":" USA-United States"},{"latitude":" 39.99803","longitude":"-74.80329","name":" Kohl's","address":" USA-United States"},{"latitude":" 35.02403","longitude":"-85.15877","name":" Kohl's","address":" USA-United States"},{"latitude":" 40.06230","longitude":"-75.23755","name":" Kohl's","address":" USA-United States"},{"latitude":" 40.52684","longitude":"-111.88490","name":" Kohl's","address":" USA-United States"},{"latitude":" 30.47993","longitude":"-97.79939","name":" Kohl's","address":" USA-United States"},{"latitude":" 41.82406","longitude":"-72.88484","name":" Kohl's","address":" USA-United States"},{"latitude":" 41.95678","longitude":"-87.80741","name":" Kohl's","address":" USA-United States"},{"latitude":" 42.70943","longitude":"-83.30748","name":" Kohl's","address":" USA-United States"},{"latitude":" 38.43651","longitude":"-90.38001","name":" Kohl's","address":" USA-United States"},{"latitude":" 39.42982","longitude":"-76.62262","name":" Kohl's","address":" USA-United States"},{"latitude":" 35.48437","longitude":"-97.75997","name":" Kohl's","address":" USA-United States"},{"latitude":" 39.76219","longitude":"-75.04822","name":" Kohl's","address":" USA-United States"},{"latitude":" 41.22282","longitude":"-73.71541","name":" Kohl's","address":" USA-United States"},{"latitude":" 33.84693","longitude":"-117.99095","name":" Kohl's","address":" USA-United States"},{"latitude":" 38.67425","longitude":"-90.45052","name":" Kohl's","address":" USA-United States"},{"latitude":" 33.39748","longitude":"-84.74099","name":" Kohl's","address":" USA-United States"},{"latitude":" 35.44217","longitude":"-80.86259","name":" Kohl's","address":" USA-United States"},{"latitude":" 28.12793","longitude":"-82.50956","name":" Kohl's","address":" USA-United States"},{"latitude":" 34.07983","longitude":"-118.15206","name":" Kohl's","address":" USA-United States"},{"latitude":" 38.79853","longitude":"-77.31877","name":" Kohl's","address":" USA-United States"},{"latitude":" 44.75074","longitude":"-93.28770","name":" Kohl's","address":" USA-United States"},{"latitude":" 41.70828","longitude":"-93.58092","name":" Kohl's","address":" USA-United States"},{"latitude":" 39.84409","longitude":"-74.95810","name":" Kohl's","address":" USA-United States"},{"latitude":" 41.50628","longitude":"-72.80955","name":" Kohl's","address":" USA-United States"},{"latitude":" 33.64073","longitude":"-112.02834","name":" Kohl's Trading Post & Pawn","address":" USA-United States"},{"latitude":" 33.47941","longitude":"-84.44474","name":" Kohl's","address":" USA-United States"},{"latitude":" 39.82546","longitude":"-74.92811","name":" Kohl's","address":" USA-United States"},{"latitude":" 33.97534","longitude":"-117.55256","name":" Kohl's","address":" USA-United States"},{"latitude":" 42.88216","longitude":"-85.75742","name":" Kohl's","address":" USA-United States"},{"latitude":" 37.67640","longitude":"-122.45841","name":" Kohl's","address":" USA-United States"},{"latitude":" 38.55722","longitude":"-90.38392","name":" Kohl's","address":" USA-United States"},{"latitude":" 41.92028","longitude":"-87.67084","name":" Kohl's","address":" USA-United States"},{"latitude":" 30.37742","longitude":"-91.05959","name":" Kohl's","address":" USA-United States"},{"latitude":" 41.07189","longitude":"-74.13981","name":" Kohl's","address":" USA-United States"},{"latitude":" 41.27369","longitude":"-72.98755","name":" Kohl's","address":" USA-United States"},{"latitude":" 45.53765","longitude":"-122.90124","name":" Kohl's","address":" USA-United States"},{"latitude":" 34.75534","longitude":"-86.73443","name":" Kohl's","address":" USA-United States"},{"latitude":" 39.87348","longitude":"-84.13745","name":" Kohl's","address":" USA-United States"},{"latitude":" 42.90663","longitude":"-88.13504","name":" Kohl's","address":" USA-United States"},{"latitude":" 40.74048","longitude":"-73.78625","name":" Kohl's","address":" USA-United States"},{"latitude":" 32.27960","longitude":"-90.04575","name":" Kohl's","address":" USA-United States"},{"latitude":" 41.87815","longitude":"-71.06685","name":" Kohl's","address":" USA-United States"},{"latitude":" 41.61739","longitude":"-83.68448","name":" Kohl's","address":" USA-United States"},{"latitude":" 42.20649","longitude":"-88.11188","name":" Kohl's","address":" USA-United States"},{"latitude":" 34.03584","longitude":"-84.68224","name":" Kohl's","address":" USA-United States"},{"latitude":" 41.12908","longitude":"-74.03922","name":" Kohl's","address":" USA-United States"},{"latitude":" 38.34021","longitude":"-85.80011","name":" Kohl's","address":" USA-United States"},{"latitude":" 43.08895","longitude":"-77.63560","name":" Kohl's","address":" USA-United States"},{"latitude":" 36.29323","longitude":"-95.80732","name":" Kohl's","address":" USA-United States"},{"latitude":" 39.61992","longitude":"-86.15867","name":" Kohl's","address":" USA-United States"},{"latitude":" 33.29210","longitude":"-111.75530","name":" Kohl's","address":" USA-United States"},{"latitude":" 42.09880","longitude":"-88.28953","name":" Kohl's","address":" USA-United States"},{"latitude":" 38.92637","longitude":"-94.41087","name":" Kohl's","address":" USA-United States"},{"latitude":" 39.86274","longitude":"-85.97252","name":" Kohl's","address":" USA-United States"},{"latitude":" 32.35432","longitude":"-86.17204","name":" Kohl's","address":" USA-United States"},{"latitude":" 33.82100","longitude":"-117.51808","name":" Kohl's","address":" USA-United States"},{"latitude":" 44.93590","longitude":"-93.38518","name":" Kohl's","address":" USA-United States"},{"latitude":" 39.59697","longitude":"-104.80298","name":" Kohl's","address":" USA-United States"},{"latitude":" 41.89334","longitude":"-87.96233","name":" Kohl's","address":" USA-United States"},{"latitude":" 39.04811","longitude":"-94.35899","name":" Kohl's","address":" USA-United States"},{"latitude":" 38.66286","longitude":"-121.50960","name":" Kohl's","address":" USA-United States"},{"latitude":" 40.91746","longitude":"-74.05898","name":" Kohl's","address":" USA-United States"},{"latitude":" 45.20133","longitude":"-93.35580","name":" Kohl's","address":" USA-United States"},{"latitude":" 34.02996","longitude":"-117.82952","name":" Kohl's","address":" USA-United States"},{"latitude":" 41.95376","longitude":"-83.39774","name":" Kohl's","address":" USA-United States"},{"latitude":" 34.28061","longitude":"-118.86617","name":" Kohl's","address":" USA-United States"},{"latitude":" 40.33864","longitude":"-79.95148","name":" Kohl's","address":" USA-United States"},{"latitude":" 44.07566","longitude":"-123.04251","name":" Kohl's","address":" USA-United States"},{"latitude":" 35.25788","longitude":"-81.11464","name":" Kohl's","address":" USA-United States"},{"latitude":" 39.37373","longitude":"-84.51021","name":" Kohl's","address":" USA-United States"},{"latitude":" 43.11570","longitude":"-88.08449","name":" Kohl's","address":" USA-United States"},{"latitude":" 39.55824","longitude":"-104.90555","name":" Kohl's","address":" USA-United States"},{"latitude":" 44.85974","longitude":"-93.30840","name":" Kohl's","address":" USA-United States"},{"latitude":" 39.07988","longitude":"-104.85742","name":" Kohl's","address":" USA-United States"},{"latitude":" 41.85549","longitude":"-88.34058","name":" Kohl's","address":" USA-United States"},{"latitude":" 37.94585","longitude":"-122.05370","name":" Kohl's","address":" USA-United States"},{"latitude":" 40.87405","longitude":"-74.64846","name":" Kohl's","address":" USA-United States"},{"latitude":" 37.36573","longitude":"-121.84972","name":" Kohl's","address":" USA-United States"},{"latitude":" 40.43268","longitude":"-79.79964","name":" Kohl's","address":" USA-United States"},{"latitude":" 43.18441","longitude":"-76.24792","name":" Kohl's","address":" USA-United States"},{"latitude":" 43.06042","longitude":"-88.06708","name":" Kohl's","address":" USA-United States"},{"latitude":" 42.05554","longitude":"-87.94080","name":" Kohl's","address":" USA-United States"},{"latitude":" 41.50282","longitude":"-87.88607","name":" Kohl's","address":" USA-United States"},{"latitude":" 33.10066","longitude":"-96.73636","name":" Kohl's","address":" USA-United States"},{"latitude":" 41.11825","longitude":"-85.12937","name":" Kohl's","address":" USA-United States"},{"latitude":" 41.17670","longitude":"-73.22816","name":" Kohl's","address":" USA-United States"},{"latitude":" 39.89487","longitude":"-74.93337","name":" Kohl's","address":" USA-United States"},{"latitude":" 38.58933","longitude":"-89.98502","name":" Kohl's","address":" USA-United States"},{"latitude":" 41.07200","longitude":"-85.20144","name":" Kohl's","address":" USA-United States"},{"latitude":" 42.53290","longitude":"-82.91911","name":" Kohl's","address":" USA-United States"},{"latitude":" 40.03169","longitude":"-85.99672","name":" Kohl's","address":" USA-United States"},{"latitude":" 33.55184","longitude":"-112.25781","name":" Kohl's","address":" USA-United States"},{"latitude":" 27.92068","longitude":"-82.32272","name":" Kohl's","address":" USA-United States"},{"latitude":" 30.23381","longitude":"-97.81079","name":" Kohl's","address":" USA-United States"},{"latitude":" 38.08814","longitude":"-85.66652","name":" Kohl's","address":" USA-United States"},{"latitude":" 41.72470","longitude":"-88.34812","name":" Kohl's","address":" USA-United States"},{"latitude":" 41.08079","longitude":"-111.98990","name":" Kohl's","address":" USA-United States"},{"latitude":" 34.13287","longitude":"-117.64316","name":" Kohl's","address":" USA-United States"},{"latitude":" 41.71575","longitude":"-87.77997","name":" Kohl's","address":" USA-United States"},{"latitude":" 40.99279","longitude":"-73.67625","name":" Kohl's","address":" USA-United States"},{"latitude":" 36.02993","longitude":"-115.06303","name":" Kohl's","address":" USA-United States"},{"latitude":" 40.54909","longitude":"-74.42999","name":" Kohl's","address":" USA-United States"},{"latitude":" 37.69895","longitude":"-121.88476","name":" Kohl's","address":" USA-United States"},{"latitude":" 45.03167","longitude":"-93.01828","name":" Kohl's","address":" USA-United States"},{"latitude":" 32.86036","longitude":"-97.18626","name":" Kohl's","address":" USA-United States"},{"latitude":" 29.88207","longitude":"-95.68313","name":" Kohl's","address":" USA-United States"},{"latitude":" 41.99809","longitude":"-72.58380","name":" Kohl's","address":" USA-United States"},{"latitude":" 41.27523","longitude":"-72.83099","name":" Kohl's","address":" USA-United States"},{"latitude":" 33.86706","longitude":"-84.01635","name":" Kohl's","address":" USA-United States"},{"latitude":" 42.18512","longitude":"-71.76385","name":" Kohl's","address":" USA-United States"},{"latitude":" 40.09126","longitude":"-83.09194","name":" Kohl's","address":" USA-United States"},{"latitude":" 38.99611","longitude":"-84.65387","name":" Kohl's Warehouse","address":" USA-United States"},{"latitude":" 40.51458","longitude":"-74.63204","name":" Kohl's","address":" USA-United States"},{"latitude":" 33.63883","longitude":"-112.36205","name":" Kohl's","address":" USA-United States"},{"latitude":" 33.89966","longitude":"-117.55684","name":" Kohl's","address":" USA-United States"},{"latitude":" 40.02724","longitude":"-83.02754","name":" Kohl's","address":" USA-United States"},{"latitude":" 28.91673","longitude":"-81.28279","name":" Kohl's","address":" USA-United States"},{"latitude":" 39.99026","longitude":"-76.67765","name":" Kohl's","address":" USA-United States"},{"latitude":" 39.16032","longitude":"-78.17012","name":" Kohl's","address":" USA-United States"},{"latitude":" 43.09276","longitude":"-87.88758","name":" Kohl's Food Store","address":" USA-United States"},{"latitude":" 40.94485","longitude":"-72.94381","name":" Kohl's","address":" USA-United States"},{"latitude":" 40.38312","longitude":"-111.81194","name":" Kohl's","address":" USA-United States"},{"latitude":" 30.21442","longitude":"-95.45735","name":" Kohl's","address":" USA-United States"},{"latitude":" 32.79079","longitude":"-96.62652","name":" Kohl's","address":" USA-United States"},{"latitude":" 45.03156","longitude":"-93.04569","name":" Kohl's","address":" USA-United States"},{"latitude":" 34.00349","longitude":"-84.29263","name":" Kohl's","address":" USA-United States"},{"latitude":" 39.95331","longitude":"-83.10898","name":" Kohl's","address":" USA-United States"},{"latitude":" 35.84554","longitude":"-86.44199","name":" Kohl's","address":" USA-United States"},{"latitude":" 40.87292","longitude":"-74.54135","name":" Kohl's","address":" USA-United States"},{"latitude":" 29.65003","longitude":"-95.15973","name":" Kohl's","address":" USA-United States"},{"latitude":" 41.56691","longitude":"-88.20022","name":" Kohl's","address":" USA-United States"},{"latitude":" 37.70258","longitude":"-122.12499","name":" Kohl's","address":" USA-United States"},{"latitude":" 39.09727","longitude":"-76.80617","name":" Kohl's","address":" USA-United States"},{"latitude":" 40.30386","longitude":"-74.67621","name":" Kohl's","address":" USA-United States"},{"latitude":" 35.06517","longitude":"-78.96194","name":" Kohl's","address":" USA-United States"},{"latitude":" 39.57786","longitude":"-119.74563","name":" Kohl's","address":" USA-United States"},{"latitude":" 35.09112","longitude":"-92.41446","name":" Kohl's","address":" USA-United States"},{"latitude":" 40.19403","longitude":"-74.64230","name":" Kohl's","address":" USA-United States"},{"latitude":" 32.94769","longitude":"-96.61467","name":" Kohl's","address":" USA-United States"},{"latitude":" 36.03708","longitude":"-115.19816","name":" Kohl's","address":" USA-United States"},{"latitude":" 40.80257","longitude":"-72.86007","name":" Kohl's","address":" USA-United States"},{"latitude":" 41.75095","longitude":"-88.01287","name":" Kohl's","address":" USA-United States"},{"latitude":" 40.06697","longitude":"-76.34008","name":" Kohl's","address":" USA-United States"},{"latitude":" 34.07020","longitude":"-117.20044","name":" Kohl's","address":" USA-United States"},{"latitude":" 32.89602","longitude":"-97.25841","name":" Kohl's","address":" USA-United States"},{"latitude":" 30.35234","longitude":"-95.48465","name":" Kohl's","address":" USA-United States"},{"latitude":" 40.45378","longitude":"-74.39970","name":" Kohl's","address":" USA-United States"},{"latitude":" 37.67306","longitude":"-97.42128","name":" Kohl's","address":" USA-United States"},{"latitude":" 33.64032","longitude":"-117.59456","name":" Kohl's","address":" USA-United States"},{"latitude":" 39.43930","longitude":"-84.35710","name":" Kohl's","address":" USA-United States"},{"latitude":" 41.42712","longitude":"-82.20898","name":" Kohl's","address":" USA-United States"},{"latitude":" 42.98650","longitude":"-83.77244","name":" Kohl's","address":" USA-United States"},{"latitude":" 38.77761","longitude":"-90.69972","name":" Kohl's","address":" USA-United States"},{"latitude":" 37.12566","longitude":"-76.51650","name":" Kohl's","address":" USA-United States"},{"latitude":" 42.97676","longitude":"-87.94868","name":" Kohl's","address":" USA-United States"},{"latitude":" 28.01953","longitude":"-82.73369","name":" Kohl's","address":" USA-United States"},{"latitude":" 43.17519","longitude":"-76.25908","name":" Kohl's","address":" USA-United States"},{"latitude":" 36.06103","longitude":"-95.85484","name":" Kohl's","address":" USA-United States"},{"latitude":" 42.67098","longitude":"-82.83594","name":" Kohl's","address":" USA-United States"},{"latitude":" 42.36697","longitude":"-89.03200","name":" Kohl's","address":" USA-United States"},{"latitude":" 41.83604","longitude":"-88.02596","name":" Kohl's","address":" USA-United States"},{"latitude":" 34.41287","longitude":"-118.55767","name":" Kohl's","address":" USA-United States"},{"latitude":" 39.91596","longitude":"-82.78187","name":" Kohl's","address":" USA-United States"},{"latitude":" 37.67183","longitude":"-121.03582","name":" Kohl's","address":" USA-United States"},{"latitude":" 38.05585","longitude":"-121.37578","name":" Kohl's","address":" USA-United States"},{"latitude":" 37.35216","longitude":"-121.99848","name":" Kohl's","address":" USA-United States"},{"latitude":" 41.67732","longitude":"-72.84396","name":" Kohl's","address":" USA-United States"},{"latitude":" 44.92803","longitude":"-92.96330","name":" Kohl's","address":" USA-United States"},{"latitude":" 36.77239","longitude":"-76.25158","name":" Kohl's","address":" USA-United States"},{"latitude":" 35.38372","longitude":"-119.10567","name":" Kohl's","address":" USA-United States"},{"latitude":" 36.05945","longitude":"-79.90721","name":" Kohl's","address":" USA-United States"},{"latitude":" 38.91643","longitude":"-94.66775","name":" Kohl's","address":" USA-United States"},{"latitude":" 39.99354","longitude":"-86.00814","name":" Kohl's","address":" USA-United States"},{"latitude":" 41.30749","longitude":"-74.14950","name":" Kohl's","address":" USA-United States"},{"latitude":" 34.19146","longitude":"-118.62349","name":" Kohl's","address":" USA-United States"},{"latitude":" 35.30840","longitude":"-119.09244","name":" Kohl's","address":" USA-United States"},{"latitude":" 41.78365","longitude":"-87.85707","name":" Kohl's","address":" USA-United States"},{"latitude":" 33.05650","longitude":"-96.79560","name":" Kohl's","address":" USA-United States"},{"latitude":" 38.27356","longitude":"-122.66585","name":" Kohl's","address":" USA-United States"},{"latitude":" 40.13445","longitude":"-74.22394","name":" Kohl's","address":" USA-United States"},{"latitude":" 33.64596","longitude":"-83.99231","name":" Kohl's","address":" USA-United States"},{"latitude":" 32.54236","longitude":"-84.95356","name":" Kohl's","address":" USA-United States"},{"latitude":" 40.34453","longitude":"-80.04964","name":" Kohl's","address":" USA-United States"},{"latitude":" 35.87761","longitude":"-84.16798","name":" Kohl's","address":" USA-United States"},{"latitude":" 39.95131","longitude":"-86.26221","name":" Kohl's","address":" USA-United States"},{"latitude":" 42.71358","longitude":"-83.03248","name":" Kohl's","address":" USA-United States"},{"latitude":" 42.13273","longitude":"-72.62579","name":" Kohl's","address":" USA-United States"},{"latitude":" 33.46876","longitude":"-117.09606","name":" Kohl's","address":" USA-United States"},{"latitude":" 39.91435","longitude":"-75.43083","name":" Kohl's","address":" USA-United States"},{"latitude":" 41.69524","longitude":"-83.63530","name":" Kohl's","address":" USA-United States"},{"latitude":" 34.28896","longitude":"-118.71755","name":" Kohl's","address":" USA-United States"},{"latitude":" 30.02244","longitude":"-95.26125","name":" Kohl's","address":" USA-United States"},{"latitude":" 42.32232","longitude":"-83.47853","name":" Kohl's","address":" USA-United States"},{"latitude":" 33.13737","longitude":"-96.80409","name":" Kohl's","address":" USA-United States"},{"latitude":" 32.22385","longitude":"-110.82396","name":" Kohl's","address":" USA-United States"},{"latitude":" 33.83216","longitude":"-118.16044","name":" Kohl's","address":" USA-United States"},{"latitude":" 33.91706","longitude":"-117.96395","name":" Kohl's","address":" USA-United States"},{"latitude":" 38.02483","longitude":"-84.41875","name":" Kohl's","address":" USA-United States"},{"latitude":" 40.18706","longitude":"-80.22110","name":" Kohl's","address":" USA-United States"},{"latitude":" 41.81288","longitude":"-72.51193","name":" Kohl's","address":" USA-United States"},{"latitude":" 38.29808","longitude":"-85.55574","name":" Kohl's","address":" USA-United States"},{"latitude":" 41.37554","longitude":"-72.91610","name":" Kohl's","address":" USA-United States"},{"latitude":" 35.75438","longitude":"-78.74155","name":" Kohl's","address":" USA-United States"},{"latitude":" 42.33903","longitude":"-83.38518","name":" Kohl's","address":" USA-United States"},{"latitude":" 32.81518","longitude":"-97.41723","name":" Kohl's","address":" USA-United States"},{"latitude":" 35.18857","longitude":"-101.93796","name":" Kohl's","address":" USA-United States"},{"latitude":" 42.37894","longitude":"-88.07670","name":" Kohl's","address":" USA-United States"},{"latitude":" 41.87033","longitude":"-71.52305","name":" Kohl's","address":" USA-United States"},{"latitude":" 33.98011","longitude":"-84.42404","name":" Kohl's","address":" USA-United States"},{"latitude":" 42.15496","longitude":"-71.20407","name":" Kohl's","address":" USA-United States"},{"latitude":" 40.62707","longitude":"-74.16406","name":" Kohl's","address":" USA-United States"},{"latitude":" 39.81818","longitude":"-75.54953","name":" Kohl's","address":" USA-United States"},{"latitude":" 42.10536","longitude":"-87.81278","name":" Kohl's","address":" USA-United States"},{"latitude":" 42.15498","longitude":"-71.06588","name":" Kohl's","address":" USA-United States"},{"latitude":" 40.06083","longitude":"-82.97391","name":" Kohl's","address":" USA-United States"},{"latitude":" 39.30159","longitude":"-84.52157","name":" Kohl's","address":" USA-United States"},{"latitude":" 39.41930","longitude":"-119.75516","name":" Kohl's","address":" USA-United States"},{"latitude":" 41.37838","longitude":"-81.73493","name":" Kohl's","address":" USA-United States"},{"latitude":" 40.05550","longitude":"-84.23949","name":" Kohl's","address":" USA-United States"},{"latitude":" 39.71647","longitude":"-86.13932","name":" Kohl's","address":" USA-United States"},{"latitude":" 33.50516","longitude":"-101.88486","name":" Kohl's","address":" USA-United States"},{"latitude":" 33.99903","longitude":"-81.21648","name":" Kohl's","address":" USA-United States"},{"latitude":" 39.19491","longitude":"-84.66128","name":" Kohl's","address":" USA-United States"},{"latitude":" 34.11830","longitude":"-117.82916","name":" Kohl's","address":" USA-United States"},{"latitude":" 41.54487","longitude":"-83.59086","name":" Kohl's","address":" USA-United States"},{"latitude":" 39.78664","longitude":"-75.17894","name":" Kohl's","address":" USA-United States"},{"latitude":" 41.46024","longitude":"-81.85137","name":" Kohl's","address":" USA-United States"},{"latitude":" 39.07595","longitude":"-76.54410","name":" Kohl's","address":" USA-United States"},{"latitude":" 33.56610","longitude":"-117.71240","name":" Kohl's","address":" USA-United States"},{"latitude":" 34.82555","longitude":"-92.19230","name":" Kohl's","address":" USA-United States"},{"latitude":" 40.72573","longitude":"-73.50387","name":" Kohl's","address":" USA-United States"},{"latitude":" 35.66763","longitude":"-97.51272","name":" Kohl's","address":" USA-United States"},{"latitude":" 39.91218","longitude":"-105.05317","name":" Kohl's","address":" USA-United States"},{"latitude":" 40.76179","longitude":"-73.31252","name":" Kohl's","address":" USA-United States"},{"latitude":" 41.52565","longitude":"-87.47101","name":" Kohl's","address":" USA-United States"},{"latitude":" 33.69544","longitude":"-117.76310","name":" Kohl's","address":" USA-United States"},{"latitude":" 45.19960","longitude":"-93.55248","name":" Kohl's","address":" USA-United States"},{"latitude":" 42.94843","longitude":"-88.00811","name":" Kohl's","address":" USA-United States"},{"latitude":" 40.00271","longitude":"-86.12283","name":" Kohl's","address":" USA-United States"},{"latitude":" 34.47036","longitude":"-117.34970","name":" Kohl's","address":" USA-United States"},{"latitude":" 32.59478","longitude":"-117.06626","name":" Kohl's","address":" USA-United States"},{"latitude":" 40.19821","longitude":"-74.86672","name":" Kohl's","address":" USA-United States"},{"latitude":" 39.49756","longitude":"-76.32616","name":" Kohl's","address":" USA-United States"},{"latitude":" 29.55558","longitude":"-95.26305","name":" Kohl's","address":" USA-United States"},{"latitude":" 35.69361","longitude":"-78.58141","name":" Kohl's","address":" USA-United States"},{"latitude":" 42.79175","longitude":"-78.78178","name":" Kohl's","address":" USA-United States"},{"latitude":" 35.13622","longitude":"-80.71441","name":" Kohl's","address":" USA-United States"},{"latitude":" 41.98698","longitude":"-88.34089","name":" Kohl's","address":" USA-United States"},{"latitude":" 43.18262","longitude":"-87.96067","name":" Kohl's","address":" USA-United States"},{"latitude":" 33.64023","longitude":"-112.10033","name":" Kohl's","address":" USA-United States"},{"latitude":" 33.17521","longitude":"-117.33075","name":" Kohl's","address":" USA-United States"},{"latitude":" 41.71200","longitude":"-93.58147","name":" Kohl's","address":" USA-United States"},{"latitude":" 41.66694","longitude":"-88.20422","name":" Kohl's","address":" USA-United States"},{"latitude":" 39.94285","longitude":"-83.83542","name":" Kohl's","address":" USA-United States"},{"latitude":" 36.80806","longitude":"-119.85929","name":" Kohl's","address":" USA-United States"},{"latitude":" 41.72015","longitude":"-71.48354","name":" Kohl's","address":" USA-United States"},{"latitude":" 33.28514","longitude":"-111.84160","name":" Kohl's","address":" USA-United States"},{"latitude":" 32.72969","longitude":"-97.78705","name":" Kohl's","address":" USA-United States"},{"latitude":" 26.68186","longitude":"-81.89793","name":" Kohl's","address":" USA-United States"},{"latitude":" 43.14717","longitude":"-86.20608","name":" Kohl's","address":" USA-United States"},{"latitude":" 42.26693","longitude":"-88.99498","name":" Kohl's","address":" USA-United States"},{"latitude":" 40.16193","longitude":"-83.01631","name":" Kohl's","address":" USA-United States"},{"latitude":" 35.05130","longitude":"-89.73266","name":" Kohl's","address":" USA-United States"},{"latitude":" 37.07003","longitude":"-93.55421","name":" Kohl's","address":" USA-United States"},{"latitude":" 45.05880","longitude":"-93.31111","name":" Kohl's","address":" USA-United States"},{"latitude":" 43.30674","longitude":"-87.95958","name":" Kohl's","address":" USA-United States"},{"latitude":" 39.56311","longitude":"-76.96602","name":" Kohl's","address":" USA-United States"},{"latitude":" 33.56303","longitude":"-117.20683","name":" Kohl's","address":" USA-United States"},{"latitude":" 32.68217","longitude":"-97.40724","name":" Kohl's","address":" USA-United States"},{"latitude":" 41.68244","longitude":"-81.29648","name":" Kohl's","address":" USA-United States"},{"latitude":" 40.68572","longitude":"-80.08332","name":" Kohl's","address":" USA-United States"},{"latitude":" 27.54968","longitude":"-99.50883","name":" Kohl's","address":" USA-United States"},{"latitude":" 33.03498","longitude":"-96.70518","name":" Kohl's","address":" USA-United States"},{"latitude":" 41.60063","longitude":"-93.75811","name":" Kohl's","address":" USA-United States"},{"latitude":" 32.59709","longitude":"-96.93788","name":" Kohl's","address":" USA-United States"},{"latitude":" 38.48037","longitude":"-122.73792","name":" Kohl's","address":" USA-United States"},{"latitude":" 36.03521","longitude":"-83.88790","name":" Kohl's","address":" USA-United States"},{"latitude":" 33.73033","longitude":"-117.99246","name":" Kohl's","address":" USA-United States"},{"latitude":" 41.85025","longitude":"-87.80386","name":" Kohl's","address":" USA-United States"},{"latitude":" 37.14189","longitude":"-93.25945","name":" Kohl's","address":" USA-United States"},{"latitude":" 34.08110","longitude":"-84.55560","name":" Kohl's","address":" USA-United States"},{"latitude":" 33.87452","longitude":"-117.73603","name":" Kohl's","address":" USA-United States"},{"latitude":" 40.05631","longitude":"-82.86380","name":" Kohl's","address":" USA-United States"},{"latitude":" 40.77681","longitude":"-73.56720","name":" Kohl's","address":" USA-United States"},{"latitude":" 39.72678","longitude":"-105.18507","name":" Kohl's","address":" USA-United States"},{"latitude":" 33.13463","longitude":"-117.12465","name":" Kohl's","address":" USA-United States"},{"latitude":" 40.24672","longitude":"-77.01306","name":" Kohl's","address":" USA-United States"},{"latitude":" 41.62954","longitude":"-93.69797","name":" Kohl's","address":" USA-United States"},{"latitude":" 41.29233","longitude":"-96.12584","name":" Kohl's","address":" USA-United States"},{"latitude":" 41.64338","longitude":"-88.00128","name":" Kohl's","address":" USA-United States"},{"latitude":" 33.63913","longitude":"-112.17583","name":" Kohl's","address":" USA-United States"},{"latitude":" 41.87533","longitude":"-84.02382","name":" Kohl's","address":" USA-United States"},{"latitude":" 45.52954","longitude":"-122.43077","name":" Kohl's","address":" USA-United States"},{"latitude":" 43.21595","longitude":"-77.73868","name":" Kohl's","address":" USA-United States"},{"latitude":" 40.19245","longitude":"-75.53059","name":" Kohl's","address":" USA-United States"},{"latitude":" 38.94770","longitude":"-76.72168","name":" Kohl's","address":" USA-United States"},{"latitude":" 42.32229","longitude":"-83.47944","name":" Kohl's","address":" USA-United States"},{"latitude":" 40.67802","longitude":"-73.44217","name":" Kohl's","address":" USA-United States"},{"latitude":" 43.40319","longitude":"-88.18128","name":" Kohl's","address":" USA-United States"},{"latitude":" 40.59503","longitude":"-74.00077","name":" Kohl's","address":" USA-United States"},{"latitude":" 41.33215","longitude":"-81.36308","name":" Kohl's","address":" USA-United States"},{"latitude":" 37.15573","longitude":"-76.55880","name":" Kohl's","address":" USA-United States"},{"latitude":" 36.06601","longitude":"-80.31486","name":" Kohl's","address":" USA-United States"},{"latitude":" 38.24807","longitude":"-85.61378","name":" Kohl's","address":" USA-United States"},{"latitude":" 41.35391","longitude":"-81.38634","name":" Kohl's","address":" USA-United States"},{"latitude":" 34.11675","longitude":"-80.88394","name":" Kohl's","address":" USA-United States"},{"latitude":" 40.29771","longitude":"-74.30142","name":" Kohl's","address":" USA-United States"},{"latitude":" 37.41304","longitude":"-121.89768","name":" Kohl's","address":" USA-United States"},{"latitude":" 43.03861","longitude":"-78.82358","name":" Kohl's","address":" USA-United States"},{"latitude":" 42.05049","longitude":"-87.84020","name":" Kohl's","address":" USA-United States"},{"latitude":" 39.19600","longitude":"-84.23384","name":" Kohl's","address":" USA-United States"},{"latitude":" 39.24618","longitude":"-94.45802","name":" Kohl's","address":" USA-United States"},{"latitude":" 34.11277","longitude":"-117.76282","name":" Kohl's","address":" USA-United States"},{"latitude":" 35.43533","longitude":"-97.39527","name":" Kohl's","address":" USA-United States"},{"latitude":" 41.95113","longitude":"-88.72651","name":" Kohl's","address":" USA-United States"},{"latitude":" 42.22633","longitude":"-88.30305","name":" Kohl's","address":" USA-United States"},{"latitude":" 43.21329","longitude":"-77.44678","name":" Kohl's","address":" USA-United States"},{"latitude":" 39.71802","longitude":"-86.35629","name":" Kohl's","address":" USA-United States"},{"latitude":" 41.16335","longitude":"-81.86202","name":" Kohl's","address":" USA-United States"},{"latitude":" 44.83473","longitude":"-92.95942","name":" Kohl's","address":" USA-United States"},{"latitude":" 37.50312","longitude":"-121.96790","name":" Kohl's","address":" USA-United States"},{"latitude":" 39.91921","longitude":"-82.88009","name":" Kohl's","address":" USA-United States"},{"latitude":" 42.87257","longitude":"-78.69681","name":" Kohl's","address":" USA-United States"},{"latitude":" 33.64383","longitude":"-86.62946","name":" Kohl's","address":" USA-United States"},{"latitude":" 40.79042","longitude":"-74.05199","name":" Kohl's","address":" USA-United States"},{"latitude":" 45.61686","longitude":"-122.49766","name":" Kohl's","address":" USA-United States"},{"latitude":" 26.27163","longitude":"-98.21830","name":" Kohl's","address":" USA-United States"},{"latitude":" 43.02120","longitude":"-85.68755","name":" Kohl's","address":" USA-United States"},{"latitude":" 44.73313","longitude":"-93.20317","name":" Kohl's","address":" USA-United States"},{"latitude":" 41.31071","longitude":"-81.82350","name":" Kohl's","address":" USA-United States"},{"latitude":" 34.07237","longitude":"-84.16658","name":" Kohl's","address":" USA-United States"},{"latitude":" 38.81399","longitude":"-94.51868","name":" Kohl's","address":" USA-United States"},{"latitude":" 33.64862","longitude":"-112.09986","name":" Kohl's","address":" USA-United States"},{"latitude":" 39.77163","longitude":"-84.04935","name":" Kohl's","address":" USA-United States"},{"latitude":" 40.50423","longitude":"-74.85026","name":" Kohl's","address":" USA-United States"},{"latitude":" 35.31356","longitude":"-97.49427","name":" Kohl's","address":" USA-United States"},{"latitude":" 38.65602","longitude":"-77.30381","name":" Kohl's","address":" USA-United States"},{"latitude":" 42.29903","longitude":"-71.39378","name":" Kohl's","address":" USA-United States"},{"latitude":" 37.41983","longitude":"-77.63302","name":" Kohl's","address":" USA-United States"},{"latitude":" 39.82508","longitude":"-76.98580","name":" Kohl's","address":" USA-United States"},{"latitude":" 39.92709","longitude":"-86.02203","name":" Kohl's","address":" USA-United States"},{"latitude":" 40.86027","longitude":"-81.43229","name":" Kohl's","address":" USA-United States"},{"latitude":" 43.03458","longitude":"-76.01789","name":" Kohl's","address":" USA-United States"},{"latitude":" 40.81644","longitude":"-96.60628","name":" Kohl's","address":" USA-United States"},{"latitude":" 42.01166","longitude":"-87.71239","name":" Kohl's","address":" USA-United States"},{"latitude":" 43.05426","longitude":"-89.50692","name":" Kohl's","address":" USA-United States"},{"latitude":" 32.74649","longitude":"-116.92757","name":" Kohl's","address":" USA-United States"},{"latitude":" 38.92507","longitude":"-95.25983","name":" Kohl's","address":" USA-United States"},{"latitude":" 32.95021","longitude":"-97.14871","name":" Kohl's","address":" USA-United States"},{"latitude":" 33.86927","longitude":"-118.05981","name":" Kohl's","address":" USA-United States"},{"latitude":" 33.85809","longitude":"-84.61732","name":" Kohl's","address":" USA-United States"},{"latitude":" 41.22671","longitude":"-96.13346","name":" Kohl's","address":" USA-United States"},{"latitude":" 41.17672","longitude":"-96.02226","name":" Kohl's","address":" USA-United States"},{"latitude":" 43.18989","longitude":"-88.13303","name":" Kohl's","address":" USA-United States"},{"latitude":" 33.30516","longitude":"-111.98383","name":" Kohl's","address":" USA-United States"},{"latitude":" 36.02620","longitude":"-95.94943","name":" Kohl's","address":" USA-United States"},{"latitude":" 41.70378","longitude":"-88.11969","name":" Kohl's","address":" USA-United States"},{"latitude":" 37.00117","longitude":"-121.55032","name":" Kohl's","address":" USA-United States"},{"latitude":" 39.05748","longitude":"-76.95513","name":" Kohl's","address":" USA-United States"},{"latitude":" 39.01280","longitude":"-84.64097","name":" Kohl's","address":" USA-United States"},{"latitude":" 30.01070","longitude":"-95.58953","name":" Kohl's","address":" USA-United States"},{"latitude":" 33.95053","longitude":"-84.14632","name":" Kohl's","address":" USA-United States"},{"latitude":" 33.87480","longitude":"-84.69040","name":" Kohl's","address":" USA-United States"},{"latitude":" 35.19148","longitude":"-89.79277","name":" Kohl's","address":" USA-United States"},{"latitude":" 36.84383","longitude":"-76.13384","name":" Kohl's","address":" USA-United States"},{"latitude":" 40.68118","longitude":"-80.30744","name":" Kohl's","address":" USA-United States"},{"latitude":" 29.92320","longitude":"-95.60224","name":" Kohl's","address":" USA-United States"},{"latitude":" 41.67496","longitude":"-72.64842","name":" Kohl's","address":" USA-United States"},{"latitude":" 32.89964","longitude":"-96.45969","name":" Kohl's","address":" USA-United States"},{"latitude":" 33.45176","longitude":"-111.70308","name":" Kohl's","address":" USA-United States"},{"latitude":" 33.99696","longitude":"-117.71565","name":" Kohl's","address":" USA-United States"},{"latitude":" 40.10356","longitude":"-74.94990","name":" Kohl's","address":" USA-United States"},{"latitude":" 42.71904","longitude":"-87.84637","name":" Kohl's","address":" USA-United States"},{"latitude":" 39.10322","longitude":"-84.27898","name":" Kohl's","address":" USA-United States"},{"latitude":" 43.04343","longitude":"-83.32776","name":" Kohl's","address":" USA-United States"},{"latitude":" 39.51077","longitude":"-104.77057","name":" Kohl's","address":" USA-United States"},{"latitude":" 41.61450","longitude":"-87.85151","name":" Kohl's","address":" USA-United States"},{"latitude":" 29.55727","longitude":"-95.15847","name":" Kohl's","address":" USA-United States"},{"latitude":" 43.51044","longitude":"-96.77081","name":" Kohl's","address":" USA-United States"},{"latitude":" 33.41618","longitude":"-86.69702","name":" Kohl's","address":" USA-United States"},{"latitude":" 39.96030","longitude":"-105.16209","name":" Kohl's","address":" USA-United States"},{"latitude":" 45.18292","longitude":"-93.10623","name":" Kohl's","address":" USA-United States"},{"latitude":" 40.72636","longitude":"-74.03622","name":" Kohl's","address":" USA-United States"},{"latitude":" 38.75141","longitude":"-90.42685","name":" Kohl's","address":" USA-United States"},{"latitude":" 41.79273","longitude":"-71.32521","name":" Kohl's","address":" USA-United States"},{"latitude":" 33.97242","longitude":"-83.99315","name":" Kohl's","address":" USA-United States"},{"latitude":" 42.16285","longitude":"-88.33561","name":" Kohl's","address":" USA-United States"},{"latitude":" 41.76084","longitude":"-88.20930","name":" Kohl's","address":" USA-United States"},{"latitude":" 30.42350","longitude":"-97.67116","name":" Kohl's","address":" USA-United States"},{"latitude":" 39.66603","longitude":"-86.08387","name":" Kohl's","address":" USA-United States"},{"latitude":" 35.56148","longitude":"-97.65057","name":" Kohl's","address":" USA-United States"},{"latitude":" 36.15886","longitude":"-115.28344","name":" Kohl's","address":" USA-United States"},{"latitude":" 41.43616","longitude":"-73.40928","name":" Kohl's","address":" USA-United States"},{"latitude":" 40.82874","longitude":"-74.14462","name":" Kohl's","address":" USA-United States"},{"latitude":" 40.10410","longitude":"-82.92084","name":" Kohl's","address":" USA-United States"},{"latitude":" 37.51872","longitude":"-120.88061","name":" Kohl's","address":" USA-United States"},{"latitude":" 44.77393","longitude":"-93.49984","name":" Kohl's","address":" USA-United States"},{"latitude":" 33.55584","longitude":"-117.63023","name":" Kohl's","address":" USA-United States"},{"latitude":" 40.02623","longitude":"-75.63682","name":" Kohl's","address":" USA-United States"},{"latitude":" 39.87240","longitude":"-86.14419","name":" Kohl's","address":" USA-United States"},{"latitude":" 40.25194","longitude":"-75.30102","name":" Kohl's","address":" USA-United States"},{"latitude":" 39.65987","longitude":"-105.08132","name":" Kohl's","address":" USA-United States"},{"latitude":" 40.84567","longitude":"-81.94415","name":" Kohl's","address":" USA-United States"},{"latitude":" 44.83029","longitude":"-93.16429","name":" Kohl's","address":" USA-United States"},{"latitude":" 37.87270","longitude":"-84.47380","name":" Kohl's","address":" USA-United States"},{"latitude":" 28.52318","longitude":"-81.73019","name":" Kohl's","address":" USA-United States"},{"latitude":" 42.91590","longitude":"-85.59235","name":" Kohl's","address":" USA-United States"},{"latitude":" 33.54372","longitude":"-84.28314","name":" Kohl's","address":" USA-United States"},{"latitude":" 40.31733","longitude":"-79.68370","name":" Kohl's","address":" USA-United States"},{"latitude":" 40.32041","longitude":"-76.42442","name":" Kohl's","address":" USA-United States"},{"latitude":" 40.52336","longitude":"-105.06336","name":" Kohl's","address":" USA-United States"},{"latitude":" 35.90712","longitude":"-78.60128","name":" Kohl's","address":" USA-United States"},{"latitude":" 33.67884","longitude":"-111.97713","name":" Kohl's","address":" USA-United States"},{"latitude":" 39.96448","longitude":"-74.21113","name":" Kohl's","address":" USA-United States"},{"latitude":" 43.04619","longitude":"-89.35191","name":" Kohl's","address":" USA-United States"},{"latitude":" 27.68539","longitude":"-97.38307","name":" Kohl's","address":" USA-United States"},{"latitude":" 30.63286","longitude":"-97.69367","name":" Kohl's","address":" USA-United States"},{"latitude":" 42.54298","longitude":"-83.18638","name":" Kohl's","address":" USA-United States"},{"latitude":" 33.82909","longitude":"-117.52500","name":" Kohl's","address":" USA-United States"},{"latitude":" 33.88807","longitude":"-117.32660","name":" Kohl's","address":" USA-United States"},{"latitude":" 43.02819","longitude":"-88.18675","name":" Kohl's","address":" USA-United States"},{"latitude":" 37.96173","longitude":"-121.75402","name":" Kohl's","address":" USA-United States"},{"latitude":" 32.83876","longitude":"-116.99239","name":" Kohl's","address":" USA-United States"},{"latitude":" 39.13881","longitude":"-78.14884","name":" Kohl's","address":" USA-United States"},{"latitude":" 33.76023","longitude":"-117.88601","name":" Kohl's","address":" USA-United States"},{"latitude":" 38.95636","longitude":"-94.72926","name":" Kohl's","address":" USA-United States"},{"latitude":" 42.14851","longitude":"-71.49467","name":" Kohl's","address":" USA-United States"},{"latitude":" 42.36150","longitude":"-88.26701","name":" Kohl's","address":" USA-United States"},{"latitude":" 40.92172","longitude":"-73.05117","name":" Kohl's","address":" USA-United States"},{"latitude":" 41.29470","longitude":"-73.49310","name":" Kohl's","address":" USA-United States"},{"latitude":" 40.94361","longitude":"-74.27164","name":" Kohl's","address":" USA-United States"},{"latitude":" 42.45112","longitude":"-83.34333","name":" Kohl's","address":" USA-United States"},{"latitude":" 33.78335","longitude":"-118.07226","name":" Kohl's","address":" USA-United States"},{"latitude":" 28.55137","longitude":"-81.20460","name":" Kohl's","address":" USA-United States"},{"latitude":" 45.49136","longitude":"-122.79007","name":" Kohl's","address":" USA-United States"},{"latitude":" 33.64199","longitude":"-86.62477","name":" Kohl's","address":" USA-United States"},{"latitude":" 38.13599","longitude":"-122.21358","name":" Kohl's","address":" USA-United States"},{"latitude":" 39.40799","longitude":"-76.94741","name":" Kohl's","address":" USA-United States"},{"latitude":" 40.14578","longitude":"-105.13107","name":" Kohl's","address":" USA-United States"},{"latitude":" 42.14831","longitude":"-71.49343","name":" Kohl's","address":" USA-United States"},{"latitude":" 34.18376","longitude":"-118.92257","name":" Kohl's","address":" USA-United States"},{"latitude":" 39.19875","longitude":"-77.24525","name":" Kohl's","address":" USA-United States"},{"latitude":" 34.26346","longitude":"-119.22442","name":" Kohl's","address":" USA-United States"},{"latitude":" 41.09394","longitude":"-74.00273","name":" Kohl's","address":" USA-United States"},{"latitude":" 29.60656","longitude":"-98.46041","name":" Kohl's","address":" USA-United States"},{"latitude":" 44.79033","longitude":"-93.18471","name":" Kohl's","address":" USA-United States"},{"latitude":" 29.56455","longitude":"-98.32883","name":" Kohl's","address":" USA-United States"},{"latitude":" 44.85172","longitude":"-93.42309","name":" Kohl's","address":" USA-United States"},{"latitude":" 30.48120","longitude":"-97.68917","name":" Kohl's","address":" USA-United States"},{"latitude":" 36.18122","longitude":"-86.64114","name":" Kohl's","address":" USA-United States"},{"latitude":" 42.02785","longitude":"-91.63577","name":" Kohl's","address":" USA-United States"},{"latitude":" 41.53913","longitude":"-81.45412","name":" Kohl's","address":" USA-United States"},{"latitude":" 32.93787","longitude":"-117.04737","name":" Kohl's","address":" USA-United States"},{"latitude":" 42.04996","longitude":"-88.06973","name":" Kohl's","address":" USA-United States"},{"latitude":" 29.55009","longitude":"-98.66371","name":" Kohl's","address":" USA-United States"},{"latitude":" 28.66563","longitude":"-81.42075","name":" Kohl's","address":" USA-United States"},{"latitude":" 36.28083","longitude":"-115.28762","name":" Kohl's","address":" USA-United States"},{"latitude":" 45.10145","longitude":"-93.44974","name":" Kohl's","address":" USA-United States"},{"latitude":" 40.16583","longitude":"-75.28803","name":" Kohl's","address":" USA-United States"},{"latitude":" 40.80041","longitude":"-73.41212","name":" Kohl's","address":" USA-United States"},{"latitude":" 42.38517","longitude":"-87.96415","name":" Kohl's","address":" USA-United States"},{"latitude":" 40.39012","longitude":"-74.09865","name":" Kohl's","address":" USA-United States"},{"latitude":" 33.82190","longitude":"-117.83919","name":" Kohl's","address":" USA-United States"},{"latitude":" 37.52780","longitude":"-121.91828","name":" Kohl's","address":" USA-United States"},{"latitude":" 29.55586","longitude":"-95.37915","name":" Kohl's","address":" USA-United States"},{"latitude":" 41.56915","longitude":"-87.63658","name":" Kohl's","address":" USA-United States"},{"latitude":" 41.48828","longitude":"-87.89001","name":" Kohl's","address":" USA-United States"},{"latitude":" 41.94835","longitude":"-88.73012","name":" Kohl's","address":" USA-United States"},{"latitude":" 33.16871","longitude":"-96.64089","name":" Kohl's","address":" USA-United States"},{"latitude":" 33.88706","longitude":"-84.74177","name":" Kohl's","address":" USA-United States"},{"latitude":" 33.03506","longitude":"-97.06674","name":" Kohl's","address":" USA-United States"},{"latitude":" 33.05703","longitude":"-97.02122","name":" Kohl's","address":" USA-United States"},{"latitude":" 39.35247","longitude":"-84.36127","name":" Kohl's","address":" USA-United States"},{"latitude":" 41.64805","longitude":"-70.98845","name":" Kohl's","address":" USA-United States"},{"latitude":" 36.10805","longitude":"-80.10469","name":" Kohl's","address":" USA-United States"},{"latitude":" 34.60665","longitude":"-118.14746","name":" Kohl's","address":" USA-United States"},{"latitude":" 38.96026","longitude":"-77.40114","name":" Kohl's","address":" USA-United States"},{"latitude":" 34.03856","longitude":"-117.18652","name":" Kohl's","address":" USA-United States"},{"latitude":" 41.15884","longitude":"-87.85118","name":" Kohl's","address":" USA-United States"},{"latitude":" 42.88159","longitude":"-87.91275","name":" Kohl's","address":" USA-United States"},{"latitude":" 37.74801","longitude":"-97.24484","name":" Kohl's","address":" USA-United States"},{"latitude":" 39.81249","longitude":"-105.17564","name":" Kohl's","address":" USA-United States"},{"latitude":" 40.98993","longitude":"-81.49221","name":" Kohl's","address":" USA-United States"},{"latitude":" 32.34829","longitude":"-110.97592","name":" Kohl's","address":" USA-United States"},{"latitude":" 41.27497","longitude":"-72.83074","name":" Kohl's","address":" USA-United States"},{"latitude":" 42.38345","longitude":"-87.95515","name":" Kohl's","address":" USA-United States"},{"latitude":" 40.39573","longitude":"-104.74230","name":" Kohl's","address":" USA-United States"},{"latitude":" 43.08331","longitude":"-88.76127","name":" Kohl's","address":" USA-United States"},{"latitude":" 39.91008","longitude":"-86.10735","name":" Kohl's","address":" USA-United States"},{"latitude":" 33.56454","longitude":"-117.62879","name":" Kohl's","address":" USA-United States"},{"latitude":" 41.09766","longitude":"-73.44510","name":" Kohl's","address":" USA-United States"},{"latitude":" 40.70513","longitude":"-112.02471","name":" Kohl's","address":" USA-United States"},{"latitude":" 40.52696","longitude":"-80.00614","name":" Kohl's","address":" USA-United States"},{"latitude":" 28.39786","longitude":"-81.69459","name":" Kohl's","address":" USA-United States"},{"latitude":" 32.91773","longitude":"-96.95959","name":" Kohl's","address":" USA-United States"},{"latitude":" 38.78981","longitude":"-89.95106","name":" Kohl's","address":" USA-United States"},{"latitude":" 33.37876","longitude":"-111.80833","name":" Kohl's","address":" USA-United States"},{"latitude":" 39.29092","longitude":"-84.30440","name":" Kohl's","address":" USA-United States"},{"latitude":" 39.02767","longitude":"-77.38920","name":" Kohl's","address":" USA-United States"},{"latitude":" 42.71260","longitude":"-89.00127","name":" Kohl's","address":" USA-United States"},{"latitude":" 42.58522","longitude":"-83.86229","name":" Kohl's","address":" USA-United States"},{"latitude":" 33.72343","longitude":"-84.73405","name":" Kohl's","address":" USA-United States"},{"latitude":" 31.86681","longitude":"-106.57733","name":" Kohl's","address":" USA-United States"},{"latitude":" 37.64945","longitude":"-77.60122","name":" Kohl's","address":" USA-United States"},{"latitude":" 41.65293","longitude":"-87.74558","name":" Kohl's","address":" USA-United States"},{"latitude":" 39.72699","longitude":"-75.65243","name":" Kohl's","address":" USA-United States"},{"latitude":" 42.99125","longitude":"-88.26495","name":" Kohl's","address":" USA-United States"},{"latitude":" 41.17715","longitude":"-73.22597","name":" Kohl's","address":" USA-United States"},{"latitude":" 42.22979","longitude":"-87.94196","name":" Kohl's","address":" USA-United States"},{"latitude":" 33.17793","longitude":"-117.29873","name":" Kohl's","address":" USA-United States"},{"latitude":" 42.53753","longitude":"-83.10681","name":" Kohl's","address":" USA-United States"},{"latitude":" 41.95106","longitude":"-88.11273","name":" Kohl's","address":" USA-United States"},{"latitude":" 38.67104","longitude":"-121.16770","name":" Kohl's","address":" USA-United States"},{"latitude":" 35.92790","longitude":"-84.03571","name":" Kohl's","address":" USA-United States"},{"latitude":" 33.61843","longitude":"-111.89457","name":" Kohl's","address":" USA-United States"},{"latitude":" 40.61683","longitude":"-111.97920","name":" Kohl's","address":" USA-United States"},{"latitude":" 38.85831","longitude":"-77.38054","name":" Kohl's","address":" USA-United States"},{"latitude":" 39.00000","longitude":"-84.41970","name":" Kohl's","address":" USA-United States"},{"latitude":" 42.81916","longitude":"-86.08739","name":" Kohl's","address":" USA-United States"},{"latitude":" 39.56383","longitude":"-105.10966","name":" Kohl's","address":" USA-United States"},{"latitude":" 35.93737","longitude":"-86.82101","name":" Kohl's","address":" USA-United States"},{"latitude":" 41.35712","longitude":"-81.39141","name":" Kohl's","address":" USA-United States"},{"latitude":" 40.62264","longitude":"-73.64044","name":" Kohl's","address":" USA-United States"},{"latitude":" 39.49321","longitude":"-84.33561","name":" Kohl's","address":" USA-United States"},{"latitude":" 32.65917","longitude":"-97.13467","name":" Kohl's","address":" USA-United States"},{"latitude":" 32.64884","longitude":"-116.96431","name":" Kohl's","address":" USA-United States"},{"latitude":" 45.01495","longitude":"-93.16919","name":" Kohl's","address":" USA-United States"},{"latitude":" 40.84105","longitude":"-74.45848","name":" Kohl's","address":" USA-United States"},{"latitude":" 41.46167","longitude":"-82.01406","name":" Kohl's","address":" USA-United States"},{"latitude":" 43.11964","longitude":"-87.91621","name":" Kohl's","address":" USA-United States"},{"latitude":" 33.44480","longitude":"-111.59815","name":" Kohl's","address":" USA-United States"},{"latitude":" 38.40704","longitude":"-121.41787","name":" Kohl's","address":" USA-United States"},{"latitude":" 33.02165","longitude":"-96.91570","name":" Kohl's","address":" USA-United States"},{"latitude":" 34.96273","longitude":"-89.96991","name":" Kohl's","address":" USA-United States"},{"latitude":" 42.45060","longitude":"-83.34205","name":" Kohl's","address":" USA-United States"},{"latitude":" 38.88383","longitude":"-94.77379","name":" Kohl's","address":" USA-United States"},{"latitude":" 36.33302","longitude":"-86.62070","name":" Kohl's","address":" USA-United States"},{"latitude":" 34.15018","longitude":"-117.47503","name":" Kohl's","address":" USA-United States"},{"latitude":" 32.56285","longitude":"-97.32005","name":" Kohl's","address":" USA-United States"},{"latitude":" 39.79512","longitude":"-86.25875","name":" Kohl's","address":" USA-United States"},{"latitude":" 41.23307","longitude":"-73.15010","name":" Kohl's","address":" USA-United States"},{"latitude":" 40.19517","longitude":"-77.16838","name":" Kohl's","address":" USA-United States"},{"latitude":" 42.20115","longitude":"-83.24843","name":" Kohl's","address":" USA-United States"},{"latitude":" 34.75416","longitude":"-92.42815","name":" Kohl's","address":" USA-United States"},{"latitude":" 39.11687","longitude":"-77.20077","name":" Kohl's","address":" USA-United States"},{"latitude":" 32.35705","longitude":"-111.09486","name":" Kohl's","address":" USA-United States"}]