[{"latitude":"51.2662755","longitude":"-114.0071734","name":"Michaels-Airdrie,AB","address":"2771 Main St SW, Airdrie,AB T4B 3G2, (403) 768-0458"},{"latitude":"51.1555404","longitude":"-114.1627388","name":"Michaels-Calgary,AB","address":"11486 Sarcee Trail NW, Calgary,AB T3R 0A1, (403) 516-3020"},{"latitude":"51.16081","longitude":"-114.06451","name":"Michaels-Calgary,AB","address":"130 Country Village Rd NE, Calgary,AB T3K 6B8, (403) 567-1600"},{"latitude":"51.0801482","longitude":"-113.9947151","name":"Michaels-Calgary,AB","address":"3160 27th St NE, Calgary,AB T1Y 7L5, (403) 250-9833"},{"latitude":"50.8981758","longitude":"-114.0622895","name":"Michaels-Calgary,AB","address":"350 Shawville Blvd SE, Calgary,AB T2Y 3S4, (403) 256-3528"},{"latitude":"51.0191553","longitude":"-114.1685049","name":"Michaels-Calgary,AB","address":"5588 Signal Hill Centre SW, Calgary,AB T3H 3P8, (403) 246-3336"},{"latitude":"50.9816369","longitude":"-114.0443218","name":"Michaels-Calgary,AB","address":"8180 11th St SE, Calgary,AB T2H 3B5, (403) 640-1633"},{"latitude":"53.60038","longitude":"-113.55806","name":"Michaels-Edmonton,AB","address":"13640 137th Ave NW, Edmonton,AB T5L 5G6, (780) 456-4650"},{"latitude":"53.5981011","longitude":"-113.4063056","name":"Michaels-Edmonton,AB","address":"13703 42nd St NW, Edmonton,AB T5Y 3E1, (780) 457-6177"},{"latitude":"53.4484898","longitude":"-113.4858496","name":"Michaels-Edmonton,AB","address":"1930 99th St NW, Edmonton,AB T6N 1J2, (780) 430-1299"},{"latitude":"53.5346823","longitude":"-113.6156299","name":"Michaels-Edmonton,AB","address":"9718 170th St NW, Edmonton,AB T5T 5L5, (780) 484-4078"},{"latitude":"55.1744247","longitude":"-118.8233649","name":"Michaels-Grande Prairie,AB","address":"10502 109A St [Unit 102], Grande Prairie,AB T8V 1S3, (780) 402-8590"},{"latitude":"53.2685426","longitude":"-113.567112","name":"Michaels-Leduc,AB","address":"5406 Discovery Way [Unit B], Leduc,AB T9E 8L9, (587) 773-9557"},{"latitude":"49.6981899","longitude":"-112.83986","name":"Michaels-Lethbridge,AB","address":"501 1st Ave S [te Y07], Lethbridge,AB T1J 4L9, (403) 331-3333"},{"latitude":"53.2779282","longitude":"-110.0383079","name":"Michaels-Lloydminster,AB","address":"4107 80th Ave [Ste 105\\, Lloydminster,AB T9V 0X9, (587) 789-1660"},{"latitude":"50.00882","longitude":"-110.66317","name":"Michaels-Medicine Hat,AB","address":"3201 13th Ave SE, Medicine Hat,AB T1B 1E2, (403) 581-0303"},{"latitude":"50.7044201","longitude":"-113.9471157","name":"Michaels-Okotoks,AB","address":"105 Southbank Blvd, Okotoks,AB T1S 0G1, (403) 938-0381"},{"latitude":"52.2392951","longitude":"-113.8187111","name":"Michaels-Red Deer,AB","address":"70A 5250 22nd St, Red Deer,AB T4R 2T4, (403) 309-9301"},{"latitude":"53.5414049","longitude":"-113.3016101","name":"Michaels-Sherwood Park,AB","address":"390 Baseline Rd, Sherwood Park,AB T8H 1X1, (780) 449-0828"},{"latitude":"53.5426861","longitude":"-113.8792831","name":"Michaels-Spruce Grove,AB","address":"151 Century Crossing [Ste 140], Spruce Grove,AB T7X 0C8, (780) 962-9892"},{"latitude":"61.220569","longitude":"-149.815139","name":"Michaels-Anchorage,AK","address":"3090 Mountain View Dr, Anchorage,AK 99501-3109, (907) 277-8600"},{"latitude":"61.1427269","longitude":"-149.8601074","name":"Michaels-Anchorage,AK","address":"8571 Old Seward Hwy, Anchorage,AK 99515-2015, (907) 336-8600"},{"latitude":"64.8506145","longitude":"-147.7030948","name":"Michaels-Fairbanks,AK","address":"34 College Rd, Fairbanks,AK 99701-1706, (907) 456-6046"},{"latitude":"33.3338023","longitude":"-86.9849154","name":"Michaels-Bessemer,AL","address":"4817 Promenade Pkwy, Bessemer,AL 35022-7305, (205) 425-1098"},{"latitude":"33.6006278","longitude":"-86.6404702","name":"Michaels-Birmingham,AL","address":"1632 Gadsden Hwy, Birmingham,AL 35235-3104, (205) 661-2818"},{"latitude":"33.4782982","longitude":"-86.7731018","name":"Michaels-Birmingham,AL","address":"5271 Hwy 280 S, Birmingham,AL 35242-5315, (205) 981-6749"},{"latitude":"31.2668176","longitude":"-85.4439247","name":"Michaels-Dothan,AL","address":"4601 Montgomery Hwy [Ste 400], Dothan,AL 36303-1522, (334) 671-8401"},{"latitude":"33.3786327","longitude":"-86.8042257","name":"Michaels-Hoover,AL","address":"1765 Montgomery Hwy S, Hoover,AL 35244-1215, (205) 987-9591"},{"latitude":"34.7417603","longitude":"-86.6819458","name":"Michaels-Huntsville,AL","address":"6275 University Dr [Ste 1], Huntsville,AL 35806-1711, (256) 971-0140"},{"latitude":"34.6909089","longitude":"-86.5773719","name":"Michaels-Huntsville,AL","address":"975 Airport Rd SW, Huntsville,AL 35803-1392, (256) 885-1779"},{"latitude":"30.676458","longitude":"-88.1224155","name":"Michaels-Mobile,AL","address":"3250 Airport Blvd, Mobile,AL 36606-3851, (251) 473-8520"},{"latitude":"32.3652083","longitude":"-86.1422398","name":"Michaels-Montgomery,AL","address":"7991 Eastchase Pkwy, Montgomery,AL 36117, (334) 260-2846"},{"latitude":"32.4610863","longitude":"-86.4129486","name":"Michaels-Prattville,AL","address":"1959 Cobbs Ford Rd, Prattville,AL 36066-7212, (334) 361-7411"},{"latitude":"30.6662348","longitude":"-87.8478605","name":"Michaels-Spanish Fort,AL","address":"10200 Eastern Shore Blvd, Spanish Fort,AL 36527-8671, (251) 621-2686"},{"latitude":"33.1855965","longitude":"-87.5286179","name":"Michaels-Tuscaloosa,AL","address":"2600 McFarland Blvd E, Tuscaloosa,AL 35405, (205) 391-0305"},{"latitude":"35.3388923","longitude":"-94.3874596","name":"Michaels-Fort Smith,AR","address":"4155 Phoenix Ave, Fort Smith,AR 72903, (479) 648-8085"},{"latitude":"34.4685097","longitude":"-93.0717545","name":"Michaels-Hot Springs,AR","address":"1438 Higdon Ferry Rd, Hot Springs,AR 71913-6419, (501) 318-9732"},{"latitude":"34.7542343","longitude":"-92.3994827","name":"Michaels-Little Rock,AR","address":"11400 W Markham St, Little Rock,AR 72211-2806, (501) 312-1482"},{"latitude":"34.7893935","longitude":"-92.2223248","name":"Michaels-North Little Rock,AR","address":"4126 E McCain Blvd, North Little Rock,AR 72117-2523, (501) 945-7787"},{"latitude":"32.8838501","longitude":"-111.6817474","name":"Michaels-Casa Grande,AZ","address":"1004 N Promenade Pkwy [Ste 146], Casa Grande,AZ 85194-5420, (520) 421-1720"},{"latitude":"33.307125","longitude":"-111.8960658","name":"Michaels-Chandler,AZ","address":"285 N Federal St, Chandler,AZ 85226-3192, (480) 782-0333"},{"latitude":"35.1857986","longitude":"-111.6602707","name":"Michaels-Flagstaff,AZ","address":"1500 Riordan Ranch St, Flagstaff,AZ 86001-6372, (928) 774-4558"},{"latitude":"33.2812364","longitude":"-111.7895519","name":"Michaels-Gilbert,AZ","address":"3771 S Gilbert Rd, Gilbert,AZ 85296, (480) 857-6666"},{"latitude":"33.6386602","longitude":"-112.1827242","name":"Michaels-Glendale,AZ","address":"5725 W Bell Rd, Glendale,AZ 85308-3869, (602) 547-9301"},{"latitude":"33.5516949","longitude":"-112.2622698","name":"Michaels-Glendale,AZ","address":"9470 W Northern Ave, Glendale,AZ 85305-1104, (623) 772-9614"},{"latitude":"33.4622727","longitude":"-112.3579683","name":"Michaels-Goodyear,AZ","address":"1475 N Litchfield Rd, Goodyear,AZ 85338-1262, (623) 536-3158"},{"latitude":"33.38898","longitude":"-111.6846266","name":"Michaels-Mesa,AZ","address":"1505 S Power Rd, Mesa,AZ 85206-3707, (480) 830-8841"},{"latitude":"33.3819667","longitude":"-111.8060783","name":"Michaels-Mesa,AZ","address":"1721 S Stapley Drive, Mesa,AZ 85204, (480) 347-0069"},{"latitude":"33.3258073","longitude":"-111.6871733","name":"Michaels-Mesa,AZ","address":"5020 S Power Rd, Mesa,AZ 85212, (480) 840-3211"},{"latitude":"33.4532547","longitude":"-111.6877365","name":"Michaels-Mesa,AZ","address":"6640 E McKellips Rd, Mesa,AZ 85215-2865, (480) 854-8038"},{"latitude":"33.7123532","longitude":"-112.2771037","name":"Michaels-Peoria,AZ","address":"10106 W Happy Valley Pkwy, Peoria,AZ 85383, (623) 566-0954"},{"latitude":"33.5091852","longitude":"-112.0414039","name":"Michaels-Phoenix,AZ","address":"1925 E Camelback Rd [Ste 132], Phoenix,AZ 85016-4140, (602) 241-9285"},{"latitude":"33.582085","longitude":"-112.1203152","name":"Michaels-Phoenix,AZ","address":"2766 W Peoria Ave, Phoenix,AZ 85029-5129, (602) 588-9590"},{"latitude":"33.6679278","longitude":"-112.1204688","name":"Michaels-Phoenix,AZ","address":"2829 W Agua Fria Fwy, Phoenix,AZ 85027-3928, (623) 587-8335"},{"latitude":"33.5963745","longitude":"-111.9791718","name":"Michaels-Phoenix,AZ","address":"4727 E Cactus Rd, Phoenix,AZ 85032-7725, (602) 765-3032"},{"latitude":"33.3180962","longitude":"-111.9824371","name":"Michaels-Phoenix,AZ","address":"4735 E Ray Road, Phoenix,AZ 85044, (480) 705-9426"},{"latitude":"34.5468675","longitude":"-112.4113483","name":"Michaels-Prescott,AZ","address":"3250 Gateway Blvd [Ste 504], Prescott,AZ 86303-6859, (928) 771-8848"},{"latitude":"33.6336786","longitude":"-111.925334","name":"Michaels-Scottsdale,AZ","address":"16239 N Scottsdale Rd, Scottsdale,AZ 85254-1522, (480) 315-0355"},{"latitude":"33.5383717","longitude":"-111.8877281","name":"Michaels-Scottsdale,AZ","address":"8979 E Indian Bend Rd, Scottsdale,AZ 85250-9519, (480) 362-1010"},{"latitude":"33.6387876","longitude":"-112.3543607","name":"Michaels-Surprise,AZ","address":"13716 W Bell Rd, Surprise,AZ 85374-3804, (623) 584-8708"},{"latitude":"33.4304631","longitude":"-111.909106","name":"Michaels-Tempe,AZ","address":"55 S McClintock Dr [Ste 125], Tempe,AZ 85281-2042, (480) 967-0795"},{"latitude":"32.158905","longitude":"-110.9874878","name":"Michaels-Tucson,AZ","address":"1161 W Irvington Rd, Tucson,AZ 85714-1165, (520) 807-6290"},{"latitude":"32.3361931","longitude":"-111.0452576","name":"Michaels-Tucson,AZ","address":"3749 W Ina Rd, Tucson,AZ 85741-2001, (520) 579-7490"},{"latitude":"32.2804642","longitude":"-110.9765396","name":"Michaels-Tucson,AZ","address":"4070 N Oracle Rd, Tucson,AZ 85705-2720, (520) 293-0430"},{"latitude":"32.219852","longitude":"-110.839172","name":"Michaels-Tucson,AZ","address":"7150 E Broadway Blvd, Tucson,AZ 85710-1405, (520) 722-1074"},{"latitude":"32.6714172","longitude":"-114.6225281","name":"Michaels-Yuma,AZ","address":"320 W 32nd St, Yuma,AZ 85364-8128, (928) 344-5522"},{"latitude":"49.05082","longitude":"-122.31782","name":"Michaels-Abbotsford,BC","address":"32700 S Fraser Way, Abbotsford,BC V2T 4M5, (604) 557-9800"},{"latitude":"49.19899","longitude":"-122.9779027","name":"Michaels-Burnaby,BC","address":"5771 Marine Way [Unit 300], Burnaby,BC V5J 0A6, (604) 629-8124"},{"latitude":"50.66595","longitude":"-120.37099","name":"Michaels-Kamloops,BC","address":"1055 Hillside Dr [Bldg 200], Kamloops,BC V2E 2S5, (250) 571-1066"},{"latitude":"49.8885662","longitude":"-119.4280673","name":"Michaels-Kelowna,BC","address":"1500 Banks Rd [Unit 100], Kelowna,BC V1X 7Y1, (250) 763-7446"},{"latitude":"49.1132051","longitude":"-122.6647131","name":"Michaels-Langley,BC","address":"20150 Langley Bypass [Unit 80], Langley,BC V3A 5E7, (604) 539-0038"},{"latitude":"49.2395946","longitude":"-124.0546235","name":"Michaels-Nanaimo,BC","address":"6677 Mary Ellen Dr, Nanaimo,BC V9V 1T7, (250) 390-5309"},{"latitude":"49.30727","longitude":"-123.03639","name":"Michaels-North Vancouver,BC","address":"1360 Main St [CRU 2], North Vancouver,BC V7J 1C6, (604) 986-4400"},{"latitude":"49.2245121","longitude":"-122.6732948","name":"Michaels-Pitt Meadows,BC","address":"19800 Lougheed Hwy, Pitt Meadows,BC V3Y 2W1, (604) 465-5176"},{"latitude":"49.27359","longitude":"-122.7891","name":"Michaels-Port Coquitlam,BC","address":"2755 Lougheed Hwy [Ste 17], Port Coquitlam,BC V3B 5Y9, (604) 468-2900"},{"latitude":"53.86589","longitude":"-122.78308","name":"Michaels-Prince George,BC","address":"5900 Southridge Ave, Prince George,BC V2N 7A1, (250) 964-7168"},{"latitude":"49.19251","longitude":"-123.11584","name":"Michaels-Richmond,BC","address":"9711 Bridgeport Rd, Richmond,BC V6X 1S3, (604) 273-6311"},{"latitude":"48.4555318","longitude":"-123.3728727","name":"Michaels-Saanich,BC","address":"3501 Blanshard St, Saanich,BC V8Z 0B9, (778) 749-0093"},{"latitude":"49.13854","longitude":"-122.84526","name":"Michaels-Surrey,BC","address":"7488 King George Hwy, Surrey,BC V3W 0H9, (604) 635-3043"},{"latitude":"49.2841654","longitude":"-123.1223388","name":"Michaels-Vancouver,BC","address":"1022 Alberni St, Vancouver,BC V6E 1A3, (604) 638-1940"},{"latitude":"49.26357","longitude":"-123.11901","name":"Michaels-Vancouver,BC","address":"665 W Broadway, Vancouver,BC V5Z 1G7, (604) 638-2523"},{"latitude":"48.46184","longitude":"-123.49767","name":"Michaels-Victoria,BC","address":"2401-C Millstream Rd, Victoria,BC V9B 3R5, (250) 391-0954"},{"latitude":"49.325498","longitude":"-123.1438102","name":"Michaels-West Vancouver,BC","address":"1000 Main St, West Vancouver,BC V7T 2Z3, (604) 913-6145"},{"latitude":"37.9294395","longitude":"-122.3649826","name":"Michaels-Alameda,CA","address":"2650 S 5th St [Ste 10], Alameda,CA 94501, (510) 775-1767"},{"latitude":"33.5789917","longitude":"-117.7223374","name":"Michaels-Aliso Viejo,CA","address":"26503 Aliso Creek Rd, Aliso Viejo,CA 92656-2882, (949) 420-4000"},{"latitude":"38.9423583","longitude":"-121.0940639","name":"Michaels-Auburn,CA","address":"2785 Bell Rd, Auburn,CA 95603, (530) 392-4077"},{"latitude":"35.3402405","longitude":"-119.0333328","name":"Michaels-Bakersfield,CA","address":"2720 Ming Ave, Bakersfield,CA 93304-4431, (661) 836-2712"},{"latitude":"35.3859634","longitude":"-119.1067657","name":"Michaels-Bakersfield,CA","address":"9350 Rosedale Hwy, Bakersfield,CA 93312-2143, (661) 587-5334"},{"latitude":"33.9118233","longitude":"-117.8720398","name":"Michaels-Brea,CA","address":"2315 E Imperial Hwy [Ste D], Brea,CA 92821-6112, (714) 255-1018"},{"latitude":"37.9615597","longitude":"-121.7479905","name":"Michaels-Brentwood,CA","address":"5501 Lone Tree Way, Brentwood,CA 94513, (925) 308-7335"},{"latitude":"33.8499603","longitude":"-117.9237671","name":"Michaels-Buena Park,CA","address":"8341 LaPalma Ave, Buena Park,CA 90620-3207, (714) 232-8104"},{"latitude":"34.1903275","longitude":"-118.3269107","name":"Michaels-Burbank,CA","address":"1551 N Victory Pl, Burbank,CA 91502-1647, (818) 260-0527"},{"latitude":"34.2191772","longitude":"-119.0531769","name":"Michaels-Camarillo,CA","address":"351 Carmen Dr [Ste A], Camarillo,CA 93010-6033, (805) 388-5001"},{"latitude":"39.7241021","longitude":"-121.8098051","name":"Michaels-Chico,CA","address":"2041 Dr Martin Luther King Jr, Chico,CA 95928-6797, (530) 343-1864"},{"latitude":"33.9972702","longitude":"-117.7160919","name":"Michaels-Chino,CA","address":"4020 Grand Ave, Chino,CA 91710-5436, (909) 590-7971"},{"latitude":"32.6048054","longitude":"-117.0793629","name":"Michaels-Chula Vista,CA","address":"1242 Broadway, Chula Vista,CA 91911-2911, (619) 425-0209"},{"latitude":"38.6745612","longitude":"-121.2748113","name":"Michaels-Citrus Heights,CA","address":"6120 Birdcage Centre Ln, Citrus Heights,CA 95610-8004, (916) 728-2200"},{"latitude":"36.8103027","longitude":"-119.7152481","name":"Michaels-Clovis,CA","address":"255 W Shaw Ave, Clovis,CA 93612-3602, (559) 324-8725"},{"latitude":"37.6746521","longitude":"-122.4653778","name":"Michaels-Colma,CA","address":"4925 Junipero Serra Blvd, Colma,CA 94014, (650) 992-7271"},{"latitude":"33.8256752","longitude":"-117.515069","name":"Michaels-Corona,CA","address":"3469 Grand Oaks, Corona,CA 92881-4633, (951) 479-0745"},{"latitude":"33.6367493","longitude":"-117.9236069","name":"Michaels-Costa Mesa,CA","address":"610 W 17th St, Costa Mesa,CA 92627-3654, (949) 548-6053"},{"latitude":"37.336586","longitude":"-122.0348511","name":"Michaels-Cupertino,CA","address":"20640 Homestead Rd, Cupertino,CA 95014-0451, (408) 446-4889"},{"latitude":"33.9257209","longitude":"-118.1312288","name":"Michaels-Downey,CA","address":"12100 Lakewood Blvd, Downey,CA 90242, (562) 401-4059"},{"latitude":"37.7029726","longitude":"-121.9328517","name":"Michaels-Dublin,CA","address":"7890 Dublin Blvd, Dublin,CA 94568-2924, (925) 829-2265"},{"latitude":"32.7467422","longitude":"-116.9287262","name":"Michaels-El Cajon,CA","address":"2398 Jamacha Rd  [Ste A], El Cajon,CA 92019-4367, (619) 670-6236"},{"latitude":"32.766959","longitude":"-115.5335214","name":"Michaels-El Centro,CA","address":"564 Danenberg Dr, El Centro,CA 92243, (760) 352-0256"},{"latitude":"38.4234709","longitude":"-121.4136008","name":"Michaels-Elk Grove,CA","address":"7611 Laguna Blvd, Elk Grove,CA 95758-5061, (916) 691-1195"},{"latitude":"37.8296922","longitude":"-122.2853818","name":"Michaels-Emeryville,CA","address":"3991 Hollis St, Emeryville,CA 94608-3558, (510) 658-4830"},{"latitude":"33.0561409","longitude":"-117.2605667","name":"Michaels-Encinitas,CA","address":"335 N El Camino Real, Encinitas,CA 92024-2810, (760) 635-0100"},{"latitude":"34.1606073","longitude":"-118.5084915","name":"Michaels-Encino,CA","address":"17230 Ventura Blvd, Encino,CA 91316-4008, (818) 783-7970"},{"latitude":"33.1176954","longitude":"-117.0922235","name":"Michaels-Escondido,CA","address":"820 W Valley Pkwy, Escondido,CA 92025-2537, (760) 291-0137"},{"latitude":"40.7805969","longitude":"-124.1791206","name":"Michaels-Eureka,CA","address":"800 W Harris St [Ste 26], Eureka,CA 95503-3929, (707) 444-2383"},{"latitude":"38.2641716","longitude":"-122.0506439","name":"Michaels-Fairfield,CA","address":"1310 Gateway Blvd, Fairfield,CA 94533-6903, (707) 421-2822"},{"latitude":"38.6561123","longitude":"-121.1254531","name":"Michaels-Folsom,CA","address":"2715 E Bidwell St, Folsom,CA 95630-6404, (916) 983-2633"},{"latitude":"34.150032","longitude":"-117.472666","name":"Michaels-Fontana,CA","address":"15228 Summit Ave, Fontana,CA 92336-5489, (909) 646-9656"},{"latitude":"33.6774445","longitude":"-117.6650772","name":"Michaels-Foothill Ranch,CA","address":"26752 Portola Pkwy, Foothill Ranch,CA 92610-1712, (949) 420-0741"},{"latitude":"37.5441925","longitude":"-121.9883835","name":"Michaels-Fremont,CA","address":"39170 Argonaut Way, Fremont,CA 94538-1304, (510) 857-0268"},{"latitude":"36.8445987","longitude":"-119.7904097","name":"Michaels-Fresno,CA","address":"7400 N Blackstone Ave, Fresno,CA 93720-4301, (559) 353-3201"},{"latitude":"33.8563496","longitude":"-117.9212527","name":"Michaels-Fullerton,CA","address":"201 Orangefair Mall, Fullerton,CA 92832-3038, (714) 992-9272"},{"latitude":"37.000267","longitude":"-121.5527191","name":"Michaels-Gilroy,CA","address":"6745 Camino Arroyo, Gilroy,CA 95020-7075, (408) 847-1630"},{"latitude":"34.1490081","longitude":"-118.2461581","name":"Michaels-Glendale,CA","address":"219 N Glendale Ave, Glendale,CA 91206-4455, (818) 291-0944"},{"latitude":"34.4428669","longitude":"-119.8307341","name":"Michaels-Goleta,CA","address":"187 N Fairview Ave, Goleta,CA 93117-2304, (805) 967-7119"},{"latitude":"34.2644839","longitude":"-118.5266621","name":"Michaels-Granada Hills,CA","address":"18030 Chatsworth St, Granada Hills,CA 91344-5607, (818) 831-1889"},{"latitude":"36.3247926","longitude":"-119.6730624","name":"Michaels-Hanford,CA","address":"204 N 12th Ave, Hanford,CA 93230, (559) 587-2707"},{"latitude":"33.9008199","longitude":"-118.3670036","name":"Michaels-Hawthorne,CA","address":"14370 Ocean Gate Ave, Hawthorne,CA 90250-6732, (310) 676-2064"},{"latitude":"33.747299","longitude":"-117.003099","name":"Michaels-Hemet,CA","address":"2981 W Florida Ave, Hemet,CA 92545-3616, (951) 925-6635"},{"latitude":"33.7300511","longitude":"-117.9960515","name":"Michaels-Huntington Beach,CA","address":"7600A Edinger Ave, Huntington Beach,CA 92647-3605, (714) 841-0693"},{"latitude":"33.9443169","longitude":"-118.3299103","name":"Michaels-Inglewood,CA","address":"3340 W Century Blvd, Inglewood,CA 90303-1305, (310)677-1531"},{"latitude":"33.9172149","longitude":"-117.963305","name":"Michaels-La Habra,CA","address":"1500 W Imperial Hwy, La Habra,CA 90631-6967, (562) 697-1369"},{"latitude":"32.7926633","longitude":"-117.0022226","name":"Michaels-La Mesa,CA","address":"9108 Fletcher Pkwy, La Mesa,CA 91942-3424, (619) 589-2295"},{"latitude":"34.1143124","longitude":"-117.7676687","name":"Michaels-La Verne,CA","address":"1951 Foothill Blvd, La Verne,CA 91750-3501, (909) 596-6946"},{"latitude":"33.8499794","longitude":"-118.1447296","name":"Michaels-Lakewood,CA","address":"4000 Hardwick St, Lakewood,CA 90712-2349, (562) 633-1913"},{"latitude":"34.6946103","longitude":"-118.1715826","name":"Michaels-Lancaster,CA","address":"44679 Valley Central Way, Lancaster,CA 93534-6537, (661) 949-0485"},{"latitude":"34.6486397","longitude":"-120.4588242","name":"Michaels-Lompoc,CA","address":"605 N H St, Lompoc,CA 93436-4518, (805) 735-1372"},{"latitude":"33.831275","longitude":"-118.0883557","name":"Michaels-Long Beach,CA","address":"7340 Carson Blvd, Long Beach,CA 90808-2360, (562) 377-0669"},{"latitude":"34.0385997","longitude":"-118.4404761","name":"Michaels-Los Angeles,CA","address":"11260 Olympic Blvd, Los Angeles,CA 90064, (310) 479-1293"},{"latitude":"36.6676712","longitude":"-121.812645","name":"Michaels-Marina,CA","address":"121 General Stillwell Dr, Marina,CA 93933-6242, (831) 384-0562"},{"latitude":"33.6808768","longitude":"-117.1755255","name":"Michaels-Menifee,CA","address":"30274 Haun Rd, Menifee,CA 92584-6822, (951) 301-5186"},{"latitude":"37.3210564","longitude":"-120.480278","name":"Michaels-Merced,CA","address":"655 Fairfield Dr, Merced,CA 95348-2402, (209) 383-1280"},{"latitude":"37.4264526","longitude":"-121.9195633","name":"Michaels-Milpitas,CA","address":"136 Ranch Dr, Milpitas,CA 95035-5101, (408) 957-9677"},{"latitude":"33.9727974","longitude":"-117.5460129","name":"Michaels-Mira Loma,CA","address":"6381 Pats Ranch Rd, Mira Loma,CA 91752, (951) 340-0338"},{"latitude":"33.5936356","longitude":"-117.6578217","name":"Michaels-Mission Viejo,CA","address":"25310 Marguerite Pkwy, Mission Viejo,CA 92692-2902, (949) 770-5001"},{"latitude":"37.6941795","longitude":"-121.0634613","name":"Michaels-Modesto,CA","address":"3900 Sisk Rd [Ste A1], Modesto,CA 95356-3225, (209) 543-7668"},{"latitude":"34.1410103","longitude":"-117.9880524","name":"Michaels-Monrovia,CA","address":"729 E Huntington Dr, Monrovia,CA 91016-3613, (626) 305-5222"},{"latitude":"34.2798201","longitude":"-118.868216","name":"Michaels-Moorpark,CA","address":"816 New Los Angeles Ave, Moorpark,CA 93021-3585, (805) 552-9140"},{"latitude":"37.420936","longitude":"-122.097503","name":"Michaels-Mountain View,CA","address":"2415 Charleston Rd, Mountain View,CA 94043, (650) 968-8698"},{"latitude":"38.2859775","longitude":"-122.2746362","name":"Michaels-Napa,CA","address":"308 Soscol Ave [Ste A], Napa,CA 94559, (707) 666-0617"},{"latitude":"33.1827927","longitude":"-117.329277","name":"Michaels-Oceanside,CA","address":"2649 Vista Way, Oceanside,CA 92054-6342, (760) 450-1650"},{"latitude":"33.8090985","longitude":"-117.8348956","name":"Michaels-Orange,CA","address":"1802 E Katella Ave, Orange,CA 92867-5107, (714) 289-8792"},{"latitude":"33.7285385","longitude":"-116.3983688","name":"Michaels-Palm Desert,CA","address":"44-150 Town Center Way [Ste B-3], Palm Desert,CA 92260-2752, (760) 341-7366"},{"latitude":"33.8009148","longitude":"-116.5206299","name":"Michaels-Palm Springs,CA","address":"2465 E Palm Canyon  [Bldg 3], Palm Springs,CA 92264, (760) 325-2277"},{"latitude":"34.6028862","longitude":"-118.1464691","name":"Michaels-Palmdale,CA","address":"39626 10th St W  [Ste B], Palmdale,CA 93551-3000, (661) 224-1618"},{"latitude":"34.145994","longitude":"-118.1264839","name":"Michaels-Pasadena,CA","address":"1155 E Colorado, Pasadena,CA 91106-1806, (626) 431-2850"},{"latitude":"35.5864415","longitude":"-120.6964606","name":"Michaels-Paso Robles,CA","address":"2055 Theatre Dr, Paso Robles,CA 93446-9629, (805) 226-0737"},{"latitude":"38.2728462","longitude":"-122.6663895","name":"Michaels-Petaluma,CA","address":"1359 N McDowell Blvd, Petaluma,CA 94954-1114, (707) 766-9418"},{"latitude":"37.9899063","longitude":"-122.3087845","name":"Michaels-Pinole,CA","address":"1450 Fitzgerald Dr, Pinole,CA 94564-2227, (510) 222-4947"},{"latitude":"37.9473572","longitude":"-122.061676","name":"Michaels-Pleasant Hill,CA","address":"60 Gregory Ln, Pleasant Hill,CA 94523-3321, (925) 521-1081"},{"latitude":"32.9563471","longitude":"-117.0418254","name":"Michaels-Poway,CA","address":"13343 Poway Rd, Poway,CA 92064, (858) 486-2022"},{"latitude":"38.5955925","longitude":"-121.2838364","name":"Michaels-Rancho Cordova,CA","address":"10913 Olson Dr, Rancho Cordova,CA 95670-5659, (916) 631-0340"},{"latitude":"34.107872","longitude":"-117.5695343","name":"Michaels-Rancho Cucamonga,CA","address":"10788 Foothill Blvd  [Ste 103], Rancho Cucamonga,CA 91730-3884, (909) 291-8768"},{"latitude":"40.5919609","longitude":"-122.3592682","name":"Michaels-Redding,CA","address":"1070 Hilltop Dr, Redding,CA 96003-3810, (530) 223-9514"},{"latitude":"34.0702095","longitude":"-117.1684265","name":"Michaels-Redlands,CA","address":"27534 Lugonia Ave, Redlands,CA 92374-2017, (909) 335-7439"},{"latitude":"37.4578629","longitude":"-122.2294006","name":"Michaels-Redwood City,CA","address":"100 Woodside Plaza, Redwood City,CA 94061-2553, (650) 367-6397"},{"latitude":"33.9114898","longitude":"-117.4624354","name":"Michaels-Riverside,CA","address":"10345 Magnolia Ave, Riverside,CA 92505-1809, (951) 637-2316"},{"latitude":"33.941494","longitude":"-117.2807236","name":"Michaels-Riverside,CA","address":"2704 Canyon Springs Pkwy, Riverside,CA 92507-0933, (951) 656-2172"},{"latitude":"38.7725249","longitude":"-121.2655784","name":"Michaels-Roseville,CA","address":"1192 Galleria Blvd, Roseville,CA 95678-1950, (916) 789-2216"},{"latitude":"33.9902502","longitude":"-117.9221237","name":"Michaels-Rowland Heights,CA","address":"17584 Colima Rd, Rowland Heights,CA 91748-1752, (626) 965-9336"},{"latitude":"38.6090431","longitude":"-121.3852692","name":"Michaels-Sacramento,CA","address":"3400 El Camino Ave, Sacramento,CA 95821-6310, (916) 485-1006"},{"latitude":"38.6371346","longitude":"-121.5058823","name":"Michaels-Sacramento,CA","address":"3691 Truxel Rd, Sacramento,CA 95834-3604, (916) 928-9777"},{"latitude":"36.7153142","longitude":"-121.6548541","name":"Michaels-Salinas,CA","address":"1690 N Main St, Salinas,CA 93906, (831) 296-3301"},{"latitude":"33.4544678","longitude":"-117.6075897","name":"Michaels-San Clemente,CA","address":"937 Avenida Pico, San Clemente,CA 92673-3908, (949) 940-0465"},{"latitude":"32.9838029","longitude":"-117.0759438","name":"Michaels-San Diego,CA","address":"12060 Carmel Mountain Rd, San Diego,CA 92128-4605, (858) 675-1170"},{"latitude":"32.7675726","longitude":"-117.1469097","name":"Michaels-San Diego,CA","address":"1652 Camino Del Rio N, San Diego,CA 92108-1514, (619) 294-2609"},{"latitude":"32.748394","longitude":"-117.2029114","name":"Michaels-San Diego,CA","address":"2740 Midway Dr, San Diego,CA 92110-3203, (619) 858-0260"},{"latitude":"32.8287544","longitude":"-117.2032166","name":"Michaels-San Diego,CA","address":"3994 Clairemont Mesa Blvd, San Diego,CA 92117-2714, (619) 275-2920"},{"latitude":"37.245464","longitude":"-121.891731","name":"Michaels-San Jose,CA","address":"1444 Kooser Rd, San Jose,CA 95118-3800, (408) 269-2260"},{"latitude":"37.2948608","longitude":"-121.988121","name":"Michaels-San Jose,CA","address":"1600 Saratoga Ave  [Ste 433], San Jose,CA 95129-5108, (408) 379-4717"},{"latitude":"37.3258705","longitude":"-121.8194122","name":"Michaels-San Jose,CA","address":"2040 Tully Rd, San Jose,CA 95122-1300, (408) 274-6772"},{"latitude":"37.2527853","longitude":"-121.8307313","name":"Michaels-San Jose,CA","address":"5550 Snell Ave, San Jose,CA 95123-1651, (408) 694-0658"},{"latitude":"37.3395348","longitude":"-121.9064331","name":"Michaels-San Jose,CA","address":"561 Coleman Ave, San Jose,CA 95110-2047, (408) 975-9371"},{"latitude":"37.7011795","longitude":"-122.1287537","name":"Michaels-San Leandro,CA","address":"15100 Hesperian Blvd, San Leandro,CA 94578-3600, (510) 278-5400"},{"latitude":"35.2496687","longitude":"-120.643715","name":"Michaels-San Luis Obispo,CA","address":"3880 Broad St, San Luis Obispo,CA 93401-7110, (805) 544-0264"},{"latitude":"37.5404854","longitude":"-122.3006439","name":"Michaels-San Mateo,CA","address":"2925 S El Camino Real, San Mateo,CA 94403, (650) 513-8189"},{"latitude":"38.0045624","longitude":"-122.5409927","name":"Michaels-San Rafael,CA","address":"400 Las Gallinas Ave, San Rafael,CA 94903-3618, (415) 446-7390"},{"latitude":"33.703029","longitude":"-117.88449","name":"Michaels-Santa Ana,CA","address":"3309B S Bristol St, Santa Ana,CA 92704-7245, (714) 556-6646"},{"latitude":"34.924991","longitude":"-120.434776","name":"Michaels-Santa Maria,CA","address":"1934 S Broadway, Santa Maria,CA 93454-7808, (805) 349-8801"},{"latitude":"38.4098762","longitude":"-122.7135877","name":"Michaels-Santa Rosa,CA","address":"2775 Santa Rosa Ave, Santa Rosa,CA 95407-6232, (707) 591-9382"},{"latitude":"32.8434372","longitude":"-116.9872208","name":"Michaels-Santee,CA","address":"230 Town Center Pkwy, Santee,CA 92071-5803, (619) 448-8005"},{"latitude":"33.9523727","longitude":"-118.1872655","name":"Michaels-South Gate,CA","address":"4687 Firestone Blvd, South Gate,CA 90280, (323) 425-8609"},{"latitude":"34.3679123","longitude":"-118.6128769","name":"Michaels-Stevenson Ranch,CA","address":"25686 The Old Road N, Stevenson Ranch,CA 91381-1707, (661) 255-7132"},{"latitude":"38.0196838","longitude":"-121.320076","name":"Michaels-Stockton,CA","address":"628 W Hammer Ln, Stockton,CA 95210, (209) 473-1701"},{"latitude":"34.141514","longitude":"-118.3752561","name":"Michaels-Studio City,CA","address":"11239 Ventura Blvd, Studio City,CA 91604, (818) 761-1005"},{"latitude":"37.3701949","longitude":"-122.041807","name":"Michaels-Sunnyvale,CA","address":"818 W El Camino Real, Sunnyvale,CA 94087-1153, (408) 736-8883"},{"latitude":"33.5048883","longitude":"-117.1499379","name":"Michaels-Temecula,CA","address":"27471 Ynez Rd, Temecula,CA 92591-4612, (951) 676-8087"},{"latitude":"33.8069267","longitude":"-118.3592987","name":"Michaels-Torrance,CA","address":"4240 Pacific Coast Hwy, Torrance,CA 90505-5526, (310) 373-6747"},{"latitude":"37.7526436","longitude":"-121.4703979","name":"Michaels-Tracy,CA","address":"2940 W Grant Line Rd, Tracy,CA 95304-7901, (209) 834-8558"},{"latitude":"37.521328","longitude":"-120.8490267","name":"Michaels-Turlock,CA","address":"3151 Geer Rd, Turlock,CA 95382-1118, (209) 634-7084"},{"latitude":"33.7475478","longitude":"-117.8084886","name":"Michaels-Tustin,CA","address":"1212 Irvine Blvd, Tustin,CA 92780-3531, (714) 730-5855"},{"latitude":"33.698049","longitude":"-117.8243385","name":"Michaels-Tustin,CA","address":"2807 Park Ave, Tustin,CA 92782-2711, (714) 259-0673"},{"latitude":"39.1319221","longitude":"-123.1985948","name":"Michaels-Ukiah,CA","address":"1215 Airport Park Blvd, Ukiah,CA 95482-7400, (707) 472-0411"},{"latitude":"37.6022114","longitude":"-122.0696993","name":"Michaels-Union City,CA","address":"31080 Dyer St, Union City,CA 94587-1768, (510) 471-5443"},{"latitude":"34.0899277","longitude":"-117.6701946","name":"Michaels-Upland,CA","address":"357 S Mountain Ave, Upland,CA 91786-7032, (909) 291-8273"},{"latitude":"38.366523","longitude":"-121.965476","name":"Michaels-Vacaville,CA","address":"1611-A E Monte Vista Ave, Vacaville,CA 95688, (707) 474-3400"},{"latitude":"38.131633","longitude":"-122.216636","name":"Michaels-Vallejo,CA","address":"105 Plaza Dr, Vallejo,CA 94591-3703, (707) 552-0165"},{"latitude":"34.2619247","longitude":"-119.227562","name":"Michaels-Ventura,CA","address":"4850 Telephone Rd, Ventura,CA 93003-5234, (805) 289-1581"},{"latitude":"34.4670229","longitude":"-117.3495244","name":"Michaels-Victorville,CA","address":"11930 Amargosa Rd  [Ste 3], Victorville,CA 92392, (760) 983-7152"},{"latitude":"36.2922172","longitude":"-119.3134794","name":"Michaels-Visalia,CA","address":"4248 S Mooney Blvd, Visalia,CA 93277-9306, (559) 713-0847"},{"latitude":"33.1699295","longitude":"-117.2174683","name":"Michaels-Vista,CA","address":"1851 University Dr, Vista,CA 92083-7774, (760) 941-7350"},{"latitude":"34.026824","longitude":"-117.833335","name":"Michaels-Walnut,CA","address":"21630 Valley Blvd, Walnut,CA 91789, (909) 869-1043"},{"latitude":"34.0706246","longitude":"-117.9242983","name":"Michaels-West Covina,CA","address":"940 Lakes Dr, West Covina,CA 91790-2926, (626) 918-7567"},{"latitude":"34.1902363","longitude":"-118.6234523","name":"Michaels-West Hills,CA","address":"6625 Fallbrook Ave, West Hills,CA 91307-3520, (818) 961-1121"},{"latitude":"34.1546898","longitude":"-118.7937241","name":"Michaels-Westlake Village,CA","address":"5780 Lindero Canyon Rd, Westlake Village,CA 91362-4063, (818) 707-0013"},{"latitude":"33.9628219","longitude":"-118.0324122","name":"Michaels-Whittier,CA","address":"13410 Whittier Blvd, Whittier,CA 90605-1932, (562) 696-1600"},{"latitude":"38.6700679","longitude":"-121.726225","name":"Michaels-Woodland,CA","address":"2175 Bronze Star Dr, Woodland,CA 95776-5406, (530) 669-3240"},{"latitude":"33.8741273","longitude":"-117.7360006","name":"Michaels-Yorba Linda,CA","address":"23021 Savi Ranch Pkwy, Yorba Linda,CA 92887-4669, (714) 637-1811"},{"latitude":"39.1434576","longitude":"-121.655518","name":"Michaels-Yuba City,CA","address":"1120 Harter Rd, Yuba City,CA 95993-2642, (530) 674-2601"},{"latitude":"39.600807","longitude":"-104.705093","name":"Michaels-Aurora,CO","address":"6352 S Central St, Aurora,CO 80016-5326, (303) 680-0616"},{"latitude":"39.6997528","longitude":"-104.8378448","name":"Michaels-Aurora,CO","address":"80 S Abilene St Aurora City Place, Aurora,CO 80012, (303) 343-7049"},{"latitude":"39.9984398","longitude":"-105.2342453","name":"Michaels-Boulder,CO","address":"4800 Baseline Rd, Boulder,CO 80303-2643, (303) 494-2008"},{"latitude":"39.9539273","longitude":"-104.7785988","name":"Michaels-Brighton,CO","address":"2253 Prairie Center Pkwy, Brighton,CO 80601-7000, (720) 685-0032"},{"latitude":"39.414686","longitude":"-104.8646884","name":"Michaels-Castle Rock,CO","address":"5650 Allen Way [Ste 108], Castle Rock,CO 80108, (720) 733-1081"},{"latitude":"38.8011843","longitude":"-104.8176545","name":"Michaels-Colorado Springs,CO","address":"2140 Southgate Rd, Colorado Springs,CO 80906-2659, (719) 475-7580"},{"latitude":"38.8758865","longitude":"-104.7201663","name":"Michaels-Colorado Springs,CO","address":"3040 N Powers Blvd, Colorado Springs,CO 80922-2803, (719) 622-9521"},{"latitude":"38.9413528","longitude":"-104.8009186","name":"Michaels-Colorado Springs,CO","address":"7664 N Academy Blvd, Colorado Springs,CO 80920-3208, (719) 260-6902"},{"latitude":"39.6656764","longitude":"-104.9406418","name":"Michaels-Denver,CO","address":"2780 S Colorado Blvd [Ste 306-B], Denver,CO 80222-6613, (303) 758-9914"},{"latitude":"39.5661282","longitude":"-104.8784374","name":"Michaels-Englewood,CO","address":"9565 E County Line Rd, Englewood,CO 80112-3501, (303) 708-1411"},{"latitude":"40.5277618","longitude":"-105.0769175","name":"Michaels-Ft Collins,CO","address":"4330 S College Ave, Ft Collins,CO 80525-3021, (970) 226-2128"},{"latitude":"39.0868645","longitude":"-108.5924683","name":"Michaels-Grand Junction,CO","address":"2464 Hwy 6 and 50 [Ste E], Grand Junction,CO 81505-1108, (970) 243-2070"},{"latitude":"40.3889729","longitude":"-104.7570299","name":"Michaels-Greeley,CO","address":"4743 W 29th St, Greeley,CO 80634-8363, (970) 506-6697"},{"latitude":"39.5532303","longitude":"-104.9696426","name":"Michaels-Highlands Ranch,CO","address":"9291 S Broadway, Highlands Ranch,CO 80129-5631, (303) 683-1350"},{"latitude":"39.7078514","longitude":"-105.0815584","name":"Michaels-Lakewood,CO","address":"441 S Wadsworth Blvd, Lakewood,CO 80226-3110, (303) 980-4111"},{"latitude":"39.6192922","longitude":"-105.0910527","name":"Michaels-Littleton,CO","address":"5382 S Wadsworth Blvd, Littleton,CO 80123-2201, (303) 971-0745"},{"latitude":"40.1509438","longitude":"-105.0956573","name":"Michaels-Longmont,CO","address":"205 Ken Pratt Blvd, Longmont,CO 80501, (720) 494-2673"},{"latitude":"39.5089874","longitude":"-104.767334","name":"Michaels-Parker,CO","address":"11425 S Twenty Mile Rd, Parker,CO 80134-4918, (303) 840-5891"},{"latitude":"39.6491647","longitude":"-105.0086016","name":"Michaels-Sheridan,CO","address":"3710 River Point Pkwy, Sheridan,CO 80110, (303) 789-5234"},{"latitude":"39.9558377","longitude":"-105.1699586","name":"Michaels-Superior,CO","address":"410 Marshall Rd, Superior,CO 80027-8623, (720) 304-3224"},{"latitude":"39.9141347","longitude":"-104.9751699","name":"Michaels-Thornton,CO","address":"931 E 120th Ave, Thornton,CO 80233-5710, (303) 255-8886"},{"latitude":"39.8874756","longitude":"-105.0756535","name":"Michaels-Westminster,CO","address":"10450 Town Center Dr, Westminster,CO 80021-6083, (303) 469-2821"},{"latitude":"41.8126144","longitude":"-72.8581467","name":"Michaels-Avon,CT","address":"315 W Main St, Avon,CT 06001-3686, (860) 676-1006"},{"latitude":"41.6432114","longitude":"-72.7321999","name":"Michaels-Berlin,CT","address":"259 Berlin Tpke, Berlin,CT 06037, (860) 357-6287"},{"latitude":"41.4350548","longitude":"-73.4144745","name":"Michaels-Brookfield,CT","address":"14 Candlewood Lake Rd, Brookfield,CT 06804-2529, (203) 775-8790"},{"latitude":"41.8405315","longitude":"-71.8845601","name":"Michaels-Dayville,CT","address":"2091 Killingly Commons Dr, Dayville,CT 06241, (860) 779-0572"},{"latitude":"41.9898956","longitude":"-72.5800978","name":"Michaels-Enfield,CT","address":"25 Hazard Ave, Enfield,CT 06082-3725, (860) 253-9019"},{"latitude":"41.3001958","longitude":"-72.7083778","name":"Michaels-Guilford,CT","address":"1919 Boston Post Rd, Guilford,CT 06437, (203) 204-1656"},{"latitude":"41.587719","longitude":"-71.9907455","name":"Michaels-Lisbon,CT","address":"160 River Rd, Lisbon,CT 06351, (860) 376-3516"},{"latitude":"41.8051176","longitude":"-72.5588118","name":"Michaels-Manchester,CT","address":"1520 Pleasant Valley Rd, Manchester,CT 06042-1637, (860) 644-2939"},{"latitude":"41.7351414","longitude":"-72.1992342","name":"Michaels-Mansfield,CT","address":"95 Storrs Rd, Mansfield,CT 06250, (860) 450-9806"},{"latitude":"41.50848","longitude":"-72.806388","name":"Michaels-Meriden,CT","address":"533 S Broad St, Meriden,CT 06450-6661, (203) 630-3040"},{"latitude":"41.2416646","longitude":"-73.03434","name":"Michaels-Milford,CT","address":"79 Turnpike Sq, Milford,CT 06460-2758, (203) 877-9677"},{"latitude":"41.714642","longitude":"-72.7639706","name":"Michaels-New Britain,CT","address":"600 Hartford Rd, New Britain,CT 06053-1527, (860) 826-2752"},{"latitude":"41.3542275","longitude":"-72.8711725","name":"Michaels-North Haven,CT","address":"170 Universal Dr N, North Haven,CT 06473-3117, (203) 985-0302"},{"latitude":"41.0670622","longitude":"-73.5458788","name":"Michaels-Stamford,CT","address":"2233 Summer St, Stamford,CT 06905-4609, (203) 978-0026"},{"latitude":"41.8201675","longitude":"-73.0811217","name":"Michaels-Torrington,CT","address":"1030 Torringford St, Torrington,CT 06790, (860) 866-4396"},{"latitude":"41.5519432","longitude":"-73.031987","name":"Michaels-Waterbury,CT","address":"295 Union St, Waterbury,CT 06705-1248, (203) 597-1336"},{"latitude":"41.3804582","longitude":"-72.1517685","name":"Michaels-Waterford,CT","address":"915 Hartford Tpke, Waterford,CT 06385-4227, (860) 444-6900"},{"latitude":"41.1620216","longitude":"-73.4179611","name":"Michaels-Wilton,CT","address":"14 Danbury Rd, Wilton,CT 06897-4300, (203) 762-7213"},{"latitude":"39.1887932","longitude":"-75.5380325","name":"Michaels-Dover,DE","address":"1165 N Dupont Hwy, Dover,DE 19901-2008, (302) 735-9680"},{"latitude":"39.6752451","longitude":"-75.6496675","name":"Michaels-Newark,DE","address":"800 Centre Blvd, Newark,DE 19702-3213, (302) 266-0515"},{"latitude":"38.7292186","longitude":"-75.1317168","name":"Michaels-Rehoboth Beach,DE","address":"18902 Rehoboth Mall Blvd, Rehoboth Beach,DE 19971-6132, (302) 644-8222"},{"latitude":"39.8337865","longitude":"-75.5337068","name":"Michaels-Wilmington,DE","address":"3080 Brandywine Pkwy, Wilmington,DE 19803-5026, (302) 477-9405"},{"latitude":"28.6644039","longitude":"-81.4161682","name":"Michaels-Altamonte Springs,FL","address":"880 W State Rd 436  [Ste 1001], Altamonte Springs,FL 32714-3047, (407) 865-6163"},{"latitude":"25.9667049","longitude":"-80.1455279","name":"Michaels-Aventura,FL","address":"20609 Biscayne Blvd, Aventura,FL 33180-1536, (305) 937-2100"},{"latitude":"26.3680552","longitude":"-80.1859742","name":"Michaels-Boca Raton,FL","address":"8903 Glades Rd, Boca Raton,FL 33434-4023, (561) 477-9888"},{"latitude":"26.5356903","longitude":"-80.0891876","name":"Michaels-Boynton Beach,FL","address":"800 N Congress Ave  [Ste 1], Boynton Beach,FL 33426-3301, (561) 731-3991"},{"latitude":"27.462255","longitude":"-82.5699639","name":"Michaels-Bradenton,FL","address":"831 Cortez Rd W, Bradenton,FL 34207-1433, (941) 752-7772"},{"latitude":"27.9393911","longitude":"-82.3233884","name":"Michaels-Brandon,FL","address":"2564 W Brandon Blvd, Brandon,FL 33511-4719, (813) 653-9700"},{"latitude":"28.5354343","longitude":"-82.5059328","name":"Michaels-Brooksville,FL","address":"7131 Coastal Blvd, Brooksville,FL 34613, (352) 597-8537"},{"latitude":"26.6475266","longitude":"-81.9853684","name":"Michaels-Cape Coral,FL","address":"527 SW Pine Island Rd, Cape Coral,FL 33991-1962, (239) 242-0634"},{"latitude":"28.0510597","longitude":"-82.4932938","name":"Michaels-Carrollwood,FL","address":"14829 N Dale Mabry Hwy, Carrollwood,FL 33618-2027, (813) 960-3002"},{"latitude":"27.9604297","longitude":"-82.7286762","name":"Michaels-Clearwater,FL","address":"2631 Gulf To Bay Blvd, Clearwater,FL 33759-4936, (727) 216-0612"},{"latitude":"28.5384833","longitude":"-81.7384247","name":"Michaels-Clermont,FL","address":"2315 S US Hwy 27, Clermont,FL 34711, (352) 241-7780"},{"latitude":"26.2575616","longitude":"-80.2503352","name":"Michaels-Coral Springs,FL","address":"2075 N University Dr, Coral Springs,FL 33071-6132, (954) 344-1383"},{"latitude":"28.2281182","longitude":"-81.6442873","name":"Michaels-Davenport,FL","address":"1600 Posner Blvd, Davenport,FL 33837-3628, (863) 420-2130"},{"latitude":"26.0963488","longitude":"-80.2510379","name":"Michaels-Davie,FL","address":"1922 S University Dr, Davie,FL 33324-5849, (954) 236-3038"},{"latitude":"29.1793423","longitude":"-81.0836868","name":"Michaels-Daytona Beach,FL","address":"2500 W Intl Speedway Blvd, Daytona Beach,FL 32114-1119, (386) 258-5542"},{"latitude":"26.3188572","longitude":"-80.1538696","name":"Michaels-Deerfield Beach,FL","address":"3701 W Hillsboro Blvd  [Ste B], Deerfield Beach,FL 33442-9417, (954) 571-7627"},{"latitude":"26.4405587","longitude":"-80.0708592","name":"Michaels-Delray Beach,FL","address":"1630 S Federal Hwy, Delray Beach,FL 33483-5030, (561) 265-3439"},{"latitude":"30.3872833","longitude":"-86.4238052","name":"Michaels-Destin,FL","address":"34940 Emerald Coast Pkwy, Destin,FL 32541-3402, (850) 269-1257"},{"latitude":"26.408348","longitude":"-81.807721","name":"Michaels-Estero,FL","address":"8018 Mediterranean Dr, Estero,FL 33928, (239) 949-4299"},{"latitude":"30.0999688","longitude":"-81.7180896","name":"Michaels-Fleming Island,FL","address":"1993 East West Pkwy, Fleming Island,FL 32003-6350, (904) 269-7044"},{"latitude":"26.5871803","longitude":"-81.8717453","name":"Michaels-Fort Myers,FL","address":"5001 S Cleveland Ave, Fort Myers,FL 33907-1303, (239) 274-5509"},{"latitude":"26.1502846","longitude":"-80.1193602","name":"Michaels-Ft Lauderdale,FL","address":"1712 N Federal Hwy, Ft Lauderdale,FL 33305-2543, (954) 568-4164"},{"latitude":"29.6220656","longitude":"-82.3779432","name":"Michaels-Gainesville,FL","address":"3644 SW Archer Rd, Gainesville,FL 32608-2420, (352) 377-9797"},{"latitude":"25.8654346","longitude":"-80.2931747","name":"Michaels-Hialeah,FL","address":"500 W 49th St  [Ste B], Hialeah,FL 33012, (786) 220-8849"},{"latitude":"26.0443508","longitude":"-80.159926","name":"Michaels-Hollywood,FL","address":"3601 Oakwood Blvd, Hollywood,FL 33020-7111, (954) 927-5530"},{"latitude":"25.4801736","longitude":"-80.4416464","name":"Michaels-Homestead,FL","address":"2535 NE 10 Ct, Homestead,FL 33033-4719, (305) 247-4232"},{"latitude":"30.1731987","longitude":"-81.6262589","name":"Michaels-Jacksonville,FL","address":"11111 San Jose Blvd  [Ste 31], Jacksonville,FL 32223-7274, (904) 260-6602"},{"latitude":"30.4779148","longitude":"-81.6406555","name":"Michaels-Jacksonville,FL","address":"13281 City Station Dr, Jacksonville,FL 32218-7228, (904) 714-9817"},{"latitude":"30.286327","longitude":"-81.454994","name":"Michaels-Jacksonville,FL","address":"13740 Beach Blvd  [Ste 200], Jacksonville,FL 32224-6035, (904) 821-9753"},{"latitude":"30.1918218","longitude":"-81.741347","name":"Michaels-Jacksonville,FL","address":"6001 Argyle Forrest Blvd, Jacksonville,FL 32244-6127, (904) 779-2084"},{"latitude":"30.335485","longitude":"-81.550376","name":"Michaels-Jacksonville,FL","address":"651-800 Commerce Center Dr, Jacksonville,FL 32225-8180, (904) 724-7282"},{"latitude":"30.1927719","longitude":"-81.5504532","name":"Michaels-Jacksonville,FL","address":"9041 Southside Blvd  [Ste 140], Jacksonville,FL 32256-5484, (904) 363-3618"},{"latitude":"28.3468093","longitude":"-81.4198186","name":"Michaels-Kissimmee,FL","address":"3278 N John Young Pkwy, Kissimmee,FL 34741-7549, (407) 343-0915"},{"latitude":"28.9352772","longitude":"-81.9384223","name":"Michaels-Lady Lake,FL","address":"630 US Hwy 441, Lady Lake,FL 32159-3777, (352) 259-2631"},{"latitude":"30.1795372","longitude":"-82.6729506","name":"Michaels-Lake City,FL","address":"2469 W US Hwy 90, Lake City,FL 32055, (386) 961-0236"},{"latitude":"28.0931682","longitude":"-81.9737229","name":"Michaels-Lakeland,FL","address":"4017 N 98, Lakeland,FL 33809-3854, (863) 815-3347"},{"latitude":"27.8941193","longitude":"-82.7835922","name":"Michaels-Largo,FL","address":"10500 Ulmerton Rd  [Ste 250], Largo,FL 33771-3503, (727) 584-2100"},{"latitude":"28.3573309","longitude":"-80.684902","name":"Michaels-Merritt Island,FL","address":"780-B E Merritt Island Cswy, Merritt Island,FL 32952, (321) 614-3903"},{"latitude":"25.6862021","longitude":"-80.3946105","name":"Michaels-Miami,FL","address":"12425 SW 88th St, Miami,FL 33186-1871, (305) 271-5515"},{"latitude":"25.7698052","longitude":"-80.3302402","name":"Michaels-Miami,FL","address":"8287 W Flagler St, Miami,FL 33144-2070, (305) 266-7033"},{"latitude":"25.6924872","longitude":"-80.3041638","name":"Michaels-Miami,FL","address":"8354 S Dixie Hwy, Miami,FL 33143-7714, (305) 665-6793"},{"latitude":"26.2117193","longitude":"-81.7725699","name":"Michaels-Naples,FL","address":"2253 Pine Ridge Rd  [Ste B], Naples,FL 34109-2032, (239) 593-5640"},{"latitude":"29.166604","longitude":"-82.170867","name":"Michaels-Ocala,FL","address":"2701 SW College Rd [#700], Ocala,FL 34474, (352) 414-1009"},{"latitude":"28.551895","longitude":"-81.519181","name":"Michaels-Ocoee,FL","address":"9649 W Colonial Dr, Ocoee,FL 34761-6901, (407) 822-8086"},{"latitude":"28.9166439","longitude":"-81.2859166","name":"Michaels-Orange City,FL","address":"971 Harley Strickland Blvd, Orange City,FL 32763, (386) 456-0536"},{"latitude":"28.4501642","longitude":"-81.4034759","name":"Michaels-Orlando,FL","address":"1766 Sand Lake Rd, Orlando,FL 32809-7628, (407) 857-1329"},{"latitude":"28.5524851","longitude":"-81.2051761","name":"Michaels-Orlando,FL","address":"400 N. Alafaya Trail, Orlando,FL 32828, (407) 282-9161"},{"latitude":"28.4484865","longitude":"-81.4777013","name":"Michaels-Orlando,FL","address":"8081 Turkey Lake Rd [Ste 400], Orlando,FL 32819, (407) 345-8061"},{"latitude":"28.6540012","longitude":"-81.2376099","name":"Michaels-Oviedo,FL","address":"1115 Vidina Place  [Ste 145], Oviedo,FL 32765-9137, (407) 971-9119"},{"latitude":"26.8406054","longitude":"-80.091415","name":"Michaels-Palm Beach Gardens,FL","address":"11240 Legacy Ave, Palm Beach Gardens,FL 33410, (561) 775-0859"},{"latitude":"29.4756304","longitude":"-81.2146208","name":"Michaels-Palm Coast,FL","address":"5250 Hwy 100 E, Palm Coast,FL 32164, (386) 437-4220"},{"latitude":"28.077718","longitude":"-82.7389236","name":"Michaels-Palm Harbor,FL","address":"33561 US Hwy 19 N, Palm Harbor,FL 34684-2600, (727) 781-6625"},{"latitude":"30.2278559","longitude":"-85.8805199","name":"Michaels-Panama City Beach,FL","address":"15600 Panama City Beach Pkwy  [Ste 540], Panama City Beach,FL 32413, (850) 588-0103"},{"latitude":"26.0076052","longitude":"-80.2979652","name":"Michaels-Pembroke Pines,FL","address":"11300 Pines Blvd, Pembroke Pines,FL 33026-4012, (954) 431-1700"},{"latitude":"30.4700433","longitude":"-87.2071177","name":"Michaels-Pensacola,FL","address":"4721 Bayou Blvd, Pensacola,FL 32503-2607, (850) 484-7665"},{"latitude":"27.8378843","longitude":"-82.6829553","name":"Michaels-Pinellas Park,FL","address":"7240 US Hwy 19 N, Pinellas Park,FL 33781-4612, (727) 526-4543"},{"latitude":"27.9889349","longitude":"-82.1243557","name":"Michaels-Plant City,FL","address":"229 W Alexander St, Plant City,FL 33563, (813) 752-4891"},{"latitude":"26.1457048","longitude":"-80.3120206","name":"Michaels-Plantation,FL","address":"12200 W Sunrise Blvd, Plantation,FL 33323-2227, (954) 474-0491"},{"latitude":"27.0146091","longitude":"-82.1416325","name":"Michaels-Port Charlotte,FL","address":"18700 Veterans Blvd  [Ste 12], Port Charlotte,FL 33954-1018, (941) 235-0050"},{"latitude":"29.1097804","longitude":"-81.0371988","name":"Michaels-Port Orange,FL","address":"5507 S Williamson Blvd, Port Orange,FL 32128-7370, (386) 767-7495"},{"latitude":"28.2977505","longitude":"-82.7043839","name":"Michaels-Port Richey,FL","address":"9646 US Hwy 19 N, Port Richey,FL 34668-4642, (727) 849-4229"},{"latitude":"27.2672798","longitude":"-80.4297642","name":"Michaels-Port St. Lucie,FL","address":"10872 SW Village Pkwy, Port St. Lucie,FL 34987-2357, (772) 345-2510"},{"latitude":"26.6858098","longitude":"-80.2022211","name":"Michaels-Royal Palm Beach,FL","address":"521 N State Rd 7, Royal Palm Beach,FL 33411-3524, (561) 784-8574"},{"latitude":"28.809369","longitude":"-81.3348341","name":"Michaels-Sanford,FL","address":"107 Towne Center Blvd, Sanford,FL 32771-7404, (407) 302-0232"},{"latitude":"27.3843093","longitude":"-82.4563649","name":"Michaels-Sarasota,FL","address":"127 N Cattleman Rd, Sarasota,FL 34243-4743, (941) 351-1636"},{"latitude":"27.2592285","longitude":"-82.521318","name":"Michaels-Sarasota,FL","address":"6549 S Tamiami Trail, Sarasota,FL 34231-4827, (941) 921-5548"},{"latitude":"27.4713772","longitude":"-81.4607551","name":"Michaels-Sebring,FL","address":"1740 US 27 N, Sebring,FL 33870-1921, (863) 314-0503"},{"latitude":"29.8653506","longitude":"-81.3304574","name":"Michaels-St Augustine,FL","address":"310 CBL Dr, St Augustine,FL 32086, (904) 829-9664"},{"latitude":"27.7890674","longitude":"-82.7285783","name":"Michaels-St Petersburg,FL","address":"2026 66th St N, St Petersburg,FL 33710-4710, (727) 362-0032"},{"latitude":"27.2352851","longitude":"-80.268601","name":"Michaels-Stuart,FL","address":"2500 NW Federal Hwy, Stuart,FL 34994-9316, (772) 692-3525"},{"latitude":"30.4393622","longitude":"-84.2579249","name":"Michaels-Tallahassee,FL","address":"1524 Governors Square Blvd, Tallahassee,FL 32301-3020, (850) 878-5622"},{"latitude":"28.0155645","longitude":"-82.6159872","name":"Michaels-Tampa,FL","address":"11643 W Hillsborough Ave, Tampa,FL 33635-9736, (813) 854-4509"},{"latitude":"28.1303651","longitude":"-82.3679526","name":"Michaels-Tampa,FL","address":"18081 Highwoods Preserve Pkwy, Tampa,FL 33647-1761, (813) 972-4970"},{"latitude":"27.9078426","longitude":"-82.5047607","name":"Michaels-Tampa,FL","address":"3804 S Dale Mabry Hwy  [Ste A], Tampa,FL 33611-1402, (813) 835-0005"},{"latitude":"27.6409569","longitude":"-80.4539566","name":"Michaels-Vero Beach,FL","address":"6140 20th St, Vero Beach,FL 32966-1023, (772) 770-0354"},{"latitude":"28.2431151","longitude":"-80.725921","name":"Michaels-Viera,FL","address":"2261 Town Center Ave, Viera,FL 32940-6114, (321) 639-7745"},{"latitude":"28.2427444","longitude":"-82.3539505","name":"Michaels-Wesley Chapel,FL","address":"5913 Wesley Grove Blvd, Wesley Chapel,FL 33544, (813) 907-0842"},{"latitude":"28.0356134","longitude":"-80.6669004","name":"Michaels-West Melbourne,FL","address":"205 Palm Bay Rd NE [Ste 14], West Melbourne,FL 32904-8602, (321) 951-8522"},{"latitude":"26.706381","longitude":"-80.0807679","name":"Michaels-West Palm Beach,FL","address":"2021 Okeechobee Blvd, West Palm Beach,FL 33409, (561) 683-7735"},{"latitude":"28.6021341","longitude":"-81.3651907","name":"Michaels-Winter Park,FL","address":"501 N Orlando Ave  [Suite 135], Winter Park,FL 32789-7313, (407) 539-1547"},{"latitude":"34.0338364","longitude":"-84.6831818","name":"Michaels-Acworth,GA","address":"3335 Cobb Pkwy N, Acworth,GA 30101-3940, (770) 966-9013"},{"latitude":"31.6160519","longitude":"-84.2101186","name":"Michaels-Albany,GA","address":"1221 N Westover Blvd, Albany,GA 31707-6600, (229) 420-9676"},{"latitude":"34.0423851","longitude":"-84.3048859","name":"Michaels-Alpharetta,GA","address":"7491 N Point Pkwy, Alpharetta,GA 30022-4846, (678) 722-0036"},{"latitude":"33.9415779","longitude":"-83.4392395","name":"Michaels-Athens,GA","address":"3055 Atlanta Hwy, Athens,GA 30606-3334, (706) 543-2868"},{"latitude":"33.8272438","longitude":"-84.3657303","name":"Michaels-Atlanta,GA","address":"2625 Piedmont Rd NE, Atlanta,GA 30324-3011, (404) 266-8711"},{"latitude":"33.4915578","longitude":"-82.0791505","name":"Michaels-Augusta,GA","address":"211 Robert C Daniel Jr Pkwy, Augusta,GA 30909-0800, (706) 738-9330"},{"latitude":"33.9427719","longitude":"-83.7525558","name":"Michaels-Bethlehem,GA","address":"916 Loganville Hwy, Bethlehem,GA 30620, (770) 307-0213"},{"latitude":"31.2042283","longitude":"-81.4816314","name":"Michaels-Brunswick,GA","address":"480 Glynn Isles, Brunswick,GA 31525, (912) 267-5601"},{"latitude":"34.0605659","longitude":"-83.9938431","name":"Michaels-Buford,GA","address":"1705 Mall of Georgia Blvd, Buford,GA 30519-4982, (678) 482-1674"},{"latitude":"34.2518983","longitude":"-84.4727236","name":"Michaels-Canton,GA","address":"1445 Riverstone Pkwy, Canton,GA 30114-5624, (678) 493-0984"},{"latitude":"32.5343704","longitude":"-84.9714279","name":"Michaels-Columbus,GA","address":"1591 Bradley Park Dr, Columbus,GA 31904-3071, (706) 321-1080"},{"latitude":"33.6471956","longitude":"-83.9941511","name":"Michaels-Conyers,GA","address":"1578 Dogwood Dr SE, Conyers,GA 30013-5041, (770) 761-5562"},{"latitude":"34.1820167","longitude":"-84.131442","name":"Michaels-Cumming,GA","address":"1200 Market Place Blvd, Cumming,GA 30041-7923, (678) 947-5820"},{"latitude":"33.7269384","longitude":"-84.7363888","name":"Michaels-Douglasville,GA","address":"2880 Chapel Hill Rd, Douglasville,GA 30135, (770) 949-1950"},{"latitude":"33.9301539","longitude":"-84.3395472","name":"Michaels-Dunwoody,GA","address":"120 Perimeter Center Place NE, Dunwoody,GA 30346-1204, (678) 459-2317"},{"latitude":"33.4571886","longitude":"-84.4539434","name":"Michaels-Fayetteville,GA","address":"27 Hudson Plaza, Fayetteville,GA 30214-1658, (770) 461-6300"},{"latitude":"34.9468687","longitude":"-85.2315728","name":"Michaels-Fort Oglethorpe,GA","address":"2025 Battlefield Pkwy, Fort Oglethorpe,GA 30742-4025, (706) 866-6863"},{"latitude":"34.300483","longitude":"-83.859092","name":"Michaels-Gainesville,GA","address":"983 Dawsonville Hwy NW, Gainesville,GA 30501-2618, (770) 718-0317"},{"latitude":"33.8868027","longitude":"-84.7470169","name":"Michaels-Hiram,GA","address":"4794 Jimmy Lee Smith Pkwy, Hiram,GA 30141-2764, (770) 222-2175"},{"latitude":"34.010704","longitude":"-84.5710602","name":"Michaels-Kennesaw,GA","address":"860 Cobb Place Blvd, Kennesaw,GA 30144-4864, (770) 218-1348"},{"latitude":"32.8174637","longitude":"-83.7136249","name":"Michaels-Macon,GA","address":"4668 Presidential Pkwy, Macon,GA 31206-8708, (478) 477-3308"},{"latitude":"33.9881821","longitude":"-84.4222794","name":"Michaels-Marietta,GA","address":"4475 Roswell Rd [Ste 700], Marietta,GA 30062, (770) 509-0569"},{"latitude":"33.4644601","longitude":"-84.2183362","name":"Michaels-McDonough,GA","address":"1940 Jonesboro Rd, McDonough,GA 30253-5959, (678) 583-6361"},{"latitude":"33.395998","longitude":"-84.7597575","name":"Michaels-Newnan,GA","address":"575 Bullsboro Dr, Newnan,GA 30265-1045, (770) 252-6223"},{"latitude":"32.1404707","longitude":"-81.2496619","name":"Michaels-Pooler,GA","address":"260 Pooler Pkwy, Pooler,GA 31322, (912) 335-3365"},{"latitude":"34.2481908","longitude":"-85.1620071","name":"Michaels-Rome,GA","address":"1432 Turner McCall Blvd SW, Rome,GA 30161-6072, (706) 295-9081"},{"latitude":"34.0571552","longitude":"-84.3796074","name":"Michaels-Roswell,GA","address":"612A W Crossville Rd, Roswell,GA 30075-2560, (770) 518-7530"},{"latitude":"32.0023422","longitude":"-81.1243362","name":"Michaels-Savannah,GA","address":"8108 Abercorn St, Savannah,GA 31406-3419, (912) 927-3806"},{"latitude":"33.8893166","longitude":"-84.4758276","name":"Michaels-Smyrna,GA","address":"2540 SE Hargrove Rd [Ste C], Smyrna,GA 30080-2801, (770) 433-1700"},{"latitude":"33.87117","longitude":"-84.0159836","name":"Michaels-Snellville,GA","address":"1977 Scenic Hwy N, Snellville,GA 30078-2137, (770) 979-5667"},{"latitude":"34.0713467","longitude":"-84.1669712","name":"Michaels-Suwanee,GA","address":"3630 Peachtree Pkwy [Ste 400], Suwanee,GA 30024-1029, (770) 497-8892"},{"latitude":"33.8461049","longitude":"-84.2546359","name":"Michaels-Tucker,GA","address":"4000 LaVista Rd, Tucker,GA 30084-5205, (678) 280-1012"},{"latitude":"30.8407593","longitude":"-83.3258057","name":"Michaels-Valdosta,GA","address":"1200C N St Augustine Rd, Valdosta,GA 31601-3534, (229) 241-9211"},{"latitude":"32.619449","longitude":"-83.666847","name":"Michaels-Warner Robins,GA","address":"2620 Watson Blvd [Ste C], Warner Robins,GA 31093-2950, (478) 929-2283"},{"latitude":"41.7119993","longitude":"-93.5809998","name":"Michaels-Ankeny,IA","address":"1725 SE Delaware Ave, Ankeny,IA 50021-3936, (515) 965-7712"},{"latitude":"42.483497","longitude":"-92.450355","name":"Michaels-Cedar Falls,IA","address":"420 Viking Plaza Dr, Cedar Falls,IA 50613, (319) 242-5351"},{"latitude":"41.6963788","longitude":"-91.6054912","name":"Michaels-Coralville,IA","address":"2515 Corridor Way [Ste 4], Coralville,IA 52241, (319) 354-1811"},{"latitude":"41.5768585","longitude":"-90.5157547","name":"Michaels-Davenport,IA","address":"4010 E 53rd St, Davenport,IA 52807-3033, (563) 355-7808"},{"latitude":"42.5172602","longitude":"-90.7411098","name":"Michaels-Dubuque,IA","address":"2455 NW Arterial, Dubuque,IA 52002-0492, (563) 584-0339"},{"latitude":"42.027989","longitude":"-91.6250586","name":"Michaels-Marion,IA","address":"1470 Twixt Town Rd, Marion,IA 52302-3080, (319) 377-1222"},{"latitude":"42.4458046","longitude":"-96.341217","name":"Michaels-Sioux City,IA","address":"5001 Sergeant Rd, Sioux City,IA 51106, (712) 276-2115"},{"latitude":"41.5939097","longitude":"-93.7361214","name":"Michaels-West Des Moines,IA","address":"1404 22nd St, West Des Moines,IA 50266-1403, (515) 223-8877"},{"latitude":"43.6034775","longitude":"-116.2894821","name":"Michaels-Boise,ID","address":"8633 Franklin Rd, Boise,ID 83709-0632, (208) 376-9961"},{"latitude":"47.7345352","longitude":"-116.7890625","name":"Michaels-Coeur D'Alene,ID","address":"225 W Canfield Ave [Ste B], Coeur D'Alene,ID 83815-7736, (208) 772-6333"},{"latitude":"43.483345","longitude":"-111.9880524","name":"Michaels-Idaho Falls,ID","address":"2345 E 17th St [Ste B], Idaho Falls,ID 83404-6511, (208) 523-3435"},{"latitude":"43.6260364","longitude":"-116.3543276","name":"Michaels-Meridian,ID","address":"2310 N Eagle Rd, Meridian,ID 83646, (208) 473-7509"},{"latitude":"46.732648","longitude":"-117.0249812","name":"Michaels-Moscow,ID","address":"1720 W Pullman Rd, Moscow,ID 83843-4015, (208) 882-1692"},{"latitude":"43.6119385","longitude":"-116.5893021","name":"Michaels-Nampa,ID","address":"16474 N Marketplace Blvd, Nampa,ID 83651, (208) 442-2851"},{"latitude":"42.5963981","longitude":"-114.4546551","name":"Michaels-Twin Falls,ID","address":"1988 Bridgeview Blvd, Twin Falls,ID 83301-3079, (208) 735-8006"},{"latitude":"42.1633078","longitude":"-88.3355498","name":"Michaels-Algonquin,IL","address":"742 S Randall Rd, Algonquin,IL 60102-5915, (847) 854-6912"},{"latitude":"41.9392602","longitude":"-88.1147779","name":"Michaels-Bloomingdale,IL","address":"402 W Army Trail Dr, Bloomingdale,IL 60108-1379, (630) 671-1200"},{"latitude":"41.1715202","longitude":"-87.8541946","name":"Michaels-Bourbonnais,IL","address":"1515 N State Rte 50, Bourbonnais,IL 60914-4429, (815) 936-9020"},{"latitude":"40.1415163","longitude":"-88.2579569","name":"Michaels-Champaign,IL","address":"2109 N Prospect Ave, Champaign,IL 61822-1238, (217) 378-8716"},{"latitude":"41.8684801","longitude":"-87.6392041","name":"Michaels-Chicago,IL","address":"1101 S Canal St [#002], Chicago,IL 60607-4901, (312) 435-1843"},{"latitude":"41.9383623","longitude":"-87.649312","name":"Michaels-Chicago,IL","address":"3131 N Clark St, Chicago,IL 60657-4413, (773) 327-7127"},{"latitude":"41.6976585","longitude":"-87.7791138","name":"Michaels-Chicago Ridge,IL","address":"9680 S Ridgeland Ave, Chicago Ridge,IL 60415-2609, (708) 424-8674"},{"latitude":"41.9532814","longitude":"-88.7264328","name":"Michaels-DeKalb,IL","address":"2341 Sycamore Rd, DeKalb,IL 60115-2007, (815) 787-0823"},{"latitude":"41.7543373","longitude":"-88.0134888","name":"Michaels-Downers Grove,IL","address":"1206 75th St, Downers Grove,IL 60516-4235, (630) 271-9158"},{"latitude":"41.8341136","longitude":"-88.0217408","name":"Michaels-Downers Grove,IL","address":"1516 Butterfield Rd, Downers Grove,IL 60515-1066, (630)812-1305"},{"latitude":"38.7886912","longitude":"-89.9548799","name":"Michaels-Edwardsville,IL","address":"6639 Edwardsville Crossing Dr, Edwardsville,IL 62025, (618) 659-4697"},{"latitude":"41.7251778","longitude":"-87.6859207","name":"Michaels-Evergreen Park,IL","address":"9140 S Western Ave, Evergreen Park,IL 60805, (708) 423-1399"},{"latitude":"41.8724098","longitude":"-88.3425217","name":"Michaels-Geneva,IL","address":"1506 S Randall Rd, Geneva,IL 60134-4610, (630) 232-6200"},{"latitude":"42.1054418","longitude":"-87.8130052","name":"Michaels-Glenview,IL","address":"2231 Willow Rd, Glenview,IL 60025-7636, (847) 832-9196"},{"latitude":"42.3855107","longitude":"-87.9680818","name":"Michaels-Gurnee,IL","address":"6635 Grand Ave, Gurnee,IL 60031-4591, (847) 855-7462"},{"latitude":"41.866459","longitude":"-87.8827199","name":"Michaels-Hillside,IL","address":"180 S Mannheim Rd, Hillside,IL 60162, (708) 547-1528"},{"latitude":"42.0723991","longitude":"-88.1923065","name":"Michaels-Hoffman Estates,IL","address":"2600 N Sutton Rd, Hoffman Estates,IL 60192-3706, (847) 645-9634"},{"latitude":"41.5764137","longitude":"-88.157423","name":"Michaels-Joliet,IL","address":"2800 Plainfield Rd, Joliet,IL 60435-1167, (815) 230-2157"},{"latitude":"42.1623459","longitude":"-88.0502396","name":"Michaels-Kildeer,IL","address":"20505 N Rand Rd, Kildeer,IL 60047-3004, (847) 550-0832"},{"latitude":"42.3660426","longitude":"-89.0351055","name":"Michaels-Machesney Park,IL","address":"1017 W Lane Rd, Machesney Park,IL 61115, (815) 639-1354"},{"latitude":"42.3594175","longitude":"-88.2672454","name":"Michaels-McHenry,IL","address":"2244 N Richmond Rd, McHenry,IL 60050-1423, (815) 578-9529"},{"latitude":"41.7620239","longitude":"-88.2000961","name":"Michaels-Naperville,IL","address":"2768 Aurora Ave, Naperville,IL 60540, (630) 596-0391"},{"latitude":"41.5091291","longitude":"-87.9204076","name":"Michaels-New Lenox,IL","address":"2374 E Lincoln Hwy, New Lenox,IL 60451-9533, (815) 463-1705"},{"latitude":"42.0407584","longitude":"-87.8068167","name":"Michaels-Niles,IL","address":"7225 W Dempster St, Niles,IL 60714-2107, (847) 966-3060"},{"latitude":"40.5127182","longitude":"-88.9518585","name":"Michaels-Normal,IL","address":"200 Greenbriar Dr, Normal,IL 61761-6282, (309) 268-4007"},{"latitude":"41.9564438","longitude":"-87.8031235","name":"Michaels-Norridge,IL","address":"7010 W Forest Preserve Dr, Norridge,IL 60706-7123, (708) 457-8075"},{"latitude":"41.7986649","longitude":"-88.3633878","name":"Michaels-North Aurora,IL","address":"1780 Orchard Gateway Blvd, North Aurora,IL 60542, (630) 907-9376"},{"latitude":"41.8476702","longitude":"-87.8038381","name":"Michaels-North Riverside,IL","address":"7231 W 24th St, North Riverside,IL 60546-1406, (708) 442-5787"},{"latitude":"41.615309","longitude":"-87.8534543","name":"Michaels-Orland Park,IL","address":"15102 S La Grange Rd, Orland Park,IL 60462-3709, (708) 349-4458"},{"latitude":"41.6975369","longitude":"-88.3141585","name":"Michaels-Oswego,IL","address":"1620 Douglas Rd, Oswego,IL 60543, (630) 551-1557"},{"latitude":"40.7401352","longitude":"-89.6340179","name":"Michaels-Peoria,IL","address":"2601 W Lake Ave, Peoria,IL 61615-3754, (309) 740-9347"},{"latitude":"42.2673346","longitude":"-88.9926179","name":"Michaels-Rockford,IL","address":"6301 E State St, Rockford,IL 61108-2540, (815) 227-1296"},{"latitude":"42.0505826","longitude":"-88.0443887","name":"Michaels-Schaumburg,IL","address":"1420 E Golf Rd, Schaumburg,IL 60173-4902, (847) 517-2622"},{"latitude":"38.5714551","longitude":"-89.9250691","name":"Michaels-Shiloh,IL","address":"3800 Green Mount Crossing Dr, Shiloh,IL 62269-7286, (618) 622-4983"},{"latitude":"42.009455","longitude":"-87.7674466","name":"Michaels-Skokie,IL","address":"7055 Central Ave, Skokie,IL 60077-3272, (847) 410-0280"},{"latitude":"39.7622258","longitude":"-89.7065744","name":"Michaels-Springfield,IL","address":"3119 S Veterans Pkwy, Springfield,IL 62704-6497, (217) 698-1402"},{"latitude":"41.5461845","longitude":"-87.7965927","name":"Michaels-Tinley Park,IL","address":"7310 191st St, Tinley Park,IL 60477, (815) 469-1654"},{"latitude":"42.2397003","longitude":"-87.9439697","name":"Michaels-Vernon Hills,IL","address":"701 N Milwaukee Ave, Vernon Hills,IL 60061-1530, (847) 816-4542"},{"latitude":"41.7599398","longitude":"-87.9447198","name":"Michaels-Willowbrook,IL","address":"7155 S Kingery Hwy, Willowbrook,IL 60527-5525, (630) 325-2376"},{"latitude":"39.7637647","longitude":"-86.3395438","name":"Michaels-Avon,IN","address":"10352 E US Hwy 36, Avon,IN 46123-7050, (317) 271-4670"},{"latitude":"39.1660901","longitude":"-86.5759483","name":"Michaels-Bloomington,IN","address":"120 N Gates Dr, Bloomington,IN 47404-4873, (812) 339-4835"},{"latitude":"40.0131111","longitude":"-86.12883","name":"Michaels-Carmel,IN","address":"14670 US Hwy 31 N, Carmel,IN 46032-1391, (317) 580-9200"},{"latitude":"38.3243599","longitude":"-85.7661667","name":"Michaels-Clarksville,IN","address":"1020 Veterans Pkwy [Ste 800], Clarksville,IN 47129, (812) 288-5194"},{"latitude":"41.12881","longitude":"-85.0124223","name":"Michaels-Fort Wayne,IN","address":"10240 Maysville Rd, Fort Wayne,IN 46835, (260) 492-6957"},{"latitude":"41.0697987","longitude":"-85.1957573","name":"Michaels-Fort Wayne,IN","address":"4230 W Jefferson Blvd, Fort Wayne,IN 46804-6818, (260) 459-2054"},{"latitude":"41.6232812","longitude":"-85.9052821","name":"Michaels-Goshen,IN","address":"3826 Midway Rd, Goshen,IN 46526-5852, (574) 875-1752"},{"latitude":"41.5262657","longitude":"-87.4711221","name":"Michaels-Highland,IN","address":"10323 Indianapolis Blvd, Highland,IN 46322, (219) 924-6705"},{"latitude":"39.9041672","longitude":"-86.0814362","name":"Michaels-Indianapolis,IN","address":"5151 E 82nd St [Ste 300], Indianapolis,IN 46250-1625, (317) 841-1974"},{"latitude":"39.9091301","longitude":"-86.2645874","name":"Michaels-Indianapolis,IN","address":"5750 W 86th St, Indianapolis,IN 46278-1338, (317) 876-0063"},{"latitude":"39.622139","longitude":"-86.1173172","name":"Michaels-Indianapolis,IN","address":"8030 Hwy 31, Indianapolis,IN 46227-6226, (317) 882-3266"},{"latitude":"39.7746002","longitude":"-85.9939834","name":"Michaels-Indianapolis,IN","address":"9835 E Washington St, Indianapolis,IN 46229-2623, (317) 897-9913"},{"latitude":"40.4002228","longitude":"-86.8541718","name":"Michaels-Lafayette,IN","address":"3500 State Hwy 38 E [Ste 200], Lafayette,IN 47905-5165, (765) 449-0911"},{"latitude":"41.4727818","longitude":"-87.3071426","name":"Michaels-Merrillville,IN","address":"2384 E 79th Ave, Merrillville,IN 46410-5740, (219) 947-4589"},{"latitude":"41.718811","longitude":"-86.1854553","name":"Michaels-Mishawaka,IN","address":"6502 Grape Rd, Mishawaka,IN 46545-1102, (574) 271-0112"},{"latitude":"40.2190711","longitude":"-85.3802557","name":"Michaels-Muncie,IN","address":"628 E McGalliard Rd, Muncie,IN 47303, (765) 273-2689"},{"latitude":"41.4696959","longitude":"-87.0271294","name":"Michaels-Valparaiso,IN","address":"91 Silhavy Rd, Valparaiso,IN 46383-4425, (219) 464-0960"},{"latitude":"38.9279093","longitude":"-95.2605093","name":"Michaels-Lawrence,KS","address":"3106 Iowa St, Lawrence,KS 66046-5202, (785) 841-9100"},{"latitude":"38.9126703","longitude":"-94.7566945","name":"Michaels-Olathe,KS","address":"14685 W 119th St, Olathe,KS 66062-8600, (913) 397-0545"},{"latitude":"38.909335","longitude":"-94.675842","name":"Michaels-Overland Park,KS","address":"12140 Blue Valley Pkwy, Overland Park,KS 66213, (913) 491-0702"},{"latitude":"38.9605659","longitude":"-94.6678396","name":"Michaels-Overland Park,KS","address":"9290 Metcalf Ave, Overland Park,KS 66212-1478, (913) 648-6334"},{"latitude":"39.0098736","longitude":"-94.7621736","name":"Michaels-Shawnee,KS","address":"15210 Shawnee Mission Pkwy, Shawnee,KS 66217-9315, (913) 962-8550"},{"latitude":"39.0300384","longitude":"-95.7621434","name":"Michaels-Topeka,KS","address":"2040 SW Wanamaker Rd, Topeka,KS 66604-3827, (785)271-0482"},{"latitude":"37.6772804","longitude":"-97.2003937","name":"Michaels-Wichita,KS","address":"11835 E Kellogg Dr, Wichita,KS 67207-1939, (316) 684-1300"},{"latitude":"37.7289391","longitude":"-97.4636688","name":"Michaels-Wichita,KS","address":"2441 N Maize Rd [Ste 2201], Wichita,KS 67205-7935, (316) 722-3472"},{"latitude":"36.9558104","longitude":"-86.4322134","name":"Michaels-Bowling Green,KY","address":"2313 Gary Farms Blvd, Bowling Green,KY 42104-4418, (270) 393-2195"},{"latitude":"37.738705","longitude":"-85.8894771","name":"Michaels-Elizabethtown,KY","address":"1990 N Dixie Ave, Elizabethtown,KY 42701-8853, (270) 765-5544"},{"latitude":"39.0148354","longitude":"-84.6411362","name":"Michaels-Florence,KY","address":"4999 Houston Rd, Florence,KY 41042-1365, (859) 282-9658"},{"latitude":"38.1764183","longitude":"-84.8167191","name":"Michaels-Frankfort,KY","address":"7000 John Davis Dr, Frankfort,KY 40601, (502) 695-6181"},{"latitude":"38.0064316","longitude":"-84.5213089","name":"Michaels-Lexington,KY","address":"150 W Lowry Ln [Ste 170], Lexington,KY 40503-3008, (859) 277-1022"},{"latitude":"37.7116508","longitude":"-84.2785721","name":"Michaels-Lexington,KY","address":"1953 Pavilion Way, Lexington,KY 40509-2211, (859) 543-0896"},{"latitude":"38.292276","longitude":"-85.562595","name":"Michaels-Louisville,KY","address":"10221 Westport Rd, Louisville,KY 40241-2147, (502) 412-4922"},{"latitude":"38.2179561","longitude":"-85.5856955","name":"Michaels-Louisville,KY","address":"1955 S Hurstbourne Pkwy, Louisville,KY 40220-1645, (502) 499-7360"},{"latitude":"38.1378412","longitude":"-85.6682244","name":"Michaels-Louisville,KY","address":"4901 Outer Loop, Louisville,KY 40219-4094, (502) 410-5438"},{"latitude":"39.0905745","longitude":"-84.4768093","name":"Michaels-Newport,KY","address":"158 Pavilion Pkwy, Newport,KY 41071-2884, (859) 261-1573"},{"latitude":"37.7373525","longitude":"-84.3281981","name":"Michaels-Richmond,KY","address":"2025 Lantern Ridge Dr, Richmond,KY 40475-6010, (859) 625-5748"},{"latitude":"32.530345","longitude":"-93.701438","name":"Michaels-Bossier City,LA","address":"3047 E Texas Hwy, Bossier City,LA 71111-3207, (318) 752-2229"},{"latitude":"30.4429677","longitude":"-90.1434177","name":"Michaels-Covington,LA","address":"69290 Hwy 21, Covington,LA 70433-7214, (985) 893-3420"},{"latitude":"32.498909","longitude":"-92.0670242","name":"Michaels-Monroe,LA","address":"4429 Pecanland Mall Dr  [Ste 7], Monroe,LA 71203, (318) 322-6338"},{"latitude":"32.4367878","longitude":"-93.7149547","name":"Michaels-Shreveport,LA","address":"7440 Youree Dr, Shreveport,LA 71105-5536, (318) 524-9902"},{"latitude":"42.1279068","longitude":"-71.067131","name":"Michaels-Avon,MA","address":"15 Stockwell Dr, Avon,MA 02322-1172, (508) 580-8881"},{"latitude":"42.1146606","longitude":"-71.4621035","name":"Michaels-Bellingham,MA","address":"251 Hartford Ave, Bellingham,MA 02019-3007, (508) 966-0463"},{"latitude":"42.2011719","longitude":"-71.0012131","name":"Michaels-Braintree,MA","address":"121 Pearl Street, Braintree,MA 02184, (781) 519-2596"},{"latitude":"42.4842148","longitude":"-71.1866455","name":"Michaels-Burlington,MA","address":"34 Cambridge St, Burlington,MA 01803-4674, (781) 328-2007"},{"latitude":"42.3892269","longitude":"-71.1178547","name":"Michaels-Cambridge,MA","address":"37 White St, Cambridge,MA 02140, (617) 499-0925"},{"latitude":"42.6102943","longitude":"-71.3344421","name":"Michaels-Chelmsford,MA","address":"265 Chelmsford St, Chelmsford,MA 01824-2343, (978) 256-5281"},{"latitude":"42.5493515","longitude":"-70.9406807","name":"Michaels-Danvers,MA","address":"35 Independence Way, Danvers,MA 01923-3626, (978) 777-2526"},{"latitude":"42.400751","longitude":"-71.0714726","name":"Michaels-Everett,MA","address":"17 Mystic View Rd, Everett,MA 02149-2428, (617) 381-8102"},{"latitude":"42.354784","longitude":"-72.5567452","name":"Michaels-Hadley,MA","address":"325 Russell St [Unit B], Hadley,MA 01035-3535, (413) 582-0784"},{"latitude":"42.1386905","longitude":"-70.8424421","name":"Michaels-Hanover,MA","address":"1246 Washington St, Hanover,MA 02339-1631, (781) 829-6571"},{"latitude":"42.3952465","longitude":"-71.5943337","name":"Michaels-Hudson,MA","address":"19 Highlands Commons E, Hudson,MA 01749, (978) 212-3257"},{"latitude":"42.5424575","longitude":"-71.7596443","name":"Michaels-Leominster,MA","address":"18 Water Tower Plaza, Leominster,MA 01453-2247, (978) 534-4630"},{"latitude":"42.0146217","longitude":"-71.229866","name":"Michaels-Mansfield,MA","address":"280 School St [Ste I 160], Mansfield,MA 02048-1810, (508) 339-6239"},{"latitude":"42.1970482","longitude":"-71.7770691","name":"Michaels-Millbury,MA","address":"70 Worcester Providence Tpke, Millbury,MA 01527-2652, (508) 581-9703"},{"latitude":"42.2947448","longitude":"-71.4564494","name":"Michaels-Natick,MA","address":"1398 Worcester Rd, Natick,MA 01760-1514, (508) 652-8054"},{"latitude":"42.3108944","longitude":"-71.2140045","name":"Michaels-Newton,MA","address":"201 Needham St, Newton,MA 02464, (617) 332-3972"},{"latitude":"41.9369278","longitude":"-71.3517456","name":"Michaels-North Attleboro,MA","address":"1385 S Washington St, North Attleboro,MA 02760-4404, (508) 643-2565"},{"latitude":"41.640678","longitude":"-71.0035933","name":"Michaels-North Dartmouth,MA","address":"471 State Rd, North Dartmouth,MA 02747-4309, (508) 996-0361"},{"latitude":"42.2455148","longitude":"-70.9364562","name":"Michaels-North Weymouth,MA","address":"729 Bridge St, North Weymouth,MA 02191-2139, (781) 335-0456"},{"latitude":"42.2886387","longitude":"-71.6726623","name":"Michaels-Northborough,MA","address":"6108 Shops Way, Northborough,MA 01532-3301, (508) 393-8234"},{"latitude":"42.4682428","longitude":"-73.196049","name":"Michaels-Pittsfield,MA","address":"555 Hubbard Ave, Pittsfield,MA 01201-3810, (413) 496-9200"},{"latitude":"41.9525231","longitude":"-70.7132401","name":"Michaels-Plymouth,MA","address":"211 Colony Place, Plymouth,MA 02360, (508) 732-9880"},{"latitude":"42.4802638","longitude":"-71.0215614","name":"Michaels-Saugus,MA","address":"607 Broadway, Saugus,MA 01906-3206, (781) 233-3423"},{"latitude":"41.7983765","longitude":"-71.3330276","name":"Michaels-Seekonk,MA","address":"251 Highland Ave, Seekonk,MA 02771-5807, (508) 336-4101"},{"latitude":"42.4935535","longitude":"-71.1006611","name":"Michaels-Stoneham,MA","address":"119 Main St [Ste 1], Stoneham,MA 02180-3305, (781)-850-4364"},{"latitude":"42.1265609","longitude":"-72.0536902","name":"Michaels-Sturbridge,MA","address":"100 Charlton Rd, Sturbridge,MA 01566, (508) 347-3015"},{"latitude":"41.8751678","longitude":"-71.0626144","name":"Michaels-Taunton,MA","address":"9 Mozzone Blvd, Taunton,MA 02780-3795, (508) 884-5082"},{"latitude":"42.1331291","longitude":"-72.6229324","name":"Michaels-West Springfield,MA","address":"1081 Riverdale St, West Springfield,MA 01089-4614, (413) 732-7221"},{"latitude":"42.2025894","longitude":"-71.1540987","name":"Michaels-Westwood,MA","address":"261 University Ave, Westwood,MA 02090, (774) 999-0181"},{"latitude":"49.8662371","longitude":"-99.9616951","name":"Michaels-Brandon,MB","address":"901 18th St N, Brandon,MB R7A7S1, (204) 728-2398"},{"latitude":"49.8969809","longitude":"-97.062703","name":"Michaels-Winnipeg,MB","address":"1570 Regent Ave W, Winnipeg,MB R2C 3B4, (204) 515-6387"},{"latitude":"49.8380438","longitude":"-97.0942928","name":"Michaels-Winnipeg,MB","address":"1949 Bishop Grandin Blvd, Winnipeg,MB R2M 5S1, (204) 255-6122"},{"latitude":"49.888633","longitude":"-97.2012445","name":"Michaels-Winnipeg,MB","address":"840 St James St, Winnipeg,MB R3G 3J7, (204) 783-8541"},{"latitude":"38.9803196","longitude":"-76.5429202","name":"Michaels-Annapolis,MD","address":"2309 B Forest Dr, Annapolis,MD 21401-3833, (410) 224-1302"},{"latitude":"39.2771121","longitude":"-76.5657022","name":"Michaels-Baltimore,MD","address":"3669 Boston St, Baltimore,MD 21224, (410) 276-1380"},{"latitude":"39.369828","longitude":"-76.4540519","name":"Michaels-Baltimore,MD","address":"5212 Campbell Blvd, Baltimore,MD 21236-4983, (410) 933-8443"},{"latitude":"39.5223427","longitude":"-76.3522415","name":"Michaels-Bel Air,MD","address":"640 Marketplace Dr, Bel Air,MD 21014-4338, (410) 420-2533"},{"latitude":"38.9511299","longitude":"-76.7197876","name":"Michaels-Bowie,MD","address":"4511 Mitchellville Rd, Bowie,MD 20716-3111, (301) 809-1806"},{"latitude":"38.3007011","longitude":"-76.518158","name":"Michaels-California,MD","address":"45045 Worth Ave, California,MD 20619-2400, (301) 737-6140"},{"latitude":"39.1840039","longitude":"-76.8195981","name":"Michaels-Columbia,MD","address":"9041 Snowden River Pkwy, Columbia,MD 21046-1657, (443) 285-0808"},{"latitude":"39.2530802","longitude":"-76.8172632","name":"Michaels-Ellicott City,MD","address":"4360 Montgomery Rd, Ellicott City,MD 21043-6006, (410) 480-8140"},{"latitude":"39.3843227","longitude":"-77.401844","name":"Michaels-Frederick,MD","address":"5541 Urbana Pike, Frederick,MD 21704-7325, (301) 631-6590"},{"latitude":"39.1220241","longitude":"-77.2371329","name":"Michaels-Gaithersburg,MD","address":"821 Center Point Way, Gaithersburg,MD 20878-5458, (301) 977-9400"},{"latitude":"39.198761","longitude":"-77.2460632","name":"Michaels-Germantown,MD","address":"20902 Frederick Rd, Germantown,MD 20876-4134, (301) 515-4951"},{"latitude":"39.1359562","longitude":"-76.5967662","name":"Michaels-Glen Burnie,MD","address":"16 Mountain Rd, Glen Burnie,MD 21060-7974, (410) 766-0720"},{"latitude":"39.6239014","longitude":"-77.7753906","name":"Michaels-Hagerstown,MD","address":"17225 Cole Rd  [Ste 2], Hagerstown,MD 21740-6901, (301) 582-9120"},{"latitude":"39.1526952","longitude":"-76.7298084","name":"Michaels-Hanover,MD","address":"7665 Arundel Mills Blvd, Hanover,MD 21076-1305, (410) 796-2472"},{"latitude":"39.0860322","longitude":"-76.8612374","name":"Michaels-Laurel,MD","address":"14240 Baltimore Ave, Laurel,MD 20707-5006, (301) 776-9231"},{"latitude":"39.4300194","longitude":"-76.6217575","name":"Michaels-Lutherville Timonium,MD","address":"30-36 W Ridgely Rd, Lutherville Timonium,MD 21093-5112, (443) 279-0790"},{"latitude":"38.3378448","longitude":"-75.1112603","name":"Michaels-Ocean City,MD","address":"12641 Ocean Gateway  [Ste 200], Ocean City,MD 21842-9594, (410) 213-7513"},{"latitude":"39.4052567","longitude":"-76.7598318","name":"Michaels-Owings Mills,MD","address":"9616 Reistertown Rd  [Ste 125], Owings Mills,MD 21117, (410) 581-5347"},{"latitude":"39.0652753","longitude":"-77.127004","name":"Michaels-Rockville,MD","address":"1509 Rockville Pike, Rockville,MD 20852-1601, (301) 881-8100"},{"latitude":"38.4156905","longitude":"-75.5640205","name":"Michaels-Salisbury,MD","address":"113 E N Point Dr, Salisbury,MD 21801-2283, (410) 334-2322"},{"latitude":"39.0820511","longitude":"-77.0769969","name":"Michaels-Silver Spring,MD","address":"13850 Georgia Ave, Silver Spring,MD 20906-2924, (301) 603-8001"},{"latitude":"39.3931773","longitude":"-76.5811101","name":"Michaels-Towson,MD","address":"1238 Putty Hill Ave, Towson,MD 21286-5844, (410) 823-6400"},{"latitude":"38.6294384","longitude":"-76.9119995","name":"Michaels-Waldorf,MD","address":"3026 Festival Way, Waldorf,MD 20601-2958, (301) 638-5669"},{"latitude":"39.5847226","longitude":"-76.988763","name":"Michaels-Westminster,MD","address":"402 B Englar Rd, Westminster,MD 21157-4852, (410) 871-0921"},{"latitude":"44.3405896","longitude":"-69.7893532","name":"Michaels-Augusta,ME","address":"13 Marketplace Dr, Augusta,ME 04330-4637, (207) 623-3832"},{"latitude":"43.4758394","longitude":"-70.5089403","name":"Michaels-Biddeford,ME","address":"106 Shops Way, Biddeford,ME 04005-9436, (207) 283-1568"},{"latitude":"43.6290665","longitude":"-70.3439407","name":"Michaels-Scarborough,ME","address":"490 Payne Rd, Scarborough,ME 04074-8929, (207) 883-8419"},{"latitude":"42.2812673","longitude":"-83.2061791","name":"Michaels-Allen Park,MI","address":"3220 Fairlane Dr, Allen Park,MI 48101-2871, (313) 441-1436"},{"latitude":"42.2555255","longitude":"-83.6882264","name":"Michaels-Ann Arbor,MI","address":"3655 Washtenaw Ave, Ann Arbor,MI 48104-5250, (734) 975-6774"},{"latitude":"42.2630196","longitude":"-85.1780701","name":"Michaels-Battle Creek,MI","address":"12765 Harper Village Dr, Battle Creek,MI 49014-7556, (269) 979-8771"},{"latitude":"42.0870586","longitude":"-86.4357278","name":"Michaels-Benton Harbor,MI","address":"950 E Napier Ave, Benton Harbor,MI 49022, (269) 934-7531"},{"latitude":"42.5436263","longitude":"-83.7879905","name":"Michaels-Brighton,MI","address":"8389 W Grand River Ave, Brighton,MI 48116, (810) 229-1485"},{"latitude":"42.3228161","longitude":"-83.4543653","name":"Michaels-Canton,MI","address":"41904 Ford Rd, Canton,MI 48187-3647, (734) 981-6578"},{"latitude":"42.5332495","longitude":"-83.4379743","name":"Michaels-Commerce Township,MI","address":"475 Haggerty Rd, Commerce Township,MI 48390-3939, (248) 960-3845"},{"latitude":"42.8038066","longitude":"-83.7339702","name":"Michaels-Fenton,MI","address":"15110 Silver Pkwy, Fenton,MI 48430-3449, (810) 750-3486"},{"latitude":"42.9799194","longitude":"-83.7743607","name":"Michaels-Flint,MI","address":"3268 S Linden Rd, Flint,MI 48507-3099, (810) 733-6785"},{"latitude":"42.91119","longitude":"-85.5704956","name":"Michaels-Grand Rapids,MI","address":"3940 28th St SE, Grand Rapids,MI 49512, (616) 974-9536"},{"latitude":"42.8766976","longitude":"-85.7624216","name":"Michaels-Grandville,MI","address":"4830 Wilson Ave SW [Ste 400], Grandville,MI 49418-3134, (616) 531-2545"},{"latitude":"42.833366","longitude":"-86.09481","name":"Michaels-Holland,MI","address":"3571 West Shore Dr, Holland,MI 49424-9674, (616) 399-9250"},{"latitude":"42.2700001","longitude":"-84.4333756","name":"Michaels-Jackson,MI","address":"1525 Boardman Rd, Jackson,MI 49202-1973, (517) 796-9025"},{"latitude":"42.7385864","longitude":"-84.670723","name":"Michaels-Lansing,MI","address":"416 N Marketplace Blvd, Lansing,MI 48917-7714, (517) 622-8711"},{"latitude":"42.7395415","longitude":"-84.5068265","name":"Michaels-Lansing,MI","address":"540 Frandor Ave, Lansing,MI 48912-5206, (517) 332-1778"},{"latitude":"42.3793745","longitude":"-83.3334479","name":"Michaels-Livonia,MI","address":"13110 Middlebelt Rd, Livonia,MI 48150-2231, (734) 525-9409"},{"latitude":"46.5492909","longitude":"-87.4586391","name":"Michaels-Marquette,MI","address":"3175 US Hwy 41 W, Marquette,MI 49855-9494, (906) 228-3059"},{"latitude":"43.6600562","longitude":"-84.2376494","name":"Michaels-Midland,MI","address":"909 Joe Mann Blvd, Midland,MI 48642-8903, (989) 839-4373"},{"latitude":"42.4910764","longitude":"-83.4783275","name":"Michaels-Novi,MI","address":"43635 W Oaks Dr, Novi,MI 48377-3305, (248) 319-0056"},{"latitude":"42.7102692","longitude":"-83.3073118","name":"Michaels-Orion Township,MI","address":"4824 S Baldwin Rd, Orion Township,MI 48359-2115, (248) 393-3912"},{"latitude":"42.2211892","longitude":"-85.5893923","name":"Michaels-Portage,MI","address":"6601 S Westnedge Ave, Portage,MI 49002-3544, (269) 321-1794"},{"latitude":"42.6627143","longitude":"-83.133103","name":"Michaels-Rochester Hills,MI","address":"1260 S Rochester Rd, Rochester Hills,MI 48307-3120, (248) 453-6000"},{"latitude":"43.4800787","longitude":"-83.9843664","name":"Michaels-Saginaw,MI","address":"3437 Tittabawassee Rd, Saginaw,MI 48604-9489, (989) 791-4360"},{"latitude":"42.6275097","longitude":"-82.9910512","name":"Michaels-Shelby Township,MI","address":"13821 Hall Rd, Shelby Township,MI 48315-6102, (586) 566-2621"},{"latitude":"42.7115021","longitude":"-83.0308609","name":"Michaels-Shelby Township,MI","address":"8500 26 Mile Rd, Shelby Township,MI 48316-5023, (586) 677-5278"},{"latitude":"42.4974346","longitude":"-83.2848141","name":"Michaels-Southfield,MI","address":"28550 Telegraph Rd, Southfield,MI 48034-7505, (248) 281-0136"},{"latitude":"42.199112","longitude":"-83.199764","name":"Michaels-Southgate,MI","address":"14501 Eureka Rd, Southgate,MI 48195-2064, (734) 246-7150"},{"latitude":"44.7352345","longitude":"-85.6461062","name":"Michaels-Traverse City,MI","address":"3315 N US 31 S, Traverse City,MI 49684-4538, (231) 932-9706"},{"latitude":"42.5426265","longitude":"-83.1862309","name":"Michaels-Troy,MI","address":"1205 Coolidge Hwy, Troy,MI 48084-7012, (248) 649-3103"},{"latitude":"42.5365721","longitude":"-83.1068784","name":"Michaels-Troy,MI","address":"334 John R Rd, Troy,MI 48083-4542, (248) 721-4290"},{"latitude":"43.0230832","longitude":"-85.6889941","name":"Michaels-Walker,MI","address":"3310 Alpine Ave NW  [Unit 5], Walker,MI 49544-1600, (616) 647-9483"},{"latitude":"42.1375801","longitude":"-83.2260637","name":"Michaels-Woodhaven,MI","address":"23460 Allen Rd, Woodhaven,MI 48183-3376, (734) 676-7285"},{"latitude":"44.7329955","longitude":"-93.2048374","name":"Michaels-Apple Valley,MN","address":"14890 Florence Trl, Apple Valley,MN 55124-4630, (952) 953-3300"},{"latitude":"45.1640205","longitude":"-93.1608963","name":"Michaels-Blaine,MN","address":"4255 Pheasant Ridge Dr NE, Blaine,MN 55449-4529, (763) 786-4443"},{"latitude":"44.8587964","longitude":"-93.3326615","name":"Michaels-Bloomington,MN","address":"4240 W 78th St, Bloomington,MN 55435-5404, (952) 893-0141"},{"latitude":"45.0555687","longitude":"-93.315553","name":"Michaels-Brooklyn Center,MN","address":"1300 Shingle Creek Crossing, Brooklyn Center,MN 55430-2673, (763) 251-1503"},{"latitude":"44.7490349","longitude":"-93.2864075","name":"Michaels-Burnsville,MN","address":"13901 Aldrich Ave S, Burnsville,MN 55337-6216, (651) 894-4119"},{"latitude":"45.1946068","longitude":"-93.3541946","name":"Michaels-Coon Rapids,MN","address":"3460 124th Ave NW, Coon Rapids,MN 55433-1002, (763) 433-0500"},{"latitude":"45.1331884","longitude":"-93.2674489","name":"Michaels-Coon Rapids,MN","address":"44 NW Coon Rapids Blvd, Coon Rapids,MN 55448-5809, (763) 783-0494"},{"latitude":"46.8048897","longitude":"-92.1507721","name":"Michaels-Duluth,MN","address":"925 W Central Entrance Hwy, Duluth,MN 55811, (218) 723-0062"},{"latitude":"44.8349851","longitude":"-93.1562854","name":"Michaels-Eagan,MN","address":"1267 Promenade Pl, Eagan,MN 55121-2293, (651) 688-2345"},{"latitude":"44.8491157","longitude":"-93.4388622","name":"Michaels-Eden Prairie,MN","address":"8565 Columbine Rd, Eden Prairie,MN 55344-7662, (952) 942-3897"},{"latitude":"44.1646156","longitude":"-93.9476089","name":"Michaels-Mankato,MN","address":"1901 Madison Ave, Mankato,MN 56001-5414, (507) 386-0333"},{"latitude":"45.0996669","longitude":"-93.4492296","name":"Michaels-Maple Grove,MN","address":"7980 Wedgewood Ln N, Maple Grove,MN 55369-9403, (763) 420-0909"},{"latitude":"45.0308228","longitude":"-93.01651","name":"Michaels-Maplewood,MN","address":"2980 White Bear Ave N, Maplewood,MN 55109-1304, (651) 770-0350"},{"latitude":"45.0039167","longitude":"-93.2286058","name":"Michaels-Minneapolis,MN","address":"1620 New Brighton Blvd, Minneapolis,MN 55413-1643, (612) 789-0461"},{"latitude":"44.9713473","longitude":"-93.4245419","name":"Michaels-Minnetonka,MN","address":"11522 Wayzata Blvd, Minnetonka,MN 55305-2007, (952) 541-8109"},{"latitude":"45.03371","longitude":"-92.835502","name":"Michaels-Oak Park Heights,MN","address":"5845 Krueger Ln N, Oak Park Heights,MN 55082, (651) 439-6060"},{"latitude":"45.0181885","longitude":"-93.4848785","name":"Michaels-Plymouth,MN","address":"3215 Vicksburg Ln N, Plymouth,MN 55447-1317, (763) 519-2739"},{"latitude":"44.8835519","longitude":"-93.280294","name":"Michaels-Richfield,MN","address":"66 W 66th St, Richfield,MN 55423-2316, (612) 861-9666"},{"latitude":"43.985325","longitude":"-92.4598914","name":"Michaels-Rochester,MN","address":"60 25th St SE, Rochester,MN 55904-5557, (507) 285-5947"},{"latitude":"45.0036125","longitude":"-93.1644135","name":"Michaels-Roseville,MN","address":"2100 N Snelling Ave, Roseville,MN 55113-6000, (651) 631-1810"},{"latitude":"44.7772519","longitude":"-93.4155451","name":"Michaels-Shakopee,MN","address":"8051 Old Carriage Ct, Shakopee,MN 55379-3157, (952) 233-1068"},{"latitude":"45.5533223","longitude":"-94.2119674","name":"Michaels-St Cloud,MN","address":"4150 W Division St, St Cloud,MN 56301-3706, (320) 255-0486"},{"latitude":"44.9464088","longitude":"-92.9207868","name":"Michaels-Woodbury,MN","address":"9180 Hudson Rd, Woodbury,MN 55125-9106, (651) 203-2500"},{"latitude":"39.025589","longitude":"-94.2503204","name":"Michaels-Blue Springs,MO","address":"1050 NE Coronado Dr, Blue Springs,MO 64014, (816) 224-2806"},{"latitude":"36.6703074","longitude":"-93.2262428","name":"Michaels-Branson,MO","address":"1025 Branson Hills Pkwy, Branson,MO 65616-9940, (417) 336-0074"},{"latitude":"38.62752","longitude":"-90.3465005","name":"Michaels-Brentwood,MO","address":"1519 S Brentwood Blvd, Brentwood,MO 63144-1406, (314) 961-1395"},{"latitude":"38.667395","longitude":"-90.5949555","name":"Michaels-Chesterfield,MO","address":"142 THF Blvd, Chesterfield,MO 63005-1123, (636) 728-0712"},{"latitude":"38.9579773","longitude":"-92.3698044","name":"Michaels-Columbia,MO","address":"2001 W Ash St, Columbia,MO 65203-1161, (573) 445-6009"},{"latitude":"38.6015213","longitude":"-90.4338017","name":"Michaels-Des Peres,MO","address":"11945 Manchester Rd, Des Peres,MO 63131-4502, (314) 966-3565"},{"latitude":"38.5926546","longitude":"-90.5866528","name":"Michaels-Ellisville,MO","address":"15911 Manchester Rd, Ellisville,MO 63011, (636) 552-9968"},{"latitude":"38.5048901","longitude":"-90.4469278","name":"Michaels-Fenton,MO","address":"129 Gravois Bluffs Plaza Dr, Fenton,MO 63026-4013, (636) 343-5724"},{"latitude":"38.8050078","longitude":"-90.3068742","name":"Michaels-Florissant,MO","address":"2427 N Hwy 67, Florissant,MO 63033, (314) 839-3425"},{"latitude":"37.0690193","longitude":"-94.4762878","name":"Michaels-Joplin,MO","address":"415 S Geneva Ave, Joplin,MO 64801, (417) 659-8703"},{"latitude":"38.8823305","longitude":"-94.6010567","name":"Michaels-Kansas City,MO","address":"13627 Washington St, Kansas City,MO 64145-1670, (816) 941-4937"},{"latitude":"39.250324","longitude":"-94.660629","name":"Michaels-Kansas City,MO","address":"8551 NW Prairie View Rd, Kansas City,MO 64153-1844, (816) 741-8977"},{"latitude":"38.9261203","longitude":"-94.4051079","name":"Michaels-Lees Summit,MO","address":"1616 NW Chipman Rd, Lees Summit,MO 64081-3934, (816) 525-7846"},{"latitude":"38.7786276","longitude":"-90.6998561","name":"Michaels-O'Fallon,MO","address":"2220 Hwy K, O'Fallon,MO 63368-7929, (636) 379-9429"},{"latitude":"37.1415367","longitude":"-93.2611008","name":"Michaels-Springfield,MO","address":"1840 E Independence St, Springfield,MO 65804-3754, (417) 823-0884"},{"latitude":"38.7843098","longitude":"-90.5327819","name":"Michaels-St Charles,MO","address":"2155 Zumbehl Rd, St Charles,MO 63303-2724, (636) 947-6379"},{"latitude":"39.8143578","longitude":"-94.8123322","name":"Michaels-St Joseph,MO","address":"5201 N Belt Hwy, St Joseph,MO 64506-1256, (816) 676-2945"},{"latitude":"38.5224237","longitude":"-90.3482942","name":"Michaels-St Louis,MO","address":"5796 S Lindbergh Blvd, St Louis,MO 63123-6937, (314) 842-4411"},{"latitude":"38.5376734","longitude":"-91.0094487","name":"Michaels-Washington,MO","address":"2094 Washington Crossing, Washington,MO 63090-5284, (636) 239-1283"},{"latitude":"38.8174841","longitude":"-90.8771541","name":"Michaels-Wentzville,MO","address":"1856 Wentzville Pkwy, Wentzville,MO 63385-3817, (636) 327-1891"},{"latitude":"33.5845718","longitude":"-88.4400864","name":"Michaels-Columbus,MS","address":"2051 US 45 W, Columbus,MS 39705, (662) 368-2384"},{"latitude":"30.4549049","longitude":"-88.9042123","name":"Michaels-D'Iberville,MS","address":"3942 Promenade Pkwy, D'Iberville,MS 39540-5370, (228) 396-7934"},{"latitude":"32.337365","longitude":"-90.069038","name":"Michaels-Flowood,MS","address":"712 Mackenzie Ln, Flowood,MS 39232, (601) 992-9441"},{"latitude":"30.436106","longitude":"-89.0908485","name":"Michaels-Gulfport,MS","address":"15136 Crossroads Pkwy, Gulfport,MS 39503-3565, (228) 832-6660"},{"latitude":"31.3242359","longitude":"-89.3545151","name":"Michaels-Hattiesburg,MS","address":"4400 Hardy St, Hattiesburg,MS 39402-1309, (601) 264-1209"},{"latitude":"32.4635951","longitude":"-90.1333842","name":"Michaels-Madison,MS","address":"175 Grandview Blvd  [Ste 800], Madison,MS 39110-7595, (601) 898-4078"},{"latitude":"34.9626173","longitude":"-89.900191","name":"Michaels-Olive Branch,MS","address":"5030 Goodman Rd, Olive Branch,MS 38654-7905, (662) 890-4474"},{"latitude":"45.7536774","longitude":"-108.5848236","name":"Michaels-Billings,MT","address":"2800 King Ave W, Billings,MT 59102-6432, (406) 652-7440"},{"latitude":"45.7074333","longitude":"-111.0656056","name":"Michaels-Bozeman,MT","address":"2855 N 19th Ave, Bozeman,MT 59718-8504, (406) 587-4103"},{"latitude":"47.4836807","longitude":"-111.3405151","name":"Michaels-Great Falls,MT","address":"1601 Market Place Dr [Ste 25], Great Falls,MT 59404-3482, (406) 268-0800"},{"latitude":"48.238369","longitude":"-114.3337784","name":"Michaels-Kalispell,MT","address":"145 Treeline Rd, Kalispell,MT 59901, (406) 407-7200"},{"latitude":"46.8915079","longitude":"-114.0392245","name":"Michaels-Missoula,MT","address":"2850 N Reserve St, Missoula,MT 59808-1318, (406) 542-0128"},{"latitude":"45.93013","longitude":"-66.65994","name":"Michaels-Fredericton,NB","address":"9 Riocan Ave, Fredericton,NB E3C 0B9, (506) 454-7070"},{"latitude":"46.1136","longitude":"-64.83132","name":"Michaels-Moncton,NB","address":"35 Plaza Blvd, Moncton,NB E1C 0E8, (506) 382-8800"},{"latitude":"45.3115","longitude":"-66.02164","name":"Michaels-Saint John,NB","address":"80 McAllister Dr, Saint John,NB E2J 1S5, (506) 693-7700"},{"latitude":"35.4475024","longitude":"-82.5347015","name":"Michaels-Arden,NC","address":"5 McKenna Rd, Arden,NC 28704-9201, (828) 684-1961"},{"latitude":"35.5736504","longitude":"-82.5206299","name":"Michaels-Asheville,NC","address":"111 - A River Hills Road, Asheville,NC 28805-2235, (828) 299-0183"},{"latitude":"36.1963765","longitude":"-81.6574596","name":"Michaels-Boone,NC","address":"320 Watauga Village Dr, Boone,NC 28607-5263, (828) 265-8334"},{"latitude":"36.0689219","longitude":"-79.5205933","name":"Michaels-Burlington,NC","address":"1455 University Dr, Burlington,NC 27215, (336) 584-8219"},{"latitude":"35.760319","longitude":"-78.7363697","name":"Michaels-Cary,NC","address":"340 Crossroads Blvd, Cary,NC 27511-6895, (919) 851-6001"},{"latitude":"35.2969398","longitude":"-80.8158035","name":"Michaels-Charlotte,NC","address":"13540 Hoover Creek Blvd, Charlotte,NC 28273, (980) 225-1957"},{"latitude":"35.1727007","longitude":"-80.8510944","name":"Michaels-Charlotte,NC","address":"4337 Park Rd, Charlotte,NC 28209-2233, (704) 521-1336"},{"latitude":"35.0607955","longitude":"-80.8135656","name":"Michaels-Charlotte,NC","address":"7836 Rea Road, Charlotte,NC 28277-6502, (704) 543-9341"},{"latitude":"35.097513","longitude":"-80.7781564","name":"Michaels-Charlotte,NC","address":"8120 Providence Rd, Charlotte,NC 28277-9750, (704) 543-4119"},{"latitude":"35.3109712","longitude":"-80.7526747","name":"Michaels-Charlotte,NC","address":"8716 JW Clay Blvd, Charlotte,NC 28262-8471, (704) 510-0922"},{"latitude":"35.9538384","longitude":"-78.9958271","name":"Michaels-Durham,NC","address":"5442 New Hope Common Dr, Durham,NC 27707-9716, (919) 490-4945"},{"latitude":"35.9032083","longitude":"-78.9514574","name":"Michaels-Durham,NC","address":"8200 Renaissance Pkwy, Durham,NC 27713-6688, (919) 206-4388"},{"latitude":"35.0547378","longitude":"-78.9726703","name":"Michaels-Fayetteville,NC","address":"2057 Skibo Rd, Fayetteville,NC 28314-2217, (910) 860-2653"},{"latitude":"35.6918798","longitude":"-78.5807895","name":"Michaels-Garner,NC","address":"270 Shenstone Ln, Garner,NC 27529-6905, (919) 661-0936"},{"latitude":"35.259511","longitude":"-81.1268301","name":"Michaels-Gastonia,NC","address":"2904 E Franklin Blvd, Gastonia,NC 28056-9469, (704) 854-3191"},{"latitude":"35.3737369","longitude":"-77.9474287","name":"Michaels-Goldsboro,NC","address":"401 N Berkeley Blvd, Goldsboro,NC 27534-4327, (919) 778-1958"},{"latitude":"36.0589005","longitude":"-79.903264","name":"Michaels-Greensboro,NC","address":"1206 Bridford Pkwy, Greensboro,NC 27407-2744, (336) 297-4015"},{"latitude":"36.1130429","longitude":"-79.8786206","name":"Michaels-Greensboro,NC","address":"1616 Highwoods Blvd, Greensboro,NC 27410-2048, (336) 316-1112"},{"latitude":"35.5833626","longitude":"-77.3707886","name":"Michaels-Greenville,NC","address":"600 SE Greenville Blvd, Greenville,NC 27858-6737, (252) 439-1880"},{"latitude":"35.7040644","longitude":"-81.2987369","name":"Michaels-Hickory,NC","address":"2195 Hwy 70 SE, Hickory,NC 28602-5163, (828) 261-0231"},{"latitude":"35.6628784","longitude":"-78.8477464","name":"Michaels-Holly Springs,NC","address":"164 Grand Hill Place, Holly Springs,NC 27540, (919) 552-4730"},{"latitude":"34.786911","longitude":"-77.3986359","name":"Michaels-Jacksonville,NC","address":"1250 Western Blvd, Jacksonville,NC 28546-6653, (910) 938-4501"},{"latitude":"35.7978344","longitude":"-78.5058137","name":"Michaels-Knightdale,NC","address":"1006 Shoppes at Midway Dr., Knightdale,NC 27545, (919)217-2631"},{"latitude":"35.1272875","longitude":"-80.6993765","name":"Michaels-Matthews,NC","address":"10510 Northeast Pkwy, Matthews,NC 28105-6708, (704) 708-8455"},{"latitude":"35.5955221","longitude":"-80.8719841","name":"Michaels-Mooresville,NC","address":"590 River Hwy, Mooresville,NC 28117-8840, (704) 662-6988"},{"latitude":"34.738166","longitude":"-76.8065485","name":"Michaels-Morehead City,NC","address":"5160 Hwy 70 W [Ste 400], Morehead City,NC 28557, (252) 222-3185"},{"latitude":"35.0793686","longitude":"-77.1183853","name":"Michaels-New Bern,NC","address":"3028 Dr ML King Jr Blvd, New Bern,NC 28562, (252) 514-6628"},{"latitude":"35.8573613","longitude":"-78.5811502","name":"Michaels-Raleigh,NC","address":"5240 Capital Blvd, Raleigh,NC 27616-2924, (919) 872-0998"},{"latitude":"35.9095078","longitude":"-78.7819977","name":"Michaels-Raleigh,NC","address":"8131 Brier Creek Pkwy, Raleigh,NC 27617-7598, (919) 806-2736"},{"latitude":"35.9785435","longitude":"-77.8085205","name":"Michaels-Rocky Mount,NC","address":"1251 Cobb Corners Dr, Rocky Mount,NC 27804-2530, (252) 442-7085"},{"latitude":"35.6451302","longitude":"-80.4838791","name":"Michaels-Salisbury,NC","address":"1465 Klumac Rd, Salisbury,NC 28144, (704) 636-3130"},{"latitude":"35.1777244","longitude":"-79.4317719","name":"Michaels-Southern Pines,NC","address":"10205 US 15\/501 [Unit #39], Southern Pines,NC 28387, (910) 695-1212"},{"latitude":"35.8141724","longitude":"-80.8764627","name":"Michaels-Statesville,NC","address":"216 Turnersburg Hwy, Statesville,NC 28625, (704) 872-9043"},{"latitude":"35.9892415","longitude":"-78.5314912","name":"Michaels-Wake Forest,NC","address":"12626 Capital Blvd, Wake Forest,NC 27587, (919) 435-3874"},{"latitude":"35.4678905","longitude":"-83.0089597","name":"Michaels-Waynesville,NC","address":"305 Town Center Loop, Waynesville,NC 28786-6872, (828) 452-7680"},{"latitude":"34.2445866","longitude":"-77.8292587","name":"Michaels-Wilmington,NC","address":"6881 Monument Dr, Wilmington,NC 28405-4178, (910) 256-5112"},{"latitude":"36.0690384","longitude":"-80.3220825","name":"Michaels-Winston Salem,NC","address":"1050 Hanes Mall Blvd, Winston Salem,NC 27103-1309, (336) 765-6402"},{"latitude":"47.4462814","longitude":"-100.4693985","name":"Michaels-Bismark,ND","address":"1459 E LaSalle Dr, Bismark,ND 58503, (701) 354-5224"},{"latitude":"47.8894271","longitude":"-97.0833707","name":"Michaels-Grand Forks,ND","address":"3861 32nd Ave S, Grand Forks,ND 58201-5907, (701) 746-0072"},{"latitude":"46.8639755","longitude":"-96.8737335","name":"Michaels-West Fargo,ND","address":"1638 13th Ave E, West Fargo,ND 58078-3404, (701) 281-2385"},{"latitude":"40.7427406","longitude":"-96.6752167","name":"Michaels-Lincoln,NE","address":"3010 Pine Lake Rd [Ste A], Lincoln,NE 68516-6018, (402) 328-8878"},{"latitude":"40.8188934","longitude":"-96.6531143","name":"Michaels-Lincoln,NE","address":"400 N 48th St, Lincoln,NE 68504, (402) 858-9955"},{"latitude":"41.214477","longitude":"-96.106475","name":"Michaels-Omaha,NE","address":"12404 K Plaza, Omaha,NE 68137-2249, (402) 330-0843"},{"latitude":"41.2898483","longitude":"-96.1410065","name":"Michaels-Omaha,NE","address":"3405 N 147th St, Omaha,NE 68116-8189, (402) 898-2560"},{"latitude":"41.2541724","longitude":"-96.0238505","name":"Michaels-Omaha,NE","address":"713 S 72nd St, Omaha,NE 68114-4613, (402) 509-6164"},{"latitude":"41.1373132","longitude":"-96.0280173","name":"Michaels-Papillion,NE","address":"7775 Olson Dr, Papillion,NE 68046, (402) 590-5515"},{"latitude":"42.8070561","longitude":"-71.5679334","name":"Michaels-Amherst,NH","address":"123 Rte 101a, Amherst,NH 03031, (603) 886-2771"},{"latitude":"43.2200966","longitude":"-71.4840622","name":"Michaels-Concord,NH","address":"86 D'Amante Dr, Concord,NH 03301-5759, (603) 226-3684"},{"latitude":"43.0242305","longitude":"-71.0755523","name":"Michaels-Epping,NH","address":"11 Brickyard Square, Epping,NH 03042-4405, (603) 679-1096"},{"latitude":"42.9246005","longitude":"-72.3059265","name":"Michaels-Keene,NH","address":"7 Ash Brook Rd, Keene,NH 03431-5918, (603) 357-7101"},{"latitude":"42.9638647","longitude":"-71.4442655","name":"Michaels-Manchester,NH","address":"777 S Willow St, Manchester,NH 03103-4036, (603) 263-8292"},{"latitude":"42.7073758","longitude":"-71.4412936","name":"Michaels-Nashua,NH","address":"268A Daniel Webster Hwy, Nashua,NH 03060, (603) 821-4224"},{"latitude":"43.0926537","longitude":"-70.7977411","name":"Michaels-Newington,NH","address":"45 Gosling Rd, Newington,NH 03801-2802, (603) 334-6502"},{"latitude":"42.7584464","longitude":"-71.2124462","name":"Michaels-Salem,NH","address":"290 S Broadway, Salem,NH 03079-3304, (603) 870-5442"},{"latitude":"42.8952096","longitude":"-70.8710975","name":"Michaels-Seabrook,NH","address":"700 Lafayette Rd, Seabrook,NH 03874-6207, (603) 760-7377"},{"latitude":"40.6628667","longitude":"-74.1062775","name":"Michaels-Bayonne,NJ","address":"321 Bayonne Crossing Way, Bayonne,NJ 07002-5304, (201) 437-0261"},{"latitude":"40.5617715","longitude":"-74.5548119","name":"Michaels-Bridgewater,NJ","address":"135 Promenade Blvd, Bridgewater,NJ 08807-3455, (732) 302-4566"},{"latitude":"40.6317253","longitude":"-74.3048859","name":"Michaels-Clark,NJ","address":"1255 Raritan Rd, Clark,NJ 07066, (732) 943-0474"},{"latitude":"40.8293159","longitude":"-74.1371148","name":"Michaels-Clifton,NJ","address":"348 Rt 3 W, Clifton,NJ 07014-1900, (973) 472-0649"},{"latitude":"39.8375322","longitude":"-75.0902753","name":"Michaels-Deptford,NJ","address":"2000 Clements Bridge Rd, Deptford,NJ 08096-2011, (856) 686-5891"},{"latitude":"40.8023892","longitude":"-74.3618993","name":"Michaels-East Hanover,NJ","address":"410 State Rte 10, East Hanover,NJ 07936-3552, (973) 887-3024"},{"latitude":"40.2920077","longitude":"-74.0523382","name":"Michaels-Eatontown,NJ","address":"178 Rte 35 S, Eatontown,NJ 07724-1883, (732) 542-4323"},{"latitude":"40.813405","longitude":"-73.9849638","name":"Michaels-Edgewater,NJ","address":"465 River Rd, Edgewater,NJ 07020-1145, (201) 313-2512"},{"latitude":"40.8833758","longitude":"-74.705084","name":"Michaels-Flanders,NJ","address":"30 International Dr, Flanders,NJ 07836-4107, (973) 426-9911"},{"latitude":"40.5056114","longitude":"-74.8490143","name":"Michaels-Flemington,NJ","address":"325 Hwy 202, Flemington,NJ 08822-1730, (908) 788-9220"},{"latitude":"40.2829666","longitude":"-74.2931366","name":"Michaels-Freehold,NJ","address":"4345 Route 9, Freehold,NJ 07728-4215, (732) 431-1193"},{"latitude":"40.4129478","longitude":"-74.147149","name":"Michaels-Holmdel,NJ","address":"2130 State Route 35, Holmdel,NJ 07733-2770, (732) 275-0016"},{"latitude":"40.1492615","longitude":"-74.1999359","name":"Michaels-Howell,NJ","address":"4785 Rte 9 N, Howell,NJ 07731-3385, (732) 905-0192"},{"latitude":"39.8888093","longitude":"-74.9243787","name":"Michaels-Marlton,NJ","address":"191 Route 73 S, Marlton,NJ 08053-4120, (856) 596-3701"},{"latitude":"39.9394193","longitude":"-74.9646266","name":"Michaels-Moorestown,NJ","address":"1199 Nixon Dr, Moorestown,NJ 08057-3201, (856) 866-8855"},{"latitude":"40.4620135","longitude":"-74.4580297","name":"Michaels-North Brunswick,NJ","address":"869 Route 1, North Brunswick,NJ 08902-3345, (732) 296-8199"},{"latitude":"40.9358458","longitude":"-74.0708381","name":"Michaels-Paramus,NJ","address":"240 N State Rt 17, Paramus,NJ 07652-2925, (551) 497-4338"},{"latitude":"40.8704681","longitude":"-74.4194336","name":"Michaels-Parsippany,NJ","address":"1099 Rte 46 E, Parsippany,NJ 07054-2177, (973) 334-0249"},{"latitude":"40.6747737","longitude":"-75.1366038","name":"Michaels-Phillipsburg,NJ","address":"1206 New Brunswick Ave, Phillipsburg,NJ 08865-4124, (908) 387-9818"},{"latitude":"40.304189","longitude":"-74.6768269","name":"Michaels-Princeton,NJ","address":"300 Nassau Park Blvd, Princeton,NJ 08540-5940, (609) 919-1250"},{"latitude":"41.0667639","longitude":"-74.1368177","name":"Michaels-Ramsey,NJ","address":"75 Interstate Shopping Center, Ramsey,NJ 07446-1605, (201) 934-5435"},{"latitude":"40.9074631","longitude":"-74.5484619","name":"Michaels-Rockaway Township,NJ","address":"327 Mount Hope Ave, Rockaway Township,NJ 07866-1645, (973) 328-7831"},{"latitude":"39.7459294","longitude":"-74.9930298","name":"Michaels-Sicklerville,NJ","address":"463 Cross Keys Rd, Sicklerville,NJ 08081-9749, (856) 629-4291"},{"latitude":"39.9892949","longitude":"-74.1767639","name":"Michaels-Toms River,NJ","address":"1342 Hooper Ave, Toms River,NJ 08753-2855, (732) 281-2625"},{"latitude":"40.1932394","longitude":"-74.6432121","name":"Michaels-Trenton,NJ","address":"320 Marketplace Blvd, Trenton,NJ 08691-2107, (609) 581-6969"},{"latitude":"39.4330303","longitude":"-75.0405163","name":"Michaels-Vineland,NJ","address":"3849 S Delsea Dr  [Ste A3], Vineland,NJ 08360-7408, (856) 825-5855"},{"latitude":"40.651142","longitude":"-74.408462","name":"Michaels-Watchung,NJ","address":"1701 US Hwy 22 [Ste 65], Watchung,NJ 07069-6500, (908) 490-1144"},{"latitude":"40.939674","longitude":"-74.2700484","name":"Michaels-Wayne,NJ","address":"1660 Rte 23, Wayne,NJ 07470-7516, (973) 406-8150"},{"latitude":"35.2079161","longitude":"-106.6526563","name":"Michaels-Albuquerque,NM","address":"3701 Ellison Dr NW [Ste B], Albuquerque,NM 87114-7016, (505) 922-0221"},{"latitude":"35.1296425","longitude":"-106.5497131","name":"Michaels-Albuquerque,NM","address":"4410 Wyoming Blvd NE, Albuquerque,NM 87111-3165, (505) 299-4007"},{"latitude":"35.3242302","longitude":"-106.5735931","name":"Michaels-Rio Rancho,NM","address":"3575 NM Hwy 528 NE, Rio Rancho,NM 87144, (505) 814-1438"},{"latitude":"35.6394157","longitude":"-106.0105972","name":"Michaels-Santa Fe,NM","address":"3549 Zafarano Dr, Santa Fe,NM 87507-2618, (505) 424-7600"},{"latitude":"44.6997","longitude":"-63.56678","name":"Michaels-Dartmouth,NS","address":"Civic #15 Lemlair Row Rd, Dartmouth,NS B3B 0C6, (902) 461-3032"},{"latitude":"44.64788","longitude":"-63.6709","name":"Michaels-Halifax,NS","address":"45 Washmill Lake Ct, Halifax,NS B3S 1B9, (902) 450-0288"},{"latitude":"45.5780601","longitude":"-62.666138","name":"Michaels-New Glasgow,NS","address":"689 Westville Rd, New Glasgow,NS B2H 2J6, (902) 755-2239"},{"latitude":"45.06812","longitude":"-64.4371199","name":"Michaels-New Minas,NS","address":"18 Millet Dr, New Minas,NS B4N 0G8, (902)-681-7320"},{"latitude":"46.1488072","longitude":"-60.1395981","name":"Michaels-Sydney,NS","address":"800 Grand Lake Rd, Sydney,NS B1P 6S9, (902) 539-1919"},{"latitude":"45.3694149","longitude":"-63.3015759","name":"Michaels-Truro,NS","address":"245 Robie St, Truro,NS B2N 5N6, (902) 895-0161"},{"latitude":"39.1081085","longitude":"-119.7779541","name":"Michaels-Carson City,NV","address":"911 Topsy Ln [Ste 112], Carson City,NV 89705-8402, (775) 267-1938"},{"latitude":"36.1560326","longitude":"-115.2060394","name":"Michaels-Las Vegas,NV","address":"1251 S Decatur Blvd, Las Vegas,NV 89102-5515, (702) 259-0034"},{"latitude":"36.0621681","longitude":"-115.2486877","name":"Michaels-Las Vegas,NV","address":"7195 Arroyo Crossing Pkwy, Las Vegas,NV 89113-4057, (702) 260-0932"},{"latitude":"36.1959587","longitude":"-115.2527095","name":"Michaels-Las Vegas,NV","address":"7321 W Lake Mead Blvd, Las Vegas,NV 89128-1003, (702) 254-8354"},{"latitude":"36.2702364","longitude":"-115.2693453","name":"Michaels-Las Vegas,NV","address":"7941 W Tropical Pkwy, Las Vegas,NV 89149-4534, (702) 839-0140"},{"latitude":"36.0099254","longitude":"-115.1176368","name":"Michaels-Las Vegas,NV","address":"9881 S Eastern Ave, Las Vegas,NV 89183-6949, (702) 407-5690"},{"latitude":"39.4796638","longitude":"-119.7937243","name":"Michaels-Reno,NV","address":"4871 Kietzke Ln, Reno,NV 89509-6549, (775) 829-8000"},{"latitude":"39.5831709","longitude":"-119.7407761","name":"Michaels-Sparks,NV","address":"165 Los Altos Pkwy, Sparks,NV 89436, (775) 626-3341"},{"latitude":"42.6973","longitude":"-73.8477097","name":"Michaels-Albany,NY","address":"161 Washington Ave Ext, Albany,NY 12205-5600, (518) 456-7015"},{"latitude":"42.9856339","longitude":"-78.8210831","name":"Michaels-Amherst,NY","address":"1261 Niagara Falls Blvd, Amherst,NY 14226-1104, (716) 834-3322"},{"latitude":"42.9644203","longitude":"-74.1879272","name":"Michaels-Amsterdam,NY","address":"240 Amsterdam Commons, Amsterdam,NY 12010, (518) 843-0371"},{"latitude":"43.013554","longitude":"-78.2059508","name":"Michaels-Batavia,NY","address":"4210 Veterans Memorial Dr, Batavia,NY 14020, (585) 343-2036"},{"latitude":"40.7290368","longitude":"-73.2788669","name":"Michaels-Bay Shore,NY","address":"832 Sunrise Hwy, Bay Shore,NY 11706-5906, (631) 206-1251"},{"latitude":"41.4186763","longitude":"-73.628971","name":"Michaels-Brewster,NY","address":"100-B Independent Way, Brewster,NY 10509-2368, (845) 279-4167"},{"latitude":"40.8195633","longitude":"-73.9303078","name":"Michaels-Bronx,NY","address":"700 Exterior St, Bronx,NY 10451, (347) 767-3409"},{"latitude":"40.6514941","longitude":"-73.8699882","name":"Michaels-Brooklyn,NY","address":"410 Gateway Dr, Brooklyn,NY 11239, (347) 694-4067"},{"latitude":"43.0466919","longitude":"-76.2329941","name":"Michaels-Camillus,NY","address":"3483 W Genesee St, Camillus,NY 13219, (315) 488-3256"},{"latitude":"42.877969","longitude":"-77.2554664","name":"Michaels-Canandaigua,NY","address":"320 Eastern Blvd, Canandaigua,NY 14424, (585) 396-0645"},{"latitude":"41.3132628","longitude":"-74.1348638","name":"Michaels-Central Valley,NY","address":"27 Centre Dr, Central Valley,NY 10917-6501, (845) 782-2116"},{"latitude":"42.9084704","longitude":"-78.7730395","name":"Michaels-Cheektowaga,NY","address":"1740 Walden Ave, Cheektowaga,NY 14225-4925, (716) 895-6091"},{"latitude":"42.858661","longitude":"-73.77111","name":"Michaels-Clifton Park,NY","address":"48 Crossing Blvd, Clifton Park,NY 12065-4180, (518) 373-9820"},{"latitude":"40.8411712","longitude":"-73.286477","name":"Michaels-Commack,NY","address":"50 Veterans Memorial Hwy, Commack,NY 11725-3409, (631) 499-2408"},{"latitude":"42.1546262","longitude":"-76.88067","name":"Michaels-Elmira,NY","address":"845 County Rte 64, Elmira,NY 14903-7900, (607) 739-2084"},{"latitude":"40.7403","longitude":"-73.787574","name":"Michaels-Fresh Meadows,NY","address":"187-04 Horace Harding Expy, Fresh Meadows,NY 11365-2716, (718) 464-4057"},{"latitude":"41.0278791","longitude":"-73.7908262","name":"Michaels-Hartsdale,NY","address":"319 N Central Ave, Hartsdale,NY 10530-1811, (914) 946-1872"},{"latitude":"43.0890884","longitude":"-77.6251373","name":"Michaels-Henrietta,NY","address":"720 Jefferson Rd, Henrietta,NY 14623, (585) 445-3667"},{"latitude":"40.8172989","longitude":"-73.4091873","name":"Michaels-Huntington Station,NY","address":"350 Walt Whitman Rd, Huntington Station,NY 11746-8704, (631) 423-0381"},{"latitude":"42.4328232","longitude":"-76.5096054","name":"Michaels-Ithaca,NY","address":"614 S Meadow St, Ithaca,NY 14850-5319, (607) 272-2465"},{"latitude":"41.9719054","longitude":"-73.9849075","name":"Michaels-Kingston,NY","address":"703 Frank Sottile Blvd, Kingston,NY 12401-1552, (845) 382-1261"},{"latitude":"42.0993614","longitude":"-79.3069305","name":"Michaels-Lakewood,NY","address":"279 E Fairmount Ave [Ste I], Lakewood,NY 14750-1900, (716) 763-5111"},{"latitude":"42.7518488","longitude":"-73.7664617","name":"Michaels-Latham,NY","address":"579 Troy Schenectady Rd, Latham,NY 12110, (518) 783-4358"},{"latitude":"40.7256847","longitude":"-73.5005113","name":"Michaels-Levittown,NY","address":"3675 Hempstead Tpke, Levittown,NY 11756-1403, (516) 735-0786"},{"latitude":"40.7929987","longitude":"-73.6958418","name":"Michaels-Manhasset,NY","address":"1350 Northern Blvd, Manhasset,NY 11030-3004, (516) 627-2875"},{"latitude":"40.678459","longitude":"-73.4372044","name":"Michaels-Massapequa,NY","address":"5500 Sunrise Hwy, Massapequa,NY 11758-5399, (516) 541-0489"},{"latitude":"40.825634","longitude":"-72.9950485","name":"Michaels-Medford,NY","address":"2799 Route 112, Medford,NY 11763, (631) 758-1835"},{"latitude":"41.4456596","longitude":"-74.3809509","name":"Michaels-Middletown,NY","address":"88-5 Dunning Rd, Middletown,NY 10940-2218, (845) 343-9900"},{"latitude":"41.3121926","longitude":"-73.8696939","name":"Michaels-Mohegan Lake,NY","address":"3131 E Main St, Mohegan Lake,NY 10547-1521, (914) 528-0572"},{"latitude":"43.0935864","longitude":"-75.3068094","name":"Michaels-New Hartford,NY","address":"4745 Commercial Dr, New Hartford,NY 13413-6211, (315) 768-3499"},{"latitude":"40.742122","longitude":"-73.993988","name":"Michaels-New York,NY","address":"675 Avenue of the Americas, New York,NY 10010, (646) 259-3911"},{"latitude":"40.7952156","longitude":"-73.9660034","name":"Michaels-New York,NY","address":"808 Columbus Ave, New York,NY 10025-5139, (212) 865-0813"},{"latitude":"41.5030485","longitude":"-74.0698987","name":"Michaels-Newburgh,NY","address":"1245 Rte 300, Newburgh,NY 12550-5007, (845) 567-1953"},{"latitude":"40.7498863","longitude":"-73.3239294","name":"Michaels-North Babylon,NY","address":"20 Deer Shore Square, North Babylon,NY 11703, (631) 865-1084"},{"latitude":"40.6226175","longitude":"-73.6403482","name":"Michaels-Oceanside,NY","address":"3610 Long Beach Rd, Oceanside,NY 11572-5705, (516) 855-0220"},{"latitude":"40.6984901","longitude":"-73.3824081","name":"Michaels-Patchogue,NY","address":"499 Sunrise Hwy W, Patchogue,NY 11772-2200, (631) 447-1110"},{"latitude":"40.8928963","longitude":"-73.8197967","name":"Michaels-Pelham Manor,NY","address":"840 Pelham Pkwy, Pelham Manor,NY 10803, (914) 235-2730"},{"latitude":"44.6957617","longitude":"-73.487813","name":"Michaels-Plattsburgh,NY","address":"71 Consumer Sq, Plattsburgh,NY 12901-6532, (518) 561-1733"},{"latitude":"40.9977867","longitude":"-73.6638256","name":"Michaels-Port Chester,NY","address":"27 Don Bosco Pl, Port Chester,NY 10573, (914) 937-3060"},{"latitude":"41.661038","longitude":"-73.9301173","name":"Michaels-Poughkeepsie,NY","address":"2522 South Rd, Poughkeepsie,NY 12601-5468, (845) 486-9449"},{"latitude":"40.711032","longitude":"-73.858337","name":"Michaels-Rego Park,NY","address":"9030 Metropolitan Ave, Rego Park,NY 11374-5328, (718) 459-2375"},{"latitude":"40.9263327","longitude":"-72.6914497","name":"Michaels-Riverhead,NY","address":"1440 Old Country Rd, Riverhead,NY 11901-2040, (631) 284-2201"},{"latitude":"43.1021385","longitude":"-77.5401382","name":"Michaels-Rochester,NY","address":"3349 Monroe Ave, Rochester,NY 14618-5513, (585) 381-1670"},{"latitude":"43.2056585","longitude":"-77.6947425","name":"Michaels-Rochester,NY","address":"500 Greece Ridge Center Dr, Rochester,NY 14626-2823, (585) 368-0820"},{"latitude":"40.9449573","longitude":"-72.9434554","name":"Michaels-Rocky Point,NY","address":"346 Route 25A, Rocky Point,NY 11778-8817, (631) 209-2932"},{"latitude":"40.803672","longitude":"-72.859222","name":"Michaels-Shirley,NY","address":"1019 Montauk Hwy, Shirley,NY 11967-2144, (631) 657-4720"},{"latitude":"41.1927357","longitude":"-73.8508118","name":"Michaels-Spring Valley,NY","address":"14 A Spring Valley Marketplace, Spring Valley,NY 10977, (845) 578-1570"},{"latitude":"40.5763016","longitude":"-74.1447983","name":"Michaels-Staten Island,NY","address":"245 Bricktown Way, Staten Island,NY 10309, (347) 694-7203"},{"latitude":"40.5768929","longitude":"-74.1668854","name":"Michaels-Staten Island,NY","address":"2795 Richmond Ave, Staten Island,NY 10314-5857, (718) 697-0252"},{"latitude":"40.6254438","longitude":"-74.1362987","name":"Michaels-Staten Island,NY","address":"30 Barrett Ave, Staten Island,NY 10302-2046, (718) 720-0377"},{"latitude":"40.8717001","longitude":"-73.1267568","name":"Michaels-Stony Brook,NY","address":"2130 Nesconset Hwy, Stony Brook,NY 11790-3503, (631) 979-0462"},{"latitude":"43.0563965","longitude":"-76.0788269","name":"Michaels-Syracuse,NY","address":"3133 Erie Blvd E, Syracuse,NY 13214-1201, (315) 445-5658"},{"latitude":"43.0674288","longitude":"-76.1709829","name":"Michaels-Syracuse,NY","address":"9090 Destiny USA Dr, Syracuse,NY 13204, (315) 849-0920"},{"latitude":"40.665388","longitude":"-73.7236858","name":"Michaels-Valley Stream,NY","address":"650 W Sunrise Hwy, Valley Stream,NY 11581-1006, (516) 825-0247"},{"latitude":"42.0947876","longitude":"-76.0162888","name":"Michaels-Vestal,NY","address":"2317 Vestal Pwy E, Vestal,NY 13850-1948, (607) 658-9101"},{"latitude":"43.0331556","longitude":"-77.4398489","name":"Michaels-Victor,NY","address":"40 Square Dr, Victor,NY 14564-1051, (585) 425-2140"},{"latitude":"43.9733282","longitude":"-75.9594049","name":"Michaels-Watertown,NY","address":"21839 Towne Center Dr, Watertown,NY 13601, (315) 788-1327"},{"latitude":"40.7416539","longitude":"-73.5899301","name":"Michaels-Westbury,NY","address":"1280 Corporate Dr, Westbury,NY 11590-6625, (516) 693-0420"},{"latitude":"42.9849449","longitude":"-78.6968882","name":"Michaels-Williamsville,NY","address":"5055 Transit Rd, Williamsville,NY 14221-4132, (716) 839-6132"},{"latitude":"40.7537003","longitude":"-73.9029236","name":"Michaels-Woodside,NY","address":"5106 Northern Blvd, Woodside,NY 11377-1733, (718) 371-0480"},{"latitude":"41.3498374","longitude":"-81.3868864","name":"Michaels-Aurora,OH","address":"7405 Market Place Dr, Aurora,OH 44202-8760, (330) 995-2638"},{"latitude":"41.4616547","longitude":"-82.0106515","name":"Michaels-Avon,OH","address":"35840 Detroit Rd, Avon,OH 44011-1655, (440) 937-2200"},{"latitude":"41.4645313","longitude":"-81.5080605","name":"Michaels-Beachwood,OH","address":"24081 Chagrin Blvd, Beachwood,OH 44122-5512, (216) 454-0231"},{"latitude":"39.7643356","longitude":"-84.0507584","name":"Michaels-Beavercreek,OH","address":"2500 N Fairfield Rd, Beavercreek,OH 45431-1781, (937) 431-8940"},{"latitude":"41.4250875","longitude":"-81.7344175","name":"Michaels-Brooklyn,OH","address":"4798 Ridge Rd [Ste A], Brooklyn,OH 44144-3327, (216) 741-1377"},{"latitude":"39.1475319","longitude":"-84.428447","name":"Michaels-Cincinnati,OH","address":"3862 Paxton Ave, Cincinnati,OH 45209-2399, (513) 871-3170"},{"latitude":"39.2875238","longitude":"-84.4628276","name":"Michaels-Cincinnati,OH","address":"425 E Kemper Rd, Cincinnati,OH 45246-3228, (513) 671-4644"},{"latitude":"39.1416029","longitude":"-84.618391","name":"Michaels-Cincinnati,OH","address":"6030 Glenway Ave, Cincinnati,OH 45211-6318, (513) 389-0834"},{"latitude":"39.096077","longitude":"-84.2729645","name":"Michaels-Cincinnati,OH","address":"700 Eastgate S Dr, Cincinnati,OH 45245-1583, (513) 752-4434"},{"latitude":"39.2468219","longitude":"-84.5961857","name":"Michaels-Cincinnati,OH","address":"9657 Colerain Ave, Cincinnati,OH 45251-2003, (513) 245-1804"},{"latitude":"39.295105","longitude":"-84.3054886","name":"Michaels-Cincinnati,OH","address":"9851 Waterstone Blvd, Cincinnati,OH 45249-8296, (513) 774-9300"},{"latitude":"40.094117","longitude":"-83.0861831","name":"Michaels-Columbus,OH","address":"3612 W Dublin Granville Rd, Columbus,OH 43235-4901, (614) 798-9456"},{"latitude":"40.0514236","longitude":"-82.922217","name":"Michaels-Columbus,OH","address":"3670 Easton Market, Columbus,OH 43219-6032, (614) 475-4123"},{"latitude":"40.0663338","longitude":"-83.0218201","name":"Michaels-Columbus,OH","address":"90 Graceland Blvd, Columbus,OH 43214, (614) 430-8191"},{"latitude":"41.1195221","longitude":"-81.4747696","name":"Michaels-Cuyahoga Falls,OH","address":"697 Howe Ave, Cuyahoga Falls,OH 44221-4955, (330) 929-2012"},{"latitude":"41.1339684","longitude":"-81.6341095","name":"Michaels-Fairlawn,OH","address":"3750 W Market St, Fairlawn,OH 44333-4803, (330) 666-3553"},{"latitude":"39.8788308","longitude":"-83.0460265","name":"Michaels-Grove City,OH","address":"1614 Stringtown Rd, Grove City,OH 43123, (614) 277-3446"},{"latitude":"39.3904985","longitude":"-84.5006159","name":"Michaels-Hamilton,OH","address":"3455 Princeton Rd, Hamilton,OH 45011, (513) 895-0567"},{"latitude":"39.9890535","longitude":"-83.1514708","name":"Michaels-Hilliard,OH","address":"1830 Hilliard Rome Rd, Hilliard,OH 43026-7565, (614) 876-6294"},{"latitude":"40.158138","longitude":"-83.0186009","name":"Michaels-Lewis Center,OH","address":"9051 Columbus Pike, Lewis Center,OH 43035-9412, (740) 548-2240"},{"latitude":"41.5236633","longitude":"-81.4386765","name":"Michaels-Mayfield Heights,OH","address":"1361 SOM Center Rd, Mayfield Heights,OH 44124-2103, (440) 573-0311"},{"latitude":"39.6334267","longitude":"-84.2267609","name":"Michaels-Miamisburg,OH","address":"8111 Springboro Pike, Miamisburg,OH 45342-3703, (937) 291-3759"},{"latitude":"40.8756591","longitude":"-81.4320293","name":"Michaels-North Canton,OH","address":"6527 Strip Ave NW, North Canton,OH 44720-7095, (330) 966-4638"},{"latitude":"39.9245471","longitude":"-82.8307282","name":"Michaels-Reynoldsburg,OH","address":"2766 Brice Rd, Reynoldsburg,OH 43068-3419, (614) 868-5103"},{"latitude":"41.5416737","longitude":"-83.582426","name":"Michaels-Rossford,OH","address":"9820 Old E US 20, Rossford,OH 43460-1713, (419) 874-1850"},{"latitude":"41.7003934","longitude":"-83.6449436","name":"Michaels-Toledo,OH","address":"4622 Talmadge Rd, Toledo,OH 43623-3007, (419) 475-4296"},{"latitude":"41.6165764","longitude":"-83.6666594","name":"Michaels-Toledo,OH","address":"5255 Airport Hwy, Toledo,OH 43615-6800, (419) 389-0012"},{"latitude":"39.356069","longitude":"-84.3628362","name":"Michaels-West Chester,OH","address":"7624 Voice of America Ctr Dr, West Chester,OH 45069-2794, (513) 759-9410"},{"latitude":"35.2426869","longitude":"-97.481041","name":"Michaels-Norman,OK","address":"2040 24th Ave NW, Norman,OK 73069, (405) 329-1665"},{"latitude":"35.3917325","longitude":"-97.5419339","name":"Michaels-Oklahoma City,OK","address":"1441 W I-240 Service Rd, Oklahoma City,OK 73159-4145, (405) 684-9169"},{"latitude":"35.6084973","longitude":"-97.5517695","name":"Michaels-Oklahoma City,OK","address":"2200 W Memorial Rd, Oklahoma City,OK 73134-8010, (405) 755-4242"},{"latitude":"35.5213047","longitude":"-97.5656453","name":"Michaels-Oklahoma City,OK","address":"5012 N May Ave, Oklahoma City,OK 73112-6010, (405) 942-8920"},{"latitude":"36.0609249","longitude":"-95.8528537","name":"Michaels-Tulsa,OK","address":"11119 E 71st St S, Tulsa,OK 74133-2550, (918) 249-1496"},{"latitude":"36.1044209","longitude":"-95.9218508","name":"Michaels-Tulsa,OK","address":"4927 E 41st St, Tulsa,OK 74135-6057, (918) 628-0546"},{"latitude":"36.0559742","longitude":"-96.0035153","name":"Michaels-Tulsa,OK","address":"7424 S Olympia Ave, Tulsa,OK 74132-1838, (918) 445-2224"},{"latitude":"43.22899","longitude":"-79.93931","name":"Michaels-Ancaster,ON","address":"14 Martindale Crescent, Ancaster,ON L9K 1J9, (905) 304-3400"},{"latitude":"44.3392003","longitude":"-79.6821221","name":"Michaels-Barrie,ON","address":"80 Park Place Blvd, Barrie,ON L4N 6P8, (705) 417-2433"},{"latitude":"44.1869469","longitude":"-77.4013398","name":"Michaels-Belleville,ON","address":"159 Bell Blvd, Belleville,ON K8P 5N8, (613) 771-0015"},{"latitude":"43.6773072","longitude":"-79.7206057","name":"Michaels-Brampton,ON","address":"547 Steeles Ave E, Brampton,ON L6W 4P9, (905) 874-9640"},{"latitude":"43.74762","longitude":"-79.6998","name":"Michaels-Brampton,ON","address":"9065 Airport Rd, Brampton,ON L6S 0B8, (905) 595-0874"},{"latitude":"43.1557216","longitude":"-80.2368033","name":"Michaels-Brantford,ON","address":"221 Henry St  [Unit A], Brantford,ON N3S 7R4, (519) 759-7365"},{"latitude":"44.6132771","longitude":"-75.6860152","name":"Michaels-Brockville,ON","address":"1965 Parkedale Ave, Brockville,ON K6V 0B4, (613) 345-4949"},{"latitude":"43.33526","longitude":"-79.81471","name":"Michaels-Burlington,ON","address":"1881 Fairview St, Burlington,ON L7S 2K4, (905) 639-8146"},{"latitude":"43.4029363","longitude":"-79.8026925","name":"Michaels-Burlington,ON","address":"2311 Appleby Line, Burlington,ON L7L 0J3, (289) 348-5899"},{"latitude":"43.4084441","longitude":"-80.3262988","name":"Michaels-Cambridge,ON","address":"18 Pinebush Rd, Cambridge,ON N1R 8K5, (519) 740-1100"},{"latitude":"42.4309422","longitude":"-82.2198989","name":"Michaels-Chatham,ON","address":"774 St Clair St, Chatham,ON N7M 5J7, (519) 355-0505"},{"latitude":"45.0407302","longitude":"-74.7601267","name":"Michaels-Cornwall,ON","address":"501 Tollgate Rd W, Cornwall,ON K6H 5R6, (613) 930-2100"},{"latitude":"43.61916","longitude":"-79.55838","name":"Michaels-Etobicoke,ON","address":"170 N Queen St, Etobicoke,ON M9C 1A7, (647) 792-7573"},{"latitude":"43.56434","longitude":"-80.27887","name":"Michaels-Guelph,ON","address":"15 Woodlawn Rd W, Guelph,ON N1H 1G8, (226) 251-3056"},{"latitude":"43.2499522","longitude":"-79.8087853","name":"Michaels-Hamilton,ON","address":"1267 Barton [Ste E Unit F-2], Hamilton,ON L8H 2V4, (905) 543-8408"},{"latitude":"44.2453273","longitude":"-76.5677857","name":"Michaels-Kingston,ON","address":"656 Gardiners Rd, Kingston,ON K7M 3X9, (613) 634-7688"},{"latitude":"43.42106","longitude":"-80.44708","name":"Michaels-Kitchener,ON","address":"500 Fairway Rd S, Kitchener,ON N2C 1X3, (519) 340-3021"},{"latitude":"43.0276776","longitude":"-81.2833644","name":"Michaels-London,ON","address":"1737 Richmond St, London,ON N5X 3X2, (519) 661-2688"},{"latitude":"42.9360715","longitude":"-81.2805162","name":"Michaels-London,ON","address":"3080 Wonderland Rd S, London,ON N6L 1A6, (519) 963-0611"},{"latitude":"43.8503933","longitude":"-79.354362","name":"Michaels-Markham,ON","address":"3135 Hwy 7 E, Markham,ON L3R 0T9, (905) 470-1129"},{"latitude":"43.5405214","longitude":"-79.8741444","name":"Michaels-Milton,ON","address":"1140 Steeles Ave E, Milton,ON L9T 6C8, (905) 636-7940"},{"latitude":"43.51558","longitude":"-79.69078","name":"Michaels-Mississauga,ON","address":"3050 Vega Blvd, Mississauga,ON L5L 5X8, (289) 334-0928"},{"latitude":"43.59487","longitude":"-79.78868","name":"Michaels-Mississauga,ON","address":"3105 Argentia Rd, Mississauga,ON L5N 8E1, (905) 785-2855"},{"latitude":"43.6093928","longitude":"-79.6989123","name":"Michaels-Mississauga,ON","address":"905 Britannia Rd W, Mississauga,ON L5V 2X8, (289) 334-0984"},{"latitude":"44.0684036","longitude":"-79.4834985","name":"Michaels-Newmarket,ON","address":"18091 Yonge St, Newmarket,ON L3Y 8W3, (905) 853-6639"},{"latitude":"43.0668845","longitude":"-79.1229183","name":"Michaels-Niagara Falls,ON","address":"7555 Montrose Rd, Niagara Falls,ON L2H 2E9, (905) 371-3077"},{"latitude":"46.33246","longitude":"-79.4723","name":"Michaels-North Bay,ON","address":"850 McKeown Ave, North Bay,ON P1B 8M1, (705) 223-3416"},{"latitude":"43.44941","longitude":"-79.70042","name":"Michaels-Oakville,ON","address":"200 N Service Rd W, Oakville,ON L6M 2V1, (905) 842-1555"},{"latitude":"44.61422","longitude":"-79.44895","name":"Michaels-Orillia,ON","address":"95 Murphy Rd, Orillia,ON L3V 0B5, (705) 323-9850"},{"latitude":"45.4572478","longitude":"-75.4984421","name":"Michaels-Orleans,ON","address":"4220 Innes Rd, Orleans,ON K4A 5E6, (613) 590-1813"},{"latitude":"43.9433099","longitude":"-78.85012","name":"Michaels-Oshawa,ON","address":"1461 Harmony Rd N, Oshawa,ON L1G3T9, (905) 429-2230"},{"latitude":"45.41271","longitude":"-75.64325","name":"Michaels-Ottawa,ON","address":"165 Trainyards Dr, Ottawa,ON K1G 3X8, (613) 244-4500"},{"latitude":"45.35802","longitude":"-75.6551","name":"Michaels-Ottawa,ON","address":"2210-F Bank St, Ottawa,ON K1V 1J5, (613) 521-3717"},{"latitude":"45.34986","longitude":"-75.7850799","name":"Michaels-Ottawa,ON","address":"2685 Iris St, Ottawa,ON K2C 3S4, (613) 726-7211"},{"latitude":"45.28716","longitude":"-75.90758","name":"Michaels-Ottawa,ON","address":"5617 Hazeldean Rd, Ottawa,ON K2S 0P5, (613) 831-9023"},{"latitude":"44.5765736","longitude":"-80.8997995","name":"Michaels-Owen Sound,ON","address":"2125 16th Street E, Owen Sound,ON N4K 5N3, (519) 371-6920"},{"latitude":"45.8158282","longitude":"-77.0767579","name":"Michaels-Pembroke,ON","address":"15 Robinson Ln, Pembroke,ON K8A 0A5, (613) 735-7826"},{"latitude":"44.2869711","longitude":"-78.330032","name":"Michaels-Peterborough,ON","address":"898 Monaghan Rd, Peterborough,ON K9J 5K4, (705) 745-9653"},{"latitude":"43.8292753","longitude":"-79.0981226","name":"Michaels-Pickering,ON","address":"1101-A Kingston Rd, Pickering,ON L1V 1B5, (905) 837-0933"},{"latitude":"43.90065","longitude":"-79.3931099","name":"Michaels-Richmond Hill,ON","address":"2-20 John Birchall Rd, Richmond Hill,ON L4S 0B2, (905) 780-7717"},{"latitude":"42.9861004","longitude":"-82.3471054","name":"Michaels-Sarnia,ON","address":"1470 Quinn Dr, Sarnia,ON N7S 6M8, (519) 542-3200"},{"latitude":"46.53916","longitude":"-84.3146299","name":"Michaels-Sault Ste Marie,ON","address":"710 Second Line E, Sault Ste Marie,ON P6B 4K3, (705) 942-1221"},{"latitude":"43.1556599","longitude":"-79.270332","name":"Michaels-St Catharines,ON","address":"275 4th Ave, St Catharines,ON L2R 6P9, (905) 346-3180"},{"latitude":"43.1923595","longitude":"-79.8130782","name":"Michaels-Stoney Creek,ON","address":"1779 Stone Church Rd E, Stoney Creek,ON L8J 0B4, (905) 578-1050"},{"latitude":"46.5020246","longitude":"-80.9398066","name":"Michaels-Sudbury,ON","address":"1599 Marcus Dr [Unit 2], Sudbury,ON P3B 4K5, (705) 524-9845"},{"latitude":"48.4062851","longitude":"-89.2322992","name":"Michaels-Thunder Bay,ON","address":"349 Main St, Thunder Bay,ON P7B 5L6, (807) 343-0545"},{"latitude":"48.4723851","longitude":"-81.4008099","name":"Michaels-Timmins,ON","address":"2161 Riverside Dr, Timmins,ON P4R 0A1, (705) 264-3411"},{"latitude":"43.77288","longitude":"-79.28023","name":"Michaels-Toronto,ON","address":"11 William Kitchen Rd, Toronto,ON M1P 5B7, (647) 792-1039"},{"latitude":"43.64871","longitude":"-79.39086","name":"Michaels-Toronto,ON","address":"142 John St, Toronto,ON M5V 2E3, (647) 317-3706"},{"latitude":"43.7303849","longitude":"-79.4567906","name":"Michaels-Toronto,ON","address":"30 Billy Bishop Way, Toronto,ON M3K 2C8, (647) 776-2180"},{"latitude":"43.67492","longitude":"-79.47047","name":"Michaels-Toronto,ON","address":"30 Weston Rd, Toronto,ON M6N 5A8, (647) 795-7870"},{"latitude":"43.76719","longitude":"-79.41198","name":"Michaels-Toronto,ON","address":"5051 Yonge St, Toronto,ON M2N 5P2, (647) 260-3663"},{"latitude":"43.4623229","longitude":"-80.5387748","name":"Michaels-Waterloo,ON","address":"50 Westmount Rd N, Waterloo,ON N2L 2R5, (519) 746-8412"},{"latitude":"43.8674205","longitude":"-78.8993746","name":"Michaels-Whitby,ON","address":"1751 Victoria St E, Whitby,ON L1N 9W4, (289) 316-0682"},{"latitude":"42.2573099","longitude":"-82.9659103","name":"Michaels-Windsor,ON","address":"4339 Walker Rd, Windsor,ON N8W 3T6, (519) 972-5488"},{"latitude":"43.7920248","longitude":"-79.5483388","name":"Michaels-Woodbridge,ON","address":"7850 Weston Rd, Woodbridge,ON L4L 9N8, (905) 856-7207"},{"latitude":"45.5368803","longitude":"-122.8631893","name":"Michaels-Beaverton,OR","address":"18069 NW Evergreen Pkwy, Beaverton,OR 97006-7440, (503) 533-2248"},{"latitude":"45.4839758","longitude":"-122.7827646","name":"Michaels-Beaverton,OR","address":"4955 SW Western Ave, Beaverton,OR 97005-3429, (503) 646-8385"},{"latitude":"44.1058083","longitude":"-121.298172","name":"Michaels-Bend,OR","address":"63485 N Hwy 97, Bend,OR 97701-8492, (541) 312-2541"},{"latitude":"45.4306984","longitude":"-122.5791626","name":"Michaels-Clackamas,OR","address":"11211 SE 82nd Ave, Clackamas,OR 97086-7624, (503) 652-0465"},{"latitude":"44.5823445","longitude":"-123.2585415","name":"Michaels-Corvallis,OR","address":"1550 NW 9th St, Corvallis,OR 97330-4513, (541) 738-0109"},{"latitude":"45.4992577","longitude":"-122.4111693","name":"Michaels-Gresham,OR","address":"2101 NE Burnside St, Gresham,OR 97030-7944, (503) 661-1469"},{"latitude":"45.012601","longitude":"-122.9961792","name":"Michaels-Keizer,OR","address":"6445 Keizer Station Blvd NE, Keizer,OR 97303-1695, (503) 393-0260"},{"latitude":"42.2110639","longitude":"-121.75055","name":"Michaels-Klamath Falls,OR","address":"1920 Austin St, Klamath Falls,OR 97603-4644, (541) 850-5960"},{"latitude":"42.3646378","longitude":"-122.8560922","name":"Michaels-Medford,OR","address":"3475 Crater Lake Hwy, Medford,OR 97504-9259, (541) 779-5495"},{"latitude":"45.3671294","longitude":"-122.6008987","name":"Michaels-Oregon City,OR","address":"1900 McLoughlin Blvd [Ste 90], Oregon City,OR 97045-1072, (503) 655-3488"},{"latitude":"45.5708656","longitude":"-122.5428772","name":"Michaels-Portland,OR","address":"11719 NE Glenn Widing Dr, Portland,OR 97220-9051, (503) 256-5466"},{"latitude":"45.6128425","longitude":"-122.6873276","name":"Michaels-Portland,OR","address":"12255 N. Starlight Avenue, Portland,OR 97217-7845, (503) 285-0218"},{"latitude":"43.2302208","longitude":"-123.3639069","name":"Michaels-Roseburg,OR","address":"780 NW Garden Valley Blvd, Roseburg,OR 97470-6515, (541) 464-8038"},{"latitude":"44.0818792","longitude":"-123.0416916","name":"Michaels-Springfield,OR","address":"3318 Gateway St, Springfield,OR 97477, (541) 988-0506"},{"latitude":"45.383812","longitude":"-122.7572403","name":"Michaels-Tualatin,OR","address":"7705 SW Nyberg St, Tualatin,OR 97062-8443, (503) 612-0407"},{"latitude":"40.4877077","longitude":"-78.3854563","name":"Michaels-Altoona,PA","address":"189 Falon Ln, Altoona,PA 16602, (814) 949-7205"},{"latitude":"40.0019818","longitude":"-75.2249256","name":"Michaels-Bala Cynwyd,PA","address":"57 E City Ave, Bala Cynwyd,PA 19004-2421, (610) 667-1642"},{"latitude":"40.3465805","longitude":"-80.0506744","name":"Michaels-Bethel Park,PA","address":"4000 Oxford Dr, Bethel Park,PA 15102-1840, (412) 835-7500"},{"latitude":"40.8784754","longitude":"-79.9454927","name":"Michaels-Butler,PA","address":"740 Butler Crossing, Butler,PA 16001-2439, (724) 282-9403"},{"latitude":"40.2262001","longitude":"-76.9357376","name":"Michaels-Camp Hill,PA","address":"3415 Simpson Ferry Rd, Camp Hill,PA 17011-6404, (717) 975-0102"},{"latitude":"40.194154","longitude":"-77.1599221","name":"Michaels-Carlisle,PA","address":"230 Westminster Dr, Carlisle,PA 17013-3117, (717) 245-2444"},{"latitude":"39.9404848","longitude":"-77.6289473","name":"Michaels-Chambersburg,PA","address":"967 Norland Ave, Chambersburg,PA 17201-4204, (717) 263-9358"},{"latitude":"40.1655147","longitude":"-75.4758811","name":"Michaels-Collegeville,PA","address":"300 Water Loop Dr [Ste 4], Collegeville,PA 19426-4917, (610) 489-6562"},{"latitude":"40.0985451","longitude":"-75.3020706","name":"Michaels-Conshohocken,PA","address":"104 Alan Wood Rd., Conshohocken,PA 19428, (610) 828-5815"},{"latitude":"40.6824388","longitude":"-80.1007538","name":"Michaels-Cranberry Township,PA","address":"20111 Rt 19, Cranberry Township,PA 16066-6207, (724) 742-2750"},{"latitude":"41.4653461","longitude":"-75.6384639","name":"Michaels-Dickson City,PA","address":"1150 Commerce Blvd, Dickson City,PA 18519-1688, (570) 383-7930"},{"latitude":"40.6556816","longitude":"-75.2869797","name":"Michaels-Easton,PA","address":"4447 Southmont Way, Easton,PA 18045-4705, (610) 258-2191"},{"latitude":"42.0655527","longitude":"-80.1045149","name":"Michaels-Erie,PA","address":"2088 C Interchange Rd, Erie,PA 16565, (814) 868-2931"},{"latitude":"40.023534","longitude":"-75.6283734","name":"Michaels-Exton,PA","address":"285 Main St, Exton,PA 19341-3701, (610) 594-8544"},{"latitude":"40.1485214","longitude":"-75.0020599","name":"Michaels-Feasterville Trevose,PA","address":"751 Bustleton Pike, Feasterville Trevose,PA 19053-6055, (215) 357-6221"},{"latitude":"40.3030162","longitude":"-79.5105182","name":"Michaels-Greensburg,PA","address":"5280 Route 30 [Ste 6], Greensburg,PA 15601-7832, (724) 837-4540"},{"latitude":"40.3096123","longitude":"-76.7984924","name":"Michaels-Harrisburg,PA","address":"5125 Jonestown Rd, Harrisburg,PA 17112-2924, (717) 651-1702"},{"latitude":"40.6135521","longitude":"-79.1904602","name":"Michaels-Indiana,PA","address":"475 Ben Franklin Rd S, Indiana,PA 15701-2347, (724) 349-7239"},{"latitude":"40.2765246","longitude":"-78.8423545","name":"Michaels-Johnstown,PA","address":"420 Town Centre Dr, Johnstown,PA 15904-2856, (814) 262-9555"},{"latitude":"40.0943375","longitude":"-75.3675537","name":"Michaels-King of Prussia,PA","address":"200 W DeKalb Pike, King of Prussia,PA 19406-2327, (610) 265-2196"},{"latitude":"40.0679179","longitude":"-76.3073686","name":"Michaels-Lancaster,PA","address":"1645 Lititz Pike, Lancaster,PA 17601-6507, (717) 397-8200"},{"latitude":"40.1801341","longitude":"-74.8733537","name":"Michaels-Langhorne,PA","address":"2424 E Lincoln Hwy, Langhorne,PA 19047-3048, (215) 891-5130"},{"latitude":"40.3222731","longitude":"-76.4250431","name":"Michaels-Lebanon,PA","address":"1127 Quentin Rd, Lebanon,PA 17042-6915, (717) 272-6941"},{"latitude":"40.6821022","longitude":"-80.3069992","name":"Michaels-Monaca,PA","address":"115 Wagner Rd, Monaca,PA 15061, (724) 775-4952"},{"latitude":"40.43576","longitude":"-79.7869789","name":"Michaels-Monroeville,PA","address":"3759 William Penn Hwy, Monroeville,PA 15146-2125, (412) 856-6040"},{"latitude":"40.2276347","longitude":"-75.2387732","name":"Michaels-Montgomery Township,PA","address":"1231 Knapp Rd, Montgomery Township,PA 19454-1419, (215) 699-6277"},{"latitude":"41.2420542","longitude":"-76.8329501","name":"Michaels-Muncy,PA","address":"270 S Lycoming Mall Rd, Muncy,PA 17756-8063, (570) 546-8212"},{"latitude":"40.4141656","longitude":"-79.9019203","name":"Michaels-Munhall,PA","address":"660 Waterfront Dr E, Munhall,PA 15120-5000, (412) 461-4920"},{"latitude":"40.0846401","longitude":"-75.0245357","name":"Michaels-Philadelphia,PA","address":"9739 Roosevelt Blvd, Philadelphia,PA 19114-1010, (267) 345-4500"},{"latitude":"40.5248718","longitude":"-80.0076752","name":"Michaels-Pittsburgh,PA","address":"4801 McKnight Rd, Pittsburgh,PA 15237-3412, (412) 369-0307"},{"latitude":"40.2256069","longitude":"-75.6604815","name":"Michaels-Pottstown,PA","address":"1122 Town Square Rd, Pottstown,PA 19465, (610) 705-5510"},{"latitude":"40.7041613","longitude":"-76.189175","name":"Michaels-Pottsville,PA","address":"7110 Fairlane Village Mall, Pottsville,PA 17901-4100, (570) 622-2034"},{"latitude":"40.4478568","longitude":"-75.3609914","name":"Michaels-Quakertown,PA","address":"232 N West End Blvd, Quakertown,PA 18951-2308, (215) 536-0738"},{"latitude":"40.4408066","longitude":"-80.1481658","name":"Michaels-Robinson Township,PA","address":"700 Settlers Ridge Center Dr, Robinson Township,PA 15205-1436, (412) 787-5240"},{"latitude":"40.8404544","longitude":"-76.8333726","name":"Michaels-Selinsgrove,PA","address":"250 Marketplace Blvd, Selinsgrove,PA 17870-2402, (570) 884-1058"},{"latitude":"39.919113","longitude":"-75.325569","name":"Michaels-Springfield,PA","address":"601 W Baltimore Pike, Springfield,PA 19064-3812, (610) 690-1633"},{"latitude":"40.8105518","longitude":"-77.9052249","name":"Michaels-State College,PA","address":"44 Colonnade Way, State College,PA 16803-2309, (814) 867-1956"},{"latitude":"40.9888115","longitude":"-75.2351379","name":"Michaels-Stroudsburg,PA","address":"The Shoppes at Stroud, Stroudsburg,PA 18360, (570) 424-6020"},{"latitude":"40.5678032","longitude":"-79.8023774","name":"Michaels-Tarentum,PA","address":"1030 Village Center Dr, Tarentum,PA 15084-3847, (724) 274-3708"},{"latitude":"39.9069578","longitude":"-79.7549084","name":"Michaels-Uniontown,PA","address":"119 Matthew Dr, Uniontown,PA 15401, (724) 438-2156"},{"latitude":"40.2291226","longitude":"-75.1335716","name":"Michaels-Warrington,PA","address":"1055 Main Street, Warrington,PA 18976, (215) 918-2462"},{"latitude":"40.1867142","longitude":"-80.2220774","name":"Michaels-Washington,PA","address":"339 Washington Rd, Washington,PA 15301-2701, (724) 228-4680"},{"latitude":"40.9705348","longitude":"-76.0093403","name":"Michaels-West Hazleton,PA","address":"276 Susquehanna Blvd, West Hazleton,PA 18202, (570) 453-0572"},{"latitude":"40.6333161","longitude":"-75.4862626","name":"Michaels-Whitehall,PA","address":"1911 Whitehall Mall, Whitehall,PA 18052-5119, (610) 231-0522"},{"latitude":"41.241161","longitude":"-75.8409157","name":"Michaels-Wilkes Barre,PA","address":"485 Arena Hub Plaza, Wilkes Barre,PA 18702-6839, (570) 819-1145"},{"latitude":"40.1435991","longitude":"-75.1209088","name":"Michaels-Willow Grove,PA","address":"2534 W Moreland Rd, Willow Grove,PA 19090-4001, (215) 784-9833"},{"latitude":"40.3454018","longitude":"-75.9690094","name":"Michaels-Wyomissing,PA","address":"2763 Papermill Rd, Wyomissing,PA 19610-3328, (610) 736-3430"},{"latitude":"39.9890862","longitude":"-76.6788864","name":"Michaels-York,PA","address":"2700 Pleasant Valley Rd, York,PA 17402-9609, (717) 600-2512"},{"latitude":"46.26399","longitude":"-63.15224","name":"Michaels-Charlottetown,PE","address":"90 Sandstone Rd, Charlottetown,PE C1A 1K1, (902) 566-6677"},{"latitude":"45.9014807","longitude":"-72.5196295","name":"Michaels-Drummondville,QC","address":"810 Rue Hains, Drummondville,QC J2C 0J2, (819) 472-2285"},{"latitude":"45.46406","longitude":"-75.71903","name":"Michaels-Gatineau,QC","address":"41 Boul De La Gappe, Gatineau,QC J8T 0B5, (819) 246-1348"},{"latitude":"45.481963","longitude":"-73.4649649","name":"Michaels-Greenfield Park,QC","address":"4990 Boul Taschereau, Greenfield Park,QC J4V 3M3, (450) 465-2891"},{"latitude":"45.44926","longitude":"-73.6082","name":"Michaels-LaSalle,QC","address":"6855 Boul Newman, LaSalle,QC H8N 3E4, (514) 363-6161"},{"latitude":"45.60852","longitude":"-73.6976","name":"Michaels-Laval,QC","address":"5020 Robert Bourassa Blvd, Laval,QC H7E 0A6, (450) 661-2799"},{"latitude":"45.5300733","longitude":"-73.784028","name":"Michaels-Laval,QC","address":"940 Ouest Autoroute Chomedey, Laval,QC H7X 3S9, (514) 317-1546"},{"latitude":"46.79277","longitude":"-71.17258","name":"Michaels-Levis,QC","address":"65 Rue du Pr\u00e9sident Kennedy, Levis,QC G6V 6C8, (418) 835-8661"},{"latitude":"45.3940585","longitude":"-73.5845962","name":"Michaels-Saint Constant,QC","address":"494 Route 132, Saint Constant,QC J5A 2S6, (450) 638-4356"},{"latitude":"45.33252","longitude":"-73.29593","name":"Michaels-Saint Jean sur Richelieu,QC","address":"110 Boul Omer Marcil, Saint Jean sur Richelieu,QC J2W 2X2, (450) 349-7123"},{"latitude":"45.7614","longitude":"-74.01598","name":"Michaels-Saint Jer\u00f4me,QC","address":"1025 Boul du Grand Heron, Saint Jer\u00f4me,QC J7Y 3P2, (450) 431-3290"},{"latitude":"45.4940287","longitude":"-73.7077555","name":"Michaels-Saint Laurent,QC","address":"3610 Blvd de la Cote Vertu, Saint Laurent,QC H4R 1P8, (514) 416-4345"},{"latitude":"46.72788","longitude":"-71.27297","name":"Michaels-Saint Romuald,QC","address":"1224 Rue de la Concorde, Saint Romuald,QC G6W 0M7, (581) 318-2423"},{"latitude":"45.4201782","longitude":"-71.9674847","name":"Michaels-Sherbrooke,QC","address":"1255 Boul du Plateau Saint Joseph, Sherbrooke,QC J1L 3E2, (819) 416-1708"},{"latitude":"45.574832","longitude":"-73.5906996","name":"Michaels-St Leonard,QC","address":"7600 Boul Viau, St Leonard,QC H1S 2P3, (514) 416-4359"},{"latitude":"45.7181462","longitude":"-73.5021485","name":"Michaels-Terrebonne,QC","address":"701 Rue des Migrateurs, Terrebonne,QC J6V 0A8, (450) 657-6574"},{"latitude":"45.3986273","longitude":"-74.0540249","name":"Michaels-Vaudreuil,QC","address":"3060 Boul De la Gare, Vaudreuil,QC J7V 0H1, (450) 424-1648"},{"latitude":"41.534592","longitude":"-71.2926368","name":"Michaels-Middletown,RI","address":"1305 W Main Rd, Middletown,RI 02842-6355, (401) 848-5303"},{"latitude":"41.8706741","longitude":"-71.521347","name":"Michaels-Smithfield,RI","address":"371 Putnam Pike, Smithfield,RI 02917-2402, (401) 233-0539"},{"latitude":"41.6992756","longitude":"-71.4963741","name":"Michaels-Warwick,RI","address":"1500 Bald Hill Rd, Warwick,RI 02886-4259, (401) 828-1400"},{"latitude":"41.3547988","longitude":"-71.8100779","name":"Michaels-Westerly,RI","address":"19 Airport Rd, Westerly,RI 02891, (401) 348-5023"},{"latitude":"34.5513374","longitude":"-82.6774266","name":"Michaels-Anderson,SC","address":"3521 Clemson Blvd, Anderson,SC 29621-1312, (864) 222-0187"},{"latitude":"32.2433281","longitude":"-80.828804","name":"Michaels-Bluffton,SC","address":"30 Malphrus Rd, Bluffton,SC 29910-6635, (843) 837-2070"},{"latitude":"32.7941628","longitude":"-80.026413","name":"Michaels-Charleston,SC","address":"832 Orleans Rd, Charleston,SC 29407, (843) 654-1958"},{"latitude":"34.1179428","longitude":"-80.8774414","name":"Michaels-Columbia,SC","address":"10204 Two Notch Rd [Ste 2], Columbia,SC 29229-4386, (803) 462-0624"},{"latitude":"34.0713642","longitude":"-81.1612932","name":"Michaels-Columbia,SC","address":"244 Harbison Blvd, Columbia,SC 29212-2232, (803) 407-7813"},{"latitude":"33.9909477","longitude":"-80.9727707","name":"Michaels-Columbia,SC","address":"4400 Ft Jackson Blvd, Columbia,SC 29209, (803) 563-6579"},{"latitude":"34.8320465","longitude":"-82.3461609","name":"Michaels-Greenville,SC","address":"20 Haywood Rd, Greenville,SC 29607-3826, (864) 987-9474"},{"latitude":"34.2100344","longitude":"-82.1811193","name":"Michaels-Greenwood,SC","address":"420 Hwy 72 Bypass, Greenwood,SC 29649-1407, (864) 223-7592"},{"latitude":"32.8141136","longitude":"-79.8434525","name":"Michaels-Mt Pleasant,SC","address":"1501 N Hwy 17 [Unit A], Mt Pleasant,SC 29464-3342, (843) 856-6243"},{"latitude":"33.70644","longitude":"-78.9124069","name":"Michaels-Myrtle Beach,SC","address":"504 Seaboard St, Myrtle Beach,SC 29577-9732, (843) 448-0939"},{"latitude":"32.940788","longitude":"-80.038284","name":"Michaels-North Charleston,SC","address":"7620 N Rivers Ave, North Charleston,SC 29406-4012, (843) 574-9233"},{"latitude":"34.9423103","longitude":"-80.9793355","name":"Michaels-Rock Hill,SC","address":"546 John Ross Pkwy, Rock Hill,SC 29730-8910, (803) 327-5393"},{"latitude":"34.7154961","longitude":"-82.255043","name":"Michaels-Simpsonville,SC","address":"621 Fairview Rd, Simpsonville,SC 29680, (864) 881-4877"},{"latitude":"34.9346352","longitude":"-81.9880524","name":"Michaels-Spartanburg,SC","address":"120 Dorman Centre Dr, Spartanburg,SC 29301-2625, (864) 574-8248"},{"latitude":"33.956805","longitude":"-80.3868824","name":"Michaels-Sumter,SC","address":"1267 Broad St, Sumter,SC 29150-1973, (803) 905-5560"},{"latitude":"44.0971228","longitude":"-103.1821467","name":"Michaels-Rapid City,SD","address":"1707 Eglin St, Rapid City,SD 57703, (605) 348-4024"},{"latitude":"43.520107","longitude":"-96.773361","name":"Michaels-Sioux Falls,SD","address":"3801 W 34th St [Ste 103], Sioux Falls,SD 57106-4310, (605) 361-7006"},{"latitude":"53.1995352","longitude":"-105.731893","name":"Michaels-Prince Albert,SK","address":"801 15th St E [Unit 761], Prince Albert,SK S6V 0C7, (306) 763-4450"},{"latitude":"50.4455109","longitude":"-104.5333261","name":"Michaels-Regina,SK","address":"2088 Prince of Wales Dr, Regina,SK S4V 3A6, (306) 585-9892"},{"latitude":"52.1476612","longitude":"-106.6213162","name":"Michaels-Saskatoon,SK","address":"1723 Preston Ave N, Saskatoon,SK S7N 4V2, (306) 975-1810"},{"latitude":"35.7696495","longitude":"-83.9854584","name":"Michaels-Alcoa,TN","address":"111 Hamilton Crossing Dr, Alcoa,TN 37701-2263, (865) 982-2970"},{"latitude":"35.9657581","longitude":"-86.8020867","name":"Michaels-Brentwood,TN","address":"8105 Moores Ln, Brentwood,TN 37027-2973, (615) 371-8577"},{"latitude":"36.3926811","longitude":"-82.1135635","name":"Michaels-Bristol,TN","address":"450 Pinnacle Pkwy, Bristol,TN 37620-8629, (423) 758-6538"},{"latitude":"35.0375214","longitude":"-85.1553574","name":"Michaels-Chattanooga,TN","address":"2200 Hamilton Place Blvd, Chattanooga,TN 37421-6015, (423) 490-0134"},{"latitude":"35.1276817","longitude":"-85.2412872","name":"Michaels-Chattanooga,TN","address":"600 Northgate Mall Dr, Chattanooga,TN 37415, (423) 876-4395"},{"latitude":"35.2187575","longitude":"-84.8680416","name":"Michaels-Cleveland,TN","address":"4550 Frontage Rd NW, Cleveland,TN 37312-2905, (423) 476-7403"},{"latitude":"35.0494793","longitude":"-89.7326461","name":"Michaels-Collierville,TN","address":"3621 S Houston Levee Rd, Collierville,TN 38017, (901) 861-4672"},{"latitude":"36.345134","longitude":"-82.400779","name":"Michaels-Johnson City,TN","address":"3211 Peoples St, Johnson City,TN 37604-4108, (423) 915-1176"},{"latitude":"36.552959","longitude":"-82.490928","name":"Michaels-Kingsport,TN","address":"2626 E Stone Dr [Ste 110], Kingsport,TN 37660-5848, (423) 230-0903"},{"latitude":"35.9078298","longitude":"-84.1056814","name":"Michaels-Knoxville,TN","address":"9622 Kingston Pike, Knoxville,TN 37922-2387, (865) 670-9096"},{"latitude":"36.2581482","longitude":"-86.6980209","name":"Michaels-Madison,TN","address":"2215 N Gallatin Pike Rd, Madison,TN 37115-2005, (615) 859-8863"},{"latitude":"35.1982199","longitude":"-89.7957069","name":"Michaels-Memphis,TN","address":"8035 Giacosa Place, Memphis,TN 38133-5301, (901) 388-9247"},{"latitude":"35.1077959","longitude":"-89.889436","name":"Michaels-Memphis,TN","address":"851 S White Station Rd, Memphis,TN 38117-5702, (901) 762-0117"},{"latitude":"35.8604579","longitude":"-86.442843","name":"Michaels-Murfreesboro,TN","address":"2615 Medical Center Pkwy, Murfreesboro,TN 37129-2257, (615) 896-6432"},{"latitude":"36.1121055","longitude":"-86.7655557","name":"Michaels-Nashville,TN","address":"719 Thompson Ln, Nashville,TN 37204-3624, (615) 385-5344"},{"latitude":"36.0768852","longitude":"-86.9507141","name":"Michaels-Nashville,TN","address":"7657 Hwy 70 S, Nashville,TN 37221-1706, (615) 646-3403"},{"latitude":"32.4093045","longitude":"-99.7776879","name":"Michaels-Abilene,TX","address":"3433 Catclaw Dr, Abilene,TX 79606-8223, (325) 692-3306"},{"latitude":"33.0908015","longitude":"-96.6846543","name":"Michaels-Allen,TX","address":"965 W Bethany Dr, Allen,TX 75013, (972) 332-5444"},{"latitude":"35.1891171","longitude":"-101.8839448","name":"Michaels-Amarillo,TX","address":"2203 S Western St, Amarillo,TX 79109, (806) 358-3897"},{"latitude":"32.6818766","longitude":"-97.1261392","name":"Michaels-Arlington,TX","address":"1108 W Arbrook Blvd, Arlington,TX 76015-4211, (817) 468-7983"},{"latitude":"32.7568377","longitude":"-97.1005315","name":"Michaels-Arlington,TX","address":"130 Lincoln Square, Arlington,TX 76011, (817) 795-1217"},{"latitude":"30.395378","longitude":"-97.745452","name":"Michaels-Austin,TX","address":"10225 Research Blvd, Austin,TX 78759-5743, (512) 795-8573"},{"latitude":"30.4763756","longitude":"-97.8039856","name":"Michaels-Austin,TX","address":"14028 N Hwy 183, Austin,TX 78717, (512) 219-9472"},{"latitude":"30.2725506","longitude":"-97.8001862","name":"Michaels-Austin,TX","address":"3201 Bee Caves Rd, Austin,TX 78746-6696, (512) 328-6142"},{"latitude":"30.2284145","longitude":"-97.8195724","name":"Michaels-Austin,TX","address":"5601 Brodie Ln, Austin,TX 78745-2512, (512) 899-2800"},{"latitude":"29.7987728","longitude":"-94.9786987","name":"Michaels-Baytown,TX","address":"6614 Garth Rd, Baytown,TX 77521-8623, (281) 421-1048"},{"latitude":"30.3051793","longitude":"-97.9411136","name":"Michaels-Bee Caves,TX","address":"12770 Shops Pkwy [Ste 100], Bee Caves,TX 78738, (512) 263-8543"},{"latitude":"25.9684391","longitude":"-97.5080795","name":"Michaels-Brownsville,TX","address":"571 E Morrison Rd, Brownsville,TX 78526-3370, (956) 350-6205"},{"latitude":"32.5680075","longitude":"-97.3193682","name":"Michaels-Burleson,TX","address":"1151 N Burleson Blvd, Burleson,TX 76028-7009, (817) 426-4357"},{"latitude":"32.6030941","longitude":"-96.9333051","name":"Michaels-Cedar Hill,TX","address":"751 N US Hwy 67, Cedar Hill,TX 75104-2142, (972) 291-9747"},{"latitude":"30.6402988","longitude":"-96.3151779","name":"Michaels-College Station,TX","address":"1505 E University Dr [Ste 300], College Station,TX 77840-2672, (979) 846-4858"},{"latitude":"30.1856766","longitude":"-95.4515457","name":"Michaels-Conroe,TX","address":"19075 IH-45 S [Ste 104], Conroe,TX 77385-8748, (936) 271-0011"},{"latitude":"30.3352242","longitude":"-95.4768906","name":"Michaels-Conroe,TX","address":"2218 I-45 N, Conroe,TX 77301-1051, (936) 539-9630"},{"latitude":"27.714353","longitude":"-97.386848","name":"Michaels-Corpus Christi,TX","address":"4717-E S Padre Island Dr, Corpus Christi,TX 78411-4415, (361) 851-9360"},{"latitude":"29.965892","longitude":"-95.69165","name":"Michaels-Cypress,TX","address":"25715 Northwest Fwy, Cypress,TX 77429, (281) 758-0014"},{"latitude":"32.9541618","longitude":"-96.8152048","name":"Michaels-Dallas,TX","address":"5301 Beltline Rd, Dallas,TX 75254-7664, (972) 385-9228"},{"latitude":"32.8534317","longitude":"-96.7685776","name":"Michaels-Dallas,TX","address":"5500 Greenville Ave, Dallas,TX 75206-2931, (214) 461-9491"},{"latitude":"33.1921495","longitude":"-97.0982529","name":"Michaels-Denton,TX","address":"1800 S Loop 288, Denton,TX 76205, (940) 891-0726"},{"latitude":"32.9056816","longitude":"-96.9475098","name":"Michaels-Euless,TX","address":"2901 Rio Grande Blvd, Euless,TX 76039, (682) 503-7937"},{"latitude":"32.7550191","longitude":"-97.3545923","name":"Michaels-Fort Worth,TX","address":"359 Carroll St, Fort Worth,TX 76107-1959, (817) 332-1002"},{"latitude":"32.6763654","longitude":"-97.4008423","name":"Michaels-Fort Worth,TX","address":"4921 Overton Ridge Blvd, Fort Worth,TX 76132-1910, (817) 423-1727"},{"latitude":"33.1749699","longitude":"-96.8430568","name":"Michaels-Frisco,TX","address":"5255 Eldorado Pkwy, Frisco,TX 75033-8671, (972) 464-1805"},{"latitude":"32.964149","longitude":"-96.6441771","name":"Michaels-Garland,TX","address":"5325 N Garland Ave, Garland,TX 75040-2716, (972) 495-8536"},{"latitude":"30.6325741","longitude":"-97.6958084","name":"Michaels-Georgetown,TX","address":"1013 W University Ave, Georgetown,TX 78628-5332, (512) 863-2773"},{"latitude":"32.4566757","longitude":"-97.7276628","name":"Michaels-Granbury,TX","address":"3906 E US Hwy 377, Granbury,TX 76049-7613, (817) 579-0925"},{"latitude":"29.7335482","longitude":"-95.6239164","name":"Michaels-Houston,TX","address":"2650 Eldridge Pkwy, Houston,TX 77082, (281) 589-2886"},{"latitude":"29.7222602","longitude":"-95.439475","name":"Michaels-Houston,TX","address":"3904 Bissonnet St, Houston,TX 77005-1143, (713) 662-0913"},{"latitude":"29.8763524","longitude":"-95.6453519","name":"Michaels-Houston,TX","address":"6823 Hwy 6 N, Houston,TX 77084-1315, (281) 463-9826"},{"latitude":"29.7376299","longitude":"-95.502643","name":"Michaels-Houston,TX","address":"7560 Westheimer Rd [Unit A], Houston,TX 77063-4615, (713) 490-1421"},{"latitude":"29.9637884","longitude":"-95.5436473","name":"Michaels-Houston,TX","address":"7630 FM 1960 W, Houston,TX 77070-5721, (281) 955-1260"},{"latitude":"29.7861328","longitude":"-95.5305634","name":"Michaels-Houston,TX","address":"9666 Old Katy Rd, Houston,TX 77055-6322, (713) 490-1796"},{"latitude":"29.9961915","longitude":"-95.1618724","name":"Michaels-Humble,TX","address":"19123 W Lake Houston Pkwy, Humble,TX 77346, (281) 812-4930"},{"latitude":"30.0017081","longitude":"-95.2700244","name":"Michaels-Humble,TX","address":"19653 US Hwy 59, Humble,TX 77338-3565, (281) 446-2118"},{"latitude":"32.8267139","longitude":"-97.2014717","name":"Michaels-Hurst,TX","address":"846 Northeast Mall Blvd, Hurst,TX 76053-4653, (817) 589-0888"},{"latitude":"32.9110801","longitude":"-96.9588599","name":"Michaels-Irving,TX","address":"7635 N MacArthur Blvd, Irving,TX 75063, (972) 501-0525"},{"latitude":"29.733622","longitude":"-95.7742938","name":"Michaels-Katy,TX","address":"23514 Westheimer Pkwy, Katy,TX 77494, (281) 392-5180"},{"latitude":"32.8974724","longitude":"-97.2555466","name":"Michaels-Keller,TX","address":"2005 S Main St, Keller,TX 76248-5122, (817) 741-7507"},{"latitude":"27.5512909","longitude":"-99.5043071","name":"Michaels-Laredo,TX","address":"5510 San Bernardo Ave, Laredo,TX 78041-3008, (956) 725-8497"},{"latitude":"29.4589343","longitude":"-95.0844182","name":"Michaels-League City,TX","address":"1821 Gulf Fwy, League City,TX 77539-3207, (281) 337-5973"},{"latitude":"33.0083656","longitude":"-96.978569","name":"Michaels-Lewisville,TX","address":"2325 S Stemmons Frwy, Lewisville,TX 75067-2312, (972) 316-0837"},{"latitude":"32.5386581","longitude":"-94.7593307","name":"Michaels-Longview,TX","address":"422 W Loop 281, Longview,TX 75605-4448, (903) 234-2040"},{"latitude":"33.5332373","longitude":"-101.9223366","name":"Michaels-Lubbock,TX","address":"6705 Slide Rd, Lubbock,TX 79424-1513, (806) 794-4297"},{"latitude":"32.5983775","longitude":"-97.1490332","name":"Michaels-Mansfield,TX","address":"2041 N Hwy 287, Mansfield,TX 76063-8847, (682) 518-6629"},{"latitude":"26.1872502","longitude":"-98.2173074","name":"Michaels-McAllen,TX","address":"520 E Expressway 83, McAllen,TX 78503-1615, (956) 631-4065"},{"latitude":"33.2148132","longitude":"-96.639679","name":"Michaels-McKinney,TX","address":"1751 N Central Expy, McKinney,TX 75070-3113, (972) 547-0762"},{"latitude":"32.7958196","longitude":"-96.6266643","name":"Michaels-Mesquite,TX","address":"19105 LBJ Fwy, Mesquite,TX 75150, (214) 231-0699"},{"latitude":"32.032711","longitude":"-102.1240158","name":"Michaels-Midland,TX","address":"3001 W Loop 250 N, Midland,TX 79705-3252, (432) 522-5212"},{"latitude":"33.0114886","longitude":"-96.6052596","name":"Michaels-Murphy,TX","address":"209 E FM 544, Murphy,TX 75094-4023, (972) 424-6148"},{"latitude":"31.889872","longitude":"-102.3509201","name":"Michaels-Odessa,TX","address":"3827 E 42nd St, Odessa,TX 79762-5947, (432) 362-7590"},{"latitude":"29.6495461","longitude":"-95.1534449","name":"Michaels-Pasadena,TX","address":"5730 Fairmont Pkwy, Pasadena,TX 77505-3906, (281) 998-2221"},{"latitude":"29.5516388","longitude":"-95.3866797","name":"Michaels-Pearland,TX","address":"3127 Silverlake Village Dr, Pearland,TX 77584-8082, (713) 436-6483"},{"latitude":"33.0289612","longitude":"-96.8368607","name":"Michaels-Plano,TX","address":"6400 W Plano Pkwy [Ste 130], Plano,TX 75093-8207, (972) 473-7313"},{"latitude":"33.0204659","longitude":"-96.7146988","name":"Michaels-Plano,TX","address":"801 W 15th St, Plano,TX 75075-8838, (972) 422-9990"},{"latitude":"33.0953814","longitude":"-96.8051291","name":"Michaels-Plano,TX","address":"8700 Preston Rd, Plano,TX 75024-3321, (972) 377-3339"},{"latitude":"32.8974753","longitude":"-96.4629248","name":"Michaels-Rockwall,TX","address":"2717 Market Center Dr, Rockwall,TX 75032-6564, (972) 772-7930"},{"latitude":"29.5437737","longitude":"-95.7461395","name":"Michaels-Rosenberg,TX","address":"23701 Brazos Town Crossing, Rosenberg,TX 77469, (832) 595-8011"},{"latitude":"30.478523","longitude":"-97.669921","name":"Michaels-Round Rock,TX","address":"3021 S IH-35, Round Rock,TX 78664-8300, (512) 388-5662"},{"latitude":"31.4362682","longitude":"-100.5020352","name":"Michaels-San Angelo,TX","address":"4451 Sunset Dr, San Angelo,TX 76901-5612, (325) 947-1489"},{"latitude":"29.6018333","longitude":"-98.4686127","name":"Michaels-San Antonio,TX","address":"17700 US 281 N [Ste 400], San Antonio,TX 78232-1414, (210) 494-0202"},{"latitude":"29.6108566","longitude":"-98.5949805","name":"Michaels-San Antonio,TX","address":"17802 La Cantera Pkwy, San Antonio,TX 78257, (210) 641-2975"},{"latitude":"29.4933558","longitude":"-98.4797166","name":"Michaels-San Antonio,TX","address":"255 E Basse Rd, San Antonio,TX 78253, (210) 804-1966"},{"latitude":"29.4905663","longitude":"-98.7097244","name":"Michaels-San Antonio,TX","address":"5347 W Loop 1604 N, San Antonio,TX 78253-5794, (210) 647-8611"},{"latitude":"29.4740257","longitude":"-98.6135406","name":"Michaels-San Antonio,TX","address":"6065 NW Loop 410, San Antonio,TX 78238-3339, (210) 681-2393"},{"latitude":"29.574158","longitude":"-98.3237542","name":"Michaels-Selma,TX","address":"8340 Agora Pkwy, Selma,TX 78154-1326, (210) 659-9580"},{"latitude":"32.9409673","longitude":"-97.1363249","name":"Michaels-Southlake,TX","address":"1051 E Southlake Blvd, Southlake,TX 76092-6347, (817) 310-9385"},{"latitude":"30.0356407","longitude":"-95.4290924","name":"Michaels-Spring,TX","address":"20626 I-45 N, Spring,TX 77373-2925, (281) 353-5031"},{"latitude":"29.6050342","longitude":"-95.614937","name":"Michaels-Sugarland,TX","address":"15385 Southwest Frwy, Sugarland,TX 77478-3832, (281) 980-1606"},{"latitude":"31.0921745","longitude":"-97.3850174","name":"Michaels-Temple,TX","address":"3550 General Bruce Dr [Ste A120], Temple,TX 76504, (254) 774-8624"},{"latitude":"32.2858679","longitude":"-95.3044204","name":"Michaels-Tyler,TX","address":"5839 S Broadway Ave, Tyler,TX 75703, (903) 258-9030"},{"latitude":"31.5288815","longitude":"-97.1716093","name":"Michaels-Waco,TX","address":"521 N Valley Mills Dr, Waco,TX 76710-5234, (254) 776-7009"},{"latitude":"32.7320065","longitude":"-97.7873889","name":"Michaels-Weatherford,TX","address":"225 Adams Dr [Ste 225], Weatherford,TX 76086-6724, (817) 599-6980"},{"latitude":"29.5416141","longitude":"-95.138859","name":"Michaels-Webster,TX","address":"1019 W Bay Area Blvd, Webster,TX 77598-4047, (281) 316-2143"},{"latitude":"33.8754578","longitude":"-98.5378418","name":"Michaels-Wichita Falls,TX","address":"3201 Lawrence Rd [Ste 150], Wichita Falls,TX 76308-1633, (940) 696-8238"},{"latitude":"40.382072","longitude":"-111.821296","name":"Michaels-American Fork,UT","address":"245 N Meadow Ln (750 West), American Fork,UT 84003, (956) 725-8497"},{"latitude":"40.8843011","longitude":"-111.8901146","name":"Michaels-Bountiful,UT","address":"420 S 500 W, Bountiful,UT 84010-7112, (361) 851-9360"},{"latitude":"40.5268009","longitude":"-111.8845658","name":"Michaels-Draper,UT","address":"215 E 12300 S, Draper,UT 84020-8185, (956) 631-4065"},{"latitude":"41.086181","longitude":"-111.981185","name":"Michaels-Layton,UT","address":"1804 N Woodland Park Dr, Layton,UT 84041-5639, (956) 350-6205"},{"latitude":"41.758191","longitude":"-111.8344313","name":"Michaels-Logan,UT","address":"1427-B N Main St, Logan,UT 84341-2223, (801) 492-3534"},{"latitude":"40.6237279","longitude":"-111.8615102","name":"Michaels-Midvale,UT","address":"1128 E Ft Union Blvd, Midvale,UT 84047-1804, (801) 298-3488"},{"latitude":"40.2735595","longitude":"-111.6867884","name":"Michaels-Orem,UT","address":"321 E 1300 South St, Orem,UT 84058-5424, (801) 495-4210"},{"latitude":"40.7409172","longitude":"-111.5482407","name":"Michaels-Park City,UT","address":"6400 N Hwy 224, Park City,UT 84098, (801) 779-1373"},{"latitude":"41.1884174","longitude":"-111.983603","name":"Michaels-Riverdale,UT","address":"4125 Riverdale Rd, Riverdale,UT 84405-3509, (435) 753-6600"},{"latitude":"40.7223507","longitude":"-111.853709","name":"Michaels-Salt Lake City,UT","address":"2236 S 1300 St E, Salt Lake City,UT 84106-2803, (801) 561-3056"},{"latitude":"37.1022911","longitude":"-113.5541687","name":"Michaels-St. George,UT","address":"313 S River Rd, St. George,UT 84790-2118, (801) 225-1085"},{"latitude":"40.6112596","longitude":"-111.980833","name":"Michaels-West Jordan,UT","address":"7668 S Campus View Dr, West Jordan,UT 84084-4316, (435) 649-6196"},{"latitude":"40.7043152","longitude":"-112.0226364","name":"Michaels-West Valley City,UT","address":"3061 S 5600 W, West Valley City,UT 84120-1303, (801) 393-4697"},{"latitude":"38.7496772","longitude":"-77.0832311","name":"Michaels-Alexandria,VA","address":"7690A Richmond Hwy, Alexandria,VA 22306-2843, (801) 485-7799"},{"latitude":"38.0503026","longitude":"-78.5019285","name":"Michaels-Charlottesville,VA","address":"1035 Emmet St N, Charlottesville,VA 22903-4834, (435) 688-7005"},{"latitude":"36.7781235","longitude":"-76.2331465","name":"Michaels-Chesapeake,VA","address":"1593 Crossways Blvd, Chesapeake,VA 23320-2442, (801) 282-2549"},{"latitude":"36.8225975","longitude":"-76.4226532","name":"Michaels-Chesapeake,VA","address":"4300 Portsmouth Blvd, Chesapeake,VA 23321-2156, (801) 963-4138"},{"latitude":"37.1583923","longitude":"-80.4228964","name":"Michaels-Christiansburg,VA","address":"140 Conston Ave, Christiansburg,VA 24073-1151, (703) 721-9890"},{"latitude":"37.2465022","longitude":"-77.3917951","name":"Michaels-Colonial Heights,VA","address":"90 Southgate Square, Colonial Heights,VA 23834-3611, (434) 971-1072"},{"latitude":"38.9516983","longitude":"-77.4480972","name":"Michaels-Dulles,VA","address":"24630 Dulles Landing Dr, Dulles,VA 20166, (757) 523-7473"},{"latitude":"38.8539848","longitude":"-77.3985443","name":"Michaels-Fairfax,VA","address":"13061 Fair Lakes Shopping Ctr, Fairfax,VA 22033-5179, (757) 465-0745"},{"latitude":"38.8707554","longitude":"-77.2630913","name":"Michaels-Fairfax,VA","address":"3089A Nutley St, Fairfax,VA 22031-1968, (540) 381-0468"},{"latitude":"38.8699407","longitude":"-77.1529175","name":"Michaels-Falls Church,VA","address":"6330 Seven Corners CTR, Falls Church,VA 22044-2409, (804) 524-0455"},{"latitude":"38.2937787","longitude":"-77.5118038","name":"Michaels-Fredericksburg,VA","address":"299 Spotsylvania Mall, Fredericksburg,VA 22407-1125, (571) 367-7439"},{"latitude":"38.7838002","longitude":"-77.6509508","name":"Michaels-Gainesville,VA","address":"8171 Stonewall Shops Square, Gainesville,VA 20155, (703) 449-1846"},{"latitude":"37.6442261","longitude":"-77.5654221","name":"Michaels-Glen Allen,VA","address":"9856 W Broad St, Glen Allen,VA 23060-4171, (703) 698-9810"},{"latitude":"37.6693176","longitude":"-77.4610799","name":"Michaels-Glen Allen,VA","address":"9910 Brook Rd, Glen Allen,VA 23059-6501, (703) 237-6229"},{"latitude":"37.0489984","longitude":"-76.3912956","name":"Michaels-Hampton,VA","address":"2170 Coliseum Dr [Ste C], Hampton,VA 23666-5985, (540) 785-8540"},{"latitude":"38.4319474","longitude":"-78.8506928","name":"Michaels-Harrisonburg,VA","address":"277 Burgess Rd, Harrisonburg,VA 22801-3718, (703) 754-1362"},{"latitude":"37.5274696","longitude":"-77.35629","name":"Michaels-Henrico,VA","address":"4531 S Laburnum Ave [Ste 700], Henrico,VA 23231-2481, (804) 967-7051"},{"latitude":"39.113545","longitude":"-77.5375054","name":"Michaels-Leesburg,VA","address":"1019 A - Edwards Ferry Rd NE, Leesburg,VA 20176-3347, (804) 261-7991"},{"latitude":"37.3469276","longitude":"-79.1910019","name":"Michaels-Lynchburg,VA","address":"4026 G Wards Rd, Lynchburg,VA 24502-2944, (757) 827-0176"},{"latitude":"38.7869733","longitude":"-77.5162254","name":"Michaels-Manassas,VA","address":"10828 Sudley Manor Dr, Manassas,VA 20109-2834, (540) 433-1159"},{"latitude":"37.5049632","longitude":"-77.6124591","name":"Michaels-Midlothian,VA","address":"11607 Midlothian Tpke, Midlothian,VA 23113-2620, (804) 222-1764"},{"latitude":"37.4195053","longitude":"-77.6331878","name":"Michaels-Midlothian,VA","address":"4700 Commonwealth Centre Pkwy, Midlothian,VA 23112-2640, (703) 669-8081"},{"latitude":"37.1218987","longitude":"-76.5099258","name":"Michaels-Newport News,VA","address":"315 Chatham Dr, Newport News,VA 23602-4382, (434) 582-5656"},{"latitude":"38.9515188","longitude":"-77.3479182","name":"Michaels-Reston,VA","address":"11630 Plaza America Dr, Reston,VA 20190-4700, (703) 365-2589"},{"latitude":"37.318718","longitude":"-79.9623612","name":"Michaels-Roanoke,VA","address":"1357 Town Square Blvd NW, Roanoke,VA 24012-1611, (804) 897-7140"},{"latitude":"38.7712173","longitude":"-77.1774902","name":"Michaels-Springfield,VA","address":"6717 Spring Mall Dr, Springfield,VA 22150-1907, (804) 744-2770"},{"latitude":"38.4702873","longitude":"-77.4072723","name":"Michaels-Stafford,VA","address":"1110 Stafford Market Place, Stafford,VA 22556-4524, (757) 833-0466"},{"latitude":"39.0269257","longitude":"-77.3983953","name":"Michaels-Sterling,VA","address":"46301 Potomac Run Plaza, Sterling,VA 20164-6614, (703) 736-0530"},{"latitude":"38.9052252","longitude":"-77.2605385","name":"Michaels-Vienna,VA","address":"311 Maple Ave E, Vienna,VA 22180-4717, (540) 265-8604"},{"latitude":"36.7620872","longitude":"-76.0085269","name":"Michaels-Virginia Beach,VA","address":"1169 Nimmo Pkwy [Ste 222], Virginia Beach,VA 23456-7730, (703) 924-1626"},{"latitude":"36.8442748","longitude":"-76.1310093","name":"Michaels-Virginia Beach,VA","address":"304 Constitution Dr, Virginia Beach,VA 23462-3102, (540) 720-8236"},{"latitude":"36.8521383","longitude":"-76.0225455","name":"Michaels-Virginia Beach,VA","address":"737 First Colonial Rd, Virginia Beach,VA 23451-6123, (703) 430-8645"},{"latitude":"38.0568096","longitude":"-78.9438493","name":"Michaels-Waynesboro,VA","address":"821 Town Center Dr, Waynesboro,VA 22980-9262, (703) 255-4970"},{"latitude":"37.2774887","longitude":"-76.7512054","name":"Michaels-Williamsburg,VA","address":"5225 Settlers Market Blvd [#110], Williamsburg,VA 23185, (757) 430-0620"},{"latitude":"39.1545083","longitude":"-78.1755728","name":"Michaels-Winchester,VA","address":"2540 S Pleasant Valley Rd, Winchester,VA 22601, (757) 552-0772"},{"latitude":"38.6535361","longitude":"-77.2851484","name":"Michaels-Woodbridge,VA","address":"14137 Crossing Pl, Woodbridge,VA 22192, (757) 437-1145"},{"latitude":"43.58639","longitude":"-72.9682986","name":"Michaels-Rutland,VT","address":"324 S Main St (US Route 7 S), Rutland,VT 05701-4907, (540) 942-7813"},{"latitude":"44.471582","longitude":"-73.1882666","name":"Michaels-South Burlington,VT","address":"861 Williston Rd [Ste 1], South Burlington,VT 05403-5724, (757) 220-4781"},{"latitude":"47.6174088","longitude":"-122.1318436","name":"Michaels-Bellevue,WA","address":"15600 NE 8th St, Bellevue,WA 98008-3917, (540) 662-0132"},{"latitude":"48.8003159","longitude":"-122.489212","name":"Michaels-Bellingham,WA","address":"4383 Meridian St, Bellingham,WA 98226-7624, (703) 494-0274"},{"latitude":"48.4561882","longitude":"-122.3362885","name":"Michaels-Burlington,WA","address":"1567 S Burlington Blvd, Burlington,WA 98233-3219, (802) 786-2435"},{"latitude":"46.6750985","longitude":"-122.978138","name":"Michaels-Chehalis,WA","address":"1441 NW Louisiana Ave, Chehalis,WA 98532-1749, (802) 864-5500"},{"latitude":"47.9120844","longitude":"-122.2144058","name":"Michaels-Everett,WA","address":"1325B SE Everett Mall Way, Everett,WA 98208-2808, (425) 747-1221"},{"latitude":"47.3138592","longitude":"-122.3134363","name":"Michaels-Federal Way,WA","address":"32061 Pacific Hwy S, Federal Way,WA 98003-6001, (360) 738-7932"},{"latitude":"47.3034058","longitude":"-122.5782394","name":"Michaels-Gig Harbor,WA","address":"4919 Point Fosdick Dr NW, Gig Harbor,WA 98335, (360) 757-6404"},{"latitude":"47.5502899","longitude":"-122.0572036","name":"Michaels-Issaquah,WA","address":"1802 12th Ave NW [Ste A], Issaquah,WA 98027-8934, (360) 740-9736"},{"latitude":"46.2267049","longitude":"-119.2117741","name":"Michaels-Kennewick,WA","address":"6803 W Canal Dr, Kennewick,WA 99336-7673, (425) 267-9088"},{"latitude":"47.7037773","longitude":"-122.2112274","name":"Michaels-Kirkland,WA","address":"9755 Juanita Dr NE, Kirkland,WA 98034-4201, (253) 946-1191"},{"latitude":"47.0411349","longitude":"-122.8338157","name":"Michaels-Lacey,WA","address":"701 Sleater Kinney Rd SE, Lacey,WA 98503-1133, (253) 853-1483"},{"latitude":"47.1649852","longitude":"-122.5128204","name":"Michaels-Lakewood,WA","address":"5730 Lakewood Towne Ctr Bvd SW, Lakewood,WA 98499-3895, (425) 369-9301"},{"latitude":"46.1447152","longitude":"-122.931418","name":"Michaels-Longview,WA","address":"200 Triangle Center, Longview,WA 98632-4679, (509) 735-3404"},{"latitude":"47.8241877","longitude":"-122.274901","name":"Michaels-Lynnwood,WA","address":"3115 Alderwood Mall Blvd, Lynnwood,WA 98036-4719, (425) 821-4444"},{"latitude":"48.1460334","longitude":"-122.188381","name":"Michaels-Marysville,WA","address":"16418 Twin Lakes Ave, Marysville,WA 98271, (360) 923-0550"},{"latitude":"47.1482248","longitude":"-122.2930221","name":"Michaels-Puyallup,WA","address":"4621 S Meridian Ave, Puyallup,WA 98373-3429, (253) 584-2058"},{"latitude":"47.6553841","longitude":"-122.6866074","name":"Michaels-Silverdale,WA","address":"10300 Silverdale Way NW, Silverdale,WA 98383-7990, (360) 578-3920"},{"latitude":"47.7272835","longitude":"-117.4087143","name":"Michaels-Spokane,WA","address":"7630 N Division St, Spokane,WA 99208-5614, (425) 771-6979"},{"latitude":"47.2241974","longitude":"-122.4750519","name":"Michaels-Tacoma,WA","address":"2921 S 38th St, Tacoma,WA 98409-5605, (360) 652-0175"},{"latitude":"47.4472985","longitude":"-122.2623349","name":"Michaels-Tukwila,WA","address":"17400 Southcenter Pkwy, Tukwila,WA 98188-3705, (253) 864-7600"},{"latitude":"46.5703408","longitude":"-120.479669","name":"Michaels-Union Gap,WA","address":"1700 E Washington Ave, Union Gap,WA 98903, (360) 337-1110"},{"latitude":"45.6159452","longitude":"-122.5011702","name":"Michaels-Vancouver,WA","address":"16601 SE Mill Plain Blvd, Vancouver,WA 98684, (509) 484-2509"},{"latitude":"47.6656113","longitude":"-117.1951828","name":"Michaels-Veradale,WA","address":"15521 E Broadway Ave, Veradale,WA 99037-9544, (253) 473-0114"},{"latitude":"43.0388023","longitude":"-88.1110228","name":"Michaels-Brookfield,WI","address":"695 Main Street, Brookfield,WI 53005-4702, (206) 575-2538"},{"latitude":"43.1833311","longitude":"-87.9611128","name":"Michaels-Brown Deer,WI","address":"9090 N Green Bay Rd, Brown Deer,WI 53209-1205, (509) 594-4171"},{"latitude":"43.2259102","longitude":"-88.0956573","name":"Michaels-Germantown,WI","address":"N96W 18736 County Line Rd, Germantown,WI 53022-4553, (360) 892-4494"},{"latitude":"43.3231627","longitude":"-87.9251631","name":"Michaels-Grafton,WI","address":"1060 Port Washington Rd, Grafton,WI 53024-9202, (509) 893-0543"},{"latitude":"44.2738571","longitude":"-88.4750061","name":"Michaels-Grand Chute,WI","address":"4661 Associated Ct, Grand Chute,WI 54913-8217, (262) 786-2452"},{"latitude":"44.5250969","longitude":"-88.064743","name":"Michaels-Green Bay,WI","address":"1616 W Mason St  [Ste B], Green Bay,WI 54303, (414) 371-1958"},{"latitude":"42.9803563","longitude":"-87.9485614","name":"Michaels-Milwaukee,WI","address":"3565 S 27th St, Milwaukee,WI 53221-1301, (262) 253-3746"},{"latitude":"42.701198","longitude":"-87.854751","name":"Michaels-Mount Pleasant,WI","address":"2630 S Green Bay Rd [Ste A], Mount Pleasant,WI 53406-4900, (262) 377-6190"},{"latitude":"42.9562318","longitude":"-88.1072596","name":"Michaels-New Berlin,WI","address":"15500 W Beloit Rd, New Berlin,WI 53151-7450, (920) 830-2215"},{"latitude":"44.4957011","longitude":"-89.5157868","name":"Michaels-Plover,WI","address":"1210 Commons Cir, Plover,WI 54467-4129, (920) 569-0964"},{"latitude":"44.9231186","longitude":"-89.651619","name":"Michaels-Wausau,WI","address":"3707 Rib Mountain Dr, Wausau,WI 54401-7492, (414) 643-0707"},{"latitude":"42.9905624","longitude":"-88.0512161","name":"Michaels-West Allis,WI","address":"11135 W National Ave, West Allis,WI 53227-3107, (262) 554-1557"},{"latitude":"38.4196588","longitude":"-82.2619162","name":"Michaels-Barboursville,WV","address":"10 Mall Rd, Barboursville,WV 25504-1821, (262) 784-1451"},{"latitude":"39.4398987","longitude":"-77.9912587","name":"Michaels-Martinsburg,WV","address":"222 Retail Commons Pkwy, Martinsburg,WV 25403-6177, (715) 344-7476"},{"latitude":"39.6493189","longitude":"-79.8951034","name":"Michaels-Morgantown,WV","address":"801 Venture Dr, Morgantown,WV 26508-7307, (715) 241-8570"},{"latitude":"38.3281224","longitude":"-81.7145611","name":"Michaels-South Charleston,WV","address":"214 RHL Blvd, South Charleston,WV 25309-8262, (414) 329-2825"},{"latitude":"40.053267","longitude":"-80.6006142","name":"Michaels-Triadelphia,WV","address":"550 Cabela Dr, Triadelphia,WV 26059-1044, (304) 733-0954"},{"latitude":"41.1668035","longitude":"-104.8018375","name":"Michaels-Cheyenne,WY","address":"5204 Rue Terre, Cheyenne,WY 82009, (304) 263-7946"},{"latitude":"33.5089912","longitude":"-112.0691757","name":"Aaron Brothers-Phoenix,AZ","address":"301 E Camelback, Phoenix,AZ 85012, (602) 265-0141"},{"latitude":"33.5831197","longitude":"-111.9777598","name":"Aaron Brothers-Phoenix,AZ","address":"10633 N Tatum Blvd [St 102] , Phoenix,AZ 85028-3017, (480) 368-1496"},{"latitude":"33.6286917","longitude":"-111.8938751","name":"Aaron Brothers-Scottsdale,AZ","address":"15745 N Hayden Rd, Scottsdale,AZ 85260-1919, (480) 368-8099"},{"latitude":"32.2206841","longitude":"-110.8762665","name":"Aaron Brothers-Tucson,AZ","address":"5460 E Broadway Blvd [Ste 324], Tucson,AZ 85711-3812, (520) 790-4158"},{"latitude":"32.3388557","longitude":"-111.0161972","name":"Aaron Brothers-Tucson,AZ","address":"2270 W Ina Rd, Tucson,AZ 85741, (520) 229-3279"},{"latitude":"33.5743294","longitude":"-117.7235933","name":"Aaron Brothers-Aliso Viejo,CA","address":"26775 Aliso Creek Rd, Aliso Viejo,CA 92656-2887, (949) 349-0060"},{"latitude":"35.3851471","longitude":"-119.1021576","name":"Aaron Brothers-Bakersfield,CA","address":"9010 Rosedale Hwy, Bakersfield,CA 93312-2160, (661) 588-9217"},{"latitude":"37.8645744","longitude":"-122.2679367","name":"Aaron Brothers-Berkeley,CA","address":"2450 Shattuck Ave, Berkeley,CA 94704-2029, (510) 841-0200"},{"latitude":"33.9118233","longitude":"-117.8720398","name":"Aaron Brothers-Brea,CA","address":"2315 E Imperial Hwy [Ste B], Brea,CA 92821-3706, (714) 256-4629"},{"latitude":"34.1904261","longitude":"-118.3270555","name":"Aaron Brothers-Burbank,CA","address":"1565 N Victory Pl, Burbank,CA 91502-1647, (818) 848-0247"},{"latitude":"37.2925262","longitude":"-121.9307175","name":"Aaron Brothers-Campbell,CA","address":"1730 S Bascom Ave, Campbell,CA 95008-0608, (408) 879-3800"},{"latitude":"39.7258249","longitude":"-121.8014429","name":"Aaron Brothers-Chico,CA","address":"2015 Forest Ave [Ste B], Chico,CA 95928-7620, (530) 894-2198"},{"latitude":"37.9704398","longitude":"-122.0551296","name":"Aaron Brothers-Concord,CA","address":"1975 Diamond Blvd [Bldg B], Concord,CA 94520-5716, (925) 687-0850"},{"latitude":"33.6377945","longitude":"-117.9208145","name":"Aaron Brothers-Costa Mesa,CA","address":"1714 Newport Blvd, Costa Mesa,CA 92627-3010, (949) 645-6880"},{"latitude":"33.995651","longitude":"-118.395957","name":"Aaron Brothers-Culver City,CA","address":"5359 S Sepulveda Blvd, Culver City,CA 90230-5215, (310) 313-7203"},{"latitude":"37.3227782","longitude":"-122.0342043","name":"Aaron Brothers-Cupertino,CA","address":"20600 Stevens Creek Blvd, Cupertino,CA 95014-2120, (408) 777-0114"},{"latitude":"37.6723175","longitude":"-122.4653015","name":"Aaron Brothers-Daly City,CA","address":"5045 Junipero Serra Blvd, Daly City,CA 94014-3217, (650) 994-6633"},{"latitude":"37.7049103","longitude":"-121.9325485","name":"Aaron Brothers-Dublin,CA","address":"7151 Regional St, Dublin,CA 94568-2323, (925) 828-1966"},{"latitude":"38.4248924","longitude":"-121.4168701","name":"Aaron Brothers-Elk Grove,CA","address":"7401 Laguna Blvd [Ste 120], Elk Grove,CA 95758-5066, (916) 691-1100"},{"latitude":"37.8339998","longitude":"-122.2921369","name":"Aaron Brothers-Emeryville,CA","address":"5618 Bay St, Emeryville,CA 94608-2408, (510) 844-0808"},{"latitude":"33.0661011","longitude":"-117.2633438","name":"Aaron Brothers-Encinitas,CA","address":"1092 N El Camino Real [Ste B], Encinitas,CA 92024-1320, (760) 942-9924"},{"latitude":"33.1167365","longitude":"-117.0971587","name":"Aaron Brothers-Escondido,CA","address":"1106 W Valley Pkwy, Escondido,CA 92025-2559, (760) 480-8486"},{"latitude":"38.6544091","longitude":"-121.1231853","name":"Aaron Brothers-Folsom,CA","address":"2761 E Bidwell St [Ste 200], Folsom,CA 95630-6409, (916) 984-9397"},{"latitude":"36.8458338","longitude":"-119.7904634","name":"Aaron Brothers-Fresno,CA","address":"7628 N Blackstone Ave, Fresno,CA 93720-4300, (559) 435-3731"},{"latitude":"34.1509547","longitude":"-118.2452394","name":"Aaron Brothers-Glendale,CA","address":"320 N Glendale Ave, Glendale,CA 91206-3758, (818) 243-7661"},{"latitude":"33.86631","longitude":"-118.393844","name":"Aaron Brothers-Hermosa Beach,CA","address":"1559 Pacific Coast Hwy, Hermosa Beach,CA 90254, (310) 374-5363"},{"latitude":"34.084041","longitude":"-118.343681","name":"Aaron Brothers-Hollywood,CA","address":"716 N La Brea Ave , Hollywood,CA 90038-3339, (323) 930-2611"},{"latitude":"33.680233","longitude":"-118.0049973","name":"Aaron Brothers-Huntington Beach,CA","address":"7041 Yorktown Ave [Ste 101], Huntington Beach,CA 92648-2463, (714) 969-9904"},{"latitude":"33.686262","longitude":"-117.8120184","name":"Aaron Brothers-Irvine,CA","address":"3800 Barranca Parkway, Irvine,CA 92606-8292, (949) 651-6361"},{"latitude":"34.19979","longitude":"-118.188613","name":"Aaron Brothers-La Canada,CA","address":"475 Foothill Blvd, La Canada,CA 91011-3555, (818) 790-6832"},{"latitude":"33.9174396","longitude":"-117.9647937","name":"Aaron Brothers-La Habra,CA","address":"1721 W Imperial Hwy [Ste A], La Habra,CA 90631-6940, (562) 697-5299"},{"latitude":"32.8473015","longitude":"-117.2740021","name":"Aaron Brothers-La Jolla,CA","address":"8827 Villa La Jolla Rd, La Jolla,CA 92037-1949, (858) 457-5908"},{"latitude":"32.7802527","longitude":"-117.014597","name":"Aaron Brothers-La Mesa,CA","address":"8491 Fletcher Pkwy, La Mesa,CA 91942-3005, (619) 461-2110"},{"latitude":"33.4928513","longitude":"-117.6963971","name":"Aaron Brothers-Laguna Niguel,CA","address":"32341 Street of the Golden Lantern [Ste D], Laguna Niguel,CA 92677-5343, (949) 488-2374"},{"latitude":"33.6196044","longitude":"-117.7014745","name":"Aaron Brothers-Lake Forest,CA","address":"23622 El Toro Rd [Ste A], Lake Forest,CA 92630-4740, (949) 206-0546"},{"latitude":"33.7562261","longitude":"-118.1093983","name":"Aaron Brothers-Long Beach,CA","address":"6415 Pacific Coast Hwy, Long Beach,CA 90803-4201, (562) 493-7508"},{"latitude":"34.0456047","longitude":"-118.432785","name":"Aaron Brothers-Los Angeles,CA","address":"2090 Westwood Blvd, Los Angeles,CA 90025-6329, (310) 446-3263"},{"latitude":"34.1017952","longitude":"-118.308787","name":"Aaron Brothers-Los Angeles,CA","address":"5453 Hollywood Blvd, Los Angeles,CA 90027-3405, (323) 978-0409"},{"latitude":"33.9017098","longitude":"-118.3737957","name":"Aaron Brothers-Manhattan Beach,CA","address":"5360 W Rosecrans Ave [Ste D], Manhattan Beach,CA 90250-6646, (310) 536-2919"},{"latitude":"37.7012062","longitude":"-121.0656357","name":"Aaron Brothers-Modesto,CA","address":"3801 Pelandale Ave [Ste F-3], Modesto,CA 95356-8705, (209) 545-9267"},{"latitude":"34.0930545","longitude":"-117.6894904","name":"Aaron Brothers-Montclair,CA","address":"8831 Central Ave, Montclair,CA 91763-1618, (909) 621-7944"},{"latitude":"36.5845008","longitude":"-121.9002474","name":"Aaron Brothers-Monterey,CA","address":"498 Del Monte Center, Monterey,CA 93940-6159, (831) 373-3436"},{"latitude":"33.1841393","longitude":"-117.3319778","name":"Aaron Brothers-Oceanside,CA","address":"2550 Vista Way, Oceanside,CA 92054-6175, (760) 439-5201"},{"latitude":"33.72457","longitude":"-116.4001472","name":"Aaron Brothers-Palm Desert,CA","address":"72513 Hwy 111, Palm Desert,CA 92260-3306, (760) 340-4692"},{"latitude":"34.1400301","longitude":"-118.1322037","name":"Aaron Brothers-Pasadena,CA","address":"326 S Lake Ave, Pasadena,CA 91101-3508, (626) 683-8161"},{"latitude":"34.1502788","longitude":"-118.0727432","name":"Aaron Brothers-Pasadena,CA","address":"3725 E Foothill Blvd, Pasadena,CA 91107-3110, (626) 351-1144"},{"latitude":"33.6406705","longitude":"-117.5999006","name":"Aaron Brothers-Rancho Santa Margarita,CA","address":"30505 Avenida de las Flores, Rancho Santa Margarita,CA 92688-3939, (949) 459-1040"},{"latitude":"40.5860764","longitude":"-122.3562196","name":"Aaron Brothers-Redding,CA","address":"917 Dana Dr [Ste C], Redding,CA 96003-4020, (530) 223-0992"},{"latitude":"34.0732934","longitude":"-117.2088043","name":"Aaron Brothers-Redlands,CA","address":"9950 Alabama St, Redlands,CA 92374-2036, (909) 307-6053"},{"latitude":"37.4790077","longitude":"-122.2259369","name":"Aaron Brothers-Redwood City,CA","address":"1680 El Camino Real, Redwood City,CA 94063-2108, (650) 366-4266"},{"latitude":"33.9114355","longitude":"-117.4611901","name":"Aaron Brothers-Riverside,CA","address":"3780 Tyler St, Riverside,CA 92503-4161, (951) 688-1598"},{"latitude":"38.7892647","longitude":"-121.2864227","name":"Aaron Brothers-Roseville,CA","address":"10333 Fairway Dr [Ste 160], Roseville,CA 95678-1998, (916) 781-6448"},{"latitude":"38.7434769","longitude":"-121.2570724","name":"Aaron Brothers-Roseville,CA","address":"1850 Douglas Blvd, Roseville,CA 95661-3682, (916) 781-3660"},{"latitude":"38.5965691","longitude":"-121.4079742","name":"Aaron Brothers-Sacramento,CA","address":"2345 Arden Way, Sacramento,CA 95825-4035, (916) 924-8831"},{"latitude":"32.9166182","longitude":"-117.120441","name":"Aaron Brothers-San Diego,CA","address":"10765 Westview Pkwy, San Diego,CA 92126-2963, (858) 271-5314"},{"latitude":"32.7702849","longitude":"-117.1488704","name":"Aaron Brothers-San Diego,CA","address":"1530 Camino De La Reina [Ste C2], San Diego,CA 92108-1527, (619) 542-0152"},{"latitude":"33.0184262","longitude":"-117.0753644","name":"Aaron Brothers-San Diego,CA","address":"16771 Bernardo Center Dr, San Diego,CA 92128-2509, (858) 451-3734"},{"latitude":"32.7487946","longitude":"-117.2036362","name":"Aaron Brothers-San Diego,CA","address":"2790 Midway Dr, San Diego,CA 92110-3203, (619) 224-2909"},{"latitude":"34.1036224","longitude":"-117.8216248","name":"Aaron Brothers-San Dimas,CA","address":"840 W Arrow Hwy, San Dimas,CA 91773-2446, (909) 305-4807"},{"latitude":"37.7806358","longitude":"-122.4796066","name":"Aaron Brothers-San Francisco,CA","address":"5600 Geary Blvd, San Francisco,CA 94121-2215, (415) 876-0150"},{"latitude":"37.2502754","longitude":"-121.8649502","name":"Aaron Brothers-San Jose,CA","address":"944 Blossom Hill Rd [Ste A], San Jose,CA 95123-1202, (408) 578-2430"},{"latitude":"37.5646553","longitude":"-122.3230972","name":"Aaron Brothers-San Mateo,CA","address":"180 E 3rd Ave, San Mateo,CA 94401-4013, (650) 340-9788"},{"latitude":"37.9597321","longitude":"-122.5073929","name":"Aaron Brothers-San Rafael,CA","address":"75C Bellam Blvd, San Rafael,CA 94901-5352, (415) 457-5761"},{"latitude":"37.7753755","longitude":"-121.9777874","name":"Aaron Brothers-San Ramon,CA","address":"2431 San Ramon Valley Blvd, San Ramon,CA 94583-1549, (925) 831-8007"},{"latitude":"34.01599","longitude":"-118.4871901","name":"Aaron Brothers-Santa Monica,CA","address":"1645 Lincoln Blvd, Santa Monica,CA 90404-3711, (310) 450-6333"},{"latitude":"34.2877693","longitude":"-118.7161407","name":"Aaron Brothers-Simi Valley,CA","address":"2944 Tapo Canyon Rd [Ste A] , Simi Valley,CA 93063-0903, (805) 527-7240"},{"latitude":"32.9956931","longitude":"-117.2589777","name":"Aaron Brothers-Solana Beach,CA","address":"166 S Solana Hills Dr, Solana Beach,CA 92075-2003, (858) 724-0800"},{"latitude":"38.0098468","longitude":"-121.3202633","name":"Aaron Brothers-Stockton,CA","address":"6575 Pacific Ave, Stockton,CA 95207-3717, (209) 952-9097"},{"latitude":"34.1431401","longitude":"-118.4069712","name":"Aaron Brothers-Studio City,CA","address":"12565 Ventura Blvd, Studio City,CA 91604-2413, (818) 769-3230"},{"latitude":"37.3670807","longitude":"-122.0331726","name":"Aaron Brothers-Sunnyvale,CA","address":"725 Sunnyvale Saratoga Rd, Sunnyvale,CA 94087-1310, (408) 738-0330"},{"latitude":"33.5203419","longitude":"-117.1567098","name":"Aaron Brothers-Temecula,CA","address":"26493 Ynez Rd [Ste 1A], Temecula,CA 92591-4654, (951) 296-6370"},{"latitude":"34.1826706","longitude":"-118.8773193","name":"Aaron Brothers-Thousand Oaks,CA","address":"173 N Moorpark Rd [Ste A], Thousand Oaks,CA 91360-4401, (805) 557-0043"},{"latitude":"33.7405425","longitude":"-117.8199101","name":"Aaron Brothers-Tustin,CA","address":"13771 Newport Ave [Stes 15\/16], Tustin,CA 92780-4692, (714) 734-8009"},{"latitude":"34.2649612","longitude":"-119.2150497","name":"Aaron Brothers-Ventura,CA","address":"4738-4 Telephone Rd [Ste E4], Ventura,CA 93003-5234, (805) 644-7227"},{"latitude":"34.090725","longitude":"-118.3723553","name":"Aaron Brothers-West Hollywood,CA","address":"8383 Santa Monica Blvd, West Hollywood,CA 90069-4312, (323) 656-2611"},{"latitude":"34.1877674","longitude":"-118.6010545","name":"Aaron Brothers-Woodland Hills,CA","address":"21480 Victory Blvd, Woodland Hills,CA 91367-2422, (818) 704-7323"},{"latitude":"39.542346","longitude":"-104.93962","name":"Aaron Brothers-Highlands Ranch,CO","address":"9579 S. University Blvd [st 600] , Highlands Ranch,CO 80126, (720)344-2351"},{"latitude":"39.6862259","longitude":"-104.9419632","name":"Aaron Brothers-Denver,CO","address":"1685 S Colorado Blvd [Ste L] , Denver,CO 80222-4035, (303) 756-5258"},{"latitude":"40.5319252","longitude":"-105.0784607","name":"Aaron Brothers-Fort Collins,CO","address":"4021 S College Ave, Fort Collins,CO 80525-3039, (970) 204-4488"},{"latitude":"33.877449","longitude":"-84.3797913","name":"Aaron Brothers-Atlanta,GA","address":"6255 Roswell Rd NE [Ste 52], Atlanta,GA 30328-3294, (404) 475-7000"},{"latitude":"43.6110115","longitude":"-116.28302","name":"Aaron Brothers-Boise,ID","address":"8101 W Emerald St, Boise,ID 83704-9028, (208) 378-8333"},{"latitude":"36.158855","longitude":"-115.3086805","name":"Aaron Brothers-Las Vegas,NV","address":"9765 W Charleston Blvd, Las Vegas,NV 89117-7536, (702) 940-5330"},{"latitude":"36.0253296","longitude":"-115.1186218","name":"Aaron Brothers-Las Vegas,NV","address":"9887 S Eastern Ave [Ste F3], Las Vegas,NV 89123-6949, (702) 616-2943"},{"latitude":"39.4828415","longitude":"-119.7931366","name":"Aaron Brothers-Reno,NV","address":"4809 Kietzke Ln, Reno,NV 89509-6549, (775) 827-2004"},{"latitude":"45.4865923","longitude":"-122.7972706","name":"Aaron Brothers-Beaverton,OR","address":"11715 SW Beaverton Hillsdale Hwy, Beaverton,OR 97005-2992, (503) 626-7261"},{"latitude":"45.408493","longitude":"-122.7220306","name":"Aaron Brothers-Lake Oswego,OR","address":"16130 Boones Ferry Rd, Lake Oswego,OR 97035-4202, (503) 636-3668"},{"latitude":"30.2306252","longitude":"-97.8213196","name":"Aaron Brothers-Austin,TX","address":"5400 Brodie Ln [Ste 920], Austin,TX 78745-2527, (512) 358-8357"},{"latitude":"30.386739","longitude":"-97.740737","name":"Aaron Brothers-Austin,TX","address":"9503 Research Blvd [Ste 550], Austin,TX 78759-5882, (512) 275-9470"},{"latitude":"32.8786583","longitude":"-97.1562958","name":"Aaron Brothers-Colleyville,TX","address":"4709 Colleyville Blvd [Ste 600], Colleyville,TX 76034, (817) 766-2071"},{"latitude":"32.808483","longitude":"-96.795799","name":"Aaron Brothers-Dallas,TX","address":"3700 McKinney Ave  [Ste 134], Dallas,TX 75204, (214) 306-6392"},{"latitude":"32.8511348","longitude":"-96.8205947","name":"Aaron Brothers-Dallas,TX","address":"5360 W Lovers Ln [Ste 208], Dallas,TX 75209-4380, (214) 904-8493"},{"latitude":"32.895774","longitude":"-96.802795","name":"Aaron Brothers-Dallas,TX","address":"6025 Royal Lane [Ste 106], Dallas,TX 75230, (214) 306-6141"},{"latitude":"32.9781568","longitude":"-96.7691452","name":"Aaron Brothers-Dallas,TX","address":"7632 Campbell Rd [Ste 314], Dallas,TX 75248, (214) 306-6142"},{"latitude":"33.0698433","longitude":"-97.0844116","name":"Aaron Brothers-Flower Mound,TX","address":"6101 Long Prairie Rd [Ste 140], Flower Mound,TX 75028-6204, (972) 691-5481"},{"latitude":"32.731685","longitude":"-97.390708","name":"Aaron Brothers-Fort Worth,TX","address":"4701 West Frwy [Ste 300], Fort Worth,TX 76107-5498, (817) 377-2091"},{"latitude":"33.1078658","longitude":"-96.8058794","name":"Aaron Brothers-Frisco,TX","address":"3333 Preston Rd [Ste 112], Frisco,TX 75034-9013, (972) 668-3620"},{"latitude":"29.7059899","longitude":"-95.4252774","name":"Aaron Brothers-Houston,TX","address":"3057 W Holcombe Blvd, Houston,TX 77025-1504, (713) 664-2395"},{"latitude":"29.7318182","longitude":"-95.4647072","name":"Aaron Brothers-Houston,TX","address":"5144 Richmond Ave, Houston,TX 77056-6702, (713) 961-4882"},{"latitude":"29.7856763","longitude":"-95.7229154","name":"Aaron Brothers-Katy,TX","address":"20260 Katy Frwy [Ste C-1], Katy,TX 77449-7500, (281) 646-9155"},{"latitude":"33.1291084","longitude":"-96.7323608","name":"Aaron Brothers-McKinney,TX","address":"8930 State Hwy 121 [Ste 516], McKinney,TX 75070, (469) 269-0658"},{"latitude":"33.0233333","longitude":"-96.795278","name":"Aaron Brothers-Plano,TX","address":"1801 Preston Rd [Ste D], Plano,TX 75093-5104, (972) 931-7119"},{"latitude":"32.9383864","longitude":"-97.1045353","name":"Aaron Brothers-Southlake,TX","address":"3020 E Southlake Blvd, Southlake,TX 76092-6618, (817) 748-2767"},{"latitude":"29.5954158","longitude":"-95.6265262","name":"Aaron Brothers-Sugar Land,TX","address":"16322 SW Fwy, Sugar Land,TX 77479-2371, (281) 240-0900"},{"latitude":"30.1641293","longitude":"-95.4623489","name":"Aaron Brothers-The Woodlands,TX","address":"9595 Six Pines Dr [Suite 1270], The Woodlands,TX 77380-1493, (281) 298-8593"},{"latitude":"29.5415933","longitude":"-95.1388999","name":"Aaron Brothers-Webster,TX","address":"1027 W Bay Area Blvd, Webster,TX 77598-4047, (281) 557-8791"},{"latitude":"47.5502899","longitude":"-122.0572036","name":"Aaron Brothers-Issaquah,WA","address":"1802 12th Ave NW [Ste A-1], Issaquah,WA 98027-8934, (425) 391-8364"},{"latitude":"47.8313486","longitude":"-122.2777268","name":"Aaron Brothers-Lynnwood,WA","address":"18420 33rd Ave W [Ste G], Lynnwood,WA 98037-4713, (425) 771-2752"},{"latitude":"47.156353","longitude":"-122.29245","name":"Aaron Brothers-Puyallup,WA","address":"3705 S Meridian, Puyallup,WA 98373-3715, (253) 864-9846"},{"latitude":"47.668523","longitude":"-122.1159473","name":"Aaron Brothers-Redmond,WA","address":"7221 170th Ave NE, Redmond,WA 98052-4485, (425) 558-0353"},{"latitude":"47.6100349","longitude":"-122.3385239","name":"Aaron Brothers-Seattle,WA","address":"1513 Third Ave, Seattle,WA 98101-1611, (206) 262-0650"},{"latitude":"47.743533","longitude":"-122.3459655","name":"Aaron Brothers-Seattle,WA","address":"15909 Westminster Way, Seattle,WA 98133-5929, (206) 417-5065"},{"latitude":"47.4453787","longitude":"-122.2616791","name":"Aaron Brothers-Tukwila,WA","address":"17570 Southcenter Pkwy, Tukwila,WA 98188-3703, (253) 479-0090"},{"latitude":"47.7572123","longitude":"-122.1544611","name":"Aaron Brothers-Woodinville,WA","address":"13970 NE Mill Pl, Woodinville,WA 98072-3531, (425) 487-0779"}]