[{"latitude":" 42.23982","longitude":"-87.94467","name":" Panera Bread","address":" USA-United States"},{"latitude":" 43.62581","longitude":"-72.32446","name":" Panera Bread","address":" USA-United States"},{"latitude":" 38.55519","longitude":"-90.40928","name":" Panera Bread","address":" USA-United States"},{"latitude":" 36.81160","longitude":"-76.07119","name":" Panera Bread","address":" USA-United States"},{"latitude":" 42.05631","longitude":"-80.08693","name":" Panera Bread","address":" USA-United States"},{"latitude":" 43.06053","longitude":"-89.49578","name":" Panera Bread","address":" USA-United States"},{"latitude":" 27.78971","longitude":"-82.63862","name":" Panera Bread","address":" USA-United States"},{"latitude":" 27.23858","longitude":"-80.26994","name":" Panera Bread","address":" USA-United States"},{"latitude":" 41.47205","longitude":"-90.47750","name":" Panera Bread","address":" USA-United States"},{"latitude":" 36.19580","longitude":"-115.24806","name":" Panera Bread","address":" USA-United States"},{"latitude":" 32.34468","longitude":"-86.22281","name":" Panera Bread","address":" USA-United States"},{"latitude":" 35.91409","longitude":"-78.77922","name":" Panera Bread","address":" USA-United States"},{"latitude":" 42.29609","longitude":"-85.65047","name":" Panera Bread","address":" USA-United States"},{"latitude":" 35.44207","longitude":"-80.86325","name":" Panera Bread","address":" USA-United States"},{"latitude":" 34.27887","longitude":"-118.74074","name":" Panera Bread","address":" USA-United States"},{"latitude":" 39.92018","longitude":"-75.03538","name":" Panera Bread","address":" USA-United States"},{"latitude":" 34.06588","longitude":"-84.16899","name":" Panera Bread","address":" USA-United States"},{"latitude":" 42.99188","longitude":"-78.69711","name":" Panera Bread","address":" USA-United States"},{"latitude":" 41.74792","longitude":"-87.79959","name":" Panera Bread","address":" USA-United States"},{"latitude":" 32.36045","longitude":"-86.16507","name":" Panera Bread","address":" USA-United States"},{"latitude":" 29.62529","longitude":"-82.37411","name":" Panera Bread","address":" USA-United States"},{"latitude":" 40.30481","longitude":"-74.67889","name":" Panera Bread","address":" USA-United States"},{"latitude":" 42.50385","longitude":"-71.13306","name":" Panera Bread","address":" USA-United States"},{"latitude":" 40.24679","longitude":"-77.00936","name":" Panera Bread","address":" USA-United States"},{"latitude":" 25.70198","longitude":"-80.33730","name":" Panera Bread","address":" USA-United States"},{"latitude":" 42.78316","longitude":"-73.89283","name":" Panera Bread","address":" USA-United States"},{"latitude":" 29.85401","longitude":"-95.51350","name":" Panera Bread","address":" USA-United States"},{"latitude":" 36.14046","longitude":"-95.96853","name":" Panera Bread","address":" USA-United States"},{"latitude":" 38.74826","longitude":"-77.44981","name":" Panera Bread","address":" USA-United States"},{"latitude":" 39.24619","longitude":"-94.45700","name":" Panera Bread","address":" USA-United States"},{"latitude":" 40.51338","longitude":"-88.95177","name":" Panera Bread","address":" USA-United States"},{"latitude":" 40.74326","longitude":"-73.61571","name":" Panera Bread","address":" USA-United States"},{"latitude":" 45.61416","longitude":"-122.50322","name":" Panera Bread","address":" USA-Vancouver"},{"latitude":" 42.66021","longitude":"-83.38984","name":" Panera Bread","address":" USA-United States"},{"latitude":" 39.93502","longitude":"-91.35611","name":" Panera Bread","address":" USA-United States"},{"latitude":" 40.91748","longitude":"-74.05898","name":" Panera Bread","address":" USA-United States"},{"latitude":" 42.34912","longitude":"-71.52215","name":" Panera Bread","address":" USA-United States"},{"latitude":" 38.55082","longitude":"-90.33605","name":" Panera Bread","address":" USA-United States"},{"latitude":" 45.02007","longitude":"-93.49449","name":" Panera Bread","address":" USA-United States"},{"latitude":" 45.28745","longitude":"-93.55269","name":" Panera Bread","address":" USA-United States"},{"latitude":" 27.93716","longitude":"-82.48317","name":" Panera Bread","address":" USA-United States"},{"latitude":" 25.98620","longitude":"-80.12984","name":" Panera Bread","address":" USA-United States"},{"latitude":" 38.88639","longitude":"-77.17745","name":" Panera Bread","address":" USA-United States"},{"latitude":" 37.18052","longitude":"-93.23671","name":" Panera Bread","address":" USA-United States"},{"latitude":" 40.74025","longitude":"-74.03021","name":" Panera Bread","address":" USA-United States"},{"latitude":" 39.51126","longitude":"-104.77164","name":" Panera Bread","address":" USA-United States"},{"latitude":" 40.31733","longitude":"-74.06258","name":" Panera Bread","address":" USA-United States"},{"latitude":" 42.49184","longitude":"-83.22226","name":" Panera Bread","address":" USA-United States"},{"latitude":" 36.14443","longitude":"-86.81319","name":" Panera Bread","address":" USA-United States"},{"latitude":" 42.54688","longitude":"-83.21428","name":" Panera Bread","address":" USA-United States"},{"latitude":" 42.17158","longitude":"-87.92274","name":" Panera Bread","address":" USA-United States"},{"latitude":" 33.17048","longitude":"-96.64172","name":" Panera Bread","address":" USA-United States"},{"latitude":" 38.55782","longitude":"-90.26159","name":" Panera Bread","address":" USA-United States"},{"latitude":" 40.11417","longitude":"-83.01104","name":" Panera Bread","address":" USA-United States"},{"latitude":" 41.69766","longitude":"-72.90272","name":" Panera Bread","address":" USA-United States"},{"latitude":" 42.30419","longitude":"-71.39908","name":" Panera Bread","address":" USA-United States"},{"latitude":" 38.54995","longitude":"-76.59659","name":" Panera Bread","address":" USA-United States"},{"latitude":" 41.29306","longitude":"-81.68459","name":" Panera Bread","address":" USA-United States"},{"latitude":" 40.05441","longitude":"-83.02008","name":" Panera Bread","address":" USA-United States"},{"latitude":" 40.48663","longitude":"-79.88796","name":" Panera Bread","address":" USA-United States"},{"latitude":" 42.48213","longitude":"-70.90180","name":" Panera Bread","address":" USA-United States"},{"latitude":" 36.03492","longitude":"-79.96459","name":" Panera Bread","address":" USA-United States"},{"latitude":" 35.12366","longitude":"-80.70837","name":" Panera Bread","address":" USA-United States"},{"latitude":" 26.25649","longitude":"-80.25086","name":" Panera Bread","address":" USA-United States"},{"latitude":" 41.71397","longitude":"-88.20772","name":" Panera Bread","address":" USA-United States"},{"latitude":" 42.49755","longitude":"-83.41893","name":" Panera Bread","address":" USA-United States"},{"latitude":" 42.54398","longitude":"-83.18642","name":" Panera Bread","address":" USA-United States"},{"latitude":" 36.10791","longitude":"-86.81371","name":" Panera Bread","address":" USA-United States"},{"latitude":" 30.31607","longitude":"-95.47382","name":" Panera Bread","address":" USA-United States"},{"latitude":" 39.07677","longitude":"-77.08047","name":" Panera Bread","address":" USA-United States"},{"latitude":" 40.13821","longitude":"-88.24276","name":" Panera Bread","address":" USA-United States"},{"latitude":" 35.44411","longitude":"-97.60119","name":" Panera Bread","address":" USA-United States"},{"latitude":" 39.83750","longitude":"-105.08193","name":" Panera Bread","address":" USA-United States"},{"latitude":" 35.54087","longitude":"-97.52971","name":" Panera Bread","address":" USA-United States"},{"latitude":" 42.82378","longitude":"-86.09122","name":" Panera Bread","address":" USA-United States"},{"latitude":" 40.74061","longitude":"-96.67877","name":" Panera Bread","address":" USA-United States"},{"latitude":" 35.84684","longitude":"-86.42608","name":" Panera Bread","address":" USA-United States"},{"latitude":" 29.28454","longitude":"-81.08303","name":" Panera Bread","address":" USA-United States"},{"latitude":" 39.65073","longitude":"-79.97136","name":" Panera Bread","address":" USA-United States"},{"latitude":" 42.35667","longitude":"-71.05213","name":" Panera Bread","address":" USA-United States"},{"latitude":" 40.66080","longitude":"-75.38080","name":" Panera Bread","address":" USA-United States"},{"latitude":" 40.35761","longitude":"-75.98443","name":" Panera Bread","address":" USA-United States"},{"latitude":" 38.60219","longitude":"-90.24218","name":" Panera Bread","address":" USA-United States"},{"latitude":" 41.38900","longitude":"-82.21451","name":" Panera Bread","address":" USA-United States"},{"latitude":" 38.05166","longitude":"-78.50055","name":" Panera Bread","address":" USA-United States"},{"latitude":" 40.82230","longitude":"-73.41218","name":" Panera Bread","address":" USA-United States"},{"latitude":" 45.53399","longitude":"-122.62085","name":" Panera Bread","address":" USA-United States"},{"latitude":" 28.24328","longitude":"-80.72723","name":" Panera Bread","address":" USA-United States"},{"latitude":" 41.37213","longitude":"-81.83098","name":" Panera Bread","address":" USA-United States"},{"latitude":" 41.56401","longitude":"-88.20011","name":" Panera Bread","address":" USA-United States"},{"latitude":" 42.63779","longitude":"-83.13164","name":" Panera Bread","address":" USA-United States"},{"latitude":" 41.87868","longitude":"-87.63700","name":" Panera Bread","address":" USA-United States"},{"latitude":" 39.85499","longitude":"-74.98121","name":" Panera Bread","address":" USA-United States"},{"latitude":" 43.21285","longitude":"-77.44680","name":" Panera Bread","address":" USA-United States"},{"latitude":" 43.97337","longitude":"-75.96290","name":" Panera Bread","address":" USA-United States"},{"latitude":" 43.07304","longitude":"-89.52575","name":" Panera Bread","address":" USA-United States"},{"latitude":" 41.66381","longitude":"-72.72073","name":" Panera Bread","address":" USA-United States"},{"latitude":" 40.05295","longitude":"-76.94680","name":" Panera Bread","address":" USA-United States"},{"latitude":" 35.37043","longitude":"-80.71618","name":" Panera Bread","address":" USA-United States"},{"latitude":" 40.57755","longitude":"-74.16372","name":" Panera Bread","address":" USA-United States"},{"latitude":" 38.11563","longitude":"-121.30705","name":" Panera Bread","address":" USA-United States"},{"latitude":" 35.86813","longitude":"-78.58210","name":" Panera Bread","address":" USA-United States"},{"latitude":" 42.96381","longitude":"-71.48136","name":" Panera Bread","address":" USA-United States"},{"latitude":" 39.71297","longitude":"-86.35839","name":" Panera Bread","address":" USA-United States"},{"latitude":" 40.35751","longitude":"-80.05052","name":" Panera Bread","address":" USA-United States"},{"latitude":" 40.68049","longitude":"-80.30891","name":" Panera Bread","address":" USA-United States"},{"latitude":" 42.71992","longitude":"-84.40903","name":" Panera Bread","address":" USA-United States"},{"latitude":" 33.20071","longitude":"-117.24610","name":" Panera Bread","address":" USA-United States"},{"latitude":" 44.16672","longitude":"-93.94775","name":" Panera Bread","address":" USA-United States"},{"latitude":" 42.50451","longitude":"-83.75418","name":" Panera Bread","address":" USA-United States"},{"latitude":" 42.91236","longitude":"-85.57343","name":" Panera Bread","address":" USA-United States"},{"latitude":" 29.65012","longitude":"-95.15330","name":" Panera Bread","address":" USA-United States"},{"latitude":" 42.28406","longitude":"-83.20402","name":" Panera Bread","address":" USA-United States"},{"latitude":" 39.02627","longitude":"-84.58139","name":" Panera Bread","address":" USA-United States"},{"latitude":" 37.96183","longitude":"-121.73536","name":" Panera Bread","address":" USA-United States"},{"latitude":" 28.05644","longitude":"-82.42621","name":" Panera Bread","address":" USA-United States"},{"latitude":" 41.31314","longitude":"-81.81860","name":" Panera Bread","address":" USA-United States"},{"latitude":" 36.87009","longitude":"-76.29467","name":" Panera Bread","address":" USA-United States"},{"latitude":" 35.31125","longitude":"-80.74686","name":" Panera Bread","address":" USA-United States"},{"latitude":" 40.24038","longitude":"-75.24253","name":" Panera Bread","address":" USA-United States"},{"latitude":" 40.46022","longitude":"-88.96696","name":" Panera Bread","address":" USA-United States"},{"latitude":" 38.87989","longitude":"-77.11132","name":" Panera Bread","address":" USA-United States"},{"latitude":" 39.88759","longitude":"-105.07536","name":" Panera Bread","address":" USA-United States"},{"latitude":" 26.39432","longitude":"-80.08426","name":" Panera Bread","address":" USA-United States"},{"latitude":" 38.29424","longitude":"-76.50017","name":" Panera Bread","address":" USA-United States"},{"latitude":" 40.79369","longitude":"-77.86090","name":" Panera Bread","address":" USA-United States"},{"latitude":" 40.89453","longitude":"-73.97559","name":" Panera Bread","address":" USA-United States"},{"latitude":" 38.58590","longitude":"-89.98499","name":" Panera Bread","address":" USA-United States"},{"latitude":" 42.53185","longitude":"-82.91371","name":" Panera Bread","address":" USA-United States"},{"latitude":" 30.14219","longitude":"-81.54900","name":" Panera Bread","address":" USA-United States"},{"latitude":" 38.63076","longitude":"-76.91019","name":" Panera Bread","address":" USA-United States"},{"latitude":" 38.23881","longitude":"-85.57667","name":" Panera Bread","address":" USA-United States"},{"latitude":" 37.20500","longitude":"-93.27595","name":" Panera Bread","address":" USA-United States"},{"latitude":" 40.16822","longitude":"-83.02175","name":" Panera Bread","address":" USA-United States"},{"latitude":" 41.31299","longitude":"-81.81980","name":" Panera Bread","address":" USA-United States"},{"latitude":" 40.68488","longitude":"-74.32665","name":" Panera Bread","address":" USA-United States"},{"latitude":" 38.85607","longitude":"-77.31397","name":" Panera Bread","address":" USA-United States"},{"latitude":" 42.80006","longitude":"-71.53570","name":" Panera Bread","address":" USA-United States"},{"latitude":" 41.01217","longitude":"-76.48667","name":" Panera Bread","address":" USA-United States"},{"latitude":" 43.13099","longitude":"-89.30075","name":" Panera Bread","address":" USA-United States"},{"latitude":" 33.06916","longitude":"-117.06868","name":" Panera Bread","address":" USA-United States"},{"latitude":" 36.12672","longitude":"-97.05905","name":" Panera Bread","address":" USA-United States"},{"latitude":" 37.22709","longitude":"-79.97972","name":" Panera Bread","address":" USA-United States"},{"latitude":" 40.36461","longitude":"-74.30503","name":" Panera Bread","address":" USA-United States"},{"latitude":" 38.80422","longitude":"-90.30856","name":" Panera Bread","address":" USA-United States"},{"latitude":" 36.07527","longitude":"-79.48906","name":" Panera Bread","address":" USA-United States"},{"latitude":" 34.02001","longitude":"-118.49736","name":" Panera Bread","address":" USA-United States"},{"latitude":" 38.91736","longitude":"-90.16263","name":" Panera Bread","address":" USA-United States"},{"latitude":" 42.28833","longitude":"-83.83461","name":" Panera Bread","address":" USA-United States"},{"latitude":" 39.76315","longitude":"-86.32668","name":" Panera Bread","address":" USA-United States"},{"latitude":" 40.53641","longitude":"-105.07681","name":" Panera Bread","address":" USA-United States"},{"latitude":" 42.52725","longitude":"-83.43849","name":" Panera Bread","address":" USA-United States"},{"latitude":" 41.85921","longitude":"-88.06553","name":" Panera Bread","address":" USA-United States"},{"latitude":" 38.67863","longitude":"-90.01220","name":" Panera Bread","address":" USA-United States"},{"latitude":" 38.79779","longitude":"-77.15462","name":" Panera Bread","address":" USA-United States"},{"latitude":" 27.83896","longitude":"-82.68383","name":" Panera Bread","address":" USA-United States"},{"latitude":" 40.27084","longitude":"-76.68672","name":" Panera Bread","address":" USA-United States"},{"latitude":" 38.85111","longitude":"-94.81812","name":" Panera Bread","address":" USA-United States"},{"latitude":" 30.19287","longitude":"-81.73910","name":" Panera Bread","address":" USA-United States"},{"latitude":" 41.78284","longitude":"-88.37575","name":" Panera Bread","address":" USA-United States"},{"latitude":" 41.26108","longitude":"-95.98061","name":" Panera Bread","address":" USA-United States"},{"latitude":" 42.17422","longitude":"-72.57617","name":" Panera Bread","address":" USA-United States"},{"latitude":" 41.52032","longitude":"-87.47148","name":" Panera Bread","address":" USA-United States"},{"latitude":" 42.99973","longitude":"-85.59261","name":" Panera Bread","address":" USA-United States"},{"latitude":" 39.13152","longitude":"-84.60976","name":" Panera Bread","address":" USA-United States"},{"latitude":" 38.65183","longitude":"-77.29772","name":" Panera Bread","address":" USA-United States"},{"latitude":" 30.30861","longitude":"-81.65452","name":" Panera Bread","address":" USA-United States"},{"latitude":" 42.24527","longitude":"-83.75837","name":" Panera Bread","address":" USA-United States"},{"latitude":" 36.05872","longitude":"-79.88571","name":" Panera Bread","address":" USA-United States"},{"latitude":" 38.59801","longitude":"-77.33364","name":" Panera Bread","address":" USA-United States"},{"latitude":" 33.39467","longitude":"-84.76245","name":" Panera Bread","address":" USA-United States"},{"latitude":" 35.02412","longitude":"-85.15867","name":" Panera Bread","address":" USA-United States"},{"latitude":" 28.34543","longitude":"-81.42014","name":" Panera Bread","address":" USA-United States"},{"latitude":" 40.68259","longitude":"-80.10091","name":" Panera Bread","address":" USA-United States"},{"latitude":" 39.95683","longitude":"-86.11556","name":" Panera Bread","address":" USA-United States"},{"latitude":" 44.74624","longitude":"-93.28989","name":" Panera Bread","address":" USA-United States"},{"latitude":" 40.85763","longitude":"-81.43115","name":" Panera Bread","address":" USA-United States"},{"latitude":" 42.46860","longitude":"-83.38844","name":" Panera Bread","address":" USA-United States"},{"latitude":" 41.42086","longitude":"-81.75907","name":" Panera Bread","address":" USA-United States"},{"latitude":" 38.30631","longitude":"-77.51063","name":" Panera Bread","address":" USA-United States"},{"latitude":" 37.97038","longitude":"-122.05522","name":" Panera Bread","address":" USA-United States"},{"latitude":" 39.00470","longitude":"-84.65384","name":" Panera Bread","address":" USA-United States"},{"latitude":" 38.95565","longitude":"-76.82410","name":" Panera Bread","address":" USA-United States"},{"latitude":" 37.11960","longitude":"-76.50544","name":" Panera Bread","address":" USA-United States"},{"latitude":" 36.29580","longitude":"-86.70016","name":" Panera Bread","address":" USA-United States"},{"latitude":" 38.94433","longitude":"-76.73430","name":" Panera Bread","address":" USA-United States"},{"latitude":" 42.03248","longitude":"-71.31233","name":" Panera Bread","address":" USA-United States"},{"latitude":" 41.47078","longitude":"-87.33430","name":" Panera Bread","address":" USA-United States"},{"latitude":" 27.96036","longitude":"-82.72680","name":" Panera Bread","address":" USA-United States"},{"latitude":" 38.59798","longitude":"-89.98020","name":" Panera Bread","address":" USA-United States"},{"latitude":" 41.64018","longitude":"-70.99149","name":" Panera Bread","address":" USA-United States"},{"latitude":" 40.92497","longitude":"-72.69934","name":" Panera Bread","address":" USA-United States"},{"latitude":" 33.84403","longitude":"-118.26324","name":" Panera Bread","address":" USA-United States"},{"latitude":" 41.32018","longitude":"-81.62315","name":" Panera Bread","address":" USA-United States"},{"latitude":" 42.23054","longitude":"-85.58962","name":" Panera Bread","address":" USA-United States"},{"latitude":" 29.96004","longitude":"-95.54721","name":" Panera Bread","address":" USA-United States"},{"latitude":" 37.16603","longitude":"-80.42324","name":" Panera Bread","address":" USA-United States"},{"latitude":" 41.46631","longitude":"-81.54011","name":" Panera Bread","address":" USA-United States"},{"latitude":" 40.12904","longitude":"-75.40355","name":" Panera Bread","address":" USA-United States"},{"latitude":" 41.71877","longitude":"-87.78226","name":" Panera Bread","address":" USA-United States"},{"latitude":" 32.07889","longitude":"-81.09209","name":" Panera Bread","address":" USA-United States"},{"latitude":" 35.08793","longitude":"-80.84556","name":" Panera Bread","address":" USA-United States"},{"latitude":" 41.64263","longitude":"-91.51144","name":" Panera Bread","address":" USA-United States"},{"latitude":" 41.36292","longitude":"-75.67980","name":" Panera Bread","address":" USA-United States"},{"latitude":" 28.54491","longitude":"-81.36978","name":" Panera Bread","address":" USA-United States"},{"latitude":" 41.23667","longitude":"-73.03838","name":" Panera Bread","address":" USA-United States"},{"latitude":" 38.61545","longitude":"-90.53915","name":" Panera Bread","address":" USA-United States"},{"latitude":" 39.31400","longitude":"-76.75926","name":" Panera Bread","address":" USA-United States"},{"latitude":" 39.19563","longitude":"-76.82089","name":" Panera Bread","address":" USA-United States"},{"latitude":" 32.62437","longitude":"-85.44701","name":" Panera Bread","address":" USA-United States"},{"latitude":" 43.07978","longitude":"-77.62938","name":" Panera Bread","address":" USA-United States"},{"latitude":" 42.41082","longitude":"-83.41038","name":" Panera Bread","address":" USA-United States"},{"latitude":" 42.07578","longitude":"-87.70739","name":" Panera Bread","address":" USA-United States"},{"latitude":" 42.46925","longitude":"-92.32277","name":" Panera Bread","address":" USA-United States"},{"latitude":" 43.05086","longitude":"-86.22052","name":" Panera Bread","address":" USA-United States"},{"latitude":" 41.88838","longitude":"-87.80833","name":" Panera Bread","address":" USA-United States"},{"latitude":" 40.05756","longitude":"-82.86369","name":" Panera Bread","address":" USA-United States"},{"latitude":" 41.65532","longitude":"-88.44271","name":" Panera Bread","address":" USA-United States"},{"latitude":" 43.63625","longitude":"-70.33054","name":" Panera Bread","address":" USA-United States"},{"latitude":" 42.95945","longitude":"-88.01053","name":" Panera Bread","address":" USA-United States"},{"latitude":" 43.13361","longitude":"-77.69092","name":" Panera Bread","address":" USA-United States"},{"latitude":" 29.74224","longitude":"-95.77897","name":" Panera Bread","address":" USA-United States"},{"latitude":" 42.56323","longitude":"-83.13081","name":" Panera Bread","address":" USA-United States"},{"latitude":" 38.51374","longitude":"-89.98253","name":" Panera Bread","address":" USA-United States"},{"latitude":" 41.69109","longitude":"-91.60826","name":" Panera Bread","address":" USA-United States"},{"latitude":" 36.35686","longitude":"-94.21073","name":" Panera Bread","address":" USA-United States"},{"latitude":" 32.53525","longitude":"-84.96578","name":" Panera Bread","address":" USA-United States"},{"latitude":" 33.69175","longitude":"-84.08835","name":" Panera Bread","address":" USA-United States"},{"latitude":" 41.46911","longitude":"-87.02667","name":" Panera Bread","address":" USA-United States"},{"latitude":" 29.78572","longitude":"-95.70990","name":" Panera Bread","address":" USA-United States"},{"latitude":" 36.95308","longitude":"-86.43205","name":" Panera Bread","address":" USA-United States"},{"latitude":" 33.72932","longitude":"-117.78849","name":" Panera Bread","address":" USA-United States"},{"latitude":" 33.85029","longitude":"-118.14211","name":" Panera Bread","address":" USA-United States"},{"latitude":" 34.06917","longitude":"-117.26213","name":" Panera Bread","address":" USA-United States"},{"latitude":" 40.65611","longitude":"-73.64357","name":" Panera Bread","address":" USA-United States"},{"latitude":" 30.21678","longitude":"-85.86885","name":" Panera Bread","address":" USA-United States"},{"latitude":" 30.25962","longitude":"-81.52725","name":" Panera Bread","address":" USA-United States"},{"latitude":" 35.35467","longitude":"-94.35085","name":" Panera Bread","address":" USA-United States"},{"latitude":" 40.57433","longitude":"-74.63350","name":" Panera Bread","address":" USA-United States"},{"latitude":" 39.86424","longitude":"-86.12196","name":" Panera Bread","address":" USA-United States"},{"latitude":" 37.27691","longitude":"-76.74576","name":" Panera Bread","address":" USA-United States"},{"latitude":" 41.23318","longitude":"-80.46672","name":" Panera Bread","address":" USA-United States"},{"latitude":" 35.36214","longitude":"-97.54747","name":" Panera Bread","address":" USA-United States"},{"latitude":" 39.04079","longitude":"-95.76197","name":" Panera Bread","address":" USA-United States"},{"latitude":" 29.17054","longitude":"-82.16299","name":" Panera Bread","address":" USA-United States"},{"latitude":" 47.70840","longitude":"-122.32461","name":" Panera Bread","address":" USA-United States"},{"latitude":" 36.10878","longitude":"-80.09553","name":" Panera Bread","address":" USA-United States"},{"latitude":" 39.60997","longitude":"-105.09344","name":" Panera Bread","address":" USA-United States"},{"latitude":" 33.82470","longitude":"-117.51756","name":" Panera Bread","address":" USA-United States"},{"latitude":" 38.13773","longitude":"-92.63588","name":" Panera Bread","address":" USA-United States"},{"latitude":" 36.06948","longitude":"-79.85250","name":" Panera Bread","address":" USA-United States"},{"latitude":" 38.59115","longitude":"-90.30489","name":" Panera Bread","address":" USA-United States"},{"latitude":" 36.03329","longitude":"-95.88669","name":" Panera Bread","address":" USA-United States"},{"latitude":" 40.30594","longitude":"-79.58189","name":" Panera Bread","address":" USA-United States"},{"latitude":" 47.31498","longitude":"-122.30687","name":" Panera Bread","address":" USA-United States"},{"latitude":" 33.00599","longitude":"-96.97185","name":" Panera Bread","address":" USA-United States"},{"latitude":" 35.05290","longitude":"-80.85204","name":" Panera Bread","address":" USA-United States"},{"latitude":" 39.97114","longitude":"-82.92270","name":" Panera Bread","address":" USA-United States"},{"latitude":" 27.91671","longitude":"-82.81996","name":" Panera Bread","address":" USA-United States"},{"latitude":" 38.78202","longitude":"-77.51138","name":" Panera Bread","address":" USA-United States"},{"latitude":" 39.19480","longitude":"-84.23688","name":" Panera Bread","address":" USA-United States"},{"latitude":" 42.11724","longitude":"-87.74426","name":" Panera Bread","address":" USA-United States"},{"latitude":" 41.13600","longitude":"-81.63905","name":" Panera Bread","address":" USA-United States"},{"latitude":" 33.95729","longitude":"-84.13326","name":" Panera Bread","address":" USA-United States"},{"latitude":" 33.11275","longitude":"-117.10066","name":" Panera Bread","address":" USA-United States"},{"latitude":" 40.38911","longitude":"-74.09794","name":" Panera Bread","address":" USA-United States"},{"latitude":" 25.88856","longitude":"-80.16384","name":" Panera Bread","address":" USA-United States"},{"latitude":" 38.42362","longitude":"-121.38922","name":" Panera Bread","address":" USA-United States"},{"latitude":" 38.24910","longitude":"-85.60987","name":" Panera Bread","address":" USA-United States"},{"latitude":" 42.94019","longitude":"-83.64552","name":" Panera Bread","address":" USA-United States"},{"latitude":" 40.42089","longitude":"-86.90118","name":" Panera Bread","address":" USA-United States"},{"latitude":" 28.44974","longitude":"-81.49007","name":" Panera Bread","address":" USA-United States"},{"latitude":" 32.77981","longitude":"-117.00975","name":" Panera Bread","address":" USA-United States"},{"latitude":" 41.85381","longitude":"-87.95799","name":" Panera Bread","address":" USA-United States"},{"latitude":" 41.22813","longitude":"-96.13205","name":" Panera Bread","address":" USA-United States"},{"latitude":" 28.66340","longitude":"-81.36652","name":" Panera Bread","address":" USA-United States"},{"latitude":" 39.49595","longitude":"-76.65346","name":" Panera Bread","address":" USA-United States"},{"latitude":" 37.77596","longitude":"-122.39398","name":" Panera Bread","address":" USA-United States"},{"latitude":" 26.67017","longitude":"-81.93556","name":" Panera Bread","address":" USA-United States"},{"latitude":" 39.68786","longitude":"-84.16832","name":" Panera Bread","address":" USA-United States"},{"latitude":" 38.58246","longitude":"-90.61483","name":" Panera Bread","address":" USA-United States"},{"latitude":" 42.73630","longitude":"-84.50816","name":" Panera Bread","address":" USA-United States"},{"latitude":" 35.74497","longitude":"-78.87246","name":" Panera Bread","address":" USA-United States"},{"latitude":" 47.30141","longitude":"-122.57900","name":" Panera Bread","address":" USA-United States"},{"latitude":" 38.95036","longitude":"-92.32744","name":" Panera Bread","address":" USA-United States"},{"latitude":" 40.71957","longitude":"-74.33063","name":" Panera Bread","address":" USA-United States"},{"latitude":" 40.14833","longitude":"-74.99808","name":" Panera Bread","address":" USA-United States"},{"latitude":" 42.48983","longitude":"-83.47583","name":" Panera Bread","address":" USA-United States"},{"latitude":" 33.86370","longitude":"-84.48377","name":" Panera Bread","address":" USA-United States"},{"latitude":" 43.87039","longitude":"-91.21341","name":" Panera Bread","address":" USA-United States"},{"latitude":" 42.04961","longitude":"-88.04339","name":" Panera Bread","address":" USA-United States"},{"latitude":" 38.88399","longitude":"-94.66453","name":" Panera Bread","address":" USA-United States"},{"latitude":" 42.41180","longitude":"-71.23367","name":" Panera Bread","address":" USA-United States"},{"latitude":" 42.27054","longitude":"-84.42853","name":" Panera Bread","address":" USA-United States"},{"latitude":" 41.56889","longitude":"-93.80898","name":" Panera Bread","address":" USA-United States"},{"latitude":" 42.16163","longitude":"-88.05150","name":" Panera Bread","address":" USA-United States"},{"latitude":" 29.96910","longitude":"-95.53214","name":" Panera Bread","address":" USA-United States"},{"latitude":" 43.12697","longitude":"-77.56495","name":" Panera Bread","address":" USA-United States"},{"latitude":" 34.03767","longitude":"-84.56622","name":" Panera Bread","address":" USA-United States"},{"latitude":" 38.63972","longitude":"-121.49789","name":" Panera Bread","address":" USA-United States"},{"latitude":" 38.05445","longitude":"-121.37522","name":" Panera Bread","address":" USA-United States"},{"latitude":" 40.82958","longitude":"-74.09165","name":" Panera Bread","address":" USA-United States"},{"latitude":" 38.46633","longitude":"-90.30571","name":" Panera Bread","address":" USA-United States"},{"latitude":" 42.32455","longitude":"-85.51972","name":" Panera Bread","address":" USA-United States"},{"latitude":" 42.09238","longitude":"-88.33536","name":" Panera Bread","address":" USA-United States"},{"latitude":" 38.60655","longitude":"-90.20268","name":" Panera Bread","address":" USA-United States"},{"latitude":" 33.49106","longitude":"-82.07901","name":" Panera Bread","address":" USA-United States"},{"latitude":" 41.11916","longitude":"-81.47413","name":" Panera Bread","address":" USA-United States"},{"latitude":" 33.94467","longitude":"-117.99737","name":" Panera Bread","address":" USA-United States"},{"latitude":" 42.39052","longitude":"-82.91465","name":" Panera Bread","address":" USA-United States"},{"latitude":" 38.41159","longitude":"-75.56777","name":" Panera Bread","address":" USA-United States"},{"latitude":" 28.68703","longitude":"-81.40518","name":" Panera Bread","address":" USA-United States"},{"latitude":" 37.29432","longitude":"-121.94101","name":" Panera Bread","address":" USA-United States"},{"latitude":" 33.07185","longitude":"-117.26740","name":" Panera Bread","address":" USA-United States"},{"latitude":" 40.43789","longitude":"-79.92280","name":" Panera Bread","address":" USA-United States"},{"latitude":" 32.73649","longitude":"-117.21695","name":" Panera Bread","address":" USA-United States"},{"latitude":" 41.95263","longitude":"-70.71392","name":" Panera Bread","address":" USA-United States"},{"latitude":" 30.27109","longitude":"-97.78874","name":" Panera Bread","address":" USA-United States"},{"latitude":" 38.61034","longitude":"-121.38652","name":" Panera Bread","address":" USA-United States"},{"latitude":" 39.16386","longitude":"-86.49838","name":" Panera Bread","address":" USA-United States"},{"latitude":" 34.24706","longitude":"-85.16437","name":" Panera Bread","address":" USA-United States"},{"latitude":" 38.94206","longitude":"-94.60513","name":" Panera Bread","address":" USA-United States"},{"latitude":" 42.62502","longitude":"-82.98270","name":" Panera Bread","address":" USA-United States"},{"latitude":" 40.99224","longitude":"-73.82159","name":" Panera Bread","address":" USA-United States"},{"latitude":" 41.66275","longitude":"-71.49345","name":" Panera Bread","address":" USA-United States"},{"latitude":" 42.50524","longitude":"-90.72398","name":" Panera Bread","address":" USA-United States"},{"latitude":" 41.69984","longitude":"-86.18232","name":" Panera Bread","address":" USA-United States"},{"latitude":" 39.05719","longitude":"-77.12611","name":" Panera Bread","address":" USA-United States"},{"latitude":" 43.21209","longitude":"-71.53215","name":" Panera Bread","address":" USA-United States"},{"latitude":" 42.88214","longitude":"-85.75497","name":" Panera Bread","address":" USA-United States"},{"latitude":" 47.54345","longitude":"-122.04822","name":" Panera Bread","address":" USA-United States"},{"latitude":" 33.69857","longitude":"-117.73843","name":" Panera Bread","address":" USA-United States"},{"latitude":" 40.19090","longitude":"-77.19254","name":" Panera Bread","address":" USA-United States"},{"latitude":" 41.69765","longitude":"-88.31930","name":" Panera Bread","address":" USA-United States"},{"latitude":" 39.09755","longitude":"-76.80604","name":" Panera Bread","address":" USA-United States"},{"latitude":" 42.19917","longitude":"-83.19083","name":" Panera Bread","address":" USA-United States"},{"latitude":" 39.24667","longitude":"-94.65084","name":" Panera Bread","address":" USA-United States"},{"latitude":" 27.63857","longitude":"-80.38047","name":" Panera Bread","address":" USA-United States"},{"latitude":" 47.16495","longitude":"-122.51090","name":" Panera Bread","address":" USA-United States"},{"latitude":" 33.98009","longitude":"-118.43826","name":" Panera Bread","address":" USA-United States"},{"latitude":" 41.75115","longitude":"-87.99872","name":" Panera Bread","address":" USA-United States"},{"latitude":" 41.50283","longitude":"-87.88614","name":" Panera Bread","address":" USA-United States"},{"latitude":" 41.53025","longitude":"-73.89289","name":" Panera Bread","address":" USA-United States"},{"latitude":" 42.56663","longitude":"-87.89118","name":" Panera Bread","address":" USA-United States"},{"latitude":" 35.53041","longitude":"-97.57487","name":" Panera Bread","address":" USA-United States"},{"latitude":" 41.71167","longitude":"-71.48922","name":" Panera Bread","address":" USA-United States"},{"latitude":" 32.60415","longitude":"-96.93514","name":" Panera Bread","address":" USA-United States"},{"latitude":" 38.50697","longitude":"-90.37527","name":" Panera Bread","address":" USA-United States"},{"latitude":" 38.95841","longitude":"-77.35658","name":" Panera Bread","address":" USA-United States"},{"latitude":" 40.29135","longitude":"-78.92298","name":" Panera Bread","address":" USA-United States"},{"latitude":" 37.67126","longitude":"-77.46101","name":" Panera Bread","address":" USA-United States"},{"latitude":" 41.26452","longitude":"-96.06696","name":" Panera Bread","address":" USA-United States"},{"latitude":" 42.05894","longitude":"-86.45872","name":" Panera Bread","address":" USA-United States"},{"latitude":" 40.14104","longitude":"-82.98160","name":" Panera Bread","address":" USA-United States"},{"latitude":" 39.37172","longitude":"-76.45614","name":" Panera Bread","address":" USA-United States"},{"latitude":" 30.67579","longitude":"-88.13413","name":" Panera Bread","address":" USA-United States"},{"latitude":" 37.05501","longitude":"-94.48911","name":" Panera Bread","address":" USA-United States"},{"latitude":" 37.52264","longitude":"-120.88209","name":" Panera Bread","address":" USA-United States"},{"latitude":" 33.78764","longitude":"-84.32739","name":" Panera Bread","address":" USA-United States"},{"latitude":" 38.47145","longitude":"-77.41248","name":" Panera Bread","address":" USA-United States"},{"latitude":" 42.91296","longitude":"-85.51798","name":" Panera Bread","address":" USA-United States"},{"latitude":" 42.40006","longitude":"-71.07217","name":" Panera Bread","address":" USA-United States"},{"latitude":" 38.91574","longitude":"-94.64883","name":" Panera Bread","address":" USA-United States"},{"latitude":" 41.25958","longitude":"-96.03599","name":" Panera Bread","address":" USA-United States"},{"latitude":" 27.87254","longitude":"-82.76226","name":" Panera Bread","address":" USA-United States"},{"latitude":" 41.60332","longitude":"-87.79390","name":" Panera Bread","address":" USA-United States"},{"latitude":" 28.75530","longitude":"-81.36836","name":" Panera Bread","address":" USA-United States"},{"latitude":" 40.55389","longitude":"-74.29961","name":" Panera Bread","address":" USA-United States"},{"latitude":" 41.82404","longitude":"-72.88442","name":" Panera Bread","address":" USA-United States"},{"latitude":" 41.92114","longitude":"-88.27794","name":" Panera Bread","address":" USA-United States"},{"latitude":" 42.57658","longitude":"-70.89105","name":" Panera Bread","address":" USA-United States"},{"latitude":" 38.66831","longitude":"-90.59203","name":" Panera Bread","address":" USA-United States"},{"latitude":" 37.72709","longitude":"-89.19653","name":" Panera Bread","address":" USA-United States"},{"latitude":" 41.99776","longitude":"-72.58410","name":" Panera Bread","address":" USA-United States"},{"latitude":" 39.67507","longitude":"-104.84442","name":" Panera Bread","address":" USA-United States"},{"latitude":" 26.80872","longitude":"-80.09969","name":" Panera Bread","address":" USA-United States"},{"latitude":" 44.06302","longitude":"-92.50104","name":" Panera Bread","address":" USA-United States"},{"latitude":" 35.34940","longitude":"-80.85520","name":" Panera Bread","address":" USA-United States"},{"latitude":" 39.24478","longitude":"-84.59514","name":" Panera Bread","address":" USA-United States"},{"latitude":" 41.98774","longitude":"-88.34094","name":" Panera Bread","address":" USA-United States"},{"latitude":" 41.37418","longitude":"-83.65028","name":" Panera Bread","address":" USA-United States"},{"latitude":" 28.01957","longitude":"-82.73251","name":" Panera Bread","address":" USA-United States"},{"latitude":" 41.65265","longitude":"-88.20378","name":" Panera Bread","address":" USA-United States"},{"latitude":" 37.41763","longitude":"-77.63990","name":" Panera Bread","address":" USA-United States"},{"latitude":" 32.84791","longitude":"-97.18604","name":" Panera Bread","address":" USA-United States"},{"latitude":" 39.27258","longitude":"-84.32749","name":" Panera Bread","address":" USA-United States"},{"latitude":" 41.37474","longitude":"-73.27179","name":" Panera Bread","address":" USA-United States"},{"latitude":" 42.62766","longitude":"-82.98674","name":" Panera Bread","address":" USA-United States"},{"latitude":" 29.55596","longitude":"-95.39177","name":" Panera Bread","address":" USA-United States"},{"latitude":" 33.81667","longitude":"-84.39014","name":" Panera Bread","address":" USA-United States"},{"latitude":" 36.11289","longitude":"-79.87864","name":" Panera Bread","address":" USA-United States"},{"latitude":" 42.02923","longitude":"-91.65809","name":" Panera Bread","address":" USA-United States"},{"latitude":" 35.89961","longitude":"-84.16384","name":" Panera Bread","address":" USA-United States"},{"latitude":" 44.34417","longitude":"-69.78934","name":" Panera Bread","address":" USA-United States"},{"latitude":" 39.32002","longitude":"-84.42275","name":" Panera Bread","address":" USA-United States"},{"latitude":" 41.02417","longitude":"-80.64980","name":" Panera Bread","address":" USA-United States"},{"latitude":" 40.79636","longitude":"-89.60808","name":" Panera Bread","address":" USA-United States"},{"latitude":" 35.58422","longitude":"-77.37156","name":" Panera Bread","address":" USA-United States"},{"latitude":" 35.75490","longitude":"-78.74165","name":" Panera Bread","address":" USA-United States"},{"latitude":" 29.18170","longitude":"-81.07958","name":" Panera Bread","address":" USA-United States"},{"latitude":" 40.18323","longitude":"-80.22055","name":" Panera Bread","address":" USA-United States"},{"latitude":" 35.84131","longitude":"-78.67876","name":" Panera Bread","address":" USA-United States"},{"latitude":" 41.27824","longitude":"-73.78194","name":" Panera Bread","address":" USA-United States"},{"latitude":" 40.09811","longitude":"-88.27572","name":" Panera Bread","address":" USA-United States"},{"latitude":" 44.92361","longitude":"-92.93383","name":" Panera Bread","address":" USA-United States"},{"latitude":" 36.85218","longitude":"-76.02273","name":" Panera Bread","address":" USA-United States"},{"latitude":" 26.44021","longitude":"-80.07071","name":" Panera Bread","address":" USA-United States"},{"latitude":" 39.37181","longitude":"-76.60975","name":" Panera Bread","address":" USA-United States"},{"latitude":" 42.36958","longitude":"-83.46965","name":" Panera Bread","address":" USA-United States"},{"latitude":" 38.86706","longitude":"-77.36728","name":" Panera Bread","address":" USA-United States"},{"latitude":" 42.42455","longitude":"-71.18576","name":" Panera Bread","address":" USA-United States"},{"latitude":" 45.09625","longitude":"-93.44149","name":" Panera Bread","address":" USA-United States"},{"latitude":" 33.68461","longitude":"-117.80941","name":" Panera Bread","address":" USA-United States"},{"latitude":" 37.00287","longitude":"-121.55107","name":" Panera Bread","address":" USA-United States"},{"latitude":" 41.75861","longitude":"-87.94456","name":" Panera Bread","address":" USA-United States"},{"latitude":" 35.14352","longitude":"-80.92961","name":" Panera Bread","address":" USA-United States"},{"latitude":" 39.28086","longitude":"-80.27773","name":" Panera Bread","address":" USA-United States"},{"latitude":" 39.33474","longitude":"-76.48520","name":" Panera Bread","address":" USA-United States"},{"latitude":" 42.71914","longitude":"-87.84781","name":" Panera Bread","address":" USA-United States"},{"latitude":" 39.72008","longitude":"-104.95204","name":" Panera Bread","address":" USA-United States"},{"latitude":" 44.77188","longitude":"-91.43849","name":" Panera Bread","address":" USA-United States"},{"latitude":" 40.57382","longitude":"-79.79024","name":" Panera Bread","address":" USA-United States"},{"latitude":" 42.36344","longitude":"-71.16409","name":" Panera Bread","address":" USA-United States"},{"latitude":" 39.14655","longitude":"-84.42912","name":" Panera Bread","address":" USA-United States"},{"latitude":" 40.31959","longitude":"-79.68941","name":" Panera Bread","address":" USA-United States"},{"latitude":" 41.61235","longitude":"-83.70073","name":" Panera Bread","address":" USA-United States"},{"latitude":" 38.80591","longitude":"-104.82098","name":" Panera Bread","address":" USA-United States"},{"latitude":" 34.56153","longitude":"-86.97145","name":" Panera Bread","address":" USA-United States"},{"latitude":" 29.59904","longitude":"-95.62495","name":" Panera Bread","address":" USA-United States"},{"latitude":" 40.07700","longitude":"-76.32674","name":" Panera Bread","address":" USA-United States"},{"latitude":" 28.53387","longitude":"-82.50902","name":" Panera Bread","address":" USA-United States"},{"latitude":" 41.09947","longitude":"-80.76423","name":" Panera Bread","address":" USA-United States"},{"latitude":" 42.05226","longitude":"-87.83566","name":" Panera Bread","address":" USA-United States"},{"latitude":" 40.09437","longitude":"-83.09000","name":" Panera Bread","address":" USA-United States"},{"latitude":" 35.15124","longitude":"-80.84110","name":" Panera Bread","address":" USA-United States"},{"latitude":" 42.86583","longitude":"-73.78409","name":" Panera Bread","address":" USA-United States"},{"latitude":" 42.93252","longitude":"-72.28921","name":" Panera Bread","address":" USA-United States"},{"latitude":" 42.07840","longitude":"-72.52733","name":" Panera Bread","address":" USA-United States"},{"latitude":" 38.96196","longitude":"-77.08776","name":" Panera Bread","address":" USA-United States"},{"latitude":" 29.57212","longitude":"-95.57083","name":" Panera Bread","address":" USA-United States"},{"latitude":" 27.98316","longitude":"-82.12178","name":" Panera Bread","address":" USA-United States"},{"latitude":" 40.06538","longitude":"-85.65263","name":" Panera Bread","address":" USA-United States"},{"latitude":" 25.64320","longitude":"-80.33417","name":" Panera Bread","address":" USA-United States"},{"latitude":" 41.70361","longitude":"-88.12123","name":" Panera Bread","address":" USA-United States"},{"latitude":" 39.76277","longitude":"-89.70967","name":" Panera Bread","address":" USA-United States"},{"latitude":" 40.33065","longitude":"-79.94529","name":" Panera Bread","address":" USA-United States"},{"latitude":" 27.92978","longitude":"-82.32302","name":" Panera Bread","address":" USA-United States"},{"latitude":" 39.38608","longitude":"-77.40321","name":" Panera Bread","address":" USA-United States"},{"latitude":" 38.31941","longitude":"-81.71727","name":" Panera Bread","address":" USA-United States"},{"latitude":" 40.42726","longitude":"-79.81187","name":" Panera Bread","address":" USA-United States"},{"latitude":" 33.95906","longitude":"-118.39636","name":" Panera Bread","address":" USA-United States"},{"latitude":" 42.30534","longitude":"-83.24838","name":" Panera Bread","address":" USA-United States"},{"latitude":" 33.87444","longitude":"-117.88899","name":" Panera Bread","address":" USA-United States"},{"latitude":" 44.85408","longitude":"-93.42969","name":" Panera Bread","address":" USA-United States"},{"latitude":" 47.83170","longitude":"-122.27361","name":" Panera Bread","address":" USA-United States"},{"latitude":" 28.55359","longitude":"-81.34109","name":" Panera Bread","address":" USA-United States"},{"latitude":" 40.68429","longitude":"-75.15043","name":" Panera Bread","address":" USA-United States"},{"latitude":" 41.17328","longitude":"-96.02259","name":" Panera Bread","address":" USA-United States"},{"latitude":" 39.85517","longitude":"-86.00785","name":" Panera Bread","address":" USA-United States"},{"latitude":" 35.61038","longitude":"-97.60093","name":" Panera Bread","address":" USA-United States"},{"latitude":" 40.78740","longitude":"-82.58710","name":" Panera Bread","address":" USA-United States"},{"latitude":" 33.95078","longitude":"-84.23649","name":" Panera Bread","address":" USA-United States"},{"latitude":" 42.25717","longitude":"-83.69720","name":" Panera Bread","address":" USA-United States"},{"latitude":" 41.37876","longitude":"-82.21045","name":" Panera Bread","address":" USA-United States"},{"latitude":" 39.93943","longitude":"-74.96426","name":" Panera Bread","address":" USA-United States"},{"latitude":" 34.23535","longitude":"-118.56118","name":" Panera Bread","address":" USA-United States"},{"latitude":" 26.36359","longitude":"-80.12269","name":" Panera Bread","address":" USA-United States"},{"latitude":" 39.66186","longitude":"-75.65565","name":" Panera Bread","address":" USA-United States"},{"latitude":" 40.99958","longitude":"-73.66129","name":" Panera Bread","address":" USA-United States"},{"latitude":" 40.54527","longitude":"-74.33091","name":" Panera Bread","address":" USA-United States"},{"latitude":" 41.46439","longitude":"-75.63961","name":" Panera Bread","address":" USA-United States"},{"latitude":" 37.35124","longitude":"-79.18426","name":" Panera Bread","address":" USA-United States"},{"latitude":" 38.87215","longitude":"-121.30327","name":" Panera Bread","address":" USA-United States"},{"latitude":" 30.44139","longitude":"-84.24930","name":" Panera Bread","address":" USA-United States"},{"latitude":" 37.97932","longitude":"-87.47431","name":" Panera Bread","address":" USA-United States"},{"latitude":" 38.36818","longitude":"-121.96167","name":" Panera Bread","address":" USA-United States"},{"latitude":" 28.20649","longitude":"-82.66587","name":" Panera Bread","address":" USA-United States"},{"latitude":" 36.63853","longitude":"-93.26383","name":" Panera Bread","address":" USA-United States"},{"latitude":" 40.43877","longitude":"-79.76465","name":" Panera Bread","address":" USA-United States"},{"latitude":" 41.83452","longitude":"-88.01920","name":" Panera Bread","address":" USA-United States"},{"latitude":" 40.42217","longitude":"-79.66127","name":" Panera Bread","address":" USA-United States"},{"latitude":" 39.20371","longitude":"-84.36973","name":" Panera Bread","address":" USA-United States"},{"latitude":" 40.55613","longitude":"-75.57994","name":" Panera Bread","address":" USA-United States"},{"latitude":" 38.59392","longitude":"-90.36144","name":" Panera Bread","address":" USA-United States"},{"latitude":" 38.64393","longitude":"-90.56537","name":" Panera Bread","address":" USA-United States"},{"latitude":" 38.78289","longitude":"-90.53268","name":" Panera Bread","address":" USA-United States"},{"latitude":" 33.63071","longitude":"-117.71843","name":" Panera Bread","address":" USA-United States"},{"latitude":" 37.72679","longitude":"-97.46273","name":" Panera Bread","address":" USA-United States"},{"latitude":" 42.15579","longitude":"-87.83772","name":" Panera Bread","address":" USA-United States"},{"latitude":" 41.50630","longitude":"-87.73334","name":" Panera Bread","address":" USA-United States"},{"latitude":" 38.65600","longitude":"-90.30672","name":" Panera Bread","address":" USA-United States"},{"latitude":" 42.98056","longitude":"-78.86939","name":" Panera Bread","address":" USA-United States"},{"latitude":" 34.83062","longitude":"-82.30521","name":" Panera Bread","address":" USA-United States"},{"latitude":" 39.40218","longitude":"-76.94483","name":" Panera Bread","address":" USA-United States"},{"latitude":" 40.40868","longitude":"-105.00712","name":" Panera Bread","address":" USA-United States"},{"latitude":" 32.98495","longitude":"-117.07576","name":" Panera Bread","address":" USA-United States"},{"latitude":" 42.12934","longitude":"-72.62633","name":" Panera Bread","address":" USA-United States"},{"latitude":" 39.35343","longitude":"-84.36180","name":" Panera Bread","address":" USA-United States"},{"latitude":" 30.67453","longitude":"-88.22563","name":" Panera Bread","address":" USA-United States"},{"latitude":" 43.14562","longitude":"-78.69708","name":" Panera Bread","address":" USA-United States"},{"latitude":" 38.65617","longitude":"-121.52272","name":" Panera Bread","address":" USA-United States"},{"latitude":" 39.03285","longitude":"-94.35969","name":" Panera Bread","address":" USA-United States"},{"latitude":" 38.92129","longitude":"-77.23475","name":" Panera Bread","address":" USA-United States"},{"latitude":" 41.65241","longitude":"-81.37849","name":" Panera Bread","address":" USA-United States"},{"latitude":" 38.94299","longitude":"-95.24249","name":" Panera Bread","address":" USA-United States"},{"latitude":" 41.69206","longitude":"-83.64438","name":" Panera Bread","address":" USA-United States"},{"latitude":" 27.04996","longitude":"-82.39460","name":" Panera Bread","address":" USA-United States"},{"latitude":" 39.04225","longitude":"-94.59361","name":" Panera Bread","address":" USA-United States"},{"latitude":" 35.20177","longitude":"-80.82490","name":" Panera Bread","address":" USA-United States"},{"latitude":" 34.84999","longitude":"-82.33731","name":" Panera Bread","address":" USA-United States"},{"latitude":" 40.73911","longitude":"-73.32109","name":" Panera Bread","address":" USA-United States"},{"latitude":" 39.58511","longitude":"-105.02354","name":" Panera Bread","address":" USA-United States"},{"latitude":" 41.60030","longitude":"-93.80034","name":" Panera Bread","address":" USA-United States"},{"latitude":" 28.64744","longitude":"-81.26963","name":" Panera Bread","address":" USA-United States"},{"latitude":" 38.76940","longitude":"-90.78286","name":" Panera Bread","address":" USA-United States"},{"latitude":" 33.84687","longitude":"-84.25575","name":" Panera Bread","address":" USA-United States"},{"latitude":" 25.81185","longitude":"-80.35448","name":" Panera Bread","address":" USA-United States"},{"latitude":" 41.05373","longitude":"-83.60779","name":" Panera Bread","address":" USA-United States"},{"latitude":" 39.95767","longitude":"-105.16920","name":" Panera Bread","address":" USA-United States"},{"latitude":" 37.30441","longitude":"-79.95987","name":" Panera Bread","address":" USA-United States"},{"latitude":" 28.13680","longitude":"-80.60414","name":" Panera Bread","address":" USA-United States"},{"latitude":" 40.91233","longitude":"-74.54804","name":" Panera Bread","address":" USA-United States"},{"latitude":" 33.13552","longitude":"-117.17857","name":" Panera Bread","address":" USA-United States"},{"latitude":" 39.74183","longitude":"-84.18245","name":" Panera Bread","address":" USA-United States"},{"latitude":" 38.50627","longitude":"-90.61948","name":" Panera Bread","address":" USA-United States"},{"latitude":" 40.76317","longitude":"-73.09244","name":" Panera Bread","address":" USA-United States"},{"latitude":" 37.30140","longitude":"-89.57290","name":" Panera Bread","address":" USA-United States"},{"latitude":" 28.54699","longitude":"-81.71656","name":" Panera Bread","address":" USA-United States"},{"latitude":" 38.29862","longitude":"-85.56251","name":" Panera Bread","address":" USA-United States"},{"latitude":" 35.90572","longitude":"-78.93773","name":" Panera Bread","address":" USA-United States"},{"latitude":" 43.03179","longitude":"-76.01813","name":" Panera Bread","address":" USA-United States"},{"latitude":" 41.23446","longitude":"-96.19308","name":" Panera Bread","address":" USA-United States"},{"latitude":" 36.13206","longitude":"-79.79404","name":" Panera Bread","address":" USA-United States"},{"latitude":" 42.27436","longitude":"-71.75126","name":" Panera Bread","address":" USA-United States"},{"latitude":" 28.48936","longitude":"-81.42961","name":" Panera Bread","address":" USA-United States"},{"latitude":" 34.42989","longitude":"-118.55949","name":" Panera Bread","address":" USA-United States"},{"latitude":" 37.69359","longitude":"-97.29753","name":" Panera Bread","address":" USA-United States"},{"latitude":" 38.82467","longitude":"-89.97515","name":" Panera Bread","address":" USA-United States"},{"latitude":" 41.05071","longitude":"-81.49113","name":" Panera Bread","address":" USA-United States"},{"latitude":" 39.49757","longitude":"-76.32614","name":" Panera Bread","address":" USA-United States"},{"latitude":" 40.13544","longitude":"-74.22413","name":" Panera Bread","address":" USA-United States"},{"latitude":" 35.91188","longitude":"-79.05870","name":" Panera Bread","address":" USA-United States"},{"latitude":" 38.70149","longitude":"-90.44616","name":" Panera Bread","address":" USA-United States"},{"latitude":" 27.00691","longitude":"-82.13296","name":" Panera Bread","address":" USA-United States"},{"latitude":" 41.82248","longitude":"-87.87043","name":" Panera Bread","address":" USA-United States"},{"latitude":" 39.21679","longitude":"-76.85806","name":" Panera Bread","address":" USA-United States"},{"latitude":" 42.05762","longitude":"-88.00527","name":" Panera Bread","address":" USA-United States"},{"latitude":" 41.95459","longitude":"-88.72284","name":" Panera Bread","address":" USA-United States"},{"latitude":" 30.37784","longitude":"-86.35058","name":" Panera Bread","address":" USA-United States"},{"latitude":" 38.50437","longitude":"-90.33277","name":" Panera Bread","address":" USA-United States"},{"latitude":" 27.49695","longitude":"-81.48757","name":" Panera Bread","address":" USA-United States"},{"latitude":" 41.07202","longitude":"-74.13993","name":" Panera Bread","address":" USA-United States"},{"latitude":" 39.96894","longitude":"-75.57278","name":" Panera Bread","address":" USA-United States"},{"latitude":" 38.60063","longitude":"-90.39745","name":" Panera Bread","address":" USA-United States"},{"latitude":" 41.63247","longitude":"-87.84718","name":" Panera Bread","address":" USA-United States"},{"latitude":" 36.75946","longitude":"-76.00602","name":" Panera Bread","address":" USA-United States"},{"latitude":" 42.96234","longitude":"-71.44276","name":" Panera Bread","address":" USA-United States"},{"latitude":" 39.82378","longitude":"-76.99604","name":" Panera Bread","address":" USA-United States"},{"latitude":" 42.47969","longitude":"-71.02201","name":" Panera Bread","address":" USA-United States"},{"latitude":" 36.33213","longitude":"-86.62100","name":" Panera Bread","address":" USA-United States"},{"latitude":" 36.02149","longitude":"-115.08591","name":" Panera Bread","address":" USA-United States"},{"latitude":" 40.64676","longitude":"-74.40859","name":" Panera Bread","address":" USA-United States"},{"latitude":" 39.05207","longitude":"-94.59185","name":" Panera Bread","address":" USA-United States"},{"latitude":" 45.55340","longitude":"-94.19190","name":" Panera Bread","address":" USA-United States"},{"latitude":" 42.53593","longitude":"-83.10673","name":" Panera Bread","address":" USA-United States"},{"latitude":" 34.93609","longitude":"-82.27655","name":" Panera Bread","address":" USA-United States"},{"latitude":" 42.38347","longitude":"-83.32466","name":" Panera Bread","address":" USA-United States"},{"latitude":" 42.70030","longitude":"-73.85055","name":" Panera Bread","address":" USA-United States"},{"latitude":" 39.94045","longitude":"-77.62829","name":" Panera Bread","address":" USA-United States"},{"latitude":" 42.08963","longitude":"-71.42517","name":" Panera Bread","address":" USA-United States"},{"latitude":" 36.18073","longitude":"-86.60623","name":" Panera Bread","address":" USA-United States"},{"latitude":" 43.11832","longitude":"-87.91685","name":" Panera Bread","address":" USA-United States"},{"latitude":" 32.72601","longitude":"-97.36129","name":" Panera Bread","address":" USA-United States"},{"latitude":" 41.16390","longitude":"-81.86196","name":" Panera Bread","address":" USA-United States"},{"latitude":" 38.77186","longitude":"-77.08180","name":" Panera Bread","address":" USA-United States"},{"latitude":" 40.39247","longitude":"-86.85379","name":" Panera Bread","address":" USA-United States"},{"latitude":" 39.90538","longitude":"-86.08612","name":" Panera Bread","address":" USA-United States"},{"latitude":" 38.62664","longitude":"-90.19058","name":" Panera Bread","address":" USA-United States"},{"latitude":" 43.07538","longitude":"-89.44498","name":" Panera Bread","address":" USA-United States"},{"latitude":" 45.49493","longitude":"-122.80992","name":" Panera Bread","address":" USA-United States"},{"latitude":" 38.60158","longitude":"-90.46531","name":" Panera Bread","address":" USA-United States"},{"latitude":" 44.77699","longitude":"-93.41524","name":" Panera Bread","address":" USA-United States"},{"latitude":" 36.16785","longitude":"-86.51395","name":" Panera Bread","address":" USA-United States"},{"latitude":" 40.87481","longitude":"-79.94350","name":" Panera Bread","address":" USA-United States"},{"latitude":" 35.59444","longitude":"-80.86872","name":" Panera Bread","address":" USA-United States"},{"latitude":" 39.91455","longitude":"-75.34261","name":" Panera Bread","address":" USA-United States"},{"latitude":" 38.58154","longitude":"-92.20850","name":" Panera Bread","address":" USA-United States"},{"latitude":" 43.13463","longitude":"-77.49566","name":" Panera Bread","address":" USA-United States"},{"latitude":" 33.63453","longitude":"-117.91772","name":" Panera Bread","address":" USA-United States"},{"latitude":" 40.40696","longitude":"-79.91681","name":" Panera Bread","address":" USA-United States"},{"latitude":" 39.07261","longitude":"-84.34471","name":" Panera Bread","address":" USA-United States"},{"latitude":" 42.37900","longitude":"-88.07615","name":" Panera Bread","address":" USA-United States"},{"latitude":" 29.54310","longitude":"-95.14353","name":" Panera Bread","address":" USA-United States"},{"latitude":" 40.50425","longitude":"-74.85015","name":" Panera Bread","address":" USA-United States"},{"latitude":" 33.98277","longitude":"-80.96624","name":" Panera Bread","address":" USA-United States"},{"latitude":" 40.24183","longitude":"-74.30496","name":" Panera Bread","address":" USA-United States"},{"latitude":" 34.04990","longitude":"-117.17162","name":" Panera Bread","address":" USA-United States"},{"latitude":" 38.32535","longitude":"-85.76654","name":" Panera Bread","address":" USA-United States"},{"latitude":" 41.84808","longitude":"-87.90284","name":" Panera Bread","address":" USA-United States"},{"latitude":" 36.06100","longitude":"-95.85332","name":" Panera Bread","address":" USA-United States"},{"latitude":" 40.02622","longitude":"-76.20412","name":" Panera Bread","address":" USA-United States"},{"latitude":" 29.49674","longitude":"-98.46822","name":" Panera Bread","address":" USA-United States"},{"latitude":" 38.83282","longitude":"-77.41208","name":" Panera Bread","address":" USA-United States"},{"latitude":" 42.35559","longitude":"-72.55497","name":" Panera Bread","address":" USA-United States"},{"latitude":" 39.93701","longitude":"-82.78805","name":" Panera Bread","address":" USA-United States"},{"latitude":" 42.05008","longitude":"-88.06415","name":" Panera Bread","address":" USA-United States"},{"latitude":" 37.32313","longitude":"-122.03767","name":" Panera Bread","address":" USA-United States"},{"latitude":" 43.18426","longitude":"-76.24825","name":" Panera Bread","address":" USA-United States"},{"latitude":" 42.26579","longitude":"-88.98010","name":" Panera Bread","address":" USA-United States"},{"latitude":" 43.04669","longitude":"-76.06924","name":" Panera Bread","address":" USA-United States"},{"latitude":" 42.75260","longitude":"-73.76758","name":" Panera Bread","address":" USA-United States"},{"latitude":" 40.02802","longitude":"-83.11708","name":" Panera Bread","address":" USA-United States"},{"latitude":" 40.00296","longitude":"-86.12308","name":" Panera Bread","address":" USA-United States"},{"latitude":" 38.43206","longitude":"-78.85078","name":" Panera Bread","address":" USA-United States"},{"latitude":" 37.65456","longitude":"-122.10540","name":" Panera Bread","address":" USA-United States"},{"latitude":" 39.15303","longitude":"-76.72987","name":" Panera Bread","address":" USA-United States"},{"latitude":" 39.38970","longitude":"-76.73997","name":" Panera Bread","address":" USA-United States"},{"latitude":" 40.03699","longitude":"-85.99385","name":" Panera Bread","address":" USA-United States"},{"latitude":" 41.43869","longitude":"-73.40715","name":" Panera Bread","address":" USA-United States"},{"latitude":" 42.56352","longitude":"-83.02926","name":" Panera Bread","address":" USA-United States"},{"latitude":" 42.26928","longitude":"-71.61016","name":" Panera Bread","address":" USA-United States"},{"latitude":" 40.23996","longitude":"-74.03745","name":" Panera Bread","address":" USA-United States"},{"latitude":" 40.01263","longitude":"-74.96041","name":" Panera Bread","address":" USA-United States"},{"latitude":" 39.76801","longitude":"-104.90232","name":" Panera Bread","address":" USA-United States"},{"latitude":" 40.78830","longitude":"-74.25597","name":" Panera Bread","address":" USA-United States"},{"latitude":" 42.15457","longitude":"-76.87124","name":" Panera Bread","address":" USA-United States"},{"latitude":" 27.89405","longitude":"-82.66472","name":" Panera Bread","address":" USA-United States"},{"latitude":" 28.59308","longitude":"-81.35099","name":" Panera Bread","address":" USA-United States"},{"latitude":" 38.67453","longitude":"-90.41273","name":" Panera Bread","address":" USA-United States"},{"latitude":" 40.02389","longitude":"-83.05834","name":" Panera Bread","address":" USA-United States"},{"latitude":" 26.06472","longitude":"-80.36256","name":" Panera Bread","address":" USA-United States"},{"latitude":" 39.92747","longitude":"-86.01598","name":" Panera Bread","address":" USA-United States"},{"latitude":" 47.67068","longitude":"-122.10999","name":" Panera Bread","address":" USA-United States"},{"latitude":" 37.71208","longitude":"-97.24483","name":" Panera Bread","address":" USA-United States"},{"latitude":" 34.59736","longitude":"-118.14779","name":" Panera Bread","address":" USA-United States"},{"latitude":" 38.97087","longitude":"-94.76285","name":" Panera Bread","address":" USA-United States"},{"latitude":" 42.32654","longitude":"-83.30106","name":" Panera Bread","address":" USA-United States"},{"latitude":" 41.23235","longitude":"-75.93762","name":" Panera Bread","address":" USA-United States"},{"latitude":" 42.18026","longitude":"-70.90646","name":" Panera Bread","address":" USA-United States"},{"latitude":" 38.94444","longitude":"-92.29660","name":" Panera Bread","address":" USA-United States"},{"latitude":" 41.87552","longitude":"-87.62756","name":" Panera Bread","address":" USA-United States"},{"latitude":" 30.31770","longitude":"-81.55708","name":" Panera Bread","address":" USA-United States"},{"latitude":" 39.30778","longitude":"-84.31619","name":" Panera Bread","address":" USA-United States"},{"latitude":" 28.94153","longitude":"-81.94870","name":" Panera Bread","address":" USA-United States"},{"latitude":" 39.26379","longitude":"-84.38009","name":" Panera Bread","address":" USA-United States"},{"latitude":" 33.44704","longitude":"-86.79089","name":" Panera Bread","address":" USA-United States"},{"latitude":" 38.72884","longitude":"-77.79952","name":" Panera Bread","address":" USA-United States"},{"latitude":" 34.69389","longitude":"-86.56841","name":" Panera Bread","address":" USA-United States"},{"latitude":" 38.21185","longitude":"-85.72040","name":" Panera Bread","address":" USA-United States"},{"latitude":" 38.79615","longitude":"-77.60860","name":" Panera Bread","address":" USA-United States"},{"latitude":" 26.21924","longitude":"-81.77086","name":" Panera Bread","address":" USA-United States"},{"latitude":" 42.05552","longitude":"-87.74666","name":" Panera Bread","address":" USA-United States"},{"latitude":" 33.37515","longitude":"-86.81467","name":" Panera Bread","address":" USA-United States"},{"latitude":" 27.38918","longitude":"-82.51310","name":" Panera Bread","address":" USA-United States"},{"latitude":" 36.00623","longitude":"-84.25303","name":" Panera Bread","address":" USA-United States"},{"latitude":" 38.16407","longitude":"-84.89620","name":" Panera Bread","address":" USA-United States"},{"latitude":" 33.02567","longitude":"-96.79477","name":" Panera Bread","address":" USA-United States"},{"latitude":" 42.64223","longitude":"-83.21041","name":" Panera Bread","address":" USA-United States"},{"latitude":" 47.44944","longitude":"-122.26229","name":" Panera Bread","address":" USA-United States"},{"latitude":" 38.96458","longitude":"-104.79325","name":" Panera Bread","address":" USA-United States"},{"latitude":" 41.29544","longitude":"-81.67251","name":" Panera Bread","address":" USA-United States"},{"latitude":" 42.34312","longitude":"-71.12249","name":" Panera Bread","address":" USA-United States"},{"latitude":" 35.95478","longitude":"-83.93693","name":" Panera Bread","address":" USA-United States"},{"latitude":" 35.08032","longitude":"-80.65672","name":" Panera Bread","address":" USA-United States"},{"latitude":" 44.98779","longitude":"-93.25738","name":" Panera Bread","address":" USA-United States"},{"latitude":" 47.37746","longitude":"-122.23507","name":" Panera Bread","address":" USA-United States"},{"latitude":" 31.50724","longitude":"-97.10536","name":" Panera Bread","address":" USA-United States"},{"latitude":" 41.45542","longitude":"-74.38455","name":" Panera Bread","address":" USA-United States"},{"latitude":" 43.05720","longitude":"-88.12649","name":" Panera Bread","address":" USA-United States"},{"latitude":" 41.46897","longitude":"-81.90962","name":" Panera Bread","address":" USA-United States"},{"latitude":" 36.06457","longitude":"-115.04109","name":" Panera Bread","address":" USA-United States"},{"latitude":" 41.62773","longitude":"-73.91634","name":" Panera Bread","address":" USA-United States"},{"latitude":" 34.55892","longitude":"-82.69638","name":" Panera Bread","address":" USA-United States"},{"latitude":" 32.86671","longitude":"-80.01590","name":" Panera Bread","address":" USA-United States"},{"latitude":" 38.66428","longitude":"-90.44344","name":" Panera Bread","address":" USA-United States"},{"latitude":" 35.43533","longitude":"-97.40462","name":" Panera Bread","address":" USA-United States"},{"latitude":" 42.13930","longitude":"-87.98572","name":" Panera Bread","address":" USA-United States"},{"latitude":" 43.33106","longitude":"-73.67521","name":" Panera Bread","address":" USA-United States"},{"latitude":" 41.26892","longitude":"-80.78199","name":" Panera Bread","address":" USA-United States"},{"latitude":" 39.83403","longitude":"-75.54257","name":" Panera Bread","address":" USA-United States"},{"latitude":" 44.87425","longitude":"-93.32222","name":" Panera Bread","address":" USA-United States"},{"latitude":" 45.19692","longitude":"-93.35004","name":" Panera Bread","address":" USA-United States"},{"latitude":" 40.93938","longitude":"-74.11979","name":" Panera Bread","address":" USA-United States"},{"latitude":" 40.82288","longitude":"-74.83528","name":" Panera Bread","address":" USA-United States"},{"latitude":" 28.80041","longitude":"-81.33424","name":" Panera Bread","address":" USA-United States"},{"latitude":" 42.54420","longitude":"-83.78817","name":" Panera Bread","address":" USA-United States"},{"latitude":" 28.05047","longitude":"-82.69605","name":" Panera Bread","address":" USA-United States"},{"latitude":" 41.23980","longitude":"-81.44693","name":" Panera Bread","address":" USA-United States"},{"latitude":" 40.48763","longitude":"-78.38581","name":" Panera Bread","address":" USA-United States"},{"latitude":" 44.93600","longitude":"-93.38457","name":" Panera Bread","address":" USA-United States"},{"latitude":" 42.27891","longitude":"-87.87778","name":" Panera Bread","address":" USA-United States"},{"latitude":" 42.32291","longitude":"-83.45418","name":" Panera Bread","address":" USA-United States"},{"latitude":" 26.83810","longitude":"-80.10773","name":" Panera Bread","address":" USA-United States"},{"latitude":" 42.01983","longitude":"-93.61052","name":" Panera Bread","address":" USA-United States"},{"latitude":" 28.66052","longitude":"-81.41933","name":" Panera Bread","address":" USA-United States"},{"latitude":" 40.19318","longitude":"-74.64270","name":" Panera Bread","address":" USA-United States"},{"latitude":" 41.54923","longitude":"-83.60139","name":" Panera Bread","address":" USA-United States"},{"latitude":" 42.62309","longitude":"-71.36013","name":" Panera Bread","address":" USA-United States"},{"latitude":" 38.99295","longitude":"-94.68772","name":" Panera Bread","address":" USA-United States"},{"latitude":" 39.62539","longitude":"-86.11941","name":" Panera Bread","address":" USA-United States"},{"latitude":" 28.51275","longitude":"-81.37403","name":" Panera Bread","address":" USA-United States"},{"latitude":" 38.91301","longitude":"-94.76157","name":" Panera Bread","address":" USA-United States"},{"latitude":" 27.79355","longitude":"-82.72869","name":" Panera Bread","address":" USA-United States"},{"latitude":" 41.26614","longitude":"-73.13156","name":" Panera Bread","address":" USA-United States"},{"latitude":" 42.22639","longitude":"-88.31488","name":" Panera Bread","address":" USA-United States"},{"latitude":" 27.89179","longitude":"-82.24237","name":" Panera Bread","address":" USA-United States"},{"latitude":" 44.73117","longitude":"-93.21464","name":" Panera Bread","address":" USA-United States"},{"latitude":" 40.22382","longitude":"-76.93237","name":" Panera Bread","address":" USA-United States"},{"latitude":" 42.02479","longitude":"-88.14054","name":" Panera Bread","address":" USA-United States"},{"latitude":" 42.35201","longitude":"-88.26751","name":" Panera Bread","address":" USA-United States"},{"latitude":" 35.63897","longitude":"-97.46031","name":" Panera Bread","address":" USA-United States"},{"latitude":" 42.01078","longitude":"-87.82864","name":" Panera Bread","address":" USA-United States"},{"latitude":" 40.43587","longitude":"-79.95791","name":" Panera Bread","address":" USA-United States"},{"latitude":" 33.40863","longitude":"-86.66705","name":" Panera Bread","address":" USA-United States"},{"latitude":" 38.79446","longitude":"-90.69893","name":" Panera Bread","address":" USA-United States"},{"latitude":" 41.40563","longitude":"-82.66166","name":" Panera Bread","address":" USA-United States"},{"latitude":" 40.01967","longitude":"-105.25642","name":" Panera Bread","address":" USA-United States"},{"latitude":" 33.82522","longitude":"-117.83625","name":" Panera Bread","address":" USA-United States"},{"latitude":" 43.67737","longitude":"-70.33055","name":" Panera Bread","address":" USA-United States"},{"latitude":" 38.92419","longitude":"-77.52020","name":" Panera Bread","address":" USA-United States"},{"latitude":" 41.68291","longitude":"-81.29576","name":" Panera Bread","address":" USA-United States"},{"latitude":" 26.25660","longitude":"-80.10033","name":" Panera Bread","address":" USA-United States"},{"latitude":" 40.80720","longitude":"-73.98907","name":" Panera Bread","address":" USA-United States"},{"latitude":" 47.05882","longitude":"-122.76441","name":" Panera Bread","address":" USA-United States"},{"latitude":" 40.44935","longitude":"-80.17436","name":" Panera Bread","address":" USA-United States"},{"latitude":" 41.03060","longitude":"-74.63614","name":" Panera Bread","address":" USA-United States"},{"latitude":" 42.08275","longitude":"-87.98165","name":" Panera Bread","address":" USA-United States"},{"latitude":" 36.29264","longitude":"-119.31386","name":" Panera Bread","address":" USA-United States"},{"latitude":" 36.84502","longitude":"-76.13100","name":" Panera Bread","address":" USA-United States"},{"latitude":" 32.79458","longitude":"-80.02832","name":" Panera Bread","address":" USA-United States"},{"latitude":" 42.52622","longitude":"-71.73800","name":" Panera Bread","address":" USA-United States"},{"latitude":" 42.87403","longitude":"-77.24150","name":" Panera Bread","address":" USA-United States"},{"latitude":" 28.59992","longitude":"-81.35122","name":" Panera Bread","address":" USA-United States"},{"latitude":" 40.63254","longitude":"-80.05913","name":" Panera Bread","address":" USA-United States"},{"latitude":" 33.19441","longitude":"-97.09647","name":" Panera Bread","address":" USA-United States"},{"latitude":" 40.78852","longitude":"-74.39403","name":" Panera Bread","address":" USA-United States"},{"latitude":" 34.06847","longitude":"-117.93082","name":" Panera Bread","address":" USA-United States"},{"latitude":" 37.72607","longitude":"-87.12344","name":" Panera Bread","address":" USA-United States"},{"latitude":" 35.05192","longitude":"-85.30978","name":" Panera Bread","address":" USA-United States"},{"latitude":" 34.14361","longitude":"-118.39632","name":" Panera Bread","address":" USA-United States"},{"latitude":" 40.21921","longitude":"-85.37823","name":" Panera Bread","address":" USA-United States"},{"latitude":" 41.58037","longitude":"-83.67967","name":" Panera Bread","address":" USA-United States"},{"latitude":" 38.63469","longitude":"-90.31637","name":" Panera Bread","address":" USA-United States"},{"latitude":" 39.12821","longitude":"-84.51396","name":" Panera Bread","address":" USA-United States"},{"latitude":" 41.35448","longitude":"-72.87166","name":" Panera Bread","address":" USA-United States"},{"latitude":" 43.04828","longitude":"-87.90461","name":" Panera Bread","address":" USA-United States"},{"latitude":" 30.28145","longitude":"-81.71997","name":" Panera Bread","address":" USA-United States"},{"latitude":" 38.94931","longitude":"-77.39400","name":" Panera Bread","address":" USA-United States"},{"latitude":" 38.65001","longitude":"-90.33811","name":" Panera Bread","address":" USA-United States"},{"latitude":" 41.07073","longitude":"-85.19438","name":" Panera Bread","address":" USA-United States"},{"latitude":" 42.55073","longitude":"-70.93946","name":" Panera Bread","address":" USA-United States"},{"latitude":" 43.08647","longitude":"-88.23478","name":" Panera Bread","address":" USA-United States"},{"latitude":" 42.38527","longitude":"-87.96492","name":" Panera Bread","address":" USA-United States"},{"latitude":" 45.61481","longitude":"-122.50410","name":" Panera Bread","address":" USA-United States"},{"latitude":" 41.48968","longitude":"-71.31811","name":" Panera Bread","address":" USA-United States"},{"latitude":" 33.52770","longitude":"-82.12172","name":" Panera Bread","address":" USA-United States"},{"latitude":" 40.64565","longitude":"-75.49325","name":" Panera Bread","address":" USA-United States"},{"latitude":" 38.03335","longitude":"-84.54150","name":" Panera Bread","address":" USA-United States"},{"latitude":" 40.26380","longitude":"-80.13107","name":" Panera Bread","address":" USA-United States"},{"latitude":" 35.87466","longitude":"-78.62311","name":" Panera Bread","address":" USA-United States"},{"latitude":" 33.23522","longitude":"-87.54955","name":" Panera Bread","address":" USA-United States"},{"latitude":" 41.51612","longitude":"-81.45003","name":" Panera Bread","address":" USA-United States"},{"latitude":" 39.91202","longitude":"-86.21149","name":" Panera Bread","address":" USA-United States"},{"latitude":" 34.29547","longitude":"-83.85281","name":" Panera Bread","address":" USA-United States"},{"latitude":" 38.75209","longitude":"-90.42758","name":" Panera Bread","address":" USA-United States"},{"latitude":" 35.20489","longitude":"-84.85004","name":" Panera Bread","address":" USA-United States"},{"latitude":" 41.02451","longitude":"-80.72626","name":" Panera Bread","address":" USA-United States"},{"latitude":" 36.09032","longitude":"-80.27412","name":" Panera Bread","address":" USA-United States"},{"latitude":" 41.61319","longitude":"-87.85349","name":" Panera Bread","address":" USA-United States"},{"latitude":" 36.06246","longitude":"-95.95773","name":" Panera Bread","address":" USA-United States"},{"latitude":" 38.95631","longitude":"-94.71688","name":" Panera Bread","address":" USA-United States"},{"latitude":" 39.88073","longitude":"-74.92178","name":" Panera Bread","address":" USA-United States"},{"latitude":" 41.59541","longitude":"-93.76028","name":" Panera Bread","address":" USA-United States"},{"latitude":" 37.04958","longitude":"-76.39135","name":" Panera Bread","address":" USA-United States"},{"latitude":" 35.95048","longitude":"-78.98942","name":" Panera Bread","address":" USA-United States"},{"latitude":" 42.74128","longitude":"-84.62446","name":" Panera Bread","address":" USA-United States"},{"latitude":" 42.47976","longitude":"-83.47560","name":" Panera Bread","address":" USA-United States"},{"latitude":" 36.06193","longitude":"-95.88611","name":" Panera Bread","address":" USA-United States"},{"latitude":" 40.55171","longitude":"-74.43845","name":" Panera Bread","address":" USA-United States"},{"latitude":" 41.72483","longitude":"-88.03885","name":" Panera Bread","address":" USA-United States"},{"latitude":" 36.05418","longitude":"-95.81548","name":" Panera Bread","address":" USA-United States"},{"latitude":" 32.62127","longitude":"-116.96754","name":" Panera Bread","address":" USA-United States"},{"latitude":" 39.84243","longitude":"-84.19199","name":" Panera Bread","address":" USA-United States"},{"latitude":" 44.00615","longitude":"-92.46877","name":" Panera Bread","address":" USA-United States"},{"latitude":" 45.01474","longitude":"-93.17410","name":" Panera Bread","address":" USA-United States"},{"latitude":" 27.98938","longitude":"-81.95662","name":" Panera Bread","address":" USA-United States"},{"latitude":" 41.95206","longitude":"-91.71599","name":" Panera Bread","address":" USA-United States"},{"latitude":" 39.44935","longitude":"-77.38364","name":" Panera Bread","address":" USA-United States"},{"latitude":" 40.11143","longitude":"-82.92639","name":" Panera Bread","address":" USA-United States"},{"latitude":" 34.15029","longitude":"-118.07733","name":" Panera Bread","address":" USA-United States"},{"latitude":" 41.75914","longitude":"-88.21722","name":" Panera Bread","address":" USA-United States"},{"latitude":" 40.27884","longitude":"-76.81489","name":" Panera Bread","address":" USA-United States"},{"latitude":" 39.94866","longitude":"-83.83304","name":" Panera Bread","address":" USA-United States"},{"latitude":" 38.74410","longitude":"-121.26067","name":" Panera Bread","address":" USA-United States"},{"latitude":" 41.36903","longitude":"-72.91954","name":" Panera Bread","address":" USA-United States"},{"latitude":" 28.55266","longitude":"-81.20481","name":" Panera Bread","address":" USA-United States"},{"latitude":" 41.66994","longitude":"-70.29774","name":" Panera Bread","address":" USA-United States"},{"latitude":" 42.77512","longitude":"-78.74525","name":" Panera Bread","address":" USA-United States"},{"latitude":" 38.57320","longitude":"-89.92791","name":" Panera Bread","address":" USA-United States"},{"latitude":" 33.44575","longitude":"-86.73309","name":" Panera Bread","address":" USA-United States"},{"latitude":" 38.81233","longitude":"-90.87332","name":" Panera Bread","address":" USA-United States"},{"latitude":" 39.77550","longitude":"-85.97465","name":" Panera Bread","address":" USA-United States"},{"latitude":" 41.61953","longitude":"-93.73526","name":" Panera Bread","address":" USA-United States"},{"latitude":" 35.94106","longitude":"-83.98541","name":" Panera Bread","address":" USA-United States"},{"latitude":" 41.90891","longitude":"-87.80971","name":" Panera Bread","address":" USA-United States"},{"latitude":" 41.12797","longitude":"-73.38273","name":" Panera Bread","address":" USA-United States"},{"latitude":" 38.58191","longitude":"-121.41554","name":" Panera Bread","address":" USA-United States"},{"latitude":" 39.44284","longitude":"-76.62707","name":" Panera Bread","address":" USA-United States"},{"latitude":" 40.74443","longitude":"-73.65575","name":" Panera Bread","address":" USA-United States"},{"latitude":" 42.67555","longitude":"-71.12699","name":" Panera Bread","address":" USA-United States"},{"latitude":" 38.98053","longitude":"-76.54377","name":" Panera Bread","address":" USA-United States"},{"latitude":" 40.68474","longitude":"-73.35075","name":" Panera Bread","address":" USA-United States"},{"latitude":" 34.10745","longitude":"-117.57560","name":" Panera Bread","address":" USA-United States"},{"latitude":" 37.24395","longitude":"-93.31125","name":" Panera Bread","address":" USA-United States"},{"latitude":" 37.61141","longitude":"-77.35325","name":" Panera Bread","address":" USA-United States"},{"latitude":" 29.99848","longitude":"-95.17089","name":" Panera Bread","address":" USA-United States"},{"latitude":" 33.76902","longitude":"-117.87376","name":" Panera Bread","address":" USA-United States"},{"latitude":" 41.81389","longitude":"-72.52642","name":" Panera Bread","address":" USA-United States"},{"latitude":" 33.79286","longitude":"-118.33399","name":" Panera Bread","address":" USA-United States"},{"latitude":" 40.84695","longitude":"-81.94493","name":" Panera Bread","address":" USA-United States"},{"latitude":" 44.83480","longitude":"-93.15675","name":" Panera Bread","address":" USA-United States"},{"latitude":" 41.76472","longitude":"-71.45937","name":" Panera Bread","address":" USA-United States"},{"latitude":" 38.96835","longitude":"-77.37713","name":" Panera Bread","address":" USA-United States"},{"latitude":" 41.61217","longitude":"-83.61519","name":" Panera Bread","address":" USA-United States"},{"latitude":" 41.90582","longitude":"-87.96511","name":" Panera Bread","address":" USA-United States"},{"latitude":" 32.00324","longitude":"-81.12207","name":" Panera Bread","address":" USA-United States"},{"latitude":" 42.54438","longitude":"-83.36061","name":" Panera Bread","address":" USA-United States"},{"latitude":" 42.09978","longitude":"-87.79869","name":" Panera Bread","address":" USA-United States"},{"latitude":" 41.89354","longitude":"-87.62014","name":" Panera Bread","address":" USA-United States"},{"latitude":" 40.33238","longitude":"-80.02311","name":" Panera Bread","address":" USA-United States"},{"latitude":" 41.78583","longitude":"-72.74795","name":" Panera Bread","address":" USA-United States"},{"latitude":" 36.11646","longitude":"-94.14425","name":" Panera Bread","address":" USA-United States"},{"latitude":" 43.08718","longitude":"-70.78875","name":" Panera Bread","address":" USA-United States"},{"latitude":" 30.26988","longitude":"-81.38877","name":" Panera Bread","address":" USA-United States"},{"latitude":" 39.97548","longitude":"-76.67265","name":" Panera Bread","address":" USA-United States"},{"latitude":" 37.73411","longitude":"-85.88744","name":" Panera Bread","address":" USA-United States"},{"latitude":" 43.47522","longitude":"-70.51040","name":" Panera Bread","address":" USA-United States"},{"latitude":" 40.68514","longitude":"-75.26651","name":" Panera Bread","address":" USA-United States"},{"latitude":" 38.12729","longitude":"-78.44212","name":" Panera Bread","address":" USA-United States"},{"latitude":" 42.30492","longitude":"-71.21894","name":" Panera Bread","address":" USA-United States"},{"latitude":" 41.50890","longitude":"-72.80811","name":" Panera Bread","address":" USA-United States"},{"latitude":" 40.93242","longitude":"-72.31644","name":" Panera Bread","address":" USA-United States"},{"latitude":" 41.29239","longitude":"-96.12283","name":" Panera Bread","address":" USA-United States"},{"latitude":" 40.81516","longitude":"-96.63072","name":" Panera Bread","address":" USA-United States"},{"latitude":" 40.75364","longitude":"-73.91892","name":" Panera Bread","address":" USA-United States"},{"latitude":" 38.01076","longitude":"-84.45555","name":" Panera Bread","address":" USA-United States"},{"latitude":" 41.84986","longitude":"-88.30942","name":" Panera Bread","address":" USA-United States"},{"latitude":" 32.99392","longitude":"-117.25975","name":" Panera Bread","address":" USA-United States"},{"latitude":" 39.30541","longitude":"-84.52308","name":" Panera Bread","address":" USA-United States"},{"latitude":" 41.31315","longitude":"-81.52484","name":" Panera Bread","address":" USA-United States"},{"latitude":" 32.81234","longitude":"-96.80582","name":" Panera Bread","address":" USA-United States"},{"latitude":" 35.15693","longitude":"-79.41869","name":" Panera Bread","address":" USA-United States"},{"latitude":" 45.01688","longitude":"-93.01962","name":" Panera Bread","address":" USA-United States"},{"latitude":" 33.89855","longitude":"-118.00658","name":" Panera Bread","address":" USA-United States"},{"latitude":" 40.72462","longitude":"-73.54217","name":" Panera Bread","address":" USA-United States"},{"latitude":" 33.01661","longitude":"-117.11118","name":" Panera Bread","address":" USA-United States"},{"latitude":" 38.64955","longitude":"-90.56361","name":" Panera Bread","address":" USA-United States"},{"latitude":" 40.82868","longitude":"-73.20147","name":" Panera Bread","address":" USA-United States"},{"latitude":" 33.82833","longitude":"-84.33130","name":" Panera Bread","address":" USA-United States"},{"latitude":" 43.01688","longitude":"-88.10029","name":" Panera Bread","address":" USA-United States"},{"latitude":" 42.00363","longitude":"-88.00659","name":" Panera Bread","address":" USA-United States"},{"latitude":" 30.31989","longitude":"-81.46713","name":" Panera Bread","address":" USA-United States"},{"latitude":" 42.23734","longitude":"-71.17868","name":" Panera Bread","address":" USA-United States"},{"latitude":" 39.65126","longitude":"-84.10982","name":" Panera Bread","address":" USA-United States"},{"latitude":" 41.55405","longitude":"-87.68241","name":" Panera Bread","address":" USA-United States"},{"latitude":" 43.10575","longitude":"-73.74046","name":" Panera Bread","address":" USA-United States"},{"latitude":" 43.05191","longitude":"-88.36590","name":" Panera Bread","address":" USA-United States"},{"latitude":" 29.72659","longitude":"-95.40981","name":" Panera Bread","address":" USA-United States"},{"latitude":" 40.73700","longitude":"-73.24375","name":" Panera Bread","address":" USA-United States"},{"latitude":" 39.99553","longitude":"-83.00735","name":" Panera Bread","address":" USA-United States"},{"latitude":" 33.63258","longitude":"-96.61542","name":" Panera Bread","address":" USA-United States"},{"latitude":" 28.00436","longitude":"-82.58760","name":" Panera Bread","address":" USA-United States"},{"latitude":" 41.74954","longitude":"-88.29983","name":" Panera Bread","address":" USA-United States"},{"latitude":" 34.94197","longitude":"-80.97926","name":" Panera Bread","address":" USA-United States"},{"latitude":" 39.73384","longitude":"-75.63775","name":" Panera Bread","address":" USA-United States"},{"latitude":" 38.90992","longitude":"-92.33557","name":" Panera Bread","address":" USA-United States"},{"latitude":" 35.84019","longitude":"-78.64273","name":" Panera Bread","address":" USA-United States"},{"latitude":" 28.37911","longitude":"-81.50116","name":" Panera Bread","address":" USA-United States"},{"latitude":" 40.72724","longitude":"-73.42358","name":" Panera Bread","address":" USA-United States"},{"latitude":" 38.93779","longitude":"-104.79852","name":" Panera Bread","address":" USA-United States"},{"latitude":" 38.78373","longitude":"-121.28660","name":" Panera Bread","address":" USA-United States"},{"latitude":" 40.67916","longitude":"-89.58656","name":" Panera Bread","address":" USA-United States"},{"latitude":" 39.39046","longitude":"-84.50161","name":" Panera Bread","address":" USA-United States"},{"latitude":" 42.13981","longitude":"-83.22592","name":" Panera Bread","address":" USA-United States"},{"latitude":" 40.88413","longitude":"-74.70631","name":" Panera Bread","address":" USA-United States"},{"latitude":" 42.11383","longitude":"-87.98246","name":" Panera Bread","address":" USA-United States"},{"latitude":" 42.33891","longitude":"-83.38904","name":" Panera Bread","address":" USA-United States"},{"latitude":" 37.95775","longitude":"-91.77457","name":" Panera Bread","address":" USA-United States"},{"latitude":" 41.01418","longitude":"-73.94619","name":" Panera Bread","address":" USA-United States"},{"latitude":" 40.85027","longitude":"-74.29589","name":" Panera Bread","address":" USA-United States"},{"latitude":" 38.74151","longitude":"-90.63438","name":" Panera Bread","address":" USA-United States"},{"latitude":" 39.39328","longitude":"-76.58087","name":" Panera Bread","address":" USA-United States"},{"latitude":" 41.96338","longitude":"-73.99014","name":" Panera Bread","address":" USA-United States"},{"latitude":" 26.15101","longitude":"-80.11905","name":" Panera Bread","address":" USA-United States"},{"latitude":" 35.12699","longitude":"-85.23977","name":" Panera Bread","address":" USA-United States"},{"latitude":" 40.15188","longitude":"-105.09773","name":" Panera Bread","address":" USA-United States"},{"latitude":" 42.48380","longitude":"-71.18887","name":" Panera Bread","address":" USA-United States"},{"latitude":" 38.21171","longitude":"-90.40353","name":" Panera Bread","address":" USA-United States"},{"latitude":" 40.58098","longitude":"-83.08585","name":" Panera Bread","address":" USA-United States"},{"latitude":" 35.88927","longitude":"-86.87759","name":" Panera Bread","address":" USA-United States"},{"latitude":" 39.02065","longitude":"-94.66696","name":" Panera Bread","address":" USA-United States"},{"latitude":" 40.16942","longitude":"-74.89407","name":" Panera Bread","address":" USA-United States"},{"latitude":" 40.14547","longitude":"-75.31881","name":" Panera Bread","address":" USA-United States"},{"latitude":" 33.92949","longitude":"-84.34308","name":" Panera Bread","address":" USA-United States"},{"latitude":" 28.06890","longitude":"-82.50620","name":" Panera Bread","address":" USA-United States"},{"latitude":" 37.64589","longitude":"-77.57678","name":" Panera Bread","address":" USA-United States"},{"latitude":" 30.17254","longitude":"-81.62854","name":" Panera Bread","address":" USA-United States"},{"latitude":" 40.79881","longitude":"-81.49615","name":" Panera Bread","address":" USA-United States"},{"latitude":" 41.91932","longitude":"-87.66142","name":" Panera Bread","address":" USA-United States"},{"latitude":" 35.50218","longitude":"-82.52349","name":" Panera Bread","address":" USA-United States"},{"latitude":" 42.88504","longitude":"-85.78272","name":" Panera Bread","address":" USA-United States"},{"latitude":" 37.24959","longitude":"-77.38954","name":" Panera Bread","address":" USA-United States"},{"latitude":" 39.62606","longitude":"-104.89490","name":" Panera Bread","address":" USA-United States"},{"latitude":" 41.38115","longitude":"-72.15254","name":" Panera Bread","address":" USA-United States"},{"latitude":" 29.73762","longitude":"-95.51326","name":" Panera Bread","address":" USA-United States"},{"latitude":" 40.06308","longitude":"-83.04241","name":" Panera Bread","address":" USA-United States"},{"latitude":" 37.60016","longitude":"-122.38203","name":" Panera Bread","address":" USA-United States"},{"latitude":" 42.01897","longitude":"-88.20229","name":" Panera Bread","address":" USA-United States"},{"latitude":" 37.58274","longitude":"-77.49865","name":" Panera Bread","address":" USA-United States"},{"latitude":" 40.53502","longitude":"-80.01110","name":" Panera Bread","address":" USA-United States"},{"latitude":" 36.20406","longitude":"-81.66754","name":" Panera Bread","address":" USA-United States"},{"latitude":" 41.24669","longitude":"-95.82448","name":" Panera Bread","address":" USA-United States"},{"latitude":" 34.96924","longitude":"-81.88964","name":" Panera Bread","address":" USA-United States"},{"latitude":" 43.06467","longitude":"-88.04741","name":" Panera Bread","address":" USA-United States"},{"latitude":" 40.01899","longitude":"-82.87876","name":" Panera Bread","address":" USA-United States"},{"latitude":" 39.96981","longitude":"-74.91628","name":" Panera Bread","address":" USA-United States"},{"latitude":" 26.14607","longitude":"-80.33196","name":" Panera Bread","address":" USA-United States"},{"latitude":" 40.87700","longitude":"-81.43221","name":" Panera Bread","address":" USA-United States"},{"latitude":" 40.46201","longitude":"-74.45837","name":" Panera Bread","address":" USA-United States"},{"latitude":" 37.65379","longitude":"-77.62239","name":" Panera Bread","address":" USA-United States"},{"latitude":" 39.00880","longitude":"-77.49144","name":" Panera Bread","address":" USA-United States"},{"latitude":" 33.94230","longitude":"-83.44294","name":" Panera Bread","address":" USA-United States"},{"latitude":" 33.94633","longitude":"-84.33322","name":" Panera Bread","address":" USA-United States"},{"latitude":" 36.04144","longitude":"-86.77855","name":" Panera Bread","address":" USA-United States"},{"latitude":" 38.25009","longitude":"-85.62347","name":" Panera Bread","address":" USA-United States"},{"latitude":" 41.93028","longitude":"-87.68590","name":" Panera Bread","address":" USA-United States"},{"latitude":" 42.46577","longitude":"-73.20518","name":" Panera Bread","address":" USA-United States"},{"latitude":" 28.09474","longitude":"-81.97349","name":" Panera Bread","address":" USA-United States"},{"latitude":" 38.77128","longitude":"-77.13861","name":" Panera Bread","address":" USA-United States"},{"latitude":" 38.23046","longitude":"-85.63885","name":" Panera Bread","address":" USA-United States"},{"latitude":" 39.60913","longitude":"-104.92270","name":" Panera Bread","address":" USA-United States"},{"latitude":" 41.62928","longitude":"-86.23095","name":" Panera Bread","address":" USA-United States"},{"latitude":" 36.32392","longitude":"-119.67318","name":" Panera Bread","address":" USA-United States"},{"latitude":" 42.10300","longitude":"-80.13647","name":" Panera Bread","address":" USA-United States"},{"latitude":" 25.70453","longitude":"-80.28552","name":" Panera Bread","address":" USA-United States"},{"latitude":" 41.79863","longitude":"-71.33338","name":" Panera Bread","address":" USA-United States"},{"latitude":" 26.76346","longitude":"-80.09999","name":" Panera Bread","address":" USA-United States"},{"latitude":" 38.93566","longitude":"-94.37794","name":" Panera Bread","address":" USA-United States"},{"latitude":" 30.16732","longitude":"-95.45380","name":" Panera Bread","address":" USA-United States"},{"latitude":" 39.55503","longitude":"-104.88182","name":" Panera Bread","address":" USA-United States"},{"latitude":" 39.28754","longitude":"-84.46413","name":" Panera Bread","address":" USA-United States"},{"latitude":" 33.84877","longitude":"-84.36477","name":" Panera Bread","address":" USA-United States"},{"latitude":" 36.09512","longitude":"-115.29720","name":" Panera Bread","address":" USA-United States"},{"latitude":" 38.62439","longitude":"-90.34775","name":" Panera Bread","address":" USA-United States"},{"latitude":" 38.00405","longitude":"-84.56997","name":" Panera Bread","address":" USA-United States"},{"latitude":" 42.27861","longitude":"-71.03157","name":" Panera Bread","address":" USA-United States"},{"latitude":" 39.76987","longitude":"-84.05505","name":" Panera Bread","address":" USA-United States"},{"latitude":" 40.35027","longitude":"-74.65818","name":" Panera Bread","address":" USA-United States"},{"latitude":" 42.04075","longitude":"-87.80149","name":" Panera Bread","address":" USA-United States"},{"latitude":" 42.19477","longitude":"-88.21259","name":" Panera Bread","address":" USA-United States"},{"latitude":" 41.93971","longitude":"-71.34920","name":" Panera Bread","address":" USA-United States"},{"latitude":" 27.25873","longitude":"-82.52078","name":" Panera Bread","address":" USA-United States"},{"latitude":" 39.08336","longitude":"-94.58156","name":" Panera Bread","address":" USA-United States"},{"latitude":" 37.50525","longitude":"-121.97104","name":" Panera Bread","address":" USA-United States"},{"latitude":" 40.86646","longitude":"-73.83041","name":" Panera Bread","address":" USA-United States"},{"latitude":" 39.98210","longitude":"-82.81859","name":" Panera Bread","address":" USA-United States"},{"latitude":" 39.19562","longitude":"-94.57839","name":" Panera Bread","address":" USA-United States"},{"latitude":" 39.40028","longitude":"-87.40229","name":" Panera Bread","address":" USA-United States"},{"latitude":" 40.65124","longitude":"-74.34903","name":" Panera Bread","address":" USA-United States"},{"latitude":" 33.97106","longitude":"-84.01802","name":" Panera Bread","address":" USA-United States"},{"latitude":" 29.10912","longitude":"-81.02663","name":" Panera Bread","address":" USA-United States"},{"latitude":" 30.21873","longitude":"-81.55545","name":" Panera Bread","address":" USA-United States"},{"latitude":" 41.82091","longitude":"-73.07804","name":" Panera Bread","address":" USA-United States"},{"latitude":" 32.95424","longitude":"-96.81489","name":" Panera Bread","address":" USA-United States"},{"latitude":" 39.31903","longitude":"-77.84202","name":" Panera Bread","address":" USA-United States"},{"latitude":" 39.69451","longitude":"-84.10378","name":" Panera Bread","address":" USA-United States"},{"latitude":" 42.78419","longitude":"-78.81105","name":" Panera Bread","address":" USA-United States"},{"latitude":" 26.37230","longitude":"-80.20377","name":" Panera Bread","address":" USA-United States"},{"latitude":" 38.87811","longitude":"-104.71730","name":" Panera Bread","address":" USA-United States"},{"latitude":" 39.12532","longitude":"-94.82876","name":" Panera Bread","address":" USA-United States"},{"latitude":" 41.67357","longitude":"-83.71332","name":" Panera Bread","address":" USA-United States"},{"latitude":" 28.17444","longitude":"-80.67216","name":" Panera Bread","address":" USA-United States"},{"latitude":" 38.85197","longitude":"-77.13272","name":" Panera Bread","address":" USA-United States"},{"latitude":" 36.02591","longitude":"-80.36918","name":" Panera Bread","address":" USA-United States"},{"latitude":" 41.11819","longitude":"-85.13320","name":" Panera Bread","address":" USA-United States"},{"latitude":" 37.34063","longitude":"-121.90484","name":" Panera Bread","address":" USA-United States"},{"latitude":" 32.89879","longitude":"-83.68878","name":" Panera Bread","address":" USA-United States"},{"latitude":" 39.09905","longitude":"-77.19225","name":" Panera Bread","address":" USA-United States"},{"latitude":" 43.09751","longitude":"-75.30295","name":" Panera Bread","address":" USA-United States"},{"latitude":" 39.58438","longitude":"-76.98838","name":" Panera Bread","address":" USA-United States"},{"latitude":" 40.09313","longitude":"-75.28169","name":" Panera Bread","address":" USA-United States"},{"latitude":" 39.90662","longitude":"-79.75443","name":" Panera Bread","address":" USA-United States"},{"latitude":" 41.80985","longitude":"-87.98903","name":" Panera Bread","address":" USA-United States"},{"latitude":" 42.46467","longitude":"-83.20150","name":" Panera Bread","address":" USA-United States"},{"latitude":" 42.88417","longitude":"-87.91262","name":" Panera Bread","address":" USA-United States"},{"latitude":" 43.18822","longitude":"-88.12807","name":" Panera Bread","address":" USA-United States"},{"latitude":" 45.53933","longitude":"-122.90158","name":" Panera Bread","address":" USA-United States"},{"latitude":" 38.16885","longitude":"-77.51907","name":" Panera Bread","address":" USA-United States"},{"latitude":" 42.09619","longitude":"-75.98329","name":" Panera Bread","address":" USA-United States"},{"latitude":" 37.15928","longitude":"-93.26555","name":" Panera Bread","address":" USA-United States"},{"latitude":" 42.51074","longitude":"-96.41692","name":" Panera Bread","address":" USA-United States"},{"latitude":" 43.01816","longitude":"-89.42327","name":" Panera Bread","address":" USA-United States"},{"latitude":" 35.79947","longitude":"-78.81623","name":" Panera Bread","address":" USA-United States"},{"latitude":" 40.73906","longitude":"-89.63292","name":" Panera Bread","address":" USA-United States"},{"latitude":" 39.30666","longitude":"-81.55126","name":" Panera Bread","address":" USA-United States"},{"latitude":" 43.02028","longitude":"-85.68881","name":" Panera Bread","address":" USA-United States"},{"latitude":" 40.14311","longitude":"-75.11886","name":" Panera Bread","address":" USA-United States"},{"latitude":" 38.80815","longitude":"-77.08552","name":" Panera Bread","address":" USA-United States"},{"latitude":" 41.56631","longitude":"-73.00773","name":" Panera Bread","address":" USA-United States"},{"latitude":" 42.78975","longitude":"-83.74337","name":" Panera Bread","address":" USA-United States"},{"latitude":" 33.95640","longitude":"-117.38967","name":" Panera Bread","address":" USA-United States"},{"latitude":" 30.39120","longitude":"-86.42469","name":" Panera Bread","address":" USA-United States"},{"latitude":" 41.04096","longitude":"-74.07387","name":" Panera Bread","address":" USA-United States"},{"latitude":" 33.98671","longitude":"-84.42162","name":" Panera Bread","address":" USA-United States"},{"latitude":" 40.45601","longitude":"-79.93777","name":" Panera Bread","address":" USA-United States"},{"latitude":" 41.70618","longitude":"-93.58149","name":" Panera Bread","address":" USA-United States"},{"latitude":" 25.68515","longitude":"-80.41588","name":" Panera Bread","address":" USA-United States"},{"latitude":" 42.10226","longitude":"-71.06748","name":" Panera Bread","address":" USA-United States"},{"latitude":" 41.49688","longitude":"-81.69382","name":" Panera Bread","address":" USA-United States"},{"latitude":" 38.42333","longitude":"-82.26916","name":" Panera Bread","address":" USA-United States"},{"latitude":" 32.87517","longitude":"-96.87531","name":" Panera Bread","address":" USA-United States"},{"latitude":" 41.79548","longitude":"-88.12451","name":" Panera Bread","address":" USA-United States"},{"latitude":" 38.99550","longitude":"-77.02734","name":" Panera Bread","address":" USA-United States"},{"latitude":" 40.59807","longitude":"-75.52595","name":" Panera Bread","address":" USA-United States"},{"latitude":" 42.27410","longitude":"-87.95130","name":" Panera Bread","address":" USA-United States"},{"latitude":" 36.16220","longitude":"-86.77818","name":" Panera Bread","address":" USA-United States"},{"latitude":" 39.76200","longitude":"-89.60746","name":" Panera Bread","address":" USA-United States"},{"latitude":" 42.51264","longitude":"-92.43375","name":" Panera Bread","address":" USA-United States"},{"latitude":" 44.73734","longitude":"-92.89255","name":" Panera Bread","address":" USA-United States"},{"latitude":" 28.59742","longitude":"-81.22088","name":" Panera Bread","address":" USA-United States"},{"latitude":" 41.39247","longitude":"-81.44420","name":" Panera Bread","address":" USA-United States"},{"latitude":" 39.22009","longitude":"-84.51777","name":" Panera Bread","address":" USA-United States"},{"latitude":" 37.54963","longitude":"-77.56841","name":" Panera Bread","address":" USA-United States"},{"latitude":" 30.48013","longitude":"-81.64065","name":" Panera Bread","address":" USA-United States"},{"latitude":" 41.93912","longitude":"-88.11239","name":" Panera Bread","address":" USA-United States"},{"latitude":" 40.66939","longitude":"-74.48129","name":" Panera Bread","address":" USA-United States"},{"latitude":" 40.87173","longitude":"-74.64532","name":" Panera Bread","address":" USA-United States"},{"latitude":" 42.14342","longitude":"-70.84394","name":" Panera Bread","address":" USA-United States"},{"latitude":" 44.93395","longitude":"-93.34058","name":" Panera Bread","address":" USA-United States"},{"latitude":" 41.47460","longitude":"-71.95608","name":" Panera Bread","address":" USA-United States"},{"latitude":" 38.68170","longitude":"-90.43472","name":" Panera Bread","address":" USA-United States"},{"latitude":" 37.06615","longitude":"-76.49171","name":" Panera Bread","address":" USA-United States"},{"latitude":" 26.65110","longitude":"-80.21193","name":" Panera Bread","address":" USA-United States"},{"latitude":" 41.46491","longitude":"-81.84131","name":" Panera Bread","address":" USA-United States"},{"latitude":" 30.66615","longitude":"-87.84911","name":" Panera Bread","address":" USA-United States"},{"latitude":" 41.45789","longitude":"-82.02530","name":" Panera Bread","address":" USA-United States"},{"latitude":" 42.04866","longitude":"-87.68201","name":" Panera Bread","address":" USA-United States"},{"latitude":" 43.22142","longitude":"-87.92438","name":" Panera Bread","address":" USA-United States"},{"latitude":" 41.71345","longitude":"-72.60908","name":" Panera Bread","address":" USA-United States"},{"latitude":" 39.08159","longitude":"-77.49588","name":" Panera Bread","address":" USA-United States"},{"latitude":" 39.63518","longitude":"-84.21627","name":" Panera Bread","address":" USA-United States"},{"latitude":" 42.60736","longitude":"-83.29802","name":" Panera Bread","address":" USA-United States"},{"latitude":" 38.63892","longitude":"-90.26097","name":" Panera Bread","address":" USA-United States"},{"latitude":" 41.82962","longitude":"-88.09895","name":" Panera Bread","address":" USA-United States"},{"latitude":" 41.62729","longitude":"-85.90790","name":" Panera Bread","address":" USA-United States"},{"latitude":" 34.18168","longitude":"-118.87613","name":" Panera Bread","address":" USA-United States"},{"latitude":" 40.84040","longitude":"-73.31501","name":" Panera Bread","address":" USA-United States"},{"latitude":" 30.28749","longitude":"-81.45750","name":" Panera Bread","address":" USA-United States"},{"latitude":" 34.15039","longitude":"-117.47215","name":" Panera Bread","address":" USA-United States"},{"latitude":" 39.12462","longitude":"-76.58801","name":" Panera Bread","address":" USA-United States"},{"latitude":" 32.80304","longitude":"-96.62756","name":" Panera Bread","address":" USA-United States"},{"latitude":" 42.16948","longitude":"-88.33507","name":" Panera Bread","address":" USA-United States"},{"latitude":" 38.92897","longitude":"-94.66808","name":" Panera Bread","address":" USA-United States"},{"latitude":" 41.41913","longitude":"-81.91086","name":" Panera Bread","address":" USA-United States"},{"latitude":" 37.55440","longitude":"-121.98341","name":" Panera Bread","address":" USA-United States"},{"latitude":" 43.14917","longitude":"-76.12271","name":" Panera Bread","address":" USA-United States"},{"latitude":" 34.67206","longitude":"-118.11220","name":" Panera Bread","address":" USA-United States"},{"latitude":" 38.97847","longitude":"-94.63050","name":" Panera Bread","address":" USA-United States"},{"latitude":" 33.70810","longitude":"-116.28384","name":" Panera Bread","address":" USA-United States"},{"latitude":" 38.51416","longitude":"-90.44867","name":" Panera Bread","address":" USA-United States"},{"latitude":" 42.84490","longitude":"-85.62235","name":" Panera Bread","address":" USA-United States"},{"latitude":" 32.91658","longitude":"-117.12034","name":" Panera Bread","address":" USA-United States"},{"latitude":" 41.87381","longitude":"-88.34169","name":" Panera Bread","address":" USA-United States"},{"latitude":" 39.28687","longitude":"-76.60772","name":" Panera Bread","address":" USA-United States"},{"latitude":" 40.14605","longitude":"-82.92424","name":" Panera Bread","address":" USA-United States"},{"latitude":" 42.68129","longitude":"-83.15328","name":" Panera Bread","address":" USA-United States"},{"latitude":" 36.10447","longitude":"-95.91357","name":" Panera Bread","address":" USA-United States"},{"latitude":" 40.86553","longitude":"-74.50657","name":" Panera Bread","address":" USA-United States"},{"latitude":" 40.46444","longitude":"-86.10832","name":" Panera Bread","address":" USA-United States"},{"latitude":" 36.02823","longitude":"-83.92836","name":" Panera Bread","address":" USA-United States"},{"latitude":" 29.77883","longitude":"-95.53992","name":" Panera Bread","address":" USA-United States"},{"latitude":" 39.99252","longitude":"-75.26452","name":" Panera Bread","address":" USA-United States"},{"latitude":" 29.92350","longitude":"-95.60144","name":" Panera Bread","address":" USA-United States"},{"latitude":" 33.63736","longitude":"-117.85934","name":" Panera Bread","address":" USA-United States"},{"latitude":" 26.40462","longitude":"-81.80814","name":" Panera Bread","address":" USA-United States"},{"latitude":" 37.14632","longitude":"-93.29580","name":" Panera Bread","address":" USA-United States"},{"latitude":" 39.18142","longitude":"-77.26668","name":" Panera Bread","address":" USA-United States"},{"latitude":" 45.43297","longitude":"-122.57921","name":" Panera Bread","address":" USA-United States"},{"latitude":" 43.20896","longitude":"-77.69125","name":" Panera Bread","address":" USA-United States"},{"latitude":" 41.55655","longitude":"-90.52743","name":" Panera Bread","address":" USA-United States"},{"latitude":" 34.94293","longitude":"-85.22386","name":" Panera Bread","address":" USA-United States"},{"latitude":" 41.57934","longitude":"-88.16500","name":" Panera Bread","address":" USA-United States"},{"latitude":" 38.59289","longitude":"-90.52543","name":" Panera Bread","address":" USA-United States"},{"latitude":" 42.99855","longitude":"-78.82216","name":" Panera Bread","address":" USA-United States"},{"latitude":" 36.77654","longitude":"-76.23061","name":" Panera Bread","address":" USA-United States"},{"latitude":" 42.62804","longitude":"-88.60605","name":" Panera Bread","address":" USA-United States"},{"latitude":" 41.87243","longitude":"-71.51964","name":" Panera Bread","address":" USA-United States"},{"latitude":" 45.05057","longitude":"-93.06190","name":" Panera Bread","address":" USA-United States"},{"latitude":" 41.93022","longitude":"-70.65514","name":" Panera Bread","address":" USA-United States"},{"latitude":" 36.29315","longitude":"-95.83499","name":" Panera Bread","address":" USA-United States"},{"latitude":" 32.62919","longitude":"-117.08860","name":" Panera Bread","address":" USA-United States"},{"latitude":" 40.04922","longitude":"-82.91636","name":" Panera Bread","address":" USA-United States"},{"latitude":" 39.14971","longitude":"-77.20889","name":" Panera Bread","address":" USA-United States"},{"latitude":" 39.28651","longitude":"-76.76407","name":" Panera Bread","address":" USA-United States"},{"latitude":" 40.93713","longitude":"-74.26969","name":" Panera Bread","address":" USA-United States"},{"latitude":" 40.10206","longitude":"-83.15796","name":" Panera Bread","address":" USA-United States"},{"latitude":" 27.46260","longitude":"-82.57721","name":" Panera Bread","address":" USA-United States"},{"latitude":" 41.70082","longitude":"-87.73992","name":" Panera Bread","address":" USA-United States"},{"latitude":" 45.12752","longitude":"-93.26724","name":" Panera Bread","address":" USA-United States"},{"latitude":" 39.01512","longitude":"-94.70905","name":" Panera Bread","address":" USA-United States"},{"latitude":" 35.91604","longitude":"-84.08345","name":" Panera Bread","address":" USA-United States"},{"latitude":" 39.10972","longitude":"-77.53680","name":" Panera Bread","address":" USA-United States"},{"latitude":" 41.93290","longitude":"-87.64440","name":" Panera Bread","address":" USA-United States"},{"latitude":" 39.98430","longitude":"-83.04499","name":" Panera Bread","address":" USA-United States"},{"latitude":" 41.65934","longitude":"-93.69748","name":" Panera Bread","address":" USA-United States"},{"latitude":" 42.36568","longitude":"-89.02706","name":" Panera Bread","address":" USA-United States"},{"latitude":" 28.44879","longitude":"-81.39444","name":" Panera Bread","address":" USA-United States"},{"latitude":" 41.07484","longitude":"-73.47285","name":" Panera Bread","address":" USA-United States"},{"latitude":" 35.21823","longitude":"-97.47415","name":" Panera Bread","address":" USA-United States"},{"latitude":" 41.92686","longitude":"-83.41318","name":" Panera Bread","address":" USA-United States"},{"latitude":" 36.14684","longitude":"-86.79926","name":" Panera Bread","address":" USA-United States"},{"latitude":" 40.06840","longitude":"-80.86329","name":" Panera Bread","address":" USA-United States"},{"latitude":" 36.34929","longitude":"-82.39971","name":" Panera Bread","address":" USA-United States"},{"latitude":" 37.50480","longitude":"-77.61350","name":" Panera Bread","address":" USA-United States"},{"latitude":" 41.44238","longitude":"-71.48256","name":" Panera Bread","address":" USA-United States"},{"latitude":" 39.89852","longitude":"-88.95447","name":" Panera Bread","address":" USA-United States"},{"latitude":" 44.97567","longitude":"-93.27307","name":" Panera Bread","address":" USA-United States"},{"latitude":" 39.19643","longitude":"-76.61307","name":" Panera Bread","address":" USA-United States"},{"latitude":" 33.95336","longitude":"-84.65786","name":" Panera Bread","address":" USA-United States"},{"latitude":" 36.86111","longitude":"-76.20982","name":" Panera Bread","address":" USA-United States"},{"latitude":" 38.67902","longitude":"-90.50218","name":" Panera Bread","address":" USA-United States"},{"latitude":" 42.71033","longitude":"-71.44287","name":" Panera Bread","address":" USA-United States"},{"latitude":" 40.39576","longitude":"-80.06646","name":" Panera Bread","address":" USA-United States"},{"latitude":" 39.17427","longitude":"-96.60500","name":" Panera Bread","address":" USA-United States"},{"latitude":" 40.07626","longitude":"-83.12976","name":" Panera Bread","address":" USA-United States"},{"latitude":" 36.00705","longitude":"-115.11427","name":" Panera Bread","address":" USA-United States"},{"latitude":" 34.07007","longitude":"-81.16275","name":" Panera Bread","address":" USA-United States"},{"latitude":" 42.04175","longitude":"-87.88473","name":" Panera Bread","address":" USA-United States"},{"latitude":" 39.66586","longitude":"-86.07731","name":" Panera Bread","address":" USA-United States"},{"latitude":" 41.12635","longitude":"-81.60581","name":" Panera Bread","address":" USA-United States"},{"latitude":" 28.12991","longitude":"-82.36718","name":" Panera Bread","address":" USA-United States"},{"latitude":" 39.62889","longitude":"-84.15907","name":" Panera Bread","address":" USA-United States"},{"latitude":" 37.92450","longitude":"-84.61375","name":" Panera Bread","address":" USA-United States"},{"latitude":" 45.06512","longitude":"-93.30924","name":" Panera Bread","address":" USA-United States"},{"latitude":" 43.40083","longitude":"-88.18120","name":" Panera Bread","address":" USA-United States"},{"latitude":" 25.98148","longitude":"-80.35956","name":" Panera Bread","address":" USA-United States"},{"latitude":" 26.53488","longitude":"-80.09113","name":" Panera Bread","address":" USA-United States"},{"latitude":" 43.49945","longitude":"-96.77114","name":" Panera Bread","address":" USA-United States"},{"latitude":" 27.17696","longitude":"-80.39198","name":" Panera Bread","address":" USA-United States"},{"latitude":" 42.64244","longitude":"-73.69911","name":" Panera Bread","address":" USA-United States"},{"latitude":" 42.67886","longitude":"-82.82966","name":" Panera Bread","address":" USA-United States"},{"latitude":" 32.68636","longitude":"-117.17989","name":" Panera Bread","address":" USA-United States"},{"latitude":" 34.82597","longitude":"-82.39637","name":" Panera Bread","address":" USA-United States"},{"latitude":" 40.60376","longitude":"-79.94698","name":" Panera Bread","address":" USA-United States"},{"latitude":" 42.61139","longitude":"-73.78774","name":" Panera Bread","address":" USA-United States"},{"latitude":" 36.10320","longitude":"-79.81927","name":" Panera Bread","address":" USA-United States"},{"latitude":" 41.86848","longitude":"-87.63908","name":" Panera Bread","address":" USA-United States"},{"latitude":" 34.70494","longitude":"-82.25603","name":" Panera Bread","address":" USA-United States"},{"latitude":" 41.15442","longitude":"-95.93446","name":" Panera Bread","address":" USA-United States"},{"latitude":" 30.47444","longitude":"-87.21143","name":" Panera Bread","address":" USA-United States"},{"latitude":" 35.77201","longitude":"-83.98636","name":" Panera Bread","address":" USA-United States"},{"latitude":" 35.26017","longitude":"-81.13111","name":" Panera Bread","address":" USA-United States"},{"latitude":" 41.09856","longitude":"-74.01111","name":" Panera Bread","address":" USA-United States"},{"latitude":" 39.73742","longitude":"-104.98348","name":" Panera Bread","address":" USA-United States"},{"latitude":" 33.96648","longitude":"-84.49106","name":" Panera Bread","address":" USA-United States"},{"latitude":" 40.77357","longitude":"-73.52907","name":" Panera Bread","address":" USA-United States"},{"latitude":" 39.65522","longitude":"-77.75001","name":" Panera Bread","address":" USA-United States"},{"latitude":" 41.99213","longitude":"-87.70997","name":" Panera Bread","address":" USA-United States"},{"latitude":" 36.07465","longitude":"-80.31247","name":" Panera Bread","address":" USA-United States"},{"latitude":" 45.38284","longitude":"-122.74850","name":" Panera Bread","address":" USA-United States"},{"latitude":" 40.95766","longitude":"-74.07021","name":" Panera Bread","address":" USA-United States"},{"latitude":" 41.72116","longitude":"-87.68040","name":" Panera Bread","address":" USA-United States"},{"latitude":" 39.54258","longitude":"-104.93690","name":" Panera Bread","address":" USA-United States"},{"latitude":" 38.63510","longitude":"-90.34738","name":" Panera Bread","address":" USA-United States"},{"latitude":" 39.96625","longitude":"-76.77426","name":" Panera Bread","address":" USA-United States"},{"latitude":" 37.35403","longitude":"-77.41309","name":" Panera Bread","address":" USA-United States"},{"latitude":" 28.14442","longitude":"-82.74057","name":" Panera Bread","address":" USA-United States"}]