[{"latitude":" 36.02982","longitude":"-86.79086","name":" REI","address":" USA-Brentwood"},{"latitude":" 45.39438","longitude":"-122.75240","name":" REI","address":" USA-Tigard"},{"latitude":" 37.97057","longitude":"-122.05516","name":" REI","address":" USA-Concord"},{"latitude":" 34.06315","longitude":"-83.98825","name":" REI","address":" USA-Buford"},{"latitude":" 47.67080","longitude":"-122.11864","name":" REI","address":" USA-Redmond"},{"latitude":" 32.62112","longitude":"-116.96622","name":" REI","address":" USA-Chula Vista"},{"latitude":" 37.27115","longitude":"-79.94238","name":" REI","address":" USA-Roanoke"},{"latitude":" 35.13527","longitude":"-106.60895","name":" REI","address":" USA-Albuquerque"},{"latitude":" 42.41450","longitude":"-83.43277","name":" REI","address":" USA-Northville"},{"latitude":" 39.61888","longitude":"-105.09157","name":" REI","address":" USA-Lakewood"},{"latitude":" 44.04563","longitude":"-121.31540","name":" REI","address":" USA-Bend"},{"latitude":" 47.66750","longitude":"-117.42690","name":" REI","address":" USA-Spokane"},{"latitude":" 40.09484","longitude":"-75.28965","name":" REI","address":" USA-Conshohocken"},{"latitude":" 33.90166","longitude":"-118.38093","name":" REI","address":" USA-Manhattan Beach"},{"latitude":" 38.62603","longitude":"-90.34682","name":" REI","address":" USA-St. Louis"},{"latitude":" 41.76940","longitude":"-71.46800","name":" REI","address":" USA-Cranston"},{"latitude":" 35.76039","longitude":"-78.73593","name":" REI","address":" USA-Cary"},{"latitude":" 38.93324","longitude":"-104.79895","name":" REI","address":" USA-Colorado Springs"},{"latitude":" 46.88541","longitude":"-114.03910","name":" REI","address":" USA-Missoula"},{"latitude":" 30.39044","longitude":"-97.74095","name":" REI","address":" USA-Austin"},{"latitude":" 39.01353","longitude":"-76.92128","name":" REI","address":" USA-College Park"},{"latitude":" 37.50355","longitude":"-122.24798","name":" REI","address":" USA-San Carlos"},{"latitude":" 33.73104","longitude":"-117.83573","name":" REI","address":" USA-Santa Ana"},{"latitude":" 34.01641","longitude":"-118.49495","name":" REI","address":" USA-Santa Monica"},{"latitude":" 42.04411","longitude":"-88.12100","name":" REI","address":" USA-Schaumburg"},{"latitude":" 41.76037","longitude":"-72.73932","name":" REI","address":" USA-Hartford"},{"latitude":" 47.45729","longitude":"-122.25420","name":" REI","address":" USA-Tukwila"},{"latitude":" 39.06161","longitude":"-77.12415","name":" REI","address":" USA-Rockville"},{"latitude":" 34.14245","longitude":"-118.03123","name":" REI","address":" USA-Arcadia"},{"latitude":" 40.55914","longitude":"-111.89565","name":" REI","address":" USA-Sandy"},{"latitude":" 33.03109","longitude":"-96.79455","name":" REI","address":" USA-Plano"},{"latitude":" 38.85796","longitude":"-77.35783","name":" REI","address":" USA-Fairfax"},{"latitude":" 36.02190","longitude":"-115.08541","name":" REI","address":" USA-Henderson"},{"latitude":" 33.39275","longitude":"-111.96102","name":" REI","address":" USA-Tempe"},{"latitude":" 37.92848","longitude":"-122.51810","name":" REI","address":" USA-Corte Madera"},{"latitude":" 39.50354","longitude":"-119.78598","name":" REI","address":" USA-Reno"},{"latitude":" 39.56624","longitude":"-104.87809","name":" REI","address":" USA-Englewood"},{"latitude":" 33.73041","longitude":"-117.99247","name":" REI","address":" USA-Huntington Beach"},{"latitude":" 34.10656","longitude":"-117.53908","name":" REI","address":" USA-Rancho Cucamonga"},{"latitude":" 33.60050","longitude":"-111.98832","name":" REI","address":" USA-Phoenix"},{"latitude":" 39.88096","longitude":"-74.92228","name":" REI","address":" USA-Marlton"},{"latitude":" 44.85947","longitude":"-93.28911","name":" REI","address":" USA-Bloomington"},{"latitude":" 35.90351","longitude":"-78.93850","name":" REI","address":" USA-Durham"},{"latitude":" 46.21068","longitude":"-119.15915","name":" REI","address":" USA-Kennewick"},{"latitude":" 37.42298","longitude":"-122.08959","name":" REI","address":" USA-Mountain View"},{"latitude":" 38.59832","longitude":"-121.45044","name":" REI","address":" USA-Sacramento"},{"latitude":" 45.09179","longitude":"-93.42641","name":" REI","address":" USA-Maple Grove"},{"latitude":" 42.18020","longitude":"-70.90695","name":" REI","address":" USA-Hingham"},{"latitude":" 36.66730","longitude":"-121.80900","name":" REI","address":" USA-Marina"},{"latitude":" 47.62002","longitude":"-122.33019","name":" REI","address":" USA-Seattle"},{"latitude":" 42.56266","longitude":"-83.13198","name":" REI","address":" USA-Troy"},{"latitude":" 38.64526","longitude":"-121.12217","name":" REI","address":" USA-Folsom"},{"latitude":" 39.43813","longitude":"-76.62696","name":" REI","address":" USA-Timonium"},{"latitude":" 42.05456","longitude":"-87.83257","name":" REI","address":" USA-Niles"},{"latitude":" 43.05736","longitude":"-89.51186","name":" REI","address":" USA-Madison"},{"latitude":" 33.93053","longitude":"-84.34997","name":" REI","address":" USA-Atlanta"},{"latitude":" 44.05641","longitude":"-123.09895","name":" REI","address":" USA-Eugene"},{"latitude":" 34.00744","longitude":"-84.57201","name":" REI","address":" USA-Marietta"},{"latitude":" 61.19516","longitude":"-149.90568","name":" REI","address":" USA-Anchorage"},{"latitude":" 41.84642","longitude":"-87.97525","name":" REI","address":" USA-Oakbrook Terrace"},{"latitude":" 32.83823","longitude":"-117.16030","name":" REI","address":" USA-San Diego"},{"latitude":" 40.01899","longitude":"-105.25868","name":" REI","address":" USA-Boulder"},{"latitude":" 34.25744","longitude":"-118.53847","name":" REI","address":" USA-Northridge"},{"latitude":" 40.69994","longitude":"-111.80110","name":" REI","address":" USA-Salt Lake City"},{"latitude":" 47.54385","longitude":"-122.04876","name":" REI","address":" USA-Issaquah"},{"latitude":" 36.84882","longitude":"-119.79068","name":" REI","address":" USA-Fresno"},{"latitude":" 35.08225","longitude":"-80.87937","name":" REI","address":" USA-Charlotte"},{"latitude":" 29.95557","longitude":"-95.54212","name":" REI","address":" USA-Houston"},{"latitude":" 39.90527","longitude":"-74.93708","name":" REI","address":" USA-Cherry Hill"},{"latitude":" 33.90179","longitude":"-118.36136","name":" REI","address":" USA-Manhattan Beach"},{"latitude":" 42.52614","longitude":"-71.08640","name":" REI","address":" USA-Reading"},{"latitude":" 33.06784","longitude":"-117.26275","name":" REI","address":" USA-Encinitas"},{"latitude":" 33.83975","longitude":"-84.32062","name":" REI","address":" USA-Atlanta"},{"latitude":" 37.50978","longitude":"-121.94961","name":" REI","address":" USA-Fremont"},{"latitude":" 42.34374","longitude":"-71.10295","name":" REI","address":" USA-Boston"},{"latitude":" 38.00208","longitude":"-121.31705","name":" REI","address":" USA-Stockton"},{"latitude":" 40.53217","longitude":"-105.07738","name":" REI","address":" USA-Fort Collins"},{"latitude":" 45.52874","longitude":"-122.68553","name":" REI","address":" USA-Portland"},{"latitude":" 39.75602","longitude":"-105.00964","name":" REI","address":" USA-Denver"},{"latitude":" 32.92654","longitude":"-96.83181","name":" REI","address":" USA-Dallas"},{"latitude":" 29.73774","longitude":"-95.50164","name":" REI","address":" USA-Houston"},{"latitude":" 38.41133","longitude":"-122.71367","name":" REI","address":" USA-Santa Rosa"},{"latitude":" 43.08944","longitude":"-88.07321","name":" REI","address":" USA-Brookfield"},{"latitude":" 48.73099","longitude":"-122.47056","name":" REI","address":" USA-Bellingham"},{"latitude":" 34.06176","longitude":"-83.99467","name":" REI","address":" USA-Buford"},{"latitude":" 47.22219","longitude":"-122.46842","name":" REI","address":" USA-Tacoma"},{"latitude":" 42.30513","longitude":"-71.39525","name":" REI","address":" USA-Framingham"},{"latitude":" 37.77241","longitude":"-122.40427","name":" REI","address":" USA-San Francisco"},{"latitude":" 39.07764","longitude":"-108.56192","name":" REI","address":" USA-Grand Junction"},{"latitude":" 40.42806","longitude":"-79.96614","name":" REI","address":" USA-Pittsburgh"},{"latitude":" 37.28889","longitude":"-121.99385","name":" REI","address":" USA-San Jose"},{"latitude":" 45.01512","longitude":"-93.18262","name":" REI","address":" USA-Roseville"},{"latitude":" 47.83175","longitude":"-122.27357","name":" REI","address":" USA-Lynnwood"},{"latitude":" 37.87974","longitude":"-122.29573","name":" REI","address":" USA-Berkeley"},{"latitude":" 38.84863","longitude":"-77.12399","name":" REI","address":" USA-Bailey's Crossroads"},{"latitude":" 43.61144","longitude":"-116.28553","name":" REI","address":" USA-Boise"},{"latitude":" 35.83600","longitude":"-78.64547","name":" REI","address":" USA-Raleigh"},{"latitude":" 38.77184","longitude":"-121.26543","name":" REI","address":" USA-Roseville"},{"latitude":" 45.53696","longitude":"-122.87739","name":" REI","address":" USA-Hillsboro"}]