[{"latitude":" 40.35807","longitude":"-74.65012","name":" Sam's Club Members Only: Bakery","address":" USA-United States"},{"latitude":" 41.40247","longitude":"-82.12094","name":" Sam's Club","address":" USA-United States"},{"latitude":" 41.53082","longitude":"-73.89239","name":" Sam's Club","address":" USA-United States"},{"latitude":" 40.87117","longitude":"-81.42521","name":" Sam's Club","address":" USA-United States"},{"latitude":" 44.07957","longitude":"-92.51643","name":" Sam's Club","address":" USA-United States"},{"latitude":" 34.71832","longitude":"-92.40869","name":" Sam's Club","address":" USA-United States"},{"latitude":" 34.28149","longitude":"-85.19952","name":" Sam's Club","address":" USA-United States"},{"latitude":" 36.76438","longitude":"-108.15373","name":" Sam's Club","address":" USA-United States"},{"latitude":" 38.32531","longitude":"-85.76755","name":" Sam's Club","address":" USA-United States"},{"latitude":" 34.19636","longitude":"-79.82136","name":" Sam's Club","address":" USA-United States"},{"latitude":" 29.55606","longitude":"-98.48509","name":" Sam's Club","address":" USA-United States"},{"latitude":" 32.75394","longitude":"-97.33228","name":" Sam's Club: Pharmacy","address":" USA-United States"},{"latitude":" 35.25787","longitude":"-81.11649","name":" Sam's Club","address":" USA-United States"},{"latitude":" 32.78899","longitude":"-96.80043","name":" Sam's Club Members Only: Bakery","address":" USA-United States"},{"latitude":" 27.39086","longitude":"-80.32569","name":" Sam's Club: Store Information","address":" USA-United States"},{"latitude":" 32.21148","longitude":"-80.70258","name":" Sam's Club","address":" USA-United States"},{"latitude":" 38.64712","longitude":"-76.88867","name":" Sam's Club","address":" USA-United States"},{"latitude":" 29.17895","longitude":"-82.15448","name":" Sam's Club","address":" USA-United States"},{"latitude":" 30.21830","longitude":"-89.81977","name":" Sam's Club","address":" USA-United States"},{"latitude":" 26.27238","longitude":"-81.76904","name":" Sam's Club One Hour Photo","address":" USA-United States"},{"latitude":" 40.16199","longitude":"-80.24786","name":" Sam's Club","address":" USA-United States"},{"latitude":" 30.37861","longitude":"-91.06466","name":" Sam's Club","address":" USA-United States"},{"latitude":" 39.76519","longitude":"-104.89761","name":" Sam's Club: Bakery","address":" USA-United States"},{"latitude":" 35.56103","longitude":"-97.65104","name":" Sam's Club","address":" USA-United States"},{"latitude":" 29.50025","longitude":"-98.49935","name":" Sam's Embroidery Club","address":" USA-United States"},{"latitude":" 43.07498","longitude":"-89.52138","name":" Sam's Club","address":" USA-United States"},{"latitude":" 30.52271","longitude":"-97.72278","name":" Sam's Club","address":" USA-United States"},{"latitude":" 30.19049","longitude":"-97.77057","name":" Sam's Club","address":" USA-United States"},{"latitude":" 38.47952","longitude":"-121.42134","name":" Sam's Club","address":" USA-United States"},{"latitude":" 40.25122","longitude":"-74.29649","name":" Sam's Club","address":" USA-United States"},{"latitude":" 41.11816","longitude":"-81.47070","name":" Sam's Club","address":" USA-United States"},{"latitude":" 27.00888","longitude":"-82.15309","name":" Sam's Club: General Information","address":" USA-United States"},{"latitude":" 30.42535","longitude":"-84.22828","name":" Sam's Club: Pharmacy","address":" USA-United States"},{"latitude":" 27.33991","longitude":"-82.45238","name":" Sam's Club Members Only: Store Information","address":" USA-United States"},{"latitude":" 43.02879","longitude":"-88.18601","name":" Sam's Club","address":" USA-United States"},{"latitude":" 38.57330","longitude":"-90.37805","name":" Sam's Club","address":" USA-United States"},{"latitude":" 33.69866","longitude":"-117.83391","name":" Sam's Club","address":" USA-United States"},{"latitude":" 40.89244","longitude":"-74.72000","name":" Sam's Club Members Only: Store Information","address":" USA-United States"},{"latitude":" 30.66329","longitude":"-88.15640","name":" Sam's Web Club","address":" USA-United States"},{"latitude":" 33.86519","longitude":"-117.88174","name":" Sam's Club","address":" USA-United States"},{"latitude":" 38.58350","longitude":"-90.41553","name":" Sam's Club-Members Only: 1-Hour Photo","address":" USA-United States"},{"latitude":" 32.75000","longitude":"-96.68286","name":" Sam's Club","address":" USA-United States"},{"latitude":" 39.70074","longitude":"-104.82813","name":" Sam's Club: Receiving","address":" USA-United States"},{"latitude":" 33.44922","longitude":"-86.82103","name":" Sam's Club","address":" USA-United States"},{"latitude":" 30.48694","longitude":"-84.31557","name":" Sam's Club","address":" USA-United States"},{"latitude":" 29.40004","longitude":"-95.01345","name":" Sam's Club: Warehouse","address":" USA-United States"},{"latitude":" 35.92535","longitude":"-84.06003","name":" Sam's Club: Pharmacy","address":" USA-United States"},{"latitude":" 33.94567","longitude":"-84.51754","name":" Sam's Club","address":" USA-United States"},{"latitude":" 38.61840","longitude":"-90.30305","name":" Sam's Club","address":" USA-United States"},{"latitude":" 29.98976","longitude":"-90.24361","name":" Sam's Club: Floral","address":" USA-United States"},{"latitude":" 37.34428","longitude":"-79.18842","name":" Sam's Club","address":" USA-United States"},{"latitude":" 45.11596","longitude":"-93.26382","name":" Sam's Club-Members Only: Store","address":" USA-United States"},{"latitude":" 33.87996","longitude":"-98.54541","name":" Sam's Club","address":" USA-United States"},{"latitude":" 41.93756","longitude":"-74.16583","name":" Sam's Club","address":" USA-United States"},{"latitude":" 40.70029","longitude":"-111.91693","name":" Sam's Club","address":" USA-United States"},{"latitude":" 30.67677","longitude":"-88.12979","name":" Sam's Club","address":" USA-United States"},{"latitude":" 41.78310","longitude":"-87.85801","name":" Sam's Club-Members Only: Main Ofc","address":" USA-United States"},{"latitude":" 26.61658","longitude":"-81.86889","name":" Sam's Club: Receiving Appointments","address":" USA-United States"},{"latitude":" 30.47247","longitude":"-91.10969","name":" Sam's Club: Pharmacy","address":" USA-United States"},{"latitude":" 28.42151","longitude":"-81.40482","name":" Sam's Club: Pharmacy","address":" USA-United States"},{"latitude":" 30.24812","longitude":"-92.06630","name":" Sam's Club","address":" USA-United States"},{"latitude":" 34.61733","longitude":"-86.57034","name":" Sam's Club: General Information","address":" USA-United States"},{"latitude":" 33.04610","longitude":"-97.01138","name":" Sam's Club: Store Information","address":" USA-United States"},{"latitude":" 41.78265","longitude":"-87.85883","name":" Sam's Club","address":" USA-United States"},{"latitude":" 36.05613","longitude":"-79.89283","name":" Sam's Club: General Information","address":" USA-United States"},{"latitude":" 29.51233","longitude":"-98.56859","name":" Sam's Embroidery Club","address":" USA-United States"},{"latitude":" 41.06773","longitude":"-85.15674","name":" Sam's Club: Pharmacy","address":" USA-United States"},{"latitude":" 30.64416","longitude":"-96.31335","name":" Sam's Club","address":" USA-United States"},{"latitude":" 29.97531","longitude":"-90.17056","name":" Sam's Club: Vision Center","address":" USA-United States"},{"latitude":" 33.79398","longitude":"-118.31729","name":" Sam's Club","address":" USA-United States"},{"latitude":" 28.22045","longitude":"-82.73562","name":" Sam's Club","address":" USA-United States"},{"latitude":" 29.55222","longitude":"-98.35639","name":" Sam's Club-Members Only: General Information","address":" USA-United States"},{"latitude":" 40.53446","longitude":"-80.01097","name":" Sam's Club","address":" USA-United States"},{"latitude":" 32.11827","longitude":"-81.26374","name":" Sam's Club: Vision Center","address":" USA-United States"},{"latitude":" 27.96046","longitude":"-82.73156","name":" Sam's Club","address":" USA-United States"},{"latitude":" 29.64311","longitude":"-95.57787","name":" Sam's Club","address":" USA-United States"},{"latitude":" 40.61865","longitude":"-79.78520","name":" Sam's Club","address":" USA-United States"},{"latitude":" 31.58879","longitude":"-97.11430","name":" Sam's Club: Bakery","address":" USA-United States"},{"latitude":" 39.75795","longitude":"-84.21375","name":" Sam's Club","address":" USA-United States"},{"latitude":" 39.26994","longitude":"-76.62619","name":" Sam's Club","address":" USA-United States"},{"latitude":" 35.20442","longitude":"-89.77965","name":" Sam's Club: Store Information","address":" USA-United States"},{"latitude":" 30.03404","longitude":"-89.98545","name":" Sam's Club Floral Department","address":" USA-United States"},{"latitude":" 43.51722","longitude":"-96.77126","name":" Sam's Club","address":" USA-United States"},{"latitude":" 33.89886","longitude":"-84.00592","name":" Sam's Club","address":" USA-United States"},{"latitude":" 30.19434","longitude":"-81.75259","name":" Sam's Club","address":" USA-United States"},{"latitude":" 39.74975","longitude":"-104.99574","name":" Sam's Club: Pharmacy","address":" USA-United States"},{"latitude":" 37.67314","longitude":"-97.41468","name":" Sam's Club","address":" USA-United States"},{"latitude":" 39.90119","longitude":"-88.95351","name":" Sam's Club","address":" USA-United States"},{"latitude":" 36.11388","longitude":"-86.92326","name":" Sam's Club","address":" USA-United States"},{"latitude":" 32.41988","longitude":"-93.79734","name":" Sam's Club","address":" USA-United States"},{"latitude":" 41.25444","longitude":"-95.88154","name":" Sam's Club-Members Only: Bakery","address":" USA-United States"},{"latitude":" 38.22189","longitude":"-85.53497","name":" Sam's Club","address":" USA-United States"},{"latitude":" 43.20746","longitude":"-77.69354","name":" Sam's Club","address":" USA-United States"},{"latitude":" 39.93673","longitude":"-82.78298","name":" Sam's Club","address":" USA-United States"},{"latitude":" 41.43061","longitude":"-75.64327","name":" Sam's Club","address":" USA-United States"},{"latitude":" 39.10339","longitude":"-94.60016","name":" Sam's Club-Members Only: 1-Hour Photo","address":" USA-United States"},{"latitude":" 40.08764","longitude":"-83.09188","name":" Sam's Club: General Information","address":" USA-United States"},{"latitude":" 39.84547","longitude":"-75.10532","name":" Sam's Club","address":" USA-United States"},{"latitude":" 42.22618","longitude":"-88.30827","name":" Sam's Club","address":" USA-United States"},{"latitude":" 31.84071","longitude":"-106.57710","name":" Sam's Club","address":" USA-United States"},{"latitude":" 39.30997","longitude":"-81.55241","name":" Sam's Club","address":" USA-United States"},{"latitude":" 34.22528","longitude":"-119.15871","name":" Sam's Club","address":" USA-United States"},{"latitude":" 40.09399","longitude":"-74.95968","name":" Sams Club: Receiving Appointments","address":" USA-United States"},{"latitude":" 36.16105","longitude":"-86.77462","name":" Sam's Club: Pharmacy","address":" USA-United States"},{"latitude":" 25.78509","longitude":"-80.33266","name":" Sam's Club: General Information","address":" USA-United States"},{"latitude":" 36.27014","longitude":"-115.27771","name":" Sam's Club","address":" USA-United States"},{"latitude":" 40.57889","longitude":"-79.80229","name":" Sam's Club","address":" USA-United States"},{"latitude":" 41.55892","longitude":"-90.52716","name":" Sam's Club","address":" USA-United States"},{"latitude":" 38.99158","longitude":"-76.55044","name":" Sam's Club","address":" USA-United States"},{"latitude":" 30.42336","longitude":"-81.80191","name":" Sam's Club","address":" USA-United States"},{"latitude":" 30.31085","longitude":"-89.82595","name":" Sam's Club","address":" USA-United States"},{"latitude":" 34.08209","longitude":"-118.03522","name":" Sam's Club","address":" USA-United States"},{"latitude":" 35.93260","longitude":"-84.06321","name":" Sam's Club","address":" USA-United States"},{"latitude":" 27.83920","longitude":"-82.73532","name":" Sam's Club","address":" USA-United States"},{"latitude":" 41.23847","longitude":"-95.73938","name":" Sam's Club","address":" USA-United States"},{"latitude":" 33.46530","longitude":"-112.23892","name":" Sam's Club Members Only: Store Information","address":" USA-United States"},{"latitude":" 39.28465","longitude":"-84.39398","name":" Sam's Club Members Only: Pharmacy","address":" USA-United States"},{"latitude":" 38.91833","longitude":"-76.85989","name":" Sam's Club","address":" USA-United States"},{"latitude":" 42.91515","longitude":"-78.75419","name":" Sam's Club","address":" USA-United States"},{"latitude":" 26.24246","longitude":"-80.25394","name":" Sam's Club","address":" USA-United States"},{"latitude":" 39.44680","longitude":"-77.33666","name":" Sam's Club","address":" USA-United States"},{"latitude":" 35.31300","longitude":"-80.75279","name":" Sam's Club","address":" USA-United States"},{"latitude":" 39.37516","longitude":"-76.72910","name":" Sam's Club","address":" USA-United States"},{"latitude":" 37.63742","longitude":"-77.55224","name":" Sam's Club","address":" USA-United States"},{"latitude":" 38.97287","longitude":"-77.46081","name":" Sam's Club","address":" USA-United States"},{"latitude":" 43.00191","longitude":"-83.76430","name":" Sam's Club","address":" USA-United States"},{"latitude":" 43.66180","longitude":"-70.25876","name":" Sam's Club","address":" USA-United States"},{"latitude":" 42.47767","longitude":"-83.28829","name":" Sam's Club Members Only: General Information","address":" USA-United States"},{"latitude":" 35.08289","longitude":"-78.95360","name":" Sam's Club","address":" USA-United States"},{"latitude":" 35.96987","longitude":"-78.95621","name":" Sam's Club: Main Line","address":" USA-United States"},{"latitude":" 35.60874","longitude":"-97.48187","name":" Sam's Club","address":" USA-United States"},{"latitude":" 28.09629","longitude":"-82.50214","name":" Sam's Club","address":" USA-United States"},{"latitude":" 37.52727","longitude":"-77.65309","name":" Sam's Club","address":" USA-United States"},{"latitude":" 41.59891","longitude":"-87.79397","name":" Sam's Club","address":" USA-United States"},{"latitude":" 39.58867","longitude":"-104.70791","name":" Sam's Club","address":" USA-United States"},{"latitude":" 27.54366","longitude":"-99.50430","name":" Sam's Club","address":" USA-United States"},{"latitude":" 29.67971","longitude":"-95.40627","name":" Sam's Club","address":" USA-United States"},{"latitude":" 41.75049","longitude":"-88.20581","name":" Sam's Club","address":" USA-United States"},{"latitude":" 35.52352","longitude":"-77.40918","name":" Sam's Club","address":" USA-United States"},{"latitude":" 27.33908","longitude":"-82.45063","name":" Sam's Club","address":" USA-United States"},{"latitude":" 36.84645","longitude":"-119.79079","name":" Sam's Club","address":" USA-United States"},{"latitude":" 42.32422","longitude":"-83.39893","name":" Sam's Club","address":" USA-United States"},{"latitude":" 34.25745","longitude":"-88.71558","name":" Sam's Club","address":" USA-United States"},{"latitude":" 43.05471","longitude":"-76.09846","name":" Sam's Club","address":" USA-United States"},{"latitude":" 43.05439","longitude":"-76.09913","name":" Sam's Club-Members Only: General Information","address":" USA-United States"},{"latitude":" 33.78814","longitude":"-116.45799","name":" Sam's Club","address":" USA-United States"},{"latitude":" 36.84173","longitude":"-76.08805","name":" Sam's Club","address":" USA-United States"},{"latitude":" 29.56309","longitude":"-98.59403","name":" Sam's Club-Members Only: General Information","address":" USA-United States"},{"latitude":" 37.98741","longitude":"-87.48801","name":" Sam's Club","address":" USA-United States"},{"latitude":" 38.49904","longitude":"-90.33607","name":" Sam's Club Members Only: Pharmacy","address":" USA-United States"},{"latitude":" 43.01112","longitude":"-83.69098","name":" Sam's Club: Pharmacy","address":" USA-United States"},{"latitude":" 39.04098","longitude":"-95.76198","name":" Sam's Club","address":" USA-United States"},{"latitude":" 39.56288","longitude":"-104.89794","name":" Sam's Club","address":" USA-United States"},{"latitude":" 43.51617","longitude":"-96.77109","name":" Sam's Club","address":" USA-United States"},{"latitude":" 30.23365","longitude":"-97.81905","name":" Sam's Club: Pharmacy","address":" USA-United States"},{"latitude":" 32.70120","longitude":"-114.59888","name":" Sam's Club","address":" USA-United States"},{"latitude":" 38.90087","longitude":"-94.52487","name":" Sam's Club Members Only: Vision Center","address":" USA-United States"},{"latitude":" 33.53226","longitude":"-86.69252","name":" Sam's Club","address":" USA-United States"},{"latitude":" 34.44847","longitude":"-118.49686","name":" Sam's Club","address":" USA-United States"},{"latitude":" 40.77688","longitude":"-82.59007","name":" Sam's Club","address":" USA-United States"},{"latitude":" 41.42080","longitude":"-82.07863","name":" Sam's Club","address":" USA-Sheffield"},{"latitude":" 36.03896","longitude":"-83.87169","name":" Sam's Club","address":" USA-United States"},{"latitude":" 40.05777","longitude":"-82.91190","name":" Sam's Club: Store Information","address":" USA-United States"},{"latitude":" 35.05045","longitude":"-89.81237","name":" Sam's Club: Pharmacy","address":" USA-United States"},{"latitude":" 34.80439","longitude":"-92.21094","name":" Sam's Club Members Only: Bakery","address":" USA-United States"},{"latitude":" 38.95624","longitude":"-94.72823","name":" Sam's Club-Members Only: Optical","address":" USA-United States"},{"latitude":" 39.09946","longitude":"-76.80535","name":" Sam's Club","address":" USA-United States"},{"latitude":" 39.97403","longitude":"-83.10281","name":" Sam's Club","address":" USA-United States"},{"latitude":" 29.89139","longitude":"-90.05874","name":" Sam's Club","address":" USA-United States"},{"latitude":" 43.20506","longitude":"-86.20288","name":" Sam's Club-Members Only: Store Information","address":" USA-United States"},{"latitude":" 33.83925","longitude":"-84.20102","name":" Sam's Club","address":" USA-United States"},{"latitude":" 36.03583","longitude":"-83.87884","name":" Sam's Club","address":" USA-United States"},{"latitude":" 36.18637","longitude":"-80.27393","name":" Sam's Club","address":" USA-United States"},{"latitude":" 28.40179","longitude":"-81.50037","name":" Sam's Club","address":" USA-United States"},{"latitude":" 40.76684","longitude":"-74.03299","name":" Sam's Club: 1-Hour Photo","address":" USA-United States"},{"latitude":" 39.71876","longitude":"-75.02278","name":" Sam's Club","address":" USA-United States"},{"latitude":" 39.63136","longitude":"-105.08881","name":" Sam's Club","address":" USA-United States"},{"latitude":" 44.82871","longitude":"-68.74018","name":" Sam's Club","address":" USA-United States"},{"latitude":" 41.41846","longitude":"-81.75651","name":" Sam's Club Members Only: Store Information","address":" USA-United States"},{"latitude":" 30.18203","longitude":"-95.45175","name":" Sam's Club","address":" USA-United States"},{"latitude":" 39.78201","longitude":"-86.12970","name":" Sam's Club","address":" USA-United States"},{"latitude":" 42.88356","longitude":"-70.88721","name":" Sam's Club","address":" USA-United States"},{"latitude":" 39.04953","longitude":"-94.36883","name":" Sam's Club","address":" USA-United States"},{"latitude":" 38.76488","longitude":"-90.28045","name":" Sam's Club","address":" USA-United States"},{"latitude":" 42.21377","longitude":"-83.20046","name":" Sam's Club","address":" USA-United States"},{"latitude":" 32.76251","longitude":"-97.17359","name":" Sam's Club: Pharmacy","address":" USA-United States"},{"latitude":" 34.00000","longitude":"-117.93072","name":" Sam's Club","address":" USA-United States"},{"latitude":" 37.51089","longitude":"-77.64286","name":" Sam's Club","address":" USA-United States"},{"latitude":" 40.26273","longitude":"-76.76864","name":" Sam's Club-Members Only: Information","address":" USA-United States"},{"latitude":" 33.00140","longitude":"-96.76789","name":" Sam's Club","address":" USA-United States"},{"latitude":" 40.07722","longitude":"-83.09166","name":" Sam's Club","address":" USA-United States"},{"latitude":" 41.28054","longitude":"-72.98386","name":" Sam's Club","address":" USA-United States"},{"latitude":" 43.26465","longitude":"-86.25641","name":" Sam's Club","address":" USA-United States"},{"latitude":" 39.19486","longitude":"-75.54865","name":" Sam's Club","address":" USA-United States"},{"latitude":" 42.44345","longitude":"-83.26365","name":" Sam's Club","address":" USA-United States"},{"latitude":" 37.73948","longitude":"-88.96592","name":" Sam's Club","address":" USA-United States"},{"latitude":" 32.74361","longitude":"-97.45160","name":" Sam's Club: Floral","address":" USA-United States"},{"latitude":" 33.94885","longitude":"-118.16215","name":" Sam's Club","address":" USA-United States"},{"latitude":" 26.27257","longitude":"-81.76990","name":" Sam's Club","address":" USA-United States"},{"latitude":" 42.89282","longitude":"-85.57292","name":" Sam's Club-Members Only: Receiving Appointments","address":" USA-United States"},{"latitude":" 41.36842","longitude":"-81.51199","name":" Sam's Club","address":" USA-United States"},{"latitude":" 33.04132","longitude":"-96.76977","name":" Sam's Club","address":" USA-United States"},{"latitude":" 21.29544","longitude":"-157.84150","name":" Sam's Club-Members Only: General Information","address":" USA-United States"},{"latitude":" 39.04312","longitude":"-95.76169","name":" Sam's Club","address":" USA-United States"},{"latitude":" 42.29904","longitude":"-71.37361","name":" Sam's Club","address":" USA-United States"},{"latitude":" 40.41254","longitude":"-86.88599","name":" Sam's Club","address":" USA-United States"},{"latitude":" 44.77236","longitude":"-91.42650","name":" Sam's Club","address":" USA-United States"},{"latitude":" 28.55197","longitude":"-81.49320","name":" Sam's Club: General Information","address":" USA-United States"},{"latitude":" 35.07657","longitude":"-80.87853","name":" Sam's Club: Store Information","address":" USA-United States"},{"latitude":" 39.01545","longitude":"-84.63604","name":" Sam's Club","address":" USA-United States"},{"latitude":" 38.95671","longitude":"-94.72734","name":" Sam's Club Members Only: Bakery","address":" USA-United States"},{"latitude":" 47.29716","longitude":"-122.24636","name":" Sam's Club","address":" USA-United States"},{"latitude":" 41.17377","longitude":"-111.99997","name":" Sam's Club","address":" USA-United States"},{"latitude":" 33.46492","longitude":"-112.26954","name":" Sam's Club","address":" USA-United States"},{"latitude":" 33.94885","longitude":"-118.16109","name":" Sam's Club","address":" USA-United States"},{"latitude":" 44.83840","longitude":"-93.15780","name":" Sam's Club","address":" USA-United States"},{"latitude":" 30.42747","longitude":"-89.08891","name":" Sam's Club","address":" USA-United States"},{"latitude":" 32.45197","longitude":"-99.73272","name":" Sam's Club","address":" USA-United States"},{"latitude":" 31.27502","longitude":"-92.45788","name":" Sam's Club","address":" USA-United States"},{"latitude":" 35.19200","longitude":"-111.62555","name":" Sam's Club","address":" USA-United States"},{"latitude":" 40.24335","longitude":"-74.29994","name":" Sam's Club: General Information","address":" USA-United States"},{"latitude":" 26.72007","longitude":"-80.06705","name":" Sam's Club: Bakery","address":" USA-United States"},{"latitude":" 26.75977","longitude":"-80.10675","name":" Sam's Club: Store Information","address":" USA-United States"},{"latitude":" 44.24313","longitude":"-88.35920","name":" Sam's Club","address":" USA-United States"},{"latitude":" 39.41068","longitude":"-76.76782","name":" Sam's Club","address":" USA-United States"},{"latitude":" 33.10937","longitude":"-96.80115","name":" Sam's Club","address":" USA-United States"},{"latitude":" 31.61801","longitude":"-84.21307","name":" Sam's Club","address":" USA-United States"},{"latitude":" 47.31868","longitude":"-122.27892","name":" Sam's Club: Receiving Appointments","address":" USA-United States"},{"latitude":" 37.85419","longitude":"-122.28839","name":" Sam's 58 Club","address":" USA-United States"},{"latitude":" 36.15261","longitude":"-95.99338","name":" Sam's Club-Members Only: 1-Hour Photo","address":" USA-United States"},{"latitude":" 34.07338","longitude":"-117.55780","name":" Sam's Club Members Only","address":" USA-United States"},{"latitude":" 42.02283","longitude":"-87.92342","name":" Sam's Club","address":" USA-United States"},{"latitude":" 38.95069","longitude":"-92.29378","name":" Sam's Club","address":" USA-United States"},{"latitude":" 35.35162","longitude":"-94.34811","name":" Sam's Club","address":" USA-United States"},{"latitude":" 36.05599","longitude":"-79.89677","name":" Sam's Club","address":" USA-United States"},{"latitude":" 32.84064","longitude":"-97.24948","name":" Sam's Club: General Information","address":" USA-United States"},{"latitude":" 29.73504","longitude":"-95.51402","name":" Sam's Club","address":" USA-United States"},{"latitude":" 39.84879","longitude":"-84.19212","name":" Sam's Club: 1-Hour Photo","address":" USA-United States"},{"latitude":" 41.75498","longitude":"-88.03119","name":" Sam's Club-Members Only: Store Information","address":" USA-United States"},{"latitude":" 40.00606","longitude":"-74.97610","name":" Sam's Club","address":" USA-United States"},{"latitude":" 32.86821","longitude":"-96.91099","name":" Sam's Club","address":" USA-United States"},{"latitude":" 40.05768","longitude":"-82.90879","name":" Sam's Club","address":" USA-United States"},{"latitude":" 30.02075","longitude":"-95.38208","name":" Sam's Club","address":" USA-United States"},{"latitude":" 38.56784","longitude":"-90.39670","name":" Sam's Club","address":" USA-United States"},{"latitude":" 47.88938","longitude":"-97.06266","name":" Sam's Club","address":" USA-United States"},{"latitude":" 33.43582","longitude":"-112.01926","name":" Sam's Club","address":" USA-United States"},{"latitude":" 33.37223","longitude":"-111.79007","name":" Sam's Club Members Only: Pharmacy","address":" USA-United States"},{"latitude":" 32.05346","longitude":"-81.14295","name":" Sam's Club","address":" USA-United States"},{"latitude":" 39.09235","longitude":"-84.26252","name":" Sam's Club","address":" USA-United States"},{"latitude":" 38.59691","longitude":"-90.47325","name":" Sam's Club","address":" USA-United States"},{"latitude":" 29.97527","longitude":"-90.17004","name":" Sam's Club","address":" USA-United States"},{"latitude":" 40.52154","longitude":"-105.06491","name":" Sam's Club: Receiving Appointments","address":" USA-United States"},{"latitude":" 41.64322","longitude":"-72.73219","name":" Sam's Club","address":" USA-United States"},{"latitude":" 38.76695","longitude":"-90.28043","name":" Sam's Club-Members Only: General Information","address":" USA-United States"},{"latitude":" 44.81929","longitude":"-93.07409","name":" Sam's Club","address":" USA-United States"},{"latitude":" 42.19813","longitude":"-85.55836","name":" Sam's Club","address":" USA-United States"},{"latitude":" 33.63186","longitude":"-112.09436","name":" Sam's Club","address":" USA-United States"},{"latitude":" 33.17117","longitude":"-117.22231","name":" Sam's Club Optical Center","address":" USA-United States"},{"latitude":" 33.77989","longitude":"-117.99291","name":" Sam's Club Members Only: Bakery","address":" USA-United States"},{"latitude":" 33.85929","longitude":"-117.59693","name":" Sam's Club","address":" USA-United States"},{"latitude":" 39.76496","longitude":"-86.26030","name":" Sam's Club Pharmacy","address":" USA-United States"},{"latitude":" 40.52332","longitude":"-105.06514","name":" Sam's Club","address":" USA-United States"},{"latitude":" 32.53269","longitude":"-92.10489","name":" Sam's Club","address":" USA-United States"},{"latitude":" 40.44814","longitude":"-80.17771","name":" Sam's Club Pharmacy","address":" USA-United States"},{"latitude":" 39.10191","longitude":"-76.80332","name":" Sam's Club","address":" USA-United States"},{"latitude":" 43.21539","longitude":"-77.72953","name":" Sam's Club","address":" USA-United States"},{"latitude":" 29.99806","longitude":"-95.42183","name":" Sam's Club","address":" USA-United States"},{"latitude":" 40.83087","longitude":"-77.80478","name":" Sam's Club","address":" USA-United States"},{"latitude":" 35.23090","longitude":"-80.84232","name":" Sam's Club: Pharmacy","address":" USA-United States"},{"latitude":" 30.19702","longitude":"-81.74643","name":" Sam's Club: Bakery","address":" USA-United States"},{"latitude":" 43.22318","longitude":"-71.48111","name":" Sam's Club","address":" USA-United States"},{"latitude":" 31.77675","longitude":"-106.38786","name":" Sam's Club","address":" USA-United States"},{"latitude":" 34.22673","longitude":"-119.18138","name":" Sam's Club: Pharmacy","address":" USA-United States"},{"latitude":" 39.12018","longitude":"-86.53973","name":" Sam's Club","address":" USA-United States"},{"latitude":" 33.83994","longitude":"-84.20091","name":" Sam's Club","address":" USA-United States"},{"latitude":" 41.75102","longitude":"-88.03127","name":" Sam's Club","address":" USA-United States"},{"latitude":" 41.76757","longitude":"-72.52873","name":" Sam's Club-Members Only: 1-Hour Photo","address":" USA-United States"},{"latitude":" 43.15577","longitude":"-88.00668","name":" Sam's Club Floral","address":" USA-United States"},{"latitude":" 30.47185","longitude":"-91.10941","name":" Sam's Club","address":" USA-United States"},{"latitude":" 41.14631","longitude":"-81.63718","name":" Sam's Club Members Only: Vision Center","address":" USA-United States"},{"latitude":" 35.13750","longitude":"-106.61586","name":" Sam's Club Members Only: Wal-Mart Connect Center","address":" USA-United States"},{"latitude":" 35.08167","longitude":"-78.95439","name":" Sam's Club","address":" USA-United States"},{"latitude":" 40.30404","longitude":"-74.67693","name":" Sam's Club Members Only: Floral Shop","address":" USA-United States"},{"latitude":" 33.56926","longitude":"-117.15081","name":" Sam's Club","address":" USA-United States"},{"latitude":" 41.22751","longitude":"-95.84749","name":" Sam's Club-Members Only: Store Information","address":" USA-United States"},{"latitude":" 27.39130","longitude":"-80.32583","name":" Sam's Club","address":" USA-United States"},{"latitude":" 35.02726","longitude":"-85.19060","name":" Sam's Club","address":" USA-United States"},{"latitude":" 40.20093","longitude":"-76.96183","name":" Sam's Club Members Only: Bakery","address":" USA-United States"},{"latitude":" 40.00248","longitude":"-82.84423","name":" Sam's Club","address":" USA-United States"},{"latitude":" 30.33344","longitude":"-95.48306","name":" Sam's Club","address":" USA-United States"},{"latitude":" 34.04406","longitude":"-117.75552","name":" Sam's Club","address":" USA-United States"},{"latitude":" 39.61575","longitude":"-84.16269","name":" Sam's Club","address":" USA-United States"},{"latitude":" 40.58017","longitude":"-105.10240","name":" Sam's Club: Bakery","address":" USA-United States"},{"latitude":" 38.54614","longitude":"-121.37890","name":" Sam's Club","address":" USA-United States"},{"latitude":" 42.38997","longitude":"-85.21506","name":" Sam's Club","address":" USA-United States"},{"latitude":" 42.48633","longitude":"-83.28662","name":" Sam's Club","address":" USA-United States"},{"latitude":" 33.99865","longitude":"-117.71933","name":" Sam's Club Members Only: Store Information","address":" USA-United States"},{"latitude":" 36.10393","longitude":"-80.22465","name":" Sam's Club: Pharmacy","address":" USA-United States"},{"latitude":" 33.85250","longitude":"-118.14607","name":" Sam's Club Members Only: Pharmacy","address":" USA-United States"},{"latitude":" 33.71350","longitude":"-117.95449","name":" Sam's Club","address":" USA-United States"},{"latitude":" 42.84088","longitude":"-106.36676","name":" Sam's Club","address":" USA-United States"},{"latitude":" 29.53678","longitude":"-95.16995","name":" Sam's Club","address":" USA-United States"},{"latitude":" 32.96172","longitude":"-96.64677","name":" Sam's Club Members Only: Store Information","address":" USA-United States"},{"latitude":" 40.08536","longitude":"-74.95933","name":" Sam's Club: Optometrist","address":" USA-United States"},{"latitude":" 42.50485","longitude":"-83.10020","name":" Sam's Club Members Only: Bakery","address":" USA-United States"},{"latitude":" 40.79133","longitude":"-74.04010","name":" Sam's Club","address":" USA-United States"},{"latitude":" 33.69955","longitude":"-117.83534","name":" Sam's Club","address":" USA-United States"},{"latitude":" 36.08647","longitude":"-86.69143","name":" Sam's Club","address":" USA-United States"},{"latitude":" 26.56526","longitude":"-80.06652","name":" Sam's Club: Store Information","address":" USA-United States"},{"latitude":" 39.40719","longitude":"-76.76246","name":" Sam's Club","address":" USA-United States"},{"latitude":" 36.02053","longitude":"-115.12611","name":" Sam's Club: 1-Hour Photo","address":" USA-United States"},{"latitude":" 41.79901","longitude":"-71.33011","name":" Sam's Club","address":" USA-United States"},{"latitude":" 30.28670","longitude":"-81.53927","name":" Sam's Club","address":" USA-United States"},{"latitude":" 30.03473","longitude":"-95.25566","name":" Sam's Club: Sugar Land","address":" USA-United States"},{"latitude":" 35.20323","longitude":"-101.84205","name":" Sam's Club: Bakery","address":" USA-United States"},{"latitude":" 36.06425","longitude":"-80.31182","name":" Sam's Club","address":" USA-United States"},{"latitude":" 35.07838","longitude":"-78.88451","name":" Sam's Club: 1-Hour Photo","address":" USA-United States"},{"latitude":" 37.31865","longitude":"-79.96388","name":" Sam's Club","address":" USA-United States"},{"latitude":" 26.75988","longitude":"-80.10822","name":" Sam's Club","address":" USA-United States"},{"latitude":" 38.76762","longitude":"-90.28049","name":" Sam's Club","address":" USA-United States"},{"latitude":" 36.58260","longitude":"-82.49441","name":" Sam's Club","address":" USA-United States"},{"latitude":" 21.40801","longitude":"-157.96043","name":" Sam's Club-Members Only: Bakery","address":" USA-United States"},{"latitude":" 29.65613","longitude":"-95.64679","name":" Sam's Club","address":" USA-United States"},{"latitude":" 44.83728","longitude":"-93.27603","name":" Sam's Club","address":" USA-United States"},{"latitude":" 33.37408","longitude":"-111.78993","name":" Sam's Club Members Only-Pharmacy","address":" USA-United States"},{"latitude":" 33.75668","longitude":"-84.39052","name":" Sam's Club: Bakery","address":" USA-United States"},{"latitude":" 42.70190","longitude":"-73.81616","name":" Sam's Club","address":" USA-United States"},{"latitude":" 42.01428","longitude":"-88.14467","name":" Sam's Club","address":" USA-United States"},{"latitude":" 35.84756","longitude":"-86.44009","name":" Sam's Club: Store Information","address":" USA-United States"},{"latitude":" 42.29895","longitude":"-71.39319","name":" Sam's Club","address":" USA-United States"},{"latitude":" 44.52395","longitude":"-88.09228","name":" Sam's Club","address":" USA-United States"},{"latitude":" 29.55528","longitude":"-95.15141","name":" Sam's Club","address":" USA-United States"},{"latitude":" 40.40734","longitude":"-105.06018","name":" Sam's Club Vision Center","address":" USA-United States"},{"latitude":" 36.18761","longitude":"-80.27396","name":" Sam's Club","address":" USA-United States"},{"latitude":" 33.55640","longitude":"-117.17611","name":" Sam's Club","address":" USA-United States"},{"latitude":" 27.89024","longitude":"-82.50657","name":" Sam's Club Members Only: Bakery","address":" USA-United States"},{"latitude":" 39.08113","longitude":"-108.58204","name":" Sam's Club","address":" USA-United States"},{"latitude":" 43.19014","longitude":"-76.19669","name":" Sam's Club","address":" USA-United States"},{"latitude":" 29.56124","longitude":"-98.61166","name":" Sam's Club","address":" USA-United States"},{"latitude":" 39.15132","longitude":"-77.21101","name":" Sam's Club","address":" USA-United States"},{"latitude":" 32.68713","longitude":"-97.41348","name":" Sam's Club: General Information","address":" USA-United States"},{"latitude":" 42.15063","longitude":"-87.95322","name":" Sam's Club: Wheeling","address":" USA-United States"},{"latitude":" 39.98316","longitude":"-83.15111","name":" Sam's Club: General Information","address":" USA-United States"},{"latitude":" 38.64435","longitude":"-121.19104","name":" Sam's Club","address":" USA-United States"},{"latitude":" 41.16036","longitude":"-104.79550","name":" Sam's Club","address":" USA-United States"},{"latitude":" 38.36335","longitude":"-121.95863","name":" Sam's Club","address":" USA-United States"},{"latitude":" 41.94784","longitude":"-88.03183","name":" Sam's Club-Members Only: Addison","address":" USA-United States"},{"latitude":" 45.54958","longitude":"-94.20086","name":" Sam's Club","address":" USA-United States"},{"latitude":" 39.77179","longitude":"-84.06055","name":" Sam's Club","address":" USA-United States"},{"latitude":" 40.35032","longitude":"-79.92589","name":" Sam's Club","address":" USA-United States"},{"latitude":" 40.91126","longitude":"-81.46099","name":" Sam's Club","address":" USA-United States"},{"latitude":" 39.15034","longitude":"-77.20933","name":" Sam's Club","address":" USA-United States"},{"latitude":" 39.83380","longitude":"-75.10144","name":" Sam's Club","address":" USA-United States"},{"latitude":" 39.61752","longitude":"-86.18425","name":" Sam's Club","address":" USA-United States"},{"latitude":" 42.53443","longitude":"-83.09833","name":" Sam's Club","address":" USA-United States"},{"latitude":" 41.07192","longitude":"-111.98464","name":" Sam's Club","address":" USA-United States"},{"latitude":" 30.22906","longitude":"-93.21649","name":" Sam's Club","address":" USA-United States"},{"latitude":" 41.41837","longitude":"-81.75773","name":" Sam's Club Members Only: Pharmacy","address":" USA-United States"},{"latitude":" 39.48036","longitude":"-119.79336","name":" Sam's Club","address":" USA-United States"},{"latitude":" 40.16173","longitude":"-75.11149","name":" Sam's Club","address":" USA-United States"},{"latitude":" 38.32107","longitude":"-81.71693","name":" Sam's Club","address":" USA-United States"},{"latitude":" 42.29533","longitude":"-71.79541","name":" Sam's Club","address":" USA-United States"},{"latitude":" 36.08625","longitude":"-79.22638","name":" Sam's Video Club","address":" USA-United States"},{"latitude":" 42.66416","longitude":"-84.54490","name":" Sam's Club","address":" USA-United States"},{"latitude":" 31.89388","longitude":"-102.33396","name":" Sam's Club","address":" USA-United States"},{"latitude":" 45.14825","longitude":"-93.50049","name":" Sam's Club","address":" USA-United States"},{"latitude":" 39.28745","longitude":"-84.45590","name":" Sam's Club","address":" USA-United States"},{"latitude":" 41.11885","longitude":"-81.47046","name":" Sam's Club","address":" USA-United States"},{"latitude":" 33.95644","longitude":"-84.14107","name":" Sam's Club","address":" USA-United States"},{"latitude":" 32.66821","longitude":"-97.29879","name":" Sam's Club","address":" USA-United States"},{"latitude":" 39.70735","longitude":"-104.98762","name":" Sam's Club","address":" USA-United States"},{"latitude":" 25.93308","longitude":"-97.51530","name":" Sam's Club: Connection Center","address":" USA-United States"},{"latitude":" 61.14457","longitude":"-149.86719","name":" Sam's Club: Round Table Pizza","address":" USA-United States"},{"latitude":" 44.93539","longitude":"-93.36823","name":" Sam's Club","address":" USA-United States"},{"latitude":" 40.02649","longitude":"-74.93372","name":" Sam's Club","address":" USA-United States"},{"latitude":" 44.98488","longitude":"-93.26966","name":" Sam's Club-Members Only: Pharmacy","address":" USA-United States"},{"latitude":" 33.45136","longitude":"-112.34099","name":" Sam's Club","address":" USA-United States"},{"latitude":" 33.78039","longitude":"-117.99274","name":" Sam's Club Members Only: Store Information","address":" USA-United States"},{"latitude":" 40.54344","longitude":"-80.01493","name":" Sam's Club","address":" USA-United States"},{"latitude":" 38.49839","longitude":"-90.33747","name":" Sam's Club","address":" USA-United States"},{"latitude":" 39.09307","longitude":"-84.26559","name":" Sam's Club","address":" USA-United States"},{"latitude":" 30.00498","longitude":"-95.27825","name":" Sam's Club","address":" USA-United States"},{"latitude":" 42.21110","longitude":"-83.67946","name":" Sam's Club","address":" USA-United States"},{"latitude":" 33.59185","longitude":"-101.93151","name":" Sam's Club","address":" USA-United States"},{"latitude":" 39.96206","longitude":"-105.16409","name":" Sam's Club","address":" USA-United States"},{"latitude":" 36.16724","longitude":"-94.14152","name":" Sam's Club","address":" USA-United States"},{"latitude":" 42.22260","longitude":"-87.93894","name":" Sam's Club","address":" USA-United States"},{"latitude":" 34.80743","longitude":"-86.57184","name":" Sam's Club","address":" USA-United States"},{"latitude":" 42.37753","longitude":"-87.93575","name":" Sam's Club","address":" USA-United States"},{"latitude":" 43.01427","longitude":"-88.04659","name":" Sam's Club-Members Only: West Allis","address":" USA-United States"},{"latitude":" 33.44603","longitude":"-86.82532","name":" Sam's Club","address":" USA-United States"},{"latitude":" 41.58297","longitude":"-81.48456","name":" Sam's Club Members Only: Willoughby Hills Club","address":" USA-United States"},{"latitude":" 29.77668","longitude":"-95.60269","name":" Sam's Club","address":" USA-United States"},{"latitude":" 36.06352","longitude":"-95.86853","name":" Sam's Club Membership Warehouse: Floral","address":" USA-United States"},{"latitude":" 36.12567","longitude":"-115.24916","name":" Sam's Club: General Information","address":" USA-United States"},{"latitude":" 30.24650","longitude":"-97.84647","name":" Sam's Club","address":" USA-United States"},{"latitude":" 45.03965","longitude":"-93.02486","name":" Sam's Club","address":" USA-United States"},{"latitude":" 42.00106","longitude":"-93.61381","name":" Sam's Club","address":" USA-United States"},{"latitude":" 47.29642","longitude":"-122.24525","name":" Sam's Club","address":" USA-United States"},{"latitude":" 42.62970","longitude":"-83.00916","name":" Sam's Club","address":" USA-United States"},{"latitude":" 30.29242","longitude":"-81.60132","name":" Sam's Club","address":" USA-United States"},{"latitude":" 33.70533","longitude":"-84.37881","name":" Sam's Club: Bakery","address":" USA-United States"},{"latitude":" 29.78561","longitude":"-95.64545","name":" Sam's Club Members Only: Pharmacy","address":" USA-United States"},{"latitude":" 32.87141","longitude":"-96.76296","name":" Sam's Club Members Only: General Information","address":" USA-United States"},{"latitude":" 36.03510","longitude":"-83.87882","name":" Sam's Club","address":" USA-United States"},{"latitude":" 39.77568","longitude":"-85.97349","name":" Sam's Club","address":" USA-United States"},{"latitude":" 32.79247","longitude":"-96.68868","name":" Sam's Club Members Only: Bakery","address":" USA-United States"},{"latitude":" 41.84736","longitude":"-87.75935","name":" Sam's Club: Pharmacy","address":" USA-United States"},{"latitude":" 40.13743","longitude":"-88.25810","name":" Sam's Club","address":" USA-United States"},{"latitude":" 27.54308","longitude":"-99.50380","name":" Sam's Club","address":" USA-United States"},{"latitude":" 39.77119","longitude":"-84.05808","name":" Sam's Club","address":" USA-United States"},{"latitude":" 35.20883","longitude":"-106.65857","name":" Sam's Club","address":" USA-United States"},{"latitude":" 33.62400","longitude":"-111.89532","name":" Sam's Club Members Only: Store Information","address":" USA-United States"},{"latitude":" 27.44215","longitude":"-82.50816","name":" Sam's Club","address":" USA-United States"},{"latitude":" 41.04577","longitude":"-81.52154","name":" Sam's Club Members Only: Vision Center","address":" USA-United States"},{"latitude":" 34.93469","longitude":"-82.00067","name":" Sam's Club","address":" USA-United States"},{"latitude":" 44.73296","longitude":"-93.20219","name":" Sam's Club Members Only: White Bear Lake","address":" USA-United States"},{"latitude":" 42.78031","longitude":"-83.03788","name":" Sam's Club","address":" USA-United States"},{"latitude":" 29.78280","longitude":"-95.64497","name":" Sam's Club","address":" USA-United States"},{"latitude":" 34.83885","longitude":"-87.68211","name":" Sam's Club","address":" USA-United States"},{"latitude":" 39.63126","longitude":"-77.76102","name":" Sam's Club","address":" USA-United States"},{"latitude":" 39.26079","longitude":"-76.60891","name":" Sam's Club","address":" USA-United States"},{"latitude":" 32.78766","longitude":"-97.21564","name":" Sam's Club","address":" USA-United States"},{"latitude":" 38.32066","longitude":"-104.61637","name":" Sam's Club","address":" USA-United States"},{"latitude":" 34.06628","longitude":"-117.26898","name":" Sam's Club","address":" USA-United States"},{"latitude":" 40.83527","longitude":"-96.68225","name":" Sam's Club","address":" USA-United States"},{"latitude":" 32.95427","longitude":"-96.84090","name":" Sam's Club Members Only: General Information","address":" USA-United States"},{"latitude":" 40.43427","longitude":"-74.37976","name":" Sam's Club","address":" USA-United States"},{"latitude":" 43.10718","longitude":"-78.99969","name":" Sam's Club-Members Only","address":" USA-United States"},{"latitude":" 30.38990","longitude":"-97.74422","name":" Sam's Club","address":" USA-United States"},{"latitude":" 42.13538","longitude":"-76.96558","name":" Sam's Club","address":" USA-United States"},{"latitude":" 38.64579","longitude":"-76.89030","name":" Sam's Club","address":" USA-United States"},{"latitude":" 38.89447","longitude":"-94.53729","name":" Sam's Club","address":" USA-United States"},{"latitude":" 32.87213","longitude":"-96.69714","name":" Sam's Club","address":" USA-United States"},{"latitude":" 34.60809","longitude":"-118.14766","name":" Sam's Club","address":" USA-United States"},{"latitude":" 28.87728","longitude":"-96.99693","name":" Sam's Club","address":" USA-United States"},{"latitude":" 38.75161","longitude":"-90.29904","name":" Sam's Club-Members Only: Bakery","address":" USA-United States"},{"latitude":" 32.86584","longitude":"-97.10237","name":" Sam's Club","address":" USA-United States"},{"latitude":" 33.55577","longitude":"-101.94216","name":" Sam's Club","address":" USA-United States"},{"latitude":" 26.14540","longitude":"-80.32645","name":" Sam's Club","address":" USA-United States"},{"latitude":" 28.56841","longitude":"-81.28348","name":" Sam's Club: General Information","address":" USA-United States"},{"latitude":" 61.14101","longitude":"-149.86411","name":" Sam's Club: 1-Hour Photo","address":" USA-United States"},{"latitude":" 28.66162","longitude":"-81.34308","name":" Sam's Club","address":" USA-United States"},{"latitude":" 42.70254","longitude":"-87.85679","name":" Sam's Club","address":" USA-United States"},{"latitude":" 41.75686","longitude":"-88.20584","name":" Sam's Club","address":" USA-United States"},{"latitude":" 33.91490","longitude":"-117.96986","name":" Sam's Club Members Only: Store Information","address":" USA-United States"},{"latitude":" 40.05760","longitude":"-82.91097","name":" Sam's Club: Pharmacy","address":" USA-United States"},{"latitude":" 40.26023","longitude":"-76.88432","name":" Sam's Club-Members Only: Receiving Appointments","address":" USA-United States"},{"latitude":" 41.21604","longitude":"-96.09713","name":" Sam's Club","address":" USA-United States"},{"latitude":" 42.01478","longitude":"-88.14480","name":" Sam's Club","address":" USA-United States"},{"latitude":" 35.04725","longitude":"-85.31603","name":" Sam's Club: Bakery","address":" USA-United States"},{"latitude":" 41.03383","longitude":"-80.63462","name":" Sam's Club","address":" USA-United States"},{"latitude":" 38.82229","longitude":"-104.75718","name":" Sam's Club","address":" USA-United States"},{"latitude":" 34.75818","longitude":"-77.38163","name":" Sam's Club","address":" USA-United States"},{"latitude":" 42.92403","longitude":"-87.94975","name":" Sam's Club-Members Only: Franklin","address":" USA-United States"},{"latitude":" 29.35726","longitude":"-98.54892","name":" Sam's Club-Members Only: Pharmacy","address":" USA-United States"},{"latitude":" 64.85163","longitude":"-147.70792","name":" Sam's Club","address":" USA-United States"},{"latitude":" 29.89205","longitude":"-90.05847","name":" Sam's Club: Vision Center","address":" USA-United States"},{"latitude":" 35.05062","longitude":"-89.81442","name":" Sam's Club: Store Information","address":" USA-United States"},{"latitude":" 41.86174","longitude":"-88.34042","name":" Sam's Club Members Only: Bakery","address":" USA-United States"},{"latitude":" 40.71431","longitude":"-75.28505","name":" Sam's Club","address":" USA-United States"},{"latitude":" 41.50045","longitude":"-87.73232","name":" Sam's Club","address":" USA-United States"},{"latitude":" 35.13420","longitude":"-80.71038","name":" Sam's Club","address":" USA-United States"},{"latitude":" 30.43008","longitude":"-81.65041","name":" Sam's Club: Connection Center","address":" USA-United States"},{"latitude":" 33.52916","longitude":"-86.68227","name":" Sam's Club: Bakery","address":" USA-United States"},{"latitude":" 41.21240","longitude":"-96.11808","name":" Sam's Club","address":" USA-United States"},{"latitude":" 38.61045","longitude":"-121.38763","name":" Sam's Club","address":" USA-United States"},{"latitude":" 37.12500","longitude":"-76.50958","name":" Sam's Club","address":" USA-United States"},{"latitude":" 29.18549","longitude":"-81.00378","name":" Sam's Club","address":" USA-United States"},{"latitude":" 40.26323","longitude":"-76.76199","name":" Sam's Club","address":" USA-United States"},{"latitude":" 41.86061","longitude":"-88.34023","name":" Sam's Club","address":" USA-United States"},{"latitude":" 38.73940","longitude":"-121.25785","name":" Sam's Club: Optometrist","address":" USA-United States"},{"latitude":" 38.67834","longitude":"-121.29469","name":" Sam's Club: Members Only","address":" USA-United States"},{"latitude":" 47.29807","longitude":"-122.24492","name":" Sam's Club","address":" USA-United States"},{"latitude":" 33.19883","longitude":"-117.25720","name":" Sam's Club: 1-Hour Photo","address":" USA-United States"},{"latitude":" 32.95413","longitude":"-96.84150","name":" Sam's Club Members Only-Bakery","address":" USA-United States"},{"latitude":" 37.43035","longitude":"-77.64824","name":" Sam's Club-Members Only: Bakery","address":" USA-United States"},{"latitude":" 38.10035","longitude":"-78.46387","name":" Sam's Club","address":" USA-United States"},{"latitude":" 31.74815","longitude":"-106.31597","name":" Sam's Club","address":" USA-United States"},{"latitude":" 33.84091","longitude":"-84.31340","name":" Sam's Club: Vision Center","address":" USA-United States"},{"latitude":" 32.92533","longitude":"-96.83653","name":" Sam's Club","address":" USA-United States"},{"latitude":" 33.76989","longitude":"-118.18366","name":" Sam's Club Members Only","address":" USA-United States"},{"latitude":" 35.08298","longitude":"-89.93139","name":" Sam's Club: Pharmacy","address":" USA-United States"},{"latitude":" 36.10646","longitude":"-86.92351","name":" Sam's Club","address":" USA-United States"},{"latitude":" 41.25247","longitude":"-76.83387","name":" Sam's Club","address":" USA-United States"},{"latitude":" 33.46802","longitude":"-94.06805","name":" Sam's Club","address":" USA-United States"},{"latitude":" 29.67866","longitude":"-95.40242","name":" Sam's Club Members Only: Optical","address":" USA-United States"},{"latitude":" 39.02434","longitude":"-77.42880","name":" Sam's Club","address":" USA-United States"},{"latitude":" 30.66732","longitude":"-88.12790","name":" Sam's Club","address":" USA-United States"},{"latitude":" 33.93569","longitude":"-117.28653","name":" Sam's Club Members Only: Store Information","address":" USA-United States"},{"latitude":" 43.61768","longitude":"-79.54163","name":" Sam's Club","address":" USA-United States"},{"latitude":" 40.92255","longitude":"-98.38452","name":" Sam's Club","address":" USA-United States"},{"latitude":" 39.63011","longitude":"-105.08169","name":" Sam's Club","address":" USA-United States"},{"latitude":" 39.42044","longitude":"-87.41599","name":" Sam's Club","address":" USA-United States"},{"latitude":" 33.05635","longitude":"-96.68527","name":" Sam's Club","address":" USA-United States"},{"latitude":" 43.04101","longitude":"-76.14642","name":" Sam's Club-Members Only: Receiving Appointments","address":" USA-United States"},{"latitude":" 27.45165","longitude":"-82.52568","name":" Sam's Club","address":" USA-United States"},{"latitude":" 43.16161","longitude":"-77.60570","name":" Sam's Club: Pharmacy","address":" USA-United States"},{"latitude":" 36.05570","longitude":"-79.89924","name":" Sam's Club: Bakery","address":" USA-United States"},{"latitude":" 38.59241","longitude":"-89.93353","name":" Sam's Club","address":" USA-United States"},{"latitude":" 36.08608","longitude":"-86.69112","name":" Sam's Club: General Information","address":" USA-United States"},{"latitude":" 35.13504","longitude":"-80.70854","name":" Sam's Club","address":" USA-United States"},{"latitude":" 33.49460","longitude":"-112.03869","name":" Sam's Club","address":" USA-United States"},{"latitude":" 41.61815","longitude":"-85.89320","name":" Sam's Club","address":" USA-United States"},{"latitude":" 34.07654","longitude":"-117.55817","name":" Sam's Club","address":" USA-United States"},{"latitude":" 33.32412","longitude":"-111.87636","name":" Sam's Club","address":" USA-United States"},{"latitude":" 29.96124","longitude":"-95.54707","name":" Sam's Club","address":" USA-United States"},{"latitude":" 29.56425","longitude":"-98.58820","name":" Sam's Club","address":" USA-United States"},{"latitude":" 31.14020","longitude":"-97.33368","name":" Sam's Club","address":" USA-United States"},{"latitude":" 30.19648","longitude":"-81.74425","name":" Sam's Club: Store Information","address":" USA-United States"},{"latitude":" 32.75778","longitude":"-97.42828","name":" Sam's Club: Pharmacy","address":" USA-United States"},{"latitude":" 45.12486","longitude":"-93.49232","name":" Sam's Club","address":" USA-United States"},{"latitude":" 36.10795","longitude":"-86.92239","name":" Sam's Club","address":" USA-United States"},{"latitude":" 42.38541","longitude":"-87.96552","name":" Sam's Club","address":" USA-United States"},{"latitude":" 39.96386","longitude":"-83.12294","name":" Sam's Club","address":" USA-United States"},{"latitude":" 32.76357","longitude":"-97.17052","name":" Sam's Club","address":" USA-United States"},{"latitude":" 42.21350","longitude":"-83.21522","name":" Sam's Club","address":" USA-United States"},{"latitude":" 33.46377","longitude":"-84.21508","name":" Sam's Club","address":" USA-United States"},{"latitude":" 44.84740","longitude":"-93.14990","name":" Sam's Club Members Only","address":" USA-United States"},{"latitude":" 33.99534","longitude":"-117.91599","name":" Sam's Club","address":" USA-United States"},{"latitude":" 39.29364","longitude":"-76.62389","name":" Sam's Club Member's Only: Vision Center","address":" USA-United States"},{"latitude":" 38.21880","longitude":"-85.53556","name":" Sam's Club: Bakery","address":" USA-United States"},{"latitude":" 34.72567","longitude":"-86.56615","name":" Sam's Club: Pharmacy","address":" USA-United States"},{"latitude":" 41.93221","longitude":"-88.03215","name":" Sam's Club","address":" USA-United States"},{"latitude":" 30.82296","longitude":"-83.31682","name":" Sam's Club","address":" USA-United States"},{"latitude":" 39.79097","longitude":"-105.07887","name":" Sam's Club","address":" USA-United States"},{"latitude":" 39.62979","longitude":"-105.08720","name":" Sam's Club: Vision Center","address":" USA-United States"},{"latitude":" 41.61784","longitude":"-83.69440","name":" Sam's Club","address":" USA-United States"},{"latitude":" 32.39598","longitude":"-90.14362","name":" Sam's Club","address":" USA-United States"},{"latitude":" 45.03934","longitude":"-93.01860","name":" Sam's Club Members Only: Store","address":" USA-United States"},{"latitude":" 29.41118","longitude":"-95.04171","name":" Sam's Club","address":" USA-United States"},{"latitude":" 41.21299","longitude":"-73.07828","name":" Sam's Club Pharmacy","address":" USA-United States"},{"latitude":" 33.28582","longitude":"-111.84145","name":" Sam's Club Members Only","address":" USA-United States"},{"latitude":" 36.76913","longitude":"-76.24841","name":" Sam's Club","address":" USA-United States"},{"latitude":" 41.72265","longitude":"-87.68211","name":" Sam's Club","address":" USA-United States"},{"latitude":" 32.71148","longitude":"-97.04531","name":" Sam's Club Members Only: Floral","address":" USA-United States"},{"latitude":" 25.96513","longitude":"-97.53919","name":" Sam's Club","address":" USA-United States"},{"latitude":" 40.02220","longitude":"-75.63060","name":" Sam's Club","address":" USA-United States"},{"latitude":" 35.20513","longitude":"-101.84396","name":" Sam's Club: Pharmacy","address":" USA-United States"},{"latitude":" 36.09942","longitude":"-95.90463","name":" Sam's Club Members Only: Pharmacy","address":" USA-United States"},{"latitude":" 33.65151","longitude":"-112.23825","name":" Sam's Club","address":" USA-United States"},{"latitude":" 40.31272","longitude":"-74.65420","name":" Sam's Club","address":" USA-United States"},{"latitude":" 40.08181","longitude":"-74.96105","name":" Sam's Club","address":" USA-United States"},{"latitude":" 21.39471","longitude":"-157.97234","name":" Sam's Club-Members Only","address":" USA-United States"},{"latitude":" 30.46094","longitude":"-86.63831","name":" Sam's Club","address":" USA-United States"},{"latitude":" 25.93551","longitude":"-97.49836","name":" Sam's Club","address":" USA-United States"},{"latitude":" 33.45772","longitude":"-112.07892","name":" Sam's Club Members Only: Bakery","address":" USA-United States"},{"latitude":" 33.93373","longitude":"-117.28617","name":" Sam's Club","address":" USA-United States"},{"latitude":" 43.15586","longitude":"-88.00828","name":" Sam's Club","address":" USA-United States"},{"latitude":" 32.86860","longitude":"-96.91241","name":" Sam's Club Members Only: Bakery","address":" USA-United States"},{"latitude":" 40.01588","longitude":"-74.95438","name":" Sam's Club","address":" USA-United States"},{"latitude":" 40.41290","longitude":"-75.92366","name":" Sam's Club","address":" USA-United States"},{"latitude":" 41.61970","longitude":"-83.72724","name":" Sam's Wholesale Club: Wal-Mart Connection Center","address":" USA-United States"},{"latitude":" 27.51980","longitude":"-99.50062","name":" Sam's Club: Connection Center","address":" USA-United States"},{"latitude":" 33.55527","longitude":"-84.34673","name":" Sam's Club","address":" USA-United States"},{"latitude":" 32.86785","longitude":"-96.67443","name":" Sam's Club Members Only: Optical","address":" USA-United States"},{"latitude":" 33.69789","longitude":"-117.83391","name":" Sam's Club: General Information -Recording","address":" USA-United States"},{"latitude":" 38.32354","longitude":"-85.76910","name":" Sam's Club Members Only: Pharmacy","address":" USA-United States"},{"latitude":" 32.74587","longitude":"-97.45143","name":" Sam's Club","address":" USA-United States"},{"latitude":" 33.84190","longitude":"-117.60386","name":" Sam's Club","address":" USA-United States"},{"latitude":" 32.92959","longitude":"-97.09492","name":" Sam's Club: Store Information","address":" USA-United States"},{"latitude":" 34.28988","longitude":"-118.43758","name":" Sam's Club: Receiving Appointments","address":" USA-United States"},{"latitude":" 30.19420","longitude":"-81.73988","name":" Sam's Club","address":" USA-United States"},{"latitude":" 26.58513","longitude":"-81.87194","name":" Sam's Club","address":" USA-United States"},{"latitude":" 33.05919","longitude":"-96.73335","name":" Sam's Club Members Only: Vision Center","address":" USA-United States"},{"latitude":" 37.74540","longitude":"-97.24489","name":" Sam's Club","address":" USA-United States"},{"latitude":" 35.75025","longitude":"-78.64890","name":" Sam's Club: General Information","address":" USA-United States"},{"latitude":" 42.47353","longitude":"-83.43517","name":" Sam's Club","address":" USA-United States"},{"latitude":" 33.95688","longitude":"-118.11817","name":" Sam's Club","address":" USA-United States"},{"latitude":" 41.71604","longitude":"-81.29709","name":" Sam's Club","address":" USA-United States"},{"latitude":" 44.77685","longitude":"-93.27487","name":" Sam's Club","address":" USA-United States"},{"latitude":" 47.55395","longitude":"-111.50171","name":" Sam's Club","address":" USA-United States"},{"latitude":" 32.76251","longitude":"-97.17195","name":" Sam's Club: General Information","address":" USA-United States"},{"latitude":" 34.83050","longitude":"-82.34766","name":" Sam's Club","address":" USA-United States"},{"latitude":" 43.48169","longitude":"-111.94562","name":" Sam's Club","address":" USA-United States"},{"latitude":" 32.74673","longitude":"-97.45139","name":" Sam's Club","address":" USA-United States"},{"latitude":" 40.24998","longitude":"-74.29146","name":" Sam's Club","address":" USA-United States"},{"latitude":" 32.35637","longitude":"-86.21581","name":" Sam's Club","address":" USA-United States"},{"latitude":" 39.93671","longitude":"-105.16557","name":" Sam's Club","address":" USA-United States"},{"latitude":" 42.72577","longitude":"-71.42663","name":" Sam's Club","address":" USA-United States"},{"latitude":" 33.87303","longitude":"-118.29883","name":" Sam's Club","address":" USA-United States"},{"latitude":" 40.15605","longitude":"-75.14167","name":" Sam's Club","address":" USA-United States"},{"latitude":" 61.21572","longitude":"-149.81387","name":" Sam's Club","address":" USA-United States"},{"latitude":" 42.80615","longitude":"-86.09076","name":" Sam's Club","address":" USA-United States"},{"latitude":" 33.71190","longitude":"-78.89895","name":" Sam's Club","address":" USA-United States"},{"latitude":" 32.81995","longitude":"-83.70935","name":" Sam's Club","address":" USA-United States"},{"latitude":" 40.52189","longitude":"-105.06532","name":" Sam's Club","address":" USA-United States"},{"latitude":" 34.42620","longitude":"-118.44901","name":" Sam's Club","address":" USA-United States"},{"latitude":" 29.52954","longitude":"-98.39185","name":" Sam's Club","address":" USA-United States"},{"latitude":" 36.82922","longitude":"-76.41496","name":" Sam's Club","address":" USA-United States"},{"latitude":" 37.24849","longitude":"-77.38858","name":" Sam's Club-Members Only: General Information","address":" USA-United States"},{"latitude":" 33.84593","longitude":"-117.53816","name":" Sam's Club","address":" USA-United States"},{"latitude":" 39.76440","longitude":"-86.26075","name":" Sam's Club: Store","address":" USA-United States"},{"latitude":" 35.08168","longitude":"-89.93135","name":" Sam's Club","address":" USA-United States"},{"latitude":" 35.89000","longitude":"-86.96095","name":" Sam's Club","address":" USA-United States"},{"latitude":" 40.17267","longitude":"-74.88972","name":" Sam's Club","address":" USA-United States"},{"latitude":" 38.88381","longitude":"-94.68189","name":" Sam's Club","address":" USA-United States"},{"latitude":" 37.32560","longitude":"-89.58770","name":" Sam's Club","address":" USA-United States"},{"latitude":" 39.04687","longitude":"-94.36451","name":" Sam's Club","address":" USA-United States"},{"latitude":" 44.05051","longitude":"-123.13179","name":" Sam's Place","address":" USA-United States"},{"latitude":" 42.75275","longitude":"-73.76776","name":" Sam's Club","address":" USA-United States"},{"latitude":" 33.89116","longitude":"-118.29753","name":" Sam's Club","address":" USA-United States"},{"latitude":" 36.58794","longitude":"-87.29383","name":" Sam's Club","address":" USA-United States"},{"latitude":" 43.60081","longitude":"-79.73995","name":" Sam's Club","address":" USA-United States"},{"latitude":" 25.78148","longitude":"-80.23346","name":" Sam's Club: Pharmacy","address":" USA-United States"},{"latitude":" 42.90759","longitude":"-88.01026","name":" Sam's Club-Members Only: Pharmacy","address":" USA-United States"},{"latitude":" 35.94348","longitude":"-86.82032","name":" Sam's Club","address":" USA-United States"},{"latitude":" 29.92597","longitude":"-95.61722","name":" Sam's Club","address":" USA-United States"},{"latitude":" 41.06566","longitude":"-73.81465","name":" Sam's Club","address":" USA-United States"},{"latitude":" 39.47491","longitude":"-80.13477","name":" Sam's Club","address":" USA-United States"},{"latitude":" 37.54315","longitude":"-77.43873","name":" Sam's Club-Members Only","address":" USA-United States"},{"latitude":" 39.16201","longitude":"-94.57227","name":" Sam's Club-Members Only: Pharmacy","address":" USA-United States"},{"latitude":" 34.74702","longitude":"-92.40718","name":" Sam's Club","address":" USA-United States"},{"latitude":" 41.72141","longitude":"-83.56365","name":" Sam's Club","address":" USA-United States"},{"latitude":" 41.57503","longitude":"-87.55888","name":" Sam's Club","address":" USA-United States"},{"latitude":" 38.63861","longitude":"-76.89854","name":" Sam's Club","address":" USA-United States"},{"latitude":" 41.79426","longitude":"-71.32806","name":" Sam's Club","address":" USA-United States"},{"latitude":" 40.00366","longitude":"-82.76709","name":" Sam's Club","address":" USA-United States"},{"latitude":" 40.85111","longitude":"-81.45172","name":" Sam's Club","address":" USA-United States"},{"latitude":" 39.43862","longitude":"-76.64828","name":" Sam's Club","address":" USA-United States"},{"latitude":" 32.87109","longitude":"-96.76182","name":" Sam's Club","address":" USA-United States"},{"latitude":" 27.94970","longitude":"-82.45784","name":" Sam's Club-Members Only: Pharmacy","address":" USA-United States"},{"latitude":" 42.00112","longitude":"-93.61275","name":" Sam's Club","address":" USA-United States"},{"latitude":" 33.05694","longitude":"-96.69039","name":" Sam's Club: Bakery","address":" USA-United States"},{"latitude":" 35.07648","longitude":"-106.53221","name":" Sam's Club Members Only: General Information","address":" USA-United States"},{"latitude":" 35.02623","longitude":"-85.19265","name":" Sam's Club","address":" USA-United States"},{"latitude":" 34.73606","longitude":"-86.65659","name":" Sam's Club","address":" USA-United States"},{"latitude":" 41.10337","longitude":"-111.98154","name":" Sam's Club","address":" USA-United States"},{"latitude":" 42.70200","longitude":"-87.85582","name":" Sam's Club: General Information","address":" USA-United States"},{"latitude":" 44.67183","longitude":"-85.67086","name":" Sam's Club","address":" USA-United States"},{"latitude":" 32.41818","longitude":"-93.79763","name":" Sam's Club","address":" USA-United States"},{"latitude":" 26.24311","longitude":"-80.25365","name":" Sam's Club: Pharmacy","address":" USA-United States"},{"latitude":" 41.39868","longitude":"-82.19299","name":" Sam's Club","address":" USA-United States"},{"latitude":" 33.37444","longitude":"-86.80956","name":" Sam's Club: Pharmacy","address":" USA-United States"},{"latitude":" 38.73623","longitude":"-121.25259","name":" Sam's Club","address":" USA-United States"},{"latitude":" 36.03204","longitude":"-83.80207","name":" Sam's Club","address":" USA-United States"},{"latitude":" 41.13568","longitude":"-81.63319","name":" Sam's Club","address":" USA-United States"},{"latitude":" 43.07869","longitude":"-77.62706","name":" Sam's Club","address":" USA-United States"},{"latitude":" 31.98973","longitude":"-81.07912","name":" Sam's Club: Pharmacy","address":" USA-United States"},{"latitude":" 33.62644","longitude":"-111.89491","name":" Sam's Club","address":" USA-United States"},{"latitude":" 35.02570","longitude":"-78.98340","name":" Sam's Club","address":" USA-United States"},{"latitude":" 32.74389","longitude":"-97.36663","name":" Sam's Club","address":" USA-United States"},{"latitude":" 40.40531","longitude":"-105.08318","name":" Sam's Club: Receiving Appointments","address":" USA-United States"},{"latitude":" 39.28937","longitude":"-84.45968","name":" Sam's Club","address":" USA-United States"},{"latitude":" 38.22220","longitude":"-85.53408","name":" Sam's Club","address":" USA-United States"},{"latitude":" 35.75264","longitude":"-78.77812","name":" Sam's Club: 1-Hour Photo","address":" USA-United States"},{"latitude":" 38.93272","longitude":"-104.79094","name":" Sam's Club","address":" USA-United States"},{"latitude":" 32.64757","longitude":"-96.86701","name":" Sam's Club Members Only: Floral","address":" USA-United States"},{"latitude":" 34.04061","longitude":"-84.31535","name":" Sam's Club","address":" USA-United States"},{"latitude":" 35.06918","longitude":"-78.96621","name":" Sam's Club One Hour Photo","address":" USA-United States"},{"latitude":" 35.18284","longitude":"-89.89704","name":" Sam's Club","address":" USA-United States"},{"latitude":" 40.17804","longitude":"-75.10583","name":" Sam's Club","address":" USA-United States"},{"latitude":" 39.79108","longitude":"-105.07786","name":" Sam's Club: Pharmacy","address":" USA-United States"},{"latitude":" 32.68786","longitude":"-97.41329","name":" Sam's Club","address":" USA-United States"},{"latitude":" 41.80366","longitude":"-72.54916","name":" Sam's Club","address":" USA-United States"},{"latitude":" 43.11472","longitude":"-76.18506","name":" Sam's Club: Pizza","address":" USA-United States"},{"latitude":" 30.37943","longitude":"-91.06503","name":" Sam's Club: Floral","address":" USA-United States"},{"latitude":" 33.94013","longitude":"-83.48883","name":" Sam's Club","address":" USA-United States"},{"latitude":" 42.91374","longitude":"-78.75376","name":" Sam's Club","address":" USA-United States"},{"latitude":" 29.78512","longitude":"-95.55681","name":" Sam's Club-Members Only: Store Information","address":" USA-United States"},{"latitude":" 32.39870","longitude":"-90.14061","name":" Sam's Club","address":" USA-United States"},{"latitude":" 37.50357","longitude":"-77.62809","name":" Sam's Club","address":" USA-United States"},{"latitude":" 36.08769","longitude":"-86.69212","name":" Sam's Club","address":" USA-United States"},{"latitude":" 28.55164","longitude":"-81.55402","name":" Sam's Club","address":" USA-United States"},{"latitude":" 29.48086","longitude":"-95.22469","name":" Sam's Club","address":" USA-United States"},{"latitude":" 29.48946","longitude":"-98.58096","name":" Sam's Club","address":" USA-United States"},{"latitude":" 32.73774","longitude":"-117.05758","name":" Sam's Club","address":" USA-United States"},{"latitude":" 39.98667","longitude":"-83.15108","name":" Sam's Club Pharmacy","address":" USA-United States"},{"latitude":" 41.59785","longitude":"-93.71831","name":" Sam's Club","address":" USA-United States"},{"latitude":" 41.84383","longitude":"-87.74375","name":" Sam's Club","address":" USA-United States"},{"latitude":" 36.85255","longitude":"-76.21433","name":" Sam's Club: Pharmacy","address":" USA-United States"},{"latitude":" 34.07460","longitude":"-117.55782","name":" Sam's Club Members Only: Store Information","address":" USA-United States"},{"latitude":" 31.74709","longitude":"-106.31514","name":" Sam's Club","address":" USA-United States"},{"latitude":" 44.92054","longitude":"-89.65215","name":" Sam's Club","address":" USA-United States"},{"latitude":" 41.85949","longitude":"-88.34035","name":" Sam's Club","address":" USA-United States"},{"latitude":" 38.59936","longitude":"-90.46887","name":" Sam's Club Members Only: Receiving","address":" USA-United States"},{"latitude":" 31.06347","longitude":"-97.36543","name":" Sam's Club","address":" USA-United States"},{"latitude":" 39.33605","longitude":"-76.50138","name":" Sam's Club","address":" USA-United States"},{"latitude":" 27.44855","longitude":"-82.52611","name":" Sam's Club Members Only: Store Information","address":" USA-United States"},{"latitude":" 40.77610","longitude":"-89.65511","name":" Sam's Club","address":" USA-United States"},{"latitude":" 30.01032","longitude":"-90.26482","name":" Sam's Club: Store Information","address":" USA-United States"},{"latitude":" 25.99270","longitude":"-80.24777","name":" Sam's Club: Bakery","address":" USA-United States"},{"latitude":" 35.30228","longitude":"-119.09222","name":" Sam's Club","address":" USA-United States"},{"latitude":" 29.73563","longitude":"-95.51415","name":" Sam's Club","address":" USA-United States"},{"latitude":" 32.67552","longitude":"-97.03695","name":" Sam's Club","address":" USA-United States"},{"latitude":" 35.66713","longitude":"-88.85378","name":" Sam's Club","address":" USA-United States"},{"latitude":" 34.23376","longitude":"-83.85907","name":" Sam's Club","address":" USA-United States"},{"latitude":" 34.00000","longitude":"-117.71960","name":" Sam's Club","address":" USA-United States"},{"latitude":" 29.78502","longitude":"-95.56002","name":" Sam's Club Foral","address":" USA-United States"},{"latitude":" 30.44938","longitude":"-91.18608","name":" Sam's Club: Pharmacy","address":" USA-United States"},{"latitude":" 43.07972","longitude":"-77.62756","name":" Sam's Club","address":" USA-United States"},{"latitude":" 39.92699","longitude":"-86.04174","name":" Sam's Club Floral","address":" USA-United States"},{"latitude":" 42.03370","longitude":"-87.70788","name":" Sam's Club: General Info","address":" USA-United States"},{"latitude":" 39.29481","longitude":"-76.62286","name":" Sam's Club Member's Only: Pharmacy","address":" USA-United States"},{"latitude":" 35.45872","longitude":"-97.61384","name":" Sam's Club","address":" USA-United States"},{"latitude":" 39.84744","longitude":"-84.19206","name":" Sam's Club","address":" USA-United States"},{"latitude":" 29.52239","longitude":"-95.18788","name":" Sam's Club","address":" USA-United States"},{"latitude":" 42.09814","longitude":"-79.25269","name":" Sam's Club","address":" USA-United States"},{"latitude":" 39.29071","longitude":"-76.72113","name":" Sam's Club","address":" USA-United States"},{"latitude":" 33.83132","longitude":"-118.08734","name":" Sam's Club Members Only: Bakery","address":" USA-United States"},{"latitude":" 41.59840","longitude":"-87.79415","name":" Sam's Club","address":" USA-United States"},{"latitude":" 35.20447","longitude":"-89.76477","name":" Sam's Club","address":" USA-United States"},{"latitude":" 35.79546","longitude":"-105.99263","name":" Sam's Club","address":" USA-United States"},{"latitude":" 32.86013","longitude":"-97.21795","name":" Sam's Club: Vision","address":" USA-United States"},{"latitude":" 39.17105","longitude":"-84.42626","name":" Sam's Club","address":" USA-United States"},{"latitude":" 33.83132","longitude":"-118.08868","name":" Sam's Club Members Only: Store Information","address":" USA-United States"},{"latitude":" 42.05165","longitude":"-80.08377","name":" Sam's Club","address":" USA-United States"},{"latitude":" 44.80786","longitude":"-93.36406","name":" Sam's Club Distribution Center","address":" USA-United States"},{"latitude":" 37.70799","longitude":"-97.36978","name":" Sam's Club: Pharmacy","address":" USA-United States"},{"latitude":" 38.42901","longitude":"-122.73202","name":" Sam's Donuts","address":" USA-United States"},{"latitude":" 25.96872","longitude":"-97.53860","name":" Sam's Club","address":" USA-United States"},{"latitude":" 30.48752","longitude":"-84.31713","name":" Sam's Club","address":" USA-United States"},{"latitude":" 34.22364","longitude":"-119.15860","name":" Sam's Club","address":" USA-United States"},{"latitude":" 31.95550","longitude":"-102.14368","name":" Sam's Club","address":" USA-United States"},{"latitude":" 33.67609","longitude":"-96.60895","name":" Sam's Club","address":" USA-United States"},{"latitude":" 32.21533","longitude":"-110.96855","name":" Sam's Club: Pharmacy","address":" USA-United States"},{"latitude":" 32.52031","longitude":"-84.94875","name":" Sam's Club","address":" USA-United States"},{"latitude":" 39.69973","longitude":"-104.82796","name":" Sam's Club","address":" USA-United States"},{"latitude":" 32.86887","longitude":"-96.67500","name":" Sam's Club Members Only: Store Information","address":" USA-United States"},{"latitude":" 29.77004","longitude":"-95.18284","name":" Sam's Club Members Only: Optical","address":" USA-United States"},{"latitude":" 40.92789","longitude":"-74.18040","name":" Sam's Private Club","address":" USA-United States"},{"latitude":" 39.97527","longitude":"-76.67311","name":" Sam's Club","address":" USA-United States"},{"latitude":" 38.04695","longitude":"-84.49625","name":" Sam's Club: Pharmacy","address":" USA-United States"},{"latitude":" 42.43170","longitude":"-96.36950","name":" Sam's Club","address":" USA-United States"},{"latitude":" 40.63263","longitude":"-111.88889","name":" Sam's Club","address":" USA-United States"},{"latitude":" 47.47418","longitude":"-122.20656","name":" Sam's Club","address":" USA-United States"},{"latitude":" 40.24394","longitude":"-74.29862","name":" Sam's Club","address":" USA-United States"},{"latitude":" 31.58104","longitude":"-97.12051","name":" Sam's Club: Pharmacy Line","address":" USA-United States"},{"latitude":" 33.64496","longitude":"-112.11843","name":" Sam's Club Members Only: Pharmacy","address":" USA-United States"},{"latitude":" 27.63852","longitude":"-80.44369","name":" Sam's Club","address":" USA-United States"},{"latitude":" 35.92578","longitude":"-84.08044","name":" Sam's Club","address":" USA-United States"},{"latitude":" 32.92050","longitude":"-96.97507","name":" Sam's Club","address":" USA-United States"},{"latitude":" 34.08704","longitude":"-83.99347","name":" Sam's Club","address":" USA-United States"},{"latitude":" 32.32767","longitude":"-95.34125","name":" Sam's Club","address":" USA-United States"},{"latitude":" 38.78475","longitude":"-97.61026","name":" Sam's Club","address":" USA-United States"},{"latitude":" 30.20433","longitude":"-97.75871","name":" Sam's Club","address":" USA-United States"},{"latitude":" 33.77282","longitude":"-84.55991","name":" Sam's Club","address":" USA-United States"},{"latitude":" 38.62116","longitude":"-90.33313","name":" Sam's Club Members Only: Pharmacy","address":" USA-United States"},{"latitude":" 39.18776","longitude":"-84.60229","name":" Sam's Club","address":" USA-United States"},{"latitude":" 32.71152","longitude":"-97.04187","name":" Sam's Club","address":" USA-United States"},{"latitude":" 35.84571","longitude":"-78.58695","name":" Sam's Club: General Information","address":" USA-United States"},{"latitude":" 34.29431","longitude":"-118.41644","name":" Sam's Club","address":" USA-United States"},{"latitude":" 34.06569","longitude":"-117.26401","name":" Sam's Club","address":" USA-United States"},{"latitude":" 35.14968","longitude":"-90.05248","name":" Sam's Club: Pharmacy","address":" USA-United States"},{"latitude":" 41.62860","longitude":"-93.67236","name":" Sam's Club","address":" USA-United States"},{"latitude":" 30.42856","longitude":"-84.25933","name":" Sam's Club","address":" USA-United States"},{"latitude":" 34.29477","longitude":"-118.41655","name":" Sam's Club","address":" USA-United States"},{"latitude":" 34.61781","longitude":"-98.42216","name":" Sam's Club","address":" USA-United States"},{"latitude":" 41.70243","longitude":"-71.49742","name":" Sam's Club","address":" USA-United States"},{"latitude":" 41.65056","longitude":"-83.67124","name":" Sam's Club","address":" USA-United States"},{"latitude":" 30.03558","longitude":"-89.98633","name":" Sam's Club","address":" USA-United States"},{"latitude":" 39.76585","longitude":"-104.90112","name":" Sam's Club","address":" USA-United States"},{"latitude":" 39.56225","longitude":"-104.89942","name":" Sam's Club","address":" USA-United States"},{"latitude":" 46.86090","longitude":"-96.85809","name":" Sam's Club","address":" USA-United States"},{"latitude":" 40.09429","longitude":"-80.91943","name":" Sam's Club","address":" USA-United States"},{"latitude":" 25.78530","longitude":"-80.33623","name":" Sam's Club","address":" USA-United States"},{"latitude":" 41.21286","longitude":"-96.11463","name":" Sam's Club: Pharmacy","address":" USA-United States"},{"latitude":" 34.06669","longitude":"-117.26216","name":" Sam's Club Members Only","address":" USA-United States"},{"latitude":" 29.65116","longitude":"-82.32145","name":" Sam's Club","address":" USA-United States"},{"latitude":" 40.25710","longitude":"-76.87760","name":" Sam's Club-Members Only: Sam's Bakery","address":" USA-United States"},{"latitude":" 35.18415","longitude":"-89.89621","name":" Sam's Club: Bakery","address":" USA-United States"},{"latitude":" 40.46210","longitude":"-78.40930","name":" Sam's Club","address":" USA-United States"},{"latitude":" 33.09471","longitude":"-96.79693","name":" Sam's Club Members Only: Bakery","address":" USA-United States"},{"latitude":" 40.87792","longitude":"-79.95234","name":" Sam's Club","address":" USA-United States"},{"latitude":" 43.21541","longitude":"-77.73528","name":" Sam's Club: Vision Center","address":" USA-United States"},{"latitude":" 39.16611","longitude":"-84.65242","name":" Sam's Club Members Only: Optical","address":" USA-United States"},{"latitude":" 40.43258","longitude":"-79.80025","name":" Sam's Club","address":" USA-United States"},{"latitude":" 33.50142","longitude":"-82.08784","name":" Sam's Club","address":" USA-United States"},{"latitude":" 37.98062","longitude":"-122.05387","name":" Sam's Club","address":" USA-United States"},{"latitude":" 42.91254","longitude":"-85.55966","name":" Sam's Club-Members Only: Store","address":" USA-United States"},{"latitude":" 33.59265","longitude":"-86.62518","name":" Sam's Club","address":" USA-United States"},{"latitude":" 44.69946","longitude":"-73.46643","name":" Sam's Club","address":" USA-United States"},{"latitude":" 27.93757","longitude":"-82.31697","name":" Sam's Club-Members Only","address":" USA-United States"},{"latitude":" 32.79355","longitude":"-96.68495","name":" Sam's Club Members Only: Membership","address":" USA-United States"},{"latitude":" 38.98843","longitude":"-76.54917","name":" Sam's Club","address":" USA-United States"},{"latitude":" 34.55348","longitude":"-82.67965","name":" Sam's Club","address":" USA-United States"},{"latitude":" 38.63258","longitude":"-77.26920","name":" Sam's Club","address":" USA-United States"},{"latitude":" 37.24102","longitude":"-81.25074","name":" Sam's Club","address":" USA-United States"},{"latitude":" 34.11762","longitude":"-117.82901","name":" Sam's Club Members Only: General Information","address":" USA-United States"},{"latitude":" 36.27020","longitude":"-115.27343","name":" Sam's Club: General Information","address":" USA-United States"},{"latitude":" 29.55958","longitude":"-98.48443","name":" Sam's Club-Members Only","address":" USA-United States"},{"latitude":" 26.21653","longitude":"-98.24091","name":" Sam's Club: Sam's Optical","address":" USA-United States"},{"latitude":" 35.10920","longitude":"-106.62982","name":" Sam's Club","address":" USA-United States"},{"latitude":" 36.27025","longitude":"-115.27097","name":" Sam's Club: Bakery","address":" USA-United States"},{"latitude":" 32.83575","longitude":"-96.99792","name":" Sam's Club","address":" USA-United States"},{"latitude":" 43.00205","longitude":"-83.76705","name":" Sam's Club","address":" USA-United States"},{"latitude":" 40.34767","longitude":"-79.94474","name":" Sam's Club","address":" USA-United States"},{"latitude":" 40.34424","longitude":"-79.94758","name":" Sam's Club: Main","address":" USA-United States"},{"latitude":" 40.63062","longitude":"-111.88969","name":" Sam's Club","address":" USA-United States"},{"latitude":" 46.80768","longitude":"-92.17885","name":" Sam's Club","address":" USA-United States"},{"latitude":" 35.82918","longitude":"-78.76901","name":" Sam's Club: 1-Hour Photo","address":" USA-United States"},{"latitude":" 41.21618","longitude":"-96.09892","name":" Sam's Club","address":" USA-United States"},{"latitude":" 33.84153","longitude":"-84.31370","name":" Sam's Club","address":" USA-United States"},{"latitude":" 26.58408","longitude":"-81.87209","name":" Sam's Club","address":" USA-United States"},{"latitude":" 42.05130","longitude":"-88.00040","name":" Sam's Club Members Only","address":" USA-United States"},{"latitude":" 39.62833","longitude":"-84.18991","name":" Sam's Club","address":" USA-United States"},{"latitude":" 37.18015","longitude":"-93.22014","name":" Sam's Club: General Information","address":" USA-United States"},{"latitude":" 21.31119","longitude":"-157.85141","name":" Sam's Club-Members Only: Sam's Cafe","address":" USA-United States"},{"latitude":" 39.82399","longitude":"-75.09958","name":" Sam's Club","address":" USA-United States"},{"latitude":" 28.22184","longitude":"-82.73482","name":" Sam's Club","address":" USA-United States"},{"latitude":" 33.71437","longitude":"-117.95457","name":" Sam's Club Members Only: General Information","address":" USA-United States"},{"latitude":" 38.15538","longitude":"-85.69607","name":" Sam's Club","address":" USA-United States"},{"latitude":" 38.39267","longitude":"-75.57429","name":" Sam's Club","address":" USA-United States"},{"latitude":" 35.83023","longitude":"-78.76747","name":" Sam's Club","address":" USA-United States"},{"latitude":" 38.95620","longitude":"-94.72744","name":" Sam's Club","address":" USA-United States"},{"latitude":" 40.63104","longitude":"-111.96350","name":" Sam's Club","address":" USA-United States"},{"latitude":" 42.92688","longitude":"-83.63672","name":" Sam's Club: Pharmacy","address":" USA-United States"},{"latitude":" 41.84297","longitude":"-87.74400","name":" Sam's Club: Cicero","address":" USA-United States"},{"latitude":" 41.39018","longitude":"-81.52724","name":" Sam's Club Members Only: 1-Hour Photo","address":" USA-United States"},{"latitude":" 43.02942","longitude":"-85.68982","name":" Sam's Club-Members Only: Store","address":" USA-United States"},{"latitude":" 32.36602","longitude":"-86.21224","name":" Sam's Club","address":" USA-United States"},{"latitude":" 32.86848","longitude":"-96.91169","name":" Sam's Club","address":" USA-United States"},{"latitude":" 36.08726","longitude":"-115.08667","name":" Sam's Club: 1 Hour Photo","address":" USA-United States"},{"latitude":" 41.57636","longitude":"-87.55845","name":" Sam's Club","address":" USA-United States"},{"latitude":" 36.30668","longitude":"-86.68594","name":" Sam's Club: Vision Center","address":" USA-United States"},{"latitude":" 40.87973","longitude":"-81.43614","name":" Sam's Club Members Only: General Information","address":" USA-United States"},{"latitude":" 42.64611","longitude":"-83.33337","name":" Sam's Club Membership Warehouse","address":" USA-United States"},{"latitude":" 36.08827","longitude":"-86.69276","name":" Sam's Club-Vision Center","address":" USA-United States"},{"latitude":" 34.96003","longitude":"-89.98122","name":" Sam's Club","address":" USA-United States"},{"latitude":" 36.09694","longitude":"-115.10099","name":" Sam's Club: General Information","address":" USA-United States"},{"latitude":" 32.29040","longitude":"-110.96997","name":" Sam's Club","address":" USA-United States"},{"latitude":" 33.55516","longitude":"-101.94176","name":" Sam's Club","address":" USA-United States"},{"latitude":" 41.21084","longitude":"-80.75247","name":" Sam's Club","address":" USA-United States"},{"latitude":" 40.00020","longitude":"-105.12055","name":" Sam's Club","address":" USA-United States"},{"latitude":" 32.05345","longitude":"-81.14194","name":" Sam's Club-Receiving Appointments","address":" USA-United States"},{"latitude":" 35.19244","longitude":"-101.81726","name":" Sam's Club","address":" USA-United States"},{"latitude":" 43.05077","longitude":"-85.68060","name":" Sam's Club-Members Only: Pharmacy","address":" USA-United States"},{"latitude":" 39.11389","longitude":"-121.64378","name":" Sam's Club","address":" USA-United States"},{"latitude":" 40.82590","longitude":"-72.98704","name":" Sam's Club","address":" USA-United States"},{"latitude":" 32.43716","longitude":"-93.71511","name":" Sam's Club","address":" USA-United States"},{"latitude":" 35.96842","longitude":"-78.96092","name":" Sam's Club","address":" USA-United States"},{"latitude":" 41.46001","longitude":"-74.37154","name":" Sam's Club","address":" USA-United States"},{"latitude":" 33.80872","longitude":"-84.30963","name":" Sam's Club","address":" USA-United States"},{"latitude":" 35.07166","longitude":"-106.50900","name":" Sam's Club","address":" USA-United States"},{"latitude":" 37.12166","longitude":"-76.50670","name":" Sam's Club","address":" USA-United States"},{"latitude":" 26.14574","longitude":"-80.32794","name":" Sam's Club: Store Information","address":" USA-United States"},{"latitude":" 30.30825","longitude":"-89.82580","name":" Sam's Club: General Information","address":" USA-United States"},{"latitude":" 39.71881","longitude":"-75.02214","name":" Sam's Club","address":" USA-United States"},{"latitude":" 36.06824","longitude":"-79.77335","name":" Sam's Club: Pharmacy","address":" USA-United States"},{"latitude":" 28.54225","longitude":"-81.37286","name":" Sam's Club: Pharmacy","address":" USA-United States"},{"latitude":" 41.13582","longitude":"-81.63427","name":" Sam's Club Members Only: Receiving","address":" USA-United States"},{"latitude":" 35.08274","longitude":"-80.87977","name":" Sam's Club","address":" USA-United States"},{"latitude":" 39.26776","longitude":"-76.62770","name":" Sam's Club","address":" USA-United States"},{"latitude":" 33.46538","longitude":"-112.24130","name":" Sam's Club Members Only: 1-Hour Photo","address":" USA-United States"},{"latitude":" 33.53358","longitude":"-86.69584","name":" Sam's Club","address":" USA-United States"},{"latitude":" 37.74625","longitude":"-97.24481","name":" Sam's Club: Pharmacy","address":" USA-United States"},{"latitude":" 44.87910","longitude":"-93.19838","name":" Sam's Club Members Only: 1-Hour Photo","address":" USA-United States"},{"latitude":" 38.90012","longitude":"-94.52493","name":" Sam's Club-Members Only: Grandview","address":" USA-United States"},{"latitude":" 41.51677","longitude":"-88.12474","name":" Sam's Club","address":" USA-United States"},{"latitude":" 37.25221","longitude":"-77.39020","name":" Sam's Club","address":" USA-United States"},{"latitude":" 30.68929","longitude":"-88.04916","name":" Sam's Club: Pharmacy","address":" USA-United States"},{"latitude":" 42.92283","longitude":"-87.94992","name":" Sam's Club","address":" USA-United States"},{"latitude":" 42.62512","longitude":"-83.04187","name":" Sam's Club","address":" USA-United States"},{"latitude":" 31.77839","longitude":"-106.38986","name":" Sam's Club","address":" USA-United States"},{"latitude":" 38.61781","longitude":"-90.32963","name":" Sam's Club-Members Only: General Information","address":" USA-United States"},{"latitude":" 41.13856","longitude":"-85.16189","name":" Sam's Club Vision Center","address":" USA-United States"},{"latitude":" 39.74743","longitude":"-84.16001","name":" Sam's Club: Pharmacy","address":" USA-United States"},{"latitude":" 43.97547","longitude":"-75.95970","name":" Sam's Club","address":" USA-United States"},{"latitude":" 42.15055","longitude":"-87.95253","name":" Sam's Club","address":" USA-United States"},{"latitude":" 35.73694","longitude":"-81.32416","name":" Sam's Club","address":" USA-United States"},{"latitude":" 39.94950","longitude":"-75.16684","name":" Sam's Club: Sam's Bakery","address":" USA-United States"},{"latitude":" 27.74498","longitude":"-97.44003","name":" Sam's Club-Members Only: General Information","address":" USA-United States"},{"latitude":" 39.45793","longitude":"-76.64037","name":" Sam's Club","address":" USA-United States"},{"latitude":" 29.78518","longitude":"-95.55755","name":" Sam's Club","address":" USA-United States"},{"latitude":" 33.64354","longitude":"-112.11992","name":" Sam's Club","address":" USA-United States"},{"latitude":" 35.18970","longitude":"-101.81649","name":" Sam's Club","address":" USA-United States"},{"latitude":" 43.84092","longitude":"-79.41461","name":" Sam's Club","address":" USA-United States"},{"latitude":" 34.09491","longitude":"-118.02759","name":" Sam's Club","address":" USA-United States"},{"latitude":" 35.92512","longitude":"-84.06143","name":" Sam's Club: Store Information","address":" USA-United States"},{"latitude":" 35.30432","longitude":"-119.09224","name":" Sam's Club Pharmacy","address":" USA-United States"},{"latitude":" 43.15602","longitude":"-88.00585","name":" Sam's Club","address":" USA-United States"},{"latitude":" 34.11566","longitude":"-117.82907","name":" Sam's Club","address":" USA-United States"},{"latitude":" 33.58248","longitude":"-101.85980","name":" Sam's Club: Pharmacy","address":" USA-United States"},{"latitude":" 39.91177","longitude":"-86.21180","name":" Sam's Club: Optical Shop","address":" USA-United States"},{"latitude":" 33.72714","longitude":"-117.77631","name":" Sam's Club","address":" USA-United States"},{"latitude":" 32.92453","longitude":"-96.62160","name":" Sam's Club Members Only: Bakery","address":" USA-United States"},{"latitude":" 29.96184","longitude":"-95.54651","name":" Sam's Club","address":" USA-United States"},{"latitude":" 41.10837","longitude":"-111.91565","name":" Sam's Club: General Information","address":" USA-United States"},{"latitude":" 30.18996","longitude":"-85.68876","name":" Sam's Club","address":" USA-United States"},{"latitude":" 39.18547","longitude":"-94.57680","name":" Sam's Club","address":" USA-United States"},{"latitude":" 44.94522","longitude":"-92.90524","name":" Sam's Club Members Only: General Information","address":" USA-United States"},{"latitude":" 33.16807","longitude":"-87.51991","name":" Sam's Club","address":" USA-United States"},{"latitude":" 32.29089","longitude":"-110.96999","name":" Sam's Club","address":" USA-United States"},{"latitude":" 37.23949","longitude":"-81.24929","name":" Sam's Club","address":" USA-United States"},{"latitude":" 33.04611","longitude":"-97.01076","name":" Sam's Club","address":" USA-United States"},{"latitude":" 40.05630","longitude":"-75.59911","name":" Sam's Club","address":" USA-United States"},{"latitude":" 37.48496","longitude":"-77.63477","name":" Sam's Club-Members Only: Main Store","address":" USA-United States"},{"latitude":" 25.91574","longitude":"-97.44291","name":" Sam's Club","address":" USA-United States"},{"latitude":" 42.26779","longitude":"-88.97784","name":" Sam's Club: Pharmacy","address":" USA-United States"},{"latitude":" 33.37497","longitude":"-86.80796","name":" Sam's Club","address":" USA-United States"},{"latitude":" 30.32911","longitude":"-95.48199","name":" Sam's Club","address":" USA-United States"},{"latitude":" 41.47412","longitude":"-87.30420","name":" Sam's Club","address":" USA-United States"},{"latitude":" 39.28782","longitude":"-76.73287","name":" Sam's Club","address":" USA-United States"},{"latitude":" 38.64654","longitude":"-77.29439","name":" Sam's Club","address":" USA-United States"},{"latitude":" 32.96226","longitude":"-96.64605","name":" Sam's Club Members Only: Pharmacy","address":" USA-United States"},{"latitude":" 39.91169","longitude":"-86.21362","name":" Sam's Club: Store","address":" USA-United States"},{"latitude":" 38.36248","longitude":"-121.95778","name":" Sam's Club","address":" USA-United States"},{"latitude":" 47.72780","longitude":"-122.34506","name":" Sam's Club Lube Express","address":" USA-United States"},{"latitude":" 36.06303","longitude":"-80.31001","name":" Sam's Club","address":" USA-United States"},{"latitude":" 37.21614","longitude":"-93.30502","name":" Sam's Club: Pharmacy","address":" USA-United States"},{"latitude":" 41.90669","longitude":"-87.91086","name":" Sam's Club: Store Information","address":" USA-United States"},{"latitude":" 29.90243","longitude":"-95.59706","name":" Sam's Club","address":" USA-United States"},{"latitude":" 26.14580","longitude":"-80.32743","name":" Sam's Club: Pharmacy","address":" USA-United States"},{"latitude":" 41.06611","longitude":"-73.81484","name":" Sam's Club","address":" USA-United States"},{"latitude":" 41.28098","longitude":"-72.98341","name":" Sam's Club","address":" USA-United States"},{"latitude":" 44.85934","longitude":"-93.28198","name":" Sam's Club-Members Only: General Information","address":" USA-United States"},{"latitude":" 33.57727","longitude":"-112.24687","name":" Sam's Club Members Only: Pharmacy","address":" USA-United States"},{"latitude":" 35.84859","longitude":"-86.44010","name":" Sam's Club","address":" USA-United States"},{"latitude":" 40.88304","longitude":"-74.70063","name":" Sam's Club","address":" USA-United States"},{"latitude":" 29.99804","longitude":"-95.42403","name":" Sam's Club-Members Only: Optical","address":" USA-United States"},{"latitude":" 27.84284","longitude":"-82.71077","name":" Sam's Club: Pizza Orders","address":" USA-United States"},{"latitude":" 32.28136","longitude":"-90.23125","name":" Sam's Club","address":" USA-United States"},{"latitude":" 44.73317","longitude":"-93.20354","name":" Sam's Club","address":" USA-United States"},{"latitude":" 33.51662","longitude":"-86.80618","name":" Sam's Club: Pharmacy","address":" USA-United States"},{"latitude":" 32.93573","longitude":"-96.75192","name":" Sam's Club","address":" USA-United States"},{"latitude":" 36.03078","longitude":"-83.87200","name":" Sam's Club: Bakery","address":" USA-United States"},{"latitude":" 29.77073","longitude":"-95.18158","name":" Sam's Club","address":" USA-United States"},{"latitude":" 42.52999","longitude":"-82.91512","name":" Sam's Club","address":" USA-United States"},{"latitude":" 43.03837","longitude":"-88.18589","name":" Sam's Club-Members Only: Waukesha","address":" USA-United States"},{"latitude":" 37.07713","longitude":"-88.68475","name":" Sam's Club","address":" USA-United States"},{"latitude":" 32.72169","longitude":"-97.00048","name":" Sam's Club: Bakery","address":" USA-United States"},{"latitude":" 32.88556","longitude":"-96.95310","name":" Sam's Club Members Only: 1-Hour Photo","address":" USA-United States"},{"latitude":" 32.89773","longitude":"-80.05352","name":" Sam's Club","address":" USA-United States"},{"latitude":" 61.21572","longitude":"-149.81252","name":" Sam's Club: Store Information","address":" USA-United States"},{"latitude":" 37.25020","longitude":"-77.40092","name":" Sam's Club","address":" USA-United States"},{"latitude":" 35.21098","longitude":"-106.65940","name":" Sam's Club Members Only: Pharmacy","address":" USA-United States"},{"latitude":" 42.80709","longitude":"-86.09130","name":" Sam's Club","address":" USA-United States"},{"latitude":" 42.95911","longitude":"-71.43983","name":" Sam's Club","address":" USA-United States"},{"latitude":" 38.78384","longitude":"-121.28631","name":" Sam's Club: Members Only","address":" USA-United States"},{"latitude":" 29.82935","longitude":"-95.72571","name":" Sam's Club","address":" USA-United States"},{"latitude":" 36.03181","longitude":"-83.87409","name":" Sam's Club: Pharmacy","address":" USA-United States"},{"latitude":" 40.60942","longitude":"-111.98142","name":" Sam's Club","address":" USA-United States"},{"latitude":" 39.77382","longitude":"-86.10635","name":" Sam's Club Members Only: Bakery","address":" USA-United States"},{"latitude":" 31.55120","longitude":"-97.14386","name":" Sam's Club-Members Only: Bakery","address":" USA-United States"},{"latitude":" 30.23673","longitude":"-97.83257","name":" Sam's Club","address":" USA-United States"},{"latitude":" 32.29229","longitude":"-110.97050","name":" Sam's Club","address":" USA-United States"},{"latitude":" 35.32446","longitude":"-80.74222","name":" Sam's Club","address":" USA-United States"},{"latitude":" 39.31291","longitude":"-76.73524","name":" Sam's Club","address":" USA-United States"},{"latitude":" 39.84818","longitude":"-84.19179","name":" Sam's Club","address":" USA-United States"},{"latitude":" 38.03634","longitude":"-84.45413","name":" Sam's Club: Members Only","address":" USA-United States"},{"latitude":" 44.08026","longitude":"-103.20178","name":" Sam's Club","address":" USA-United States"},{"latitude":" 38.88393","longitude":"-94.68307","name":" Sam's Club","address":" USA-United States"},{"latitude":" 29.72357","longitude":"-95.46844","name":" Sam's Club-Members Only: General Information","address":" USA-United States"},{"latitude":" 32.20209","longitude":"-80.69922","name":" Sam's Club","address":" USA-United States"},{"latitude":" 28.10043","longitude":"-82.50205","name":" Sam's Club","address":" USA-United States"},{"latitude":" 39.52759","longitude":"-119.81485","name":" Sam's Club Members Only: Pharmacy","address":" USA-United States"},{"latitude":" 38.64652","longitude":"-76.88952","name":" Sam's Club One Hour Photo","address":" USA-United States"},{"latitude":" 43.87023","longitude":"-91.21530","name":" Sam's Club","address":" USA-United States"},{"latitude":" 28.55209","longitude":"-81.48964","name":" Sam's Club: Pharmacy","address":" USA-United States"},{"latitude":" 33.56836","longitude":"-101.94233","name":" Sam's Club","address":" USA-United States"},{"latitude":" 35.25869","longitude":"-81.12199","name":" Sam's Club","address":" USA-United States"},{"latitude":" 42.71522","longitude":"-83.28499","name":" Sam's Club Members Only: General Information","address":" USA-United States"},{"latitude":" 44.77980","longitude":"-93.41482","name":" Sam's Club","address":" USA-United States"},{"latitude":" 34.74567","longitude":"-92.27470","name":" Sam's Club-Members Only: Pharmacy","address":" USA-United States"},{"latitude":" 36.76943","longitude":"-76.25085","name":" Sam's Club","address":" USA-United States"},{"latitude":" 41.80346","longitude":"-72.55129","name":" Sam's Club","address":" USA-United States"},{"latitude":" 43.18529","longitude":"-76.24218","name":" Sam's Club: Store Information","address":" USA-United States"},{"latitude":" 45.53608","longitude":"-122.62094","name":" Sam's Hollywood Billiards","address":" USA-United States"},{"latitude":" 34.07417","longitude":"-81.15572","name":" Sam's Club","address":" USA-United States"},{"latitude":" 34.10501","longitude":"-81.04664","name":" Sam's Club","address":" USA-United States"},{"latitude":" 43.03359","longitude":"-85.69008","name":" Sam's Club","address":" USA-United States"},{"latitude":" 27.77234","longitude":"-82.63846","name":" Sam's Club: Pharmacy","address":" USA-United States"},{"latitude":" 40.43226","longitude":"-79.80182","name":" Sam's Club","address":" USA-United States"},{"latitude":" 44.84649","longitude":"-93.14974","name":" Sam's Club Members Only: Receiving Appointments","address":" USA-United States"},{"latitude":" 32.50043","longitude":"-94.73132","name":" Sam's Club","address":" USA-United States"},{"latitude":" 40.78808","longitude":"-96.69148","name":" Sam's Club","address":" USA-United States"},{"latitude":" 33.55618","longitude":"-117.18227","name":" Sam's Club","address":" USA-United States"},{"latitude":" 40.72533","longitude":"-84.07094","name":" Sam's Club","address":" USA-United States"},{"latitude":" 32.66560","longitude":"-97.29524","name":" Sam's Club","address":" USA-United States"},{"latitude":" 35.12961","longitude":"-80.93146","name":" Sam's Club","address":" USA-United States"},{"latitude":" 38.98970","longitude":"-76.54898","name":" Sam's Club Pharmacy","address":" USA-United States"},{"latitude":" 33.75742","longitude":"-84.43057","name":" Sam's Club","address":" USA-United States"},{"latitude":" 33.09427","longitude":"-96.79707","name":" Sam's Club Members Only: Floral","address":" USA-United States"},{"latitude":" 33.05698","longitude":"-96.68878","name":" Sam's Club: Store Information","address":" USA-United States"},{"latitude":" 33.86468","longitude":"-117.88197","name":" Sam's Club","address":" USA-United States"},{"latitude":" 30.06391","longitude":"-94.13343","name":" Sam's Club","address":" USA-United States"},{"latitude":" 35.02246","longitude":"-85.14553","name":" Sam's Club","address":" USA-United States"},{"latitude":" 29.89251","longitude":"-90.05894","name":" Sam's Club: Store Information","address":" USA-United States"},{"latitude":" 42.26772","longitude":"-84.45640","name":" Sam's Club","address":" USA-United States"},{"latitude":" 36.11334","longitude":"-115.27656","name":" Sam's Club: 1 Hour Photo","address":" USA-United States"},{"latitude":" 35.77638","longitude":"-78.62806","name":" Sam's Club: Pharmacy","address":" USA-United States"},{"latitude":" 45.11615","longitude":"-93.26478","name":" Sam's Club-Members Only Fridley Receiving Appointments","address":" USA-United States"},{"latitude":" 38.15638","longitude":"-85.69689","name":" Sam's Club: Bakery","address":" USA-United States"},{"latitude":" 33.85602","longitude":"-117.56769","name":" Sam's Club","address":" USA-United States"},{"latitude":" 28.10143","longitude":"-81.97402","name":" Sam's Club","address":" USA-United States"},{"latitude":" 29.99817","longitude":"-95.42499","name":" Sam's Club","address":" USA-United States"},{"latitude":" 42.26818","longitude":"-88.97830","name":" Sam's Club","address":" USA-United States"},{"latitude":" 36.33705","longitude":"-86.71724","name":" Sam's Club Members Only","address":" USA-United States"},{"latitude":" 36.00004","longitude":"-78.89970","name":" Sam's Club: Receiving","address":" USA-United States"},{"latitude":" 33.17084","longitude":"-117.21754","name":" Sam's Club: Sam's Club Members Only","address":" USA-United States"},{"latitude":" 25.93374","longitude":"-97.51741","name":" Sam's Club: Pharmacy","address":" USA-United States"},{"latitude":" 41.71327","longitude":"-86.17380","name":" Sam's Club","address":" USA-United States"},{"latitude":" 38.78291","longitude":"-90.52459","name":" Sam's Club","address":" USA-United States"},{"latitude":" 41.18445","longitude":"-112.00073","name":" Sam's Club","address":" USA-United States"},{"latitude":" 35.48480","longitude":"-80.60153","name":" Sam's Club","address":" USA-United States"},{"latitude":" 38.03455","longitude":"-84.45270","name":" Sam's Club","address":" USA-United States"},{"latitude":" 37.18207","longitude":"-93.27716","name":" Sam's Club","address":" USA-United States"},{"latitude":" 39.16216","longitude":"-84.42467","name":" Sam's Club Members Only: General Info","address":" USA-United States"},{"latitude":" 42.52030","longitude":"-83.10644","name":" Sam's Club Members Only: General Information","address":" USA-United States"},{"latitude":" 30.48045","longitude":"-87.21731","name":" Sam's Club","address":" USA-United States"},{"latitude":" 41.36928","longitude":"-81.51317","name":" Sam's Club","address":" USA-United States"},{"latitude":" 40.41422","longitude":"-80.06332","name":" Sam's Club","address":" USA-United States"},{"latitude":" 26.19125","longitude":"-98.20971","name":" Sam's Club","address":" USA-United States"},{"latitude":" 39.87043","longitude":"-104.98198","name":" Sam's Club","address":" USA-United States"},{"latitude":" 29.75525","longitude":"-95.36758","name":" Sam's Club Members","address":" USA-United States"},{"latitude":" 40.87779","longitude":"-81.45465","name":" Sam's Club","address":" USA-United States"},{"latitude":" 38.99383","longitude":"-94.68284","name":" Sam's Club-Members Only: 1-Hour Photo","address":" USA-United States"},{"latitude":" 42.91233","longitude":"-85.56070","name":" Sam's Club","address":" USA-United States"},{"latitude":" 39.18618","longitude":"-94.57661","name":" Sam's Club-Members Only: General Information","address":" USA-United States"},{"latitude":" 42.05168","longitude":"-93.62060","name":" Sam's Club Members Only: Pharmacy","address":" USA-United States"},{"latitude":" 27.01044","longitude":"-82.15320","name":" Sam's Club","address":" USA-United States"},{"latitude":" 29.48779","longitude":"-98.58609","name":" Sam's Club-Members Only: General Information","address":" USA-United States"},{"latitude":" 34.03856","longitude":"-117.18652","name":" Sam's Club Members Only: Vision Center","address":" USA-United States"},{"latitude":" 44.34185","longitude":"-69.78961","name":" Sam's Club","address":" USA-United States"},{"latitude":" 36.14128","longitude":"-115.29068","name":" Sam's Club: 1 Hour Photo","address":" USA-United States"},{"latitude":" 35.82210","longitude":"-78.77107","name":" Sam's Club","address":" USA-United States"},{"latitude":" 40.17356","longitude":"-74.88908","name":" Sam's Club","address":" USA-United States"},{"latitude":" 38.64021","longitude":"-90.64907","name":" Sam's Club","address":" USA-United States"},{"latitude":" 39.05570","longitude":"-95.67797","name":" Sam's Club Members Only: 1-Hour Photo","address":" USA-United States"},{"latitude":" 39.36394","longitude":"-74.43985","name":" Sam's Club","address":" USA-United States"},{"latitude":" 39.47676","longitude":"-119.79702","name":" Sam's Club","address":" USA-United States"},{"latitude":" 33.52155","longitude":"-111.91240","name":" Sam's Club Members Only: Pharmacy","address":" USA-United States"},{"latitude":" 30.18123","longitude":"-95.45231","name":" Sam's Club","address":" USA-United States"},{"latitude":" 43.60490","longitude":"-116.50735","name":" Sam's Club Members Only: Bakery","address":" USA-United States"},{"latitude":" 29.95676","longitude":"-90.07461","name":" Sam's Club: Vision Ctr","address":" USA-United States"},{"latitude":" 42.52584","longitude":"-83.35281","name":" Sam's Club","address":" USA-United States"},{"latitude":" 44.96773","longitude":"-93.08116","name":" Sam's Club Members Only: Pharmacy","address":" USA-United States"},{"latitude":" 33.69691","longitude":"-84.08859","name":" Sam's Club","address":" USA-United States"},{"latitude":" 29.50422","longitude":"-98.56972","name":" Sam's Club","address":" USA-United States"},{"latitude":" 42.09623","longitude":"-76.00284","name":" Sam's Club","address":" USA-United States"},{"latitude":" 39.33537","longitude":"-76.48555","name":" Sam's Club","address":" USA-United States"},{"latitude":" 33.80236","longitude":"-118.33046","name":" Sam's Club","address":" USA-United States"},{"latitude":" 30.39014","longitude":"-97.74315","name":" Sam's Club: Pharmacy","address":" USA-United States"},{"latitude":" 36.30607","longitude":"-86.68540","name":" Sam's Club","address":" USA-United States"},{"latitude":" 43.07726","longitude":"-89.38359","name":" Sam's Club: Bakery","address":" USA-United States"},{"latitude":" 26.57210","longitude":"-80.06633","name":" Sam's Club: Bakery","address":" USA-United States"},{"latitude":" 43.04692","longitude":"-87.89904","name":" Sam's Club-Members Only: Receiving Appointments","address":" USA-United States"},{"latitude":" 40.82719","longitude":"-72.99333","name":" Sam's Club","address":" USA-United States"},{"latitude":" 39.98224","longitude":"-83.14374","name":" Sam's Club Members Only","address":" USA-United States"},{"latitude":" 32.49789","longitude":"-93.74449","name":" Sam's Club: Pharmacy","address":" USA-United States"},{"latitude":" 39.70099","longitude":"-104.98755","name":" Sam's Club","address":" USA-United States"},{"latitude":" 38.68169","longitude":"-77.26037","name":" Sam's Club: Receiving Appointments","address":" USA-United States"},{"latitude":" 40.45837","longitude":"-74.40182","name":" Sam's Club-Members Only: Main Store","address":" USA-United States"},{"latitude":" 35.07779","longitude":"-80.87857","name":" Sam's Club","address":" USA-United States"},{"latitude":" 38.64629","longitude":"-121.11883","name":" Sam's Club Members Only","address":" USA-United States"},{"latitude":" 26.19066","longitude":"-98.20678","name":" Sam's Club","address":" USA-United States"},{"latitude":" 41.09882","longitude":"-81.54810","name":" Sam's Club","address":" USA-United States"},{"latitude":" 42.23273","longitude":"-87.94299","name":" Sam's Club","address":" USA-United States"},{"latitude":" 31.24516","longitude":"-85.42854","name":" Sam's Club","address":" USA-United States"},{"latitude":" 39.05204","longitude":"-94.37239","name":" Sam's Club","address":" USA-United States"},{"latitude":" 42.03471","longitude":"-91.68016","name":" Sam's Club-Members Only: General Information","address":" USA-United States"},{"latitude":" 29.35735","longitude":"-98.54833","name":" Sam's Club Members Only: Pizza","address":" USA-United States"},{"latitude":" 40.61377","longitude":"-111.98057","name":" Sam's Club-Members Only: Vision Center","address":" USA-United States"},{"latitude":" 42.96929","longitude":"-82.46242","name":" Sam's Club","address":" USA-United States"},{"latitude":" 37.04945","longitude":"-94.47796","name":" Sam's Club","address":" USA-United States"},{"latitude":" 40.87797","longitude":"-79.95159","name":" Sam's Club","address":" USA-United States"},{"latitude":" 35.05792","longitude":"-79.01751","name":" Sam's Club: 1 Hour Photo","address":" USA-United States"},{"latitude":" 40.90112","longitude":"-74.72369","name":" Sam's Club","address":" USA-United States"},{"latitude":" 35.46407","longitude":"-80.59316","name":" Sam's Club","address":" USA-United States"},{"latitude":" 37.63889","longitude":"-77.55545","name":" Sam's Club Pharmacy","address":" USA-United States"},{"latitude":" 39.13881","longitude":"-84.46829","name":" Sam's Club Members Only: Vision Ctr","address":" USA-United States"},{"latitude":" 29.64274","longitude":"-95.57822","name":" Sam's Club","address":" USA-United States"},{"latitude":" 33.17068","longitude":"-117.21813","name":" Sam's Club","address":" USA-United States"},{"latitude":" 41.04447","longitude":"-73.82499","name":" Sam's Club","address":" USA-United States"},{"latitude":" 37.67330","longitude":"-97.41358","name":" Sam's Club","address":" USA-United States"},{"latitude":" 39.29010","longitude":"-84.29816","name":" Sam's Club","address":" USA-United States"},{"latitude":" 40.76049","longitude":"-111.29655","name":" Sam's Club","address":" USA-United States"},{"latitude":" 34.76976","longitude":"-86.58624","name":" Sam's Club","address":" USA-United States"},{"latitude":" 33.32115","longitude":"-111.87186","name":" Sam's Club Members Only: Pharmacy","address":" USA-United States"},{"latitude":" 31.76017","longitude":"-106.47979","name":" Sam's Club Store","address":" USA-United States"},{"latitude":" 42.22634","longitude":"-88.30752","name":" Sam's Club","address":" USA-United States"},{"latitude":" 35.38406","longitude":"-77.93928","name":" Sam's Club","address":" USA-United States"},{"latitude":" 42.45638","longitude":"-92.35452","name":" Sam's Club","address":" USA-United States"},{"latitude":" 39.77348","longitude":"-89.70811","name":" Sam's Club","address":" USA-United States"},{"latitude":" 32.51980","longitude":"-84.95239","name":" Sam's Club","address":" USA-United States"},{"latitude":" 37.57475","longitude":"-77.54197","name":" Sam's Club-Members Only","address":" USA-United States"},{"latitude":" 33.31435","longitude":"-111.96785","name":" Sam's Club Members Only: Store Information","address":" USA-United States"},{"latitude":" 34.23336","longitude":"-77.87529","name":" Sam's Club","address":" USA-United States"},{"latitude":" 41.41979","longitude":"-82.08390","name":" Sam's Club","address":" USA-United States"},{"latitude":" 31.31725","longitude":"-89.42399","name":" Sam's Club","address":" USA-United States"},{"latitude":" 43.53443","longitude":"-96.68871","name":" Sam's Club-Members Only: Receiving Appointments","address":" USA-United States"},{"latitude":" 42.52000","longitude":"-83.09845","name":" Sam's Club","address":" USA-United States"},{"latitude":" 43.48938","longitude":"-83.97417","name":" Sam's Club","address":" USA-United States"},{"latitude":" 43.05037","longitude":"-89.50465","name":" Sam's Club","address":" USA-United States"},{"latitude":" 32.79422","longitude":"-96.68476","name":" Sam's Club Members Only: Floral Department","address":" USA-United States"},{"latitude":" 38.91726","longitude":"-76.85670","name":" Sam's Club","address":" USA-United States"},{"latitude":" 41.12500","longitude":"-85.15503","name":" Sam's Club","address":" USA-United States"},{"latitude":" 61.21042","longitude":"-149.87715","name":" Sam's Club: Pharmacy","address":" USA-United States"},{"latitude":" 32.86785","longitude":"-96.90991","name":" Sam's Club","address":" USA-United States"},{"latitude":" 32.35662","longitude":"-86.21503","name":" Sam's Club","address":" USA-United States"},{"latitude":" 44.16675","longitude":"-93.91064","name":" Sam's Club","address":" USA-United States"},{"latitude":" 39.34062","longitude":"-76.49374","name":" Sam's Club","address":" USA-United States"},{"latitude":" 33.88508","longitude":"-117.22044","name":" Sam's Club Members Only: Vision Center","address":" USA-United States"},{"latitude":" 36.12598","longitude":"-115.28912","name":" Sam's Club","address":" USA-United States"},{"latitude":" 38.59750","longitude":"-90.47028","name":" Sam's Club Members Only: Pharmacy","address":" USA-United States"},{"latitude":" 41.72173","longitude":"-87.68211","name":" Sam's Club","address":" USA-United States"},{"latitude":" 35.58885","longitude":"-82.58128","name":" Sam's Club","address":" USA-United States"},{"latitude":" 41.70250","longitude":"-71.49663","name":" Sam's Club","address":" USA-United States"},{"latitude":" 31.34027","longitude":"-94.71720","name":" Sam's Club","address":" USA-United States"},{"latitude":" 33.09680","longitude":"-96.79690","name":" Sam's Club","address":" USA-United States"},{"latitude":" 39.92705","longitude":"-86.07319","name":" Sam's Club Members Only","address":" USA-United States"},{"latitude":" 40.18332","longitude":"-80.22167","name":" Sam's Club","address":" USA-United States"},{"latitude":" 32.91803","longitude":"-96.96193","name":" Sam's Club Members Only: Florist","address":" USA-United States"},{"latitude":" 38.61026","longitude":"-121.38600","name":" Sam's Club Connection Center","address":" USA-United States"},{"latitude":" 33.94830","longitude":"-84.51919","name":" Sam's Club","address":" USA-United States"},{"latitude":" 41.12467","longitude":"-81.56685","name":" Sam's Club-Members Only: Connection Center","address":" USA-United States"},{"latitude":" 32.64744","longitude":"-96.86793","name":" Sam's Club","address":" USA-United States"},{"latitude":" 29.61285","longitude":"-95.22135","name":" Sam's Club","address":" USA-United States"},{"latitude":" 35.20147","longitude":"-106.64847","name":" Sam's Club","address":" USA-United States"},{"latitude":" 31.58516","longitude":"-97.10758","name":" Sam's Club","address":" USA-United States"},{"latitude":" 40.47657","longitude":"-86.10491","name":" Sam's Club","address":" USA-United States"},{"latitude":" 40.86013","longitude":"-96.68181","name":" Sam's Club: Pizza","address":" USA-United States"},{"latitude":" 27.99212","longitude":"-82.50523","name":" Sam's Club","address":" USA-United States"},{"latitude":" 35.43508","longitude":"-97.41157","name":" Sam's Club","address":" USA-United States"},{"latitude":" 29.90195","longitude":"-95.59771","name":" Sam's Club","address":" USA-United States"},{"latitude":" 40.30227","longitude":"-79.50502","name":" Sam's Club","address":" USA-United States"},{"latitude":" 42.32312","longitude":"-83.43265","name":" Sam's Club","address":" USA-United States"},{"latitude":" 28.07886","longitude":"-80.68689","name":" Sam's Club","address":" USA-United States"},{"latitude":" 30.04382","longitude":"-95.43062","name":" Sam's Club","address":" USA-United States"},{"latitude":" 29.60997","longitude":"-95.64428","name":" Sam's Club","address":" USA-United States"},{"latitude":" 21.29894","longitude":"-157.84431","name":" Sam's Club-Members Only: Vision Center","address":" USA-United States"},{"latitude":" 42.94164","longitude":"-83.64689","name":" Sam's Club","address":" USA-United States"},{"latitude":" 39.29936","longitude":"-76.49603","name":" Sam's Club","address":" USA-United States"},{"latitude":" 30.47154","longitude":"-91.10888","name":" Sam's Club","address":" USA-United States"},{"latitude":" 31.84046","longitude":"-106.57535","name":" Sam's Club","address":" USA-United States"},{"latitude":" 43.79480","longitude":"-79.53211","name":" Sam's Club","address":" USA-CDN-Vaughan"},{"latitude":" 33.16841","longitude":"-87.51898","name":" Sam's Club: 1-Hour Photo","address":" USA-United States"},{"latitude":" 37.50364","longitude":"-77.62661","name":" Sam's Club","address":" USA-United States"},{"latitude":" 30.26989","longitude":"-97.74358","name":" Sam's Club-Members Only: Pharmacy","address":" USA-United States"},{"latitude":" 38.47608","longitude":"-82.58729","name":" Sam's Club","address":" USA-United States"},{"latitude":" 33.18863","longitude":"-84.21300","name":" Sam's Club","address":" USA-United States"},{"latitude":" 40.54761","longitude":"-80.08432","name":" Sam's Club","address":" USA-United States"},{"latitude":" 33.80267","longitude":"-118.33138","name":" Sam's Club Pharmacy","address":" USA-United States"},{"latitude":" 42.20924","longitude":"-83.67953","name":" Sam's Club Members Only","address":" USA-United States"},{"latitude":" 30.67773","longitude":"-88.12614","name":" Sam's Club: Connection Center","address":" USA-United States"}]