[{"latitude":"61.143074","longitude":"-149.879202","name":"Toys\"R\"Us\/Babies\"R\"Us-Anchorage,AK","address":"8600 King St, Anchorage,AK 99515, (907) 344-8697"},{"latitude":"33.451316","longitude":"-86.730117","name":"Toys\"R\"Us\/Babies\"R\"Us-Birmingham,AL","address":"335 Summit Blvd, Birmingham,AL 35243, (205) 977-2624"},{"latitude":"31.251013","longitude":"-85.426412","name":"Toys\"R\"Us\/Babies\"R\"Us-Dothan,AL","address":"201 Buyers Dr, Dothan,AL 36303, (334) 794-0888"},{"latitude":"30.376431","longitude":"-87.683129","name":"Toys\"R\"Us-Foley,AL","address":"2601 S Mckenzie St [Foley Outlet], Foley,AL 36535, (251) 943-3779"},{"latitude":"33.380477","longitude":"-86.805263","name":"Toys\"R\"Us\/Babies\"R\"Us-Hoover,AL","address":"1715 Montgomery Hwy, Hoover,AL 35226, (205) 733-1551"},{"latitude":"34.702514","longitude":"-86.687434","name":"Toys\"R\"Us\/Babies\"R\"Us-Huntsville,AL","address":"6884 Governors West, Huntsville,AL 35806, (256)971-1216"},{"latitude":"30.676487","longitude":"-88.131947","name":"Babies\"R\"Us-Mobile,AL","address":"3658 A Airport Blvd, Mobile,AL 36608, (251) 304-0950"},{"latitude":"30.673373","longitude":"-88.117788","name":"Toys\"R\"Us-Mobile,AL","address":"429 Bel Air Blvd, Mobile,AL 36606, (251) 470-9891"},{"latitude":"32.38163","longitude":"-86.21258","name":"Toys\"R\"Us-Montgomery,AL","address":"5484 Atlanta Hwy, Montgomery,AL 36109, (334) 272-6706"},{"latitude":"33.185467","longitude":"-87.526304","name":"Toys\"R\"Us-Tuscaloosa,AL","address":"2600 Mcfarland Blvd E, Tuscaloosa,AL 35401, (205) 391-9400"},{"latitude":"36.126836","longitude":"-94.144575","name":"Toys\"R\"Us-Fayetteville,AR","address":"4166 N College Ave, Fayetteville,AR 72701, (479) 442-8697"},{"latitude":"35.362077","longitude":"-94.370575","name":"Toys\"R\"Us-Fort Smith,AR","address":"5609 Rogers Ave, Fort Smith,AR 72903, (479) 484-0002"},{"latitude":"34.65662","longitude":"-92.4121475","name":"Toys\"R\"Us-Little Rock,AR","address":"11201 Bass Pro Pkwy [Outlets Of Little Rock], Little Rock,AR 72210, (501) 455-6344"},{"latitude":"34.747123","longitude":"-92.401555","name":"Toys\"R\"Us-Little Rock,AR","address":"11500 Financial Centre Pkwy, Little Rock,AR 72211, (501) 954-8697"},{"latitude":"34.730793","longitude":"-92.395095","name":"Babies\"R\"Us-Little Rock,AR","address":"2616 S Shackleford Rd, Little Rock,AR 72205, (501) 221-0478"},{"latitude":"34.789443","longitude":"-92.219361","name":"Toys\"R\"Us-North Little Rock,AR","address":"4239 E McCain Blvd, North Little Rock,AR 72117, (501) 945-8020"},{"latitude":"33.316991","longitude":"-111.968635","name":"Toys\"R\"Us-Chandler,AZ","address":"840 N 54th St, Chandler,AZ 85226, (480) 705-7444"},{"latitude":"33.5345656","longitude":"-112.2650439","name":"Toys\"R\"Us-Glendale,AZ","address":"6800 N 95th Ave [Tanger Glendale Outlet], Glendale,AZ 85305, (623) 872-6414"},{"latitude":"33.638456","longitude":"-112.218118","name":"Toys\"R\"Us-Glendale,AZ","address":"7430 W Bell Rd, Glendale,AZ 85308, (623) 979-3622"},{"latitude":"33.638452","longitude":"-112.221494","name":"Babies\"R\"Us-Glendale,AZ","address":"7540 W Bell Rd, Glendale,AZ 85308, (623) 878-3810"},{"latitude":"33.464297","longitude":"-112.388707","name":"Toys\"R\"Us\/Babies\"R\"Us-Goodyear,AZ","address":"15325 W McDowell Rd, Goodyear,AZ 85338, (623) 935-5902"},{"latitude":"33.388562","longitude":"-111.685074","name":"Toys\"R\"Us-Mesa,AZ","address":"1516 S Power Rd, Mesa,AZ 85206, (480) 832-8697"},{"latitude":"33.38285","longitude":"-111.599179","name":"Babies\"R\"Us-Mesa,AZ","address":"1764 S Signal Butte Rd, Mesa,AZ 85209, (480) 354-3262"},{"latitude":"33.602659","longitude":"-111.978278","name":"Toys\"R\"Us-Phoenix,AZ","address":"12801 N Tatum Blvd, Phoenix,AZ 85032, (602) 953-0464"},{"latitude":"33.64018","longitude":"-112.070895","name":"Toys\"R\"Us\/Babies\"R\"Us-Phoenix,AZ","address":"245 E Bell Rd, Phoenix,AZ 85022, (602) 548-0180"},{"latitude":"33.319622","longitude":"-111.979124","name":"Babies\"R\"Us-Phoenix,AZ","address":"4835 East Ray Rd, Phoenix,AZ 95044, (480) 705-0400"},{"latitude":"33.655403","longitude":"-111.929452","name":"Babies\"R\"Us-Phoenix,AZ","address":"7000 E Mayo Blvd, Phoenix,AZ 85050, (480) 585-7362"},{"latitude":"33.5243187","longitude":"-111.905777","name":"Toys\"R\"Us-Scottsdale,AZ","address":"9139 E Talking Stick Wy, Scottsdale,AZ 85250, (480) 948-6266"},{"latitude":"33.38474","longitude":"-111.966988","name":"Toys\"R\"Us-Tempe,AZ","address":"5000 Arizona Mills Circle, Tempe,AZ 85282, (480) 838-1022"},{"latitude":"32.4605713","longitude":"-111.2170334","name":"Toys\"R\"Us-Tucson,AZ","address":"6401 West Marana Center [Tucson Premium Outlets], Tucson,AZ 85742, (520) 744-5665"},{"latitude":"32.288809","longitude":"-110.978454","name":"Toys\"R\"Us-Tucson,AZ","address":"4525 N Oracle Rd, Tucson,AZ 85705, (520) 293-8905"},{"latitude":"32.290543","longitude":"-110.978473","name":"Babies\"R\"Us-Tucson,AZ","address":"4619 N Oracle Rd, Tucson,AZ 85705, (520) 408-1118"},{"latitude":"32.221868","longitude":"-110.878049","name":"Toys\"R\"Us\/Babies\"R\"Us-Tucson,AZ","address":"5355 East Broadway Blvd, Tucson,AZ 85711, (520) 748-8697"},{"latitude":"32.669252","longitude":"-114.628921","name":"Toys\"R\"Us-Yuma,AZ","address":"801 W 32nd St, Yuma,AZ 85365, (928) 344-8697"},{"latitude":"34.087684","longitude":"-118.151591","name":"Toys\"R\"Us\/Babies\"R\"Us-Alhambra,CA","address":"2500 W Commonwealth Ave, Alhambra,CA 91802, (626) 284-8909"},{"latitude":"35.383705","longitude":"-119.111214","name":"Babies\"R\"Us-Bakersfield,CA","address":"9820 Rosedale Hwy, Bakersfield,CA 93312, (661) 587-0423"},{"latitude":"35.339741","longitude":"-119.0457","name":"Toys\"R\"Us\/Babies\"R\"Us-Bakersfield,CA","address":"3792 Ming Ave, Bakersfield,CA 93309, (661) 832-8493"},{"latitude":"35.385807","longitude":"-119.1053","name":"Babies\"R\"Us-Bakersfield,CA","address":"9280 Rosedale Hwy, Bakersfield,CA 93312, (661) 587-0423"},{"latitude":"33.968493","longitude":"-118.164414","name":"Toys\"R\"Us-Bell Gardens,CA","address":"7102 Eastern Ave, Bell Gardens,CA 90201, (323) 771-2135"},{"latitude":"33.91126","longitude":"-117.864506","name":"Babies\"R\"Us-Brea,CA","address":"2575 East Imperial High, Brea,CA 92821, (714) 255-2924"},{"latitude":"37.961484","longitude":"-121.749555","name":"Babies\"R\"Us-Brentwood,CA","address":"5461 Lone Tree Way, Brentwood,CA 94513, (925) 513-0398"},{"latitude":"34.180364","longitude":"-118.319843","name":"Toys\"R\"Us-Burbank,CA","address":"683 North Victory Blvd, Burbank,CA 91502, (818) 841-5037"},{"latitude":"34.155719","longitude":"-118.643969","name":"Babies\"R\"Us-Calabasas,CA","address":"23741 Calabasas Rd, Calabasas,CA 91302, (818) 225-9100"},{"latitude":"32.697833","longitude":"-115.498733","name":"Toys\"R\"Us-Calexico,CA","address":"2600 Rockwood Ave, Calexico,CA 92231, (760) 357-4709"},{"latitude":"34.2158427","longitude":"-119.0587138","name":"Toys\"R\"Us-Camarillo,CA","address":"900 Camarillo Center, Camarillo,CA 93010, (805) 482-1238"},{"latitude":"33.858187","longitude":"-118.092068","name":"Toys\"R\"Us-Cerritos,CA","address":"11340 South St, Cerritos,CA 90701, (562) 924-7389"},{"latitude":"33.858244","longitude":"-118.087914","name":"Babies\"R\"Us-Cerritos,CA","address":"11540 South St, Cerritos,CA 90703, (562) 865-8771"},{"latitude":"33.8586998","longitude":"-118.0922928","name":"Toys\"R\"Us-Cerritos,CA","address":"239 Los Cerritos Center [Los Cerritos Center Mall], Cerritos,CA 90703, (562) 402-5031"},{"latitude":"39.727105","longitude":"-121.805234","name":"Toys\"R\"Us-Chico,CA","address":"1919 East 20Th Street, Chico,CA 95928, (530) 343-6458"},{"latitude":"33.982362","longitude":"-117.700674","name":"Toys\"R\"Us\/Babies\"R\"Us-Chino Hills,CA","address":"4635 Chino Hills Pkwy, Chino Hills,CA 91709, (909) 393-6221"},{"latitude":"32.611344","longitude":"-117.088548","name":"Toys\"R\"Us-Chula Vista,CA","address":"1008A Industrial Blvd, Chula Vista,CA 91911, (619) 420-4048"},{"latitude":"32.593101","longitude":"-117.034599","name":"Babies\"R\"Us-Chula Vista,CA","address":"1860 Main Court, Chula Vista,CA 91911, (619) 421-8556"},{"latitude":"32.6211809","longitude":"-116.9661013","name":"Toys\"R\"Us-Chula Vista,CA","address":"2015 Birch Rd [Otay Ranch Town Ctr], Chula Vista,CA 91915 (619) 421-4289"},{"latitude":"38.678217","longitude":"-121.275741","name":"Toys\"R\"Us-Citrus Heights,CA","address":"7800 Greenback Lane, Citrus Heights,CA 95610, (916) 969-9727"},{"latitude":"34.005005","longitude":"-118.152923","name":"Toys\"R\"Us-City of Commerce,CA","address":"100 Citadel Dr Ste 313, City of Commerce,CA 90040, (323) 725-0318"},{"latitude":"33.993317","longitude":"-117.931461","name":"Toys\"R\"Us\/Babies\"R\"Us-City of Industry,CA","address":"1600 S Azusa Ave, City of Industry,CA 91716, (626) 965-0872"},{"latitude":"36.808799","longitude":"-119.689958","name":"Toys\"R\"Us-Clovis,CA","address":"1425 Shaw Avenue, Clovis,CA 93611, (559) 322-0279 "},{"latitude":"37.673641","longitude":"-122.462402","name":"Babies\"R\"Us-Colma,CA","address":"775 Serramonte Boulevard, Colma,CA 94014, (650) 449-5106"},{"latitude":"33.823325","longitude":"-117.513675","name":"Toys\"R\"Us\/Babies\"R\"Us-Corona,CA","address":"3665 Grand Oaks, Corona,CA 92881, (951) 737-5781"},{"latitude":"33.996718","longitude":"-118.395343","name":"Toys\"R\"Us\/Babies\"R\"Us-Culver City,CA","address":"11136 Jefferson Blvd, Culver City,CA 90230, (310) 398-5775"},{"latitude":"37.706124","longitude":"-121.88648","name":"Babies\"R\"Us-Dublin,CA","address":"4990 Dublin Boulevard, Dublin,CA 94568, (925) 875-0350"},{"latitude":"37.705382","longitude":"-121.928036","name":"Toys\"R\"Us-Dublin,CA","address":"6850 Amador Plaza Road, Dublin,CA 94568, (925) 833-0131"},{"latitude":"38.423622","longitude":"-121.3884","name":"Toys\"R\"Us\/Babies\"R\"Us-Elk Grove,CA","address":"8507 Bond Rd Bldg A, Elk Grove,CA 95624, (916) 686-0290"},{"latitude":"37.828773","longitude":"-122.287174","name":"Toys\"R\"Us\/Babies\"R\"Us-Emeryville,CA","address":"3938 Horton, Emeryville,CA 94608, (510) 637-7003"},{"latitude":"33.110811","longitude":"-117.098926","name":"Toys\"R\"Us-Escondido,CA","address":"1240 Auto Parkway S, Escondido,CA 92029, (760) 747-4975"},{"latitude":"38.263201","longitude":"-122.053131","name":"Babies\"R\"Us-Fairfield,CA","address":"1400 Gateway Boulevard, Fairfield,CA 94533, (707) 207-2049"},{"latitude":"38.644508","longitude":"-121.189659","name":"Toys\"R\"Us-Folsom,CA","address":"13000 Folsom Blvd [Folsom Outlets], Folsom,CA 95630, (916) 608-4138"},{"latitude":"38.65393","longitude":"-121.122733","name":"Babies\"R\"Us-Folsom,CA","address":"2785 E Bidwell Street, Folsom,CA 95630, (916) 817-2022"},{"latitude":"37.502799","longitude":"-121.967791","name":"Toys\"R\"Us\/Babies\"R\"Us-Fremont,CA","address":"43756 Christy St, Fremont,CA 94538, (510) 353-1107"},{"latitude":"36.808509","longitude":"-119.85618","name":"Toys\"R\"Us-Fresno,CA","address":"3520 West Shaw Avenue, Fresno,CA 93711, (559) 275-6123 "},{"latitude":"33.8609","longitude":"-117.92422","name":"Toys\"R\"Us\/Babies\"R\"Us-Fullerton,CA","address":"1100 South Harbor Blvd, Fullerton,CA 92832, (714) 447-4995"},{"latitude":"37.020164","longitude":"-121.563896","name":"Toys\"R\"Us-Gilroy,CA","address":"8225 Arroyo Circle #27, Gilroy,CA 95020, (408) 842-0512"},{"latitude":"33.898855","longitude":"-118.367304","name":"Toys\"R\"Us\/Babies\"R\"Us-Hawthorne,CA","address":"14705 Ocean Gate Ave, Hawthorne,CA 90250, (310) 973-6366"},{"latitude":"37.652358","longitude":"-122.110089","name":"Toys\"R\"Us-Hayward,CA","address":"24011 Hesperian Boulevard, Hayward,CA 94541, (510) 785-5800"},{"latitude":"33.729982","longitude":"-118.002902","name":"Toys\"R\"Us-Huntington Beach,CA","address":"7212 Edinger Ave, Huntington Beach,CA 92647, (714) 848-6357"},{"latitude":"33.741315","longitude":"-116.216559","name":"Toys\"R\"Us\/Babies\"R\"Us-Indio,CA","address":"42500 Jackson St, Indio,CA 92203, (760) 342-9367"},{"latitude":"33.724395","longitude":"-117.790101","name":"Babies\"R\"Us-Irvine,CA","address":"13672 Jamboree Rd, Irvine,CA 92620, (714) 832-7545"},{"latitude":"32.775737","longitude":"-117.020908","name":"Babies\"R\"Us-La Mesa,CA","address":"8165 Fletcher Pkwy, La Mesa,CA 91942, (619) 589-1880"},{"latitude":"32.77384","longitude":"-117.008133","name":"Toys\"R\"Us-La Mesa,CA","address":"8790 Grossmont Blvd, La Mesa,CA 91941, (619) 461-4901"},{"latitude":"34.675041","longitude":"-118.154494","name":"Toys\"R\"Us-Lancaster,CA","address":"1335 W Avenue K, Lancaster,CA 93534, (661) 949-7880"},{"latitude":"37.698708","longitude":"-121.845135","name":"Toys\"R\"Us-Livermore,CA","address":"2774 Livermore Outlet, Livermore,CA 94551"},{"latitude":"34.043521","longitude":"-118.376778","name":"Toys\"R\"Us\/Babies\"R\"Us-Los Angeles,CA","address":"1833 S La Cienega Blvd, Los Angeles,CA 90035, (310) 558-1831"},{"latitude":"34.126467","longitude":"-118.263035","name":"Toys\"R\"Us\/Babies\"R\"Us-Los Angeles,CA","address":"2905 Los Feliz Blvd, Los Angeles,CA 90039, (323) 663-8704"},{"latitude":"34.010225","longitude":"-118.340467","name":"Toys\"R\"Us-Los Angeles,CA","address":"3650 W Mrtn Luther King [Baldwin H Crenshaw Plaza], Los Angeles,CA 90008, (323) 299-7945"},{"latitude":"37.41625","longitude":"-121.894594","name":"Toys\"R\"Us-Milpitas,CA","address":"447 Great Mall Drive, Milpitas,CA 95035, (408) 719-1274"},{"latitude":"33.588088","longitude":"-117.673592","name":"Toys\"R\"Us-Mission Viejo,CA","address":"25362 El Paseo, Mission Viejo,CA 92691, (949) 582-7945"},{"latitude":"37.678956","longitude":"-121.047424","name":"Toys\"R\"Us-Modesto,CA","address":"2700 Sisk Road, Modesto,CA 95350, (209) 527-2288"},{"latitude":"37.688144","longitude":"-121.058172","name":"Babies\"R\"Us-Modesto,CA","address":"3500 Sisk Road, Modesto,CA 95356, (209) 543-6803"},{"latitude":"34.140082","longitude":"-118.013227","name":"Toys\"R\"Us-Monrovia,CA","address":"660 W Huntington Dr, Monrovia,CA 91016, (626) 303-5507"},{"latitude":"34.033113","longitude":"-118.092465","name":"Toys\"R\"Us-Montebello,CA","address":"1445 N Montebello Blvd, Montebello,CA 90640, (323) 724-1399"},{"latitude":"33.566566","longitude":"-117.213327","name":"Babies\"R\"Us-Murrieta,CA","address":"24440 Village Walk Pl, Murrieta,CA 92562, (951) 461-1204"},{"latitude":"33.589902","longitude":"-117.210845","name":"Toys\"R\"Us\/Babies\"R\"Us-Murrieta,CA","address":"39855 Alta Murietta Dr, Murrieta,CA 92562, (951) 696-0532"},{"latitude":"32.659949","longitude":"-117.088114","name":"Toys\"R\"Us\/Babies\"R\"Us-National City,CA","address":"1100 East 30th St, National City,CA 91950, (619) 477-8383"},{"latitude":"34.35853","longitude":"-118.554989","name":"Toys\"R\"Us-Newhall,CA","address":"25510 The Old Rd, Newhall,CA 91381, (661) 260-1599"},{"latitude":"34.278273","longitude":"-118.570618","name":"Toys\"R\"Us\/Babies\"R\"Us-Northridge,CA","address":"11460 Porter Ranch Dr, Northridge,CA 91326, (818) 366-8675"},{"latitude":"33.183122","longitude":"-117.334816","name":"Toys\"R\"Us-Oceanside,CA","address":"2425 Vista Way, Oceanside,CA 92054, (760) 439-7944"},{"latitude":"34.069768","longitude":"-117.554406","name":"Babies\"R\"Us-Ontario,CA","address":"4430 Ontario Mills Pkwy, Ontario,CA 91764, (909) 987-4105"},{"latitude":"34.069768","longitude":"-117.553584","name":"Toys\"R\"Us-Ontario,CA","address":"4460 Ontario Mills Pkwy, Ontario,CA 91764, (909) 987-8894"},{"latitude":"34.223175","longitude":"-119.158325","name":"Babies\"R\"Us-Oxnard,CA","address":"2340 North Rose Ave, Oxnard,CA 93030, (805) 988-5951"},{"latitude":"36.843836","longitude":"-119.790279","name":"Babies\"R\"Us-Pinedale,CA","address":"7370 North Blackstone Rd, Pinedale,CA 93650, (559) 446-1091"},{"latitude":"37.987476","longitude":"-122.311534","name":"Toys\"R\"Us\/Babies\"R\"Us-Pinole,CA","address":"1330 Fitzgerald Drive, Pinole,CA 94564, (510) 758-8697"},{"latitude":"38.006301","longitude":"-121.837935","name":"Toys\"R\"Us-Pittsburg,CA","address":"4505 Century Boulevard, Pittsburg,CA 94565, (925) 706-8697"},{"latitude":"37.977571","longitude":"-122.066009","name":"Toys\"R\"Us\/Babies\"R\"Us-Pleasant Hill,CA","address":"568 Contra Costa Boulevard, Pleasant Hill,CA 94523, (925) 689-9751"},{"latitude":"34.073741","longitude":"-117.208884","name":"Toys\"R\"Us\/Babies\"R\"Us-Redlands,CA","address":"9930 Alabama St, Redlands,CA 92374, (909) 307-2316"},{"latitude":"37.492201","longitude":"-122.222997","name":"Toys\"R\"Us\/Babies\"R\"Us-Redwood City,CA","address":"202 Walnut Street, Redwood City,CA 94063, (650) 367-0186"},{"latitude":"33.911127","longitude":"-117.463256","name":"Toys\"R\"Us-Riverside,CA","address":"10391 Magnolia Ave, Riverside,CA 92505, (951) 687-4542"},{"latitude":"33.942353","longitude":"-117.289387","name":"Toys\"R\"Us\/Babies\"R\"Us-Riverside,CA","address":"2550 Canyon Crossings Pkwy, Riverside,CA 92507, (none listed)"},{"latitude":"38.772859","longitude":"-121.265441","name":"Babies\"R\"Us-Roseville,CA","address":"1248 Galleria Boulevard, Roseville,CA 95678, (916) 784-9741"},{"latitude":"38.781307","longitude":"-121.265898","name":"Toys\"R\"Us-Roseville,CA","address":"6780 Stanford Ranch Road, Roseville,CA 95678, (916) 784-8697"},{"latitude":"38.597363","longitude":"-121.421917","name":"Toys\"R\"Us-Sacramento,CA","address":"1919 Arden Way, Sacramento,CA 95815, (916) 929-9500"},{"latitude":"36.720611","longitude":"-121.666225","name":"Babies\"R\"Us-Salinas,CA","address":"1930 N Davis Road, Salinas,CA 93907, (831) 444-9846"},{"latitude":"36.716736","longitude":"-121.65578","name":"Toys\"R\"Us-Salinas,CA","address":"370 North Ridge Center, Salinas,CA 93906, (831) 443-4455"},{"latitude":"37.63622","longitude":"-122.420871","name":"Toys\"R\"Us-San Bruno,CA","address":"1150 El Camino Real [Tanforan Park Center], San Bruno,CA 94066, (650) 588-5910"},{"latitude":"32.769204","longitude":"-117.203177","name":"Toys\"R\"Us-San Diego,CA","address":"1240 W Morena Blvd, San Diego,CA 92110, (619) 276-7094"},{"latitude":"32.5453582","longitude":"-117.0401376","name":"Toys\"R\"Us-San Diego,CA","address":"4345 Camino De La Plaza [Las Americas Outlets], San Diego,CA 92173, (619) 428-7579"},{"latitude":"32.912452","longitude":"-117.147581","name":"Babies\"R\"Us-San Diego,CA","address":"8181 Mira Mesa Blvd, San Diego,CA 92126, (858) 549-8697"},{"latitude":"37.250567","longitude":"-121.872709","name":"Toys\"R\"Us-San Jose,CA","address":"1082 Blossom Hill Road, San Jose,CA 95123, (408) 266-2600"},{"latitude":"37.304415","longitude":"-121.862202","name":"Toys\"R\"Us\/Babies\"R\"Us-San Jose,CA","address":"2179 Monterey Highway, San Jose,CA 95125, (408) 292-5140"},{"latitude":"37.3241823","longitude":"-121.8117533","name":"Toys\"R\"Us-San Jose,CA","address":"2200 Eastridge Loop, San Jose,CA 95122, (408) 274-2804"},{"latitude":"37.250386","longitude":"-121.856373","name":"Babies\"R\"Us-San Jose,CA","address":"865 Blossom Hill Road, San Jose,CA 95123, (408) 281-1710"},{"latitude":"37.325442","longitude":"-121.813742","name":"Toys\"R\"Us-San Jose,CA","address":"2200 Eastridge Loop [Eastridge Mall], San Jose,CA 95122"},{"latitude":"37.561453","longitude":"-122.282658","name":"Toys\"R\"Us-San Mateo,CA","address":"2270 Bridgepoint Pkwy, San Mateo,CA 94405, (650) 345-4475"},{"latitude":"37.964826","longitude":"-122.513857","name":"Toys\"R\"Us-San Rafael,CA","address":"600 Francisco Boulevard, San Rafael,CA 94901, (415) 721-7188"},{"latitude":"34.438085","longitude":"-119.746696","name":"Toys\"R\"Us-Santa Barbara,CA","address":"121 South Hope Ave [La Cumbre Plaza], Santa Barbara,CA 93105, (805) 687-0219"},{"latitude":"34.415356","longitude":"-118.505449","name":"Babies\"R\"Us-Santa Clarita,CA","address":"26573 Carl Boyer Dr, Santa Clarita,CA 91350, (661) 253-3940"},{"latitude":"36.987651","longitude":"-121.981852","name":"Toys\"R\"Us\/Babies\"R\"Us-Santa Cruz,CA","address":"1660 Commercial Way, Santa Cruz,CA 95065, (831) 479-4296"},{"latitude":"34.934947","longitude":"-120.418453","name":"Toys\"R\"Us\/Babies\"R\"Us-Santa Maria,CA","address":"1411 S Bradley Rd, Santa Maria,CA 93454, (805) 925-5266"},{"latitude":"38.411532","longitude":"-122.713666","name":"Toys\"R\"Us-Santa Rosa,CA","address":"2705 Santa Rosa Avenue, Santa Rosa,CA 95407, (707) 527-6200"},{"latitude":"33.782045","longitude":"-118.0721243","name":"Toys\"R\"Us\/Babies\"R\"Us-Seal Beach,CA","address":"12347 Seal Beach Blvd, Seal Beach,CA 90740, (562) 493-9848"},{"latitude":"34.284203","longitude":"-118.777291","name":"Babies\"R\"Us-Simi Valley,CA","address":"1189 Simi Town Center Way, Simi Valley,CA 93065, (805) 583-1988"},{"latitude":"38.052326","longitude":"-121.375048","name":"Babies\"R\"Us-Stockton,CA","address":"10640 Trinity Parkway, Stockton,CA 95219, (209) 473-9858"},{"latitude":"38.020719","longitude":"-121.320978","name":"Toys\"R\"Us-Stockton,CA","address":"718 West Hammer Lane, Stockton,CA 95210, (209) 473-9877 "},{"latitude":"37.366886","longitude":"-122.031526","name":"Toys\"R\"Us\/Babies\"R\"Us-Sunnyvale,CA","address":"130 East El Camino Real, Sunnyvale,CA 94087, (408) 732-0331"},{"latitude":"34.181493","longitude":"-118.876173","name":"Toys\"R\"Us-Thousand Oaks,CA","address":"179 N Moorpark Rd, Thousand Oaks,CA 91360, (805) 496-4981"},{"latitude":"33.849499","longitude":"-118.353504","name":"Babies\"R\"Us-Torrance,CA","address":"20120 Hawthorne Blvd, Torrance,CA 90503, (310) 370-0338"},{"latitude":"33.827189","longitude":"-118.352161","name":"Toys\"R\"Us-Torrance,CA","address":"22035 Hawthorne Blvd, Torrance,CA 90503, (310) 540-2727"},{"latitude":"37.602028","longitude":"-122.065353","name":"Babies\"R\"Us-Union City,CA","address":"31250 Court House Dr, Union City,CA 94587, (510) 471-0382"},{"latitude":"34.1326647","longitude":"-117.6293432","name":"Toys\"R\"Us\/Babies\"R\"Us-Upland,CA","address":"1295 East 19th St, Upland,CA 91784, (909) 981-2081"},{"latitude":"38.131633","longitude":"-122.216613","name":"Toys\"R\"Us\/Babies\"R\"Us-Vallejo,CA","address":"105 Plaza Dr, Vallejo,CA 94591, (707) 557-5552"},{"latitude":"34.200957","longitude":"-118.482637","name":"Toys\"R\"Us-Van Nuys,CA","address":"16040 Sherman Way, Van Nuys,CA 91406, (818) 780-5115"},{"latitude":"34.213964","longitude":"-118.448644","name":"Babies\"R\"Us-Van Nuys,CA","address":"7886 N Van Nuys Blvd, Van Nuys,CA 91402, (818) 994-2006"},{"latitude":"34.247492","longitude":"-119.19573","name":"Toys\"R\"Us-Ventura,CA","address":"2975 Johnson Dr, Ventura,CA 93004, (805) 642-3764"},{"latitude":"34.475805","longitude":"-117.342657","name":"Toys\"R\"Us\/Babies\"R\"Us-Victorville,CA","address":"12450 Amargosa Rd, Victorville,CA 92392, (760) 951-2955"},{"latitude":"36.3057","longitude":"-119.313606","name":"Toys\"R\"Us-Visalia,CA","address":"2800 S Mooney Boulevard, Visalia,CA 93277, (559) 635-8697 "},{"latitude":"33.170664","longitude":"-117.22011","name":"Babies\"R\"Us-Vista,CA","address":"1990 University Dr, Vista,CA 92083, (760) 732-3235"},{"latitude":"34.070771","longitude":"-117.924053","name":"Toys\"R\"Us\/Babies\"R\"Us-West Covina,CA","address":"960 Lakes Dr, West Covina,CA 91790, (626) 917-3038"},{"latitude":"33.748984","longitude":"-118.014649","name":"Babies\"R\"Us-Westminster,CA","address":"530 Westminster Mall, Westminster,CA 92683, (714) 653-7031"},{"latitude":"34.184301","longitude":"-118.606049","name":"Toys\"R\"Us-Woodland Hills,CA","address":"6245 Topanga Canyon Blvd, Woodland Hills,CA 91367, (818) 346-9751"},{"latitude":"39.132777","longitude":"-121.635668","name":"Toys\"R\"Us-Yuba City,CA","address":"700 A Onstott Road, Yuba City,CA 95993, (530) 671-2290"},{"latitude":"39.7348773","longitude":"-105.1594739","name":"Toys\"R\"Us-Applewood,CO","address":"14500 W Colfax Ave [Colorado Mills], Applewood,CO 80401, (303) 278-0093"},{"latitude":"39.6956983","longitude":"-104.863248","name":"Toys\"R\"Us\/Babies\"R\"Us-Aurora,CO","address":"1150 S Ironton, Aurora,CO 80012, (303) 751-7425"},{"latitude":"38.840748","longitude":"-104.76258","name":"Babies\"R\"Us-Colorado Springs,CO","address":"3555 Citadel Drive South, Colorado Springs,CO 80909, (719) 574-7737"},{"latitude":"38.845858","longitude":"-104.75888","name":"Toys\"R\"Us\/Babies\"R\"Us-Colorado Springs,CO","address":"3730 N Citadel Dr, Colorado Springs,CO 80909, (719) 597-8697"},{"latitude":"39.566208","longitude":"-104.878846","name":"Toys\"R\"Us-Englewood,CO","address":"9505 E County Line Rd, Englewood,CO 80112, (303) 790-8697"},{"latitude":"40.527786","longitude":"-105.026609","name":"Toys\"R\"Us\/Babies\"R\"Us-Fort Collins,CO","address":"4250 Corbett Dr, Fort Collins,CO 80525, (970) 223-1020"},{"latitude":"39.560729","longitude":"-104.906118","name":"Babies\"R\"Us-Highlands Ranch,CO","address":"7155 Business Center Dr, Highlands Ranch,CO 80130, (303) 346-6266"},{"latitude":"39.622914","longitude":"-105.090889","name":"Toys\"R\"Us\/Babies\"R\"Us-Littleton,CO","address":"5142 South Wadsworth, Littleton,CO 80123, (303) 932-2229"},{"latitude":"39.995305","longitude":"-104.978173","name":"Toys\"R\"Us\/Babies\"R\"Us-Thornton,CO","address":"16511 N Washington St, Thornton,CO 80023, (303) 451-1284"},{"latitude":"39.856195","longitude":"-105.049941","name":"Toys\"R\"Us-Westminster,CO","address":"5650 W 88th Ave, Westminster,CO 80030, (303) 426-8697"},{"latitude":"39.866299","longitude":"-105.052867","name":"Babies\"R\"Us-Westminster,CO","address":"9330 Sheridan Blvd, Westminster,CO 80030, (303) 650-2229"},{"latitude":"41.375064","longitude":"-73.487557","name":"Toys\"R\"Us-Danbury,CT","address":"19 Backus Avenue, Danbury,CT 06810, (203) 778-9913"},{"latitude":"41.375067","longitude":"-73.48756","name":"Babies\"R\"Us-Danbury,CT","address":"19 Backus Avenue, Danbury,CT 06810, (203) 790-8898"},{"latitude":"41.3786034","longitude":"-73.4770862","name":"Toys\"R\"Us-Danbury,CT","address":"7 Backus Ave [Danbury Mall], Danbury,CT 06810, (203) 730-0473"},{"latitude":"41.80454","longitude":"-72.560865","name":"Toys\"R\"Us-Manchester,CT","address":"1460 Pleasant Valley Rd, Manchester,CT 06040, (860) 644-7606"},{"latitude":"41.811266","longitude":"-72.530855","name":"Babies\"R\"Us-Manchester,CT","address":"169 Hale Road, Manchester,CT 06040, (860) 644-6084"},{"latitude":"41.76857","longitude":"-72.520664","name":"Babies\"R\"Us-Milford,CT","address":"1522\/24 Boston Post Rd, Milford,CT 06040, (203) 876-9979"},{"latitude":"41.234796","longitude":"-73.02726","name":"Toys\"R\"Us-Milford,CT","address":"330 Oldgate Lane, Milford,CT 06460, (203) 874-0750"},{"latitude":"41.651944","longitude":"-72.727888","name":"Toys\"R\"Us-Newington,CT","address":"3491 Berlin Turnpike, Newington,CT 06111, (860) 667-3434"},{"latitude":"41.356506","longitude":"-72.872061","name":"Toys\"R\"Us\/Babies\"R\"Us-North Haven,CT","address":"376 Universal Drive N, North Haven,CT 06473, (203) 407-8697"},{"latitude":"41.107495","longitude":"-73.42201","name":"Toys\"R\"Us\/Babies\"R\"Us-Norwalk,CT","address":"59 Connecticut Ave, Norwalk,CT 06851, (203)852-6988"},{"latitude":"41.552048","longitude":"-73.03259","name":"Toys\"R\"Us\/Babies\"R\"Us-Waterbury,CT","address":"275 Union St, Waterbury,CT 06706, (203) 574-4457"},{"latitude":"41.37251","longitude":"-72.136135","name":"Toys\"R\"Us-Waterford,CT","address":"5 Dayton Road, Waterford,CT 06385, (860) 443-6637"},{"latitude":"41.381833","longitude":"-72.153464","name":"Babies\"R\"Us-Waterford,CT","address":"915 Hartford Tpke, Waterford,CT 06385, (860) 447-4589"},{"latitude":"41.72444","longitude":"-72.760061","name":"Toys\"R\"Us-West Hartford,CT","address":"1471 New Britain Ave, West Hartford,CT 06110, (860) 521-4880"},{"latitude":"41.719773","longitude":"-72.761531","name":"Babies\"R\"Us-West Hartford,CT","address":"1559 New Britain Avenue, West Hartford,CT 06110, (860) 561-0329"},{"latitude":"39.185728","longitude":"-75.53526","name":"Toys\"R\"Us-Dover,DE","address":"1061 N Dupont Hwy, Dover,DE 19901, (302) 736-3343"},{"latitude":"39.68745","longitude":"-75.652905","name":"Toys\"R\"Us-Newark,DE","address":"10 Geoffrey Dr, Newark,DE 19702, (302) 731-4566"},{"latitude":"39.691248","longitude":"-75.665225","name":"Babies\"R\"Us-Newark,DE","address":"1317 New Churchmans Rd, Newark,DE 19713, (302) 266-8194"},{"latitude":"28.662851","longitude":"-81.38005","name":"Toys\"R\"Us-Altamonte Springs,FL","address":"350 E Altamonte Dr, Altamonte Springs,FL 32701, (407) 834-7300"},{"latitude":"28.662721","longitude":"-81.410913","name":"Babies\"R\"Us-Altamonte Springs,FL","address":"708 W SR 436, Altamonte Springs,FL 32714, (407) 772-9190"},{"latitude":"25.954141","longitude":"-80.145729","name":"Babies\"R\"Us-Aventura,FL","address":"2745 NE 193rd St, Aventura,FL 33180, (305) 705-9893"},{"latitude":"25.9540529","longitude":"-80.1456841","name":"Toys\"R\"Us-Aventura,FL","address":"2747 NE 193rd St [Tru Aventura], Aventura,FL 33180, (305) 682-8986"},{"latitude":"26.353571","longitude":"-80.203568","name":"Babies\"R\"Us-Boca Raton,FL","address":"21697 SR 7, Boca Raton,FL 33428, (561) 477-3337"},{"latitude":"26.533962","longitude":"-80.090842","name":"Toys\"R\"Us-Boynton Beach,FL","address":"601 N Congress Ave, Boynton Beach,FL 33435, (561) 369-1559"},{"latitude":"27.462553","longitude":"-82.56735","name":"Toys\"R\"Us-Bradenton,FL","address":"512 Cortez Rd W, Bradenton,FL 34207, (941) 753-6151"},{"latitude":"27.966021","longitude":"-82.729418","name":"Babies\"R\"Us-Clearwater,FL","address":"21315 US 19 North, Clearwater,FL 33765, (727) 726-6333"},{"latitude":"28.010625","longitude":"-82.733216","name":"Toys\"R\"Us-Clearwater,FL","address":"26286 Us 19N, Clearwater,FL 33761, (727) 797-5222"},{"latitude":"26.274327","longitude":"-80.204835","name":"Toys\"R\"Us\/Babies\"R\"Us-Coral Springs,FL","address":"6001 West Sample Rd, Coral Springs,FL 33067, (954) 341-2583"},{"latitude":"25.586209","longitude":"-80.362188","name":"Toys\"R\"Us\/Babies\"R\"Us-Cutler Bay,FL","address":"19525 South Dixie Hwy, Cutler Bay,FL 33157, (305) 233-6122"},{"latitude":"29.181008","longitude":"-81.079403","name":"Toys\"R\"Us\/Babies\"R\"Us-Daytona Beach,FL","address":"2455 W International Speedway Blvd, Daytona Beach,FL 32114, (386) 255-9828"},{"latitude":"26.483815","longitude":"-81.788164","name":"Babies\"R\"Us-Fort Myers,FL","address":"10002 Gulf Center Dr, Fort Myers,FL 33913, (239) 433-6837"},{"latitude":"26.587673","longitude":"-81.871648","name":"Toys\"R\"Us-Fort Myers,FL","address":"4983 S Cleveland Ave, Fort Myers,FL 33907, (239) 275-7409"},{"latitude":"29.659442","longitude":"-82.414903","name":"Toys\"R\"Us-Gainesville,FL","address":"6711 W Newberry Rd, Gainesville,FL 32605, (352) 331-7778"},{"latitude":"25.86651","longitude":"-80.293139","name":"Toys\"R\"Us-Hialeah,FL","address":"500 W 49th St, Hialeah,FL 33012, (305) 557-6704"},{"latitude":"30.254613","longitude":"-81.535056","name":"Toys\"R\"Us\/Babies\"R\"Us-Jacksonville,FL","address":"4875 Town Center Pkwy, Jacksonville,FL 32246, (904) 997-6291"},{"latitude":"30.191449","longitude":"-81.741699","name":"Babies\"R\"Us-Jacksonville,FL","address":"6001 Argyle Forest Blvd, Jacksonville,FL 32244, (904) 908-9696"},{"latitude":"27.248964","longitude":"-80.27467","name":"Toys\"R\"Us\/Babies\"R\"Us-Jensen Beach,FL","address":"3550 NW Federal Hwy, Jensen Beach,FL 34957, (772) 692-1952"},{"latitude":"28.342249","longitude":"-81.428396","name":"Babies\"R\"Us-Kissimmee,FL","address":"2601 W Osceola Pkwy, Kissimmee,FL 34741, (407) 846-1433"},{"latitude":"26.193579","longitude":"-80.249133","name":"Babies\"R\"Us-Lauderhill,FL","address":"7350 W Commercial Blvd, Lauderhill,FL 33319, (954) 741-4300"},{"latitude":"28.1170406","longitude":"-82.7374268","name":"Toys\"R\"Us-Lutz,FL","address":"2398 Grand Cypress Dr [Tampa Premium Outlets], Lutz,FL 33558, (813) 949-7569"},{"latitude":"28.078542","longitude":"-80.64233","name":"Toys\"R\"Us-Melbourne,FL","address":"1275 W New Haven Ave, Melbourne,FL 32904, (321) 952-2412"},{"latitude":"25.7828099","longitude":"-80.3768275","name":"Toys\"R\"Us-Miami,FL","address":"11401 NW 12th St [Dolphin Mall], Miami,FL 33172, (305) 471-0283"},{"latitude":"25.684627","longitude":"-80.444971","name":"Babies\"R\"Us-Miami,FL","address":"15625 North Kendall Dr, Miami,FL 33196, (305) 382-4060"},{"latitude":"25.790059","longitude":"-80.36858","name":"Toys\"R\"Us-Miami,FL","address":"1645 Northwest 107th Ave, Miami,FL 33172, (305) 593-1517"},{"latitude":"25.750463","longitude":"-80.249671","name":"Toys\"R\"Us-Miami,FL","address":"3301 Coral Way [Miracle Marketplace], Miami,FL 33145, (305) 443-9004"},{"latitude":"25.693116","longitude":"-80.302834","name":"Toys\"R\"Us-Miami,FL","address":"8325 S Dixie Hwy, Miami,FL 33143, (305) 662-1911"},{"latitude":"25.747809","longitude":"-80.337044","name":"Babies\"R\"Us-Miami,FL","address":"8755 SW 24th St, Miami,FL 33165, (305) 226-8334"},{"latitude":"25.686903","longitude":"-80.384263","name":"Toys\"R\"Us-Miami,FL","address":"8789 SW 117th Ave, Miami,FL 33183, (305) 273-9311"},{"latitude":"26.211984","longitude":"-81.768664","name":"Toys\"R\"Us-Naples,FL","address":"5305 Airport Pulling Rd N, Naples,FL 34109, (239) 514-8697"},{"latitude":"25.928754","longitude":"-80.189231","name":"Toys\"R\"Us-North Miami Beach,FL","address":"551 NE 167th St, North Miami Beach,FL 33162, (305) 653-8697"},{"latitude":"29.164086","longitude":"-82.170758","name":"Toys\"R\"Us\/Babies\"R\"Us-Ocala,FL","address":"2800 SW College Rd, Ocala,FL 34474, (352) 237-4644"},{"latitude":"30.186792","longitude":"-81.741376","name":"Toys\"R\"Us-Orange Park,FL","address":"1972 Wells Rd, Orange Park,FL 32073, (904) 276-5492"},{"latitude":"28.4747245","longitude":"-81.4490727","name":"Toys\"R\"Us-Orlando,FL","address":"4951 International Dr [Orlando Intl Outlets], Orlando,FL 32819, (407) 204-8786"},{"latitude":"28.560553","longitude":"-81.207219","name":"Toys\"R\"Us\/Babies\"R\"Us-Orlando,FL","address":"1250 Alafaya Trail, Orlando,FL 32828, (407) 736-8089"},{"latitude":"28.44548","longitude":"-81.400672","name":"Toys\"R\"Us-Orlando,FL","address":"1631 Florida Mall Ave, Orlando,FL 32809, (407) 859-4831"},{"latitude":"28.496314","longitude":"-81.428635","name":"Toys\"R\"Us\/Babies\"R\"Us-Orlando,FL","address":"4607 Millenia Plaza Way, Orlando,FL 32839, (407) 226-0139"},{"latitude":"28.386004","longitude":"-81.496092","name":"Toys\"R\"Us-Orlando,FL","address":"8200 Vineland Ave [Premium Outlets], Orlando,FL 32821, (407) 238-9630"},{"latitude":"26.845245","longitude":"-80.086251","name":"Toys\"R\"Us-Palm Beach Gardens,FL","address":"3195 PGA Blvd, Palm Beach Gardens,FL 33410, (561) 624-8905"},{"latitude":"30.189693","longitude":"-85.646901","name":"Toys\"R\"Us-Panama City,FL","address":"809 E 23rd St, Panama City,FL 32401, (850) 747-9950"},{"latitude":"26.0075","longitude":"-80.307602","name":"Babies\"R\"Us-Pembroke Pines,FL","address":"11930 Pines Blvd, Pembroke Pines,FL 33026, (954) 441-8600"},{"latitude":"26.007978","longitude":"-80.309959","name":"Toys\"R\"Us-Pembroke Pines,FL","address":"12235 Pines Blvd, Pembroke Pines,FL 33026, (954) 433-0308"},{"latitude":"30.500671","longitude":"-87.223686","name":"Toys\"R\"Us\/Babies\"R\"Us-Pensacola,FL","address":"7171 N Davis Hwy, Pensacola,FL 32504, (850) 484-4170"},{"latitude":"26.121042","longitude":"-80.255701","name":"Toys\"R\"Us-Plantation,FL","address":"8101 W Broward Blvd, Plantation,FL 33324, (954) 474-1404"},{"latitude":"28.297116","longitude":"-82.710984","name":"Toys\"R\"Us-Port Richey,FL","address":"6233 Tacoma Dr, Port Richey,FL 34668, (727) 842-8697"},{"latitude":"27.267764","longitude":"-80.429528","name":"Babies\"R\"Us-Port St Lucie,FL","address":"10732 SW Village Pkwy, Port St Lucie,FL 43987, (772) 345-2229"},{"latitude":"29.9255703","longitude":"-81.4141423","name":"Toys\"R\"Us-Saint Augustine,FL","address":"500 Outlet Mall Dr [St Augustine Prime], Saint Augustine,FL 32084, (904) 826-4159"},{"latitude":"27.789277","longitude":"-82.724915","name":"Toys\"R\"Us-Saint Petersburg,FL","address":"1900 Tyrone Boulevard, Saint Petersburg,FL 33710, (727) 347-7272 "},{"latitude":"28.806156","longitude":"-81.335807","name":"Toys\"R\"Us-Sanford,FL","address":"101 Town Center Blvd, Sanford,FL 32771"},{"latitude":"26.152876","longitude":"-80.315685","name":"Toys\"R\"Us-Sunrise,FL","address":"12801 West Sunrise Blvd [Sawgrass Mills Outlet], Sunrise,FL 33323, (954) 851-1033"},{"latitude":"30.433494","longitude":"-84.253349","name":"Toys\"R\"Us\/Babies\"R\"Us-Tallahassee,FL","address":"1625 Apalachee Pkwy, Tallahassee,FL 32301, (850) 656-5701"},{"latitude":"27.995861","longitude":"-82.508462","name":"Babies\"R\"Us-Tampa,FL","address":"3908 W Hillsborough Ave, Tampa,FL 33614, (813) 873-1116"},{"latitude":"28.22897","longitude":"-82.374399","name":"Toys\"R\"Us\/Babies\"R\"Us-Wesley Chapel,FL","address":"6105 Wesley Chapel Blvd, Wesley Chapel,FL 33544, (813) 929-6230"},{"latitude":"26.7237845","longitude":"-80.0849763","name":"Toys\"R\"Us-West Palm Beach,FL","address":"1751 Palm Beach Lks Blv [West Palm Beach Outlets], West Palm Beach,FL 33401, (561) 615-8020"},{"latitude":"26.6802902","longitude":"-80.2024536","name":"Toys\"R\"Us\/Babies\"R\"Us-West Palm Beach,FL","address":"450 South SR 7, West Palm Beach,FL 33414, (561) 784-1190"},{"latitude":"31.614457","longitude":"-84.217001","name":"Toys\"R\"Us-Albany,GA","address":"2601 H1 Dawson Rd, Albany,GA 31707, (229) 432-1206"},{"latitude":"34.046684","longitude":"-84.293447","name":"Babies\"R\"Us-Alpharetta,GA","address":"6380 North Point Parkwa, Alpharetta,GA 30022, (770) 752-9000"},{"latitude":"34.0868045","longitude":"-84.2567389","name":"Toys\"R\"Us-Alpharetta,GA","address":"7731 Northpoint Parkway, Alpharetta,GA 30022, (770) 518-9188"},{"latitude":"33.9415894","longitude":"-83.4732208","name":"Toys\"R\"Us-Athens,GA","address":"3900 Atlanta Highway, Athens,GA 30606, (706) 613-7003"},{"latitude":"33.880701","longitude":"-84.461992","name":"Toys\"R\"Us\/Babies\"R\"Us-Atlanta,GA","address":"2955 Cobb Pkwy, Atlanta,GA 30339, (770) 956-9224"},{"latitude":"33.4678","longitude":"-82.077632","name":"Toys\"R\"Us-Augusta,GA","address":"3424 Wrightsboro Road, Augusta,GA 30909, (706) 733-8282"},{"latitude":"34.070754","longitude":"-83.986122","name":"Toys\"R\"Us\/Babies\"R\"Us-Buford,GA","address":"3480 Financial Centr Wy, Buford,GA 30519, (678) 714-6146"},{"latitude":"32.546499","longitude":"-84.943934","name":"Toys\"R\"Us\/Babies\"R\"Us-Columbus,GA","address":"5555 Whittlessey Boulevard Ste 2300, Columbus,GA 31907, (706) 257-9843"},{"latitude":"34.250951","longitude":"-83.471353","name":"Toys\"R\"Us-Commerce,GA","address":"800 Steven B Tanger Blvd [Commerce Outlet Mall], Commerce,GA 30529, (706) 335-6105"},{"latitude":"34.3563254","longitude":"-84.0458769","name":"Toys\"R\"Us-Dawsonville,GA","address":"800 Hwy 400 S [North Georgia Outlets], Dawsonville,GA 30534, (706) 265-3775"},{"latitude":"33.727792","longitude":"-84.755892","name":"Babies\"R\"Us-Douglasville,GA","address":"6875 Douglas Boulevard, Douglasville,GA 30135, (770) 949-2209"},{"latitude":"33.728286","longitude":"-84.738402","name":"Toys\"R\"Us-Douglasville,GA","address":"9365 The Landing Drive Ste B, Douglasville,GA 30135, (770) 577-5755"},{"latitude":"33.960409","longitude":"-84.135782","name":"Toys\"R\"Us-Duluth,GA","address":"2205 Pleasant Hill Rd Nw, Duluth,GA 30096, (770) 885-1007"},{"latitude":"33.93937","longitude":"-84.347119","name":"Babies\"R\"Us-Dunwoody,GA","address":"1155 Mount Vernon Highway Ste 300, Dunwoody,GA 30338, (770) 913-0222"},{"latitude":"33.391604","longitude":"-84.761962","name":"Babies\"R\"Us-East Newnan,GA","address":"221 Newnan Crossing bypass, East Newnan,GA 30263, (770) 502-1816"},{"latitude":"33.526869","longitude":"-82.121179","name":"Babies\"R\"Us-Evans,GA","address":"4225 Washington Road, Evans,GA 30809, (706) 210-7858"},{"latitude":"33.479275","longitude":"-84.443956","name":"Toys\"R\"Us\/Babies\"R\"Us-Fayetteville,GA","address":"132 Pavillion Pkwy, Fayetteville,GA 30214, (678) 817-0359"},{"latitude":"33.999811","longitude":"-84.580854","name":"Babies\"R\"Us-Kennesaw,GA","address":"1875 Greers Chapel Road, Kennesaw,GA 30144, (770) 919-2229"},{"latitude":"34.009349","longitude":"-84.564533","name":"Toys\"R\"Us-Kennesaw,GA","address":"501 Roberts Court, Kennesaw,GA 30144, (770) 424-9100"},{"latitude":"33.698517","longitude":"-84.088431","name":"Toys\"R\"Us-Lithonia,GA","address":"2918 Turner Hill Road, Lithonia,GA 30058, (770) 484-6757"},{"latitude":"33.691999","longitude":"-84.090746","name":"Babies\"R\"Us-Lithonia,GA","address":"8160 Mall Parkway, Lithonia,GA 30058, (770) 484-9697"},{"latitude":"33.347908","longitude":"-84.1224594","name":"Toys\"R\"Us-Locust Grove,GA","address":"1000 Tanger Blvd [Locust Grove Outlet], Locust Grove,GA 30248, (770) 320-9595"},{"latitude":"33.423777","longitude":"-84.1891316","name":"Toys\"R\"Us\/Babies\"R\"Us-McDonough,GA","address":"209 South Point Blvd, McDonough,GA 30252, (770) 288-2453"},{"latitude":"34.182794","longitude":"-85.205087","name":"Toys\"R\"Us-Rome,GA","address":"2780 Martha Berry Highway, Rome,GA 30161, (706) 728-9001"},{"latitude":"32.008615","longitude":"-81.11486","name":"Toys\"R\"Us\/Babies\"R\"Us-Savannah,GA","address":"7400 Abercorn St, Savannah,GA 31406, (912) 354-5222"},{"latitude":"30.841777","longitude":"-83.324916","name":"Toys\"R\"Us-Valdosta,GA","address":"1200 N Saint Augustine Rd, Valdosta,GA 31602, (229) 241-1050"},{"latitude":"32.617762","longitude":"-83.690323","name":"Toys\"R\"Us-Warner Robins,GA","address":"3000 Watson Boulevard, Warner Robins,GA 31093, (478) 953-1892"},{"latitude":"34.1222343","longitude":"-84.524043","name":"Toys\"R\"Us-Woodstock,GA","address":"915 Ridgewalk Pkwy [Outlets at Atlanta], Woodstock,GA 30188, (678) 445-1818"},{"latitude":"21.379701","longitude":"-157.930896","name":"Toys\"R\"Us-Aiea,HI","address":"98\/211 Pali Momi St, Aiea,HI 96701, (808) 487-5811"},{"latitude":"21.291158","longitude":"-157.844039","name":"Toys\"R\"Us-Ala Moana,HI","address":"1450 Ala Moana Blvd [Ala Moana Center Mall], Ala Moana,HI 96814, (808) 946-0327"},{"latitude":"20.8872261","longitude":"-156.4753418","name":"Toys\"R\"Us-Kahului,HI","address":"275 W Kaahumanu Ave [Queen Ka'Ahumanu Center], Kahului,HI 96732, (808) 873-6490"},{"latitude":"20.887239","longitude":"-156.475341","name":"Toys\"R\"Us-Kahului,HI","address":"275 W Ka'Ahumanu Ave [Queen Ka'Ahumanu Ctr], Kahului,HI 96732, (808) 873-6490"},{"latitude":"21.420525","longitude":"-157.803365","name":"Toys\"R\"Us-Kaneohe,HI","address":"46-056 Kamehameha Hwy [Windward Mall], Kaneohe,HI 96744, (808) 235-6302"},{"latitude":"21.403948","longitude":"-157.963247","name":"Babies\"R\"Us-Pearl City,HI","address":"1150 Kuala St [Pearl City Gateway], Pearl City,HI 96782, (808) 454-8444"},{"latitude":"41.954594","longitude":"-91.725601","name":"Toys\"R\"Us\/Babies\"R\"Us-Cedar Rapids,IA","address":"2425 Wiley Boulevard, Cedar Rapids,IA 52404, (319) 396-0445 "},{"latitude":"41.600534","longitude":"-93.73954","name":"Babies\"R\"Us-Clive,IA","address":"8801 [9587] University Avenue, Clive,IA 50325, (515) 226-3131"},{"latitude":"41.600564","longitude":"-93.739573","name":"Toys\"R\"Us-Clive,IA","address":"8801 University Avenue, Clive,IA 50325, (515) 225-7464"},{"latitude":"41.2294706","longitude":"-95.8474302","name":"Toys\"R\"Us-Council Bluffs,IA","address":"3145 Manawa Center Dr, Council Bluffs,IA 51501, (712) 366-6754"},{"latitude":"41.560528","longitude":"-90.570022","name":"Toys\"R\"Us\/Babies\"R\"Us-Davenport,IA","address":"200 E Kimberly Rd, Davenport,IA 52806, (563) 386-8697"},{"latitude":"41.526115","longitude":"-93.599739","name":"Toys\"R\"Us-Des Moines,IA","address":"1211 East Army Post Road, Des Moines,IA 50315, (515) 285-5488"},{"latitude":"41.570167","longitude":"-93.80767","name":"Toys\"R\"Us-West Des Moines,IA","address":"101 Jordan Creek Pkwy [Jordan Creek Town Center], West Des Moines,IA 50266, (515) 223-1993"},{"latitude":"43.482222","longitude":"-111.984765","name":"Toys\"R\"Us-Idaho Falls,ID","address":"2395 E 17th Street, Idaho Falls,ID 83401, (208) 524-7070 "},{"latitude":"43.6238933","longitude":"-116.3543344","name":"Toys\"R\"Us\/Babies\"R\"Us-Meridian,ID","address":"2070 N Eagle Rd, Meridian,ID 83646, (208) 887-3828"},{"latitude":"42.16008","longitude":"-88.335831","name":"Toys\"R\"Us\/Babies\"R\"Us-Algonquin,IL","address":"826 S Randall Road, Algonquin,IL 60102, (847) 458-0439"},{"latitude":"41.8012445","longitude":"-88.2778341","name":"Toys\"R\"Us-Aurora,IL","address":"1650 Premium Outlet Blvd [Chicago Premium Outlet], Aurora,IL 60502, (630) 499-1444"},{"latitude":"41.760129","longitude":"-88.216638","name":"Toys\"R\"Us-Aurora,IL","address":"4070 Fox Valley Cntr Dr, Aurora,IL 60504, (630) 851-7600"},{"latitude":"41.800774","longitude":"-88.273048","name":"Toys\"R\"Us-Aurora,IL","address":"1650 Premium Outlet Blvd, Aurora,IL 60502"},{"latitude":"41.938335","longitude":"-88.115592","name":"Toys\"R\"Us-Bloomingdale,IL","address":"404 W Army Trail Rd, Bloomingdale,IL 60108, (630) 529-3399"},{"latitude":"40.486067","longitude":"-88.951604","name":"Toys\"R\"Us\/Babies\"R\"Us-Bloomington,IL","address":"1703 East Empire, Bloomington,IL 61701, (309) 662-6464"},{"latitude":"41.751977","longitude":"-87.741636","name":"Babies\"R\"Us-Burbank,IL","address":"7750 South Cicero Avenu, Burbank,IL 60459, (708) 424-8755"},{"latitude":"41.744486","longitude":"-87.741375","name":"Toys\"R\"Us-Burbank,IL","address":"8148 S Cicero Avenue, Burbank,IL 60459, (708) 636-4600"},{"latitude":"40.135926","longitude":"-88.241854","name":"Toys\"R\"Us\/Babies\"R\"Us-Champaign,IL","address":"40 East Anthony Drive, Champaign,IL 61820, (217) 356-8697 "},{"latitude":"41.941631","longitude":"-87.688414","name":"Toys\"R\"Us\/Babies\"R\"Us-Chicago,IL","address":"3300 N Western Ave, Chicago,IL 60618, (773) 525-1960"},{"latitude":"41.923739","longitude":"-87.785835","name":"Babies\"R\"Us-Chicago,IL","address":"6420 W Fullertonsuite A, Chicago,IL 60707, (773) 413-5005"},{"latitude":"41.834303","longitude":"-88.019933","name":"Toys\"R\"Us-Downers Grove,IL","address":"1434 Butterfield Road, Downers Grove,IL 60515, (630) 629-2200"},{"latitude":"41.7512","longitude":"-88.019245","name":"Toys\"R\"Us-Downers Grove,IL","address":"1500 75th Street, Downers Grove,IL 60516, (630) 964-7124"},{"latitude":"38.598005","longitude":"-89.990104","name":"Babies\"R\"Us-Fairview Heights,IL","address":"114 Commerce Ln, Fairview Heights,IL 62208, (618) 398-7099"},{"latitude":"38.598073","longitude":"-89.990091","name":"Toys\"R\"Us\/Babies\"R\"Us-Fairview Heights,IL","address":"120 Commerce Ln, Fairview Heights,IL 62208, 618) 394-1100"},{"latitude":"42.385419","longitude":"-87.953507","name":"Toys\"R\"Us\/Babies\"R\"Us-Gurnee,IL","address":"6050 Gurnee Mills Boulevard, Gurnee,IL 60031, (847) 855-8697"},{"latitude":"42.383375","longitude":"-87.95531","name":"Toys\"R\"Us-Gurnee,IL","address":"6170 W Grand Ave [Gurnee Mills], Gurnee,IL 60031, (847) 855-5961"},{"latitude":"42.177827","longitude":"-87.822703","name":"Toys\"R\"Us-Highland Park,IL","address":"1610 Deerfield Road, Highland Park,IL 60035, (847) 831-5500"},{"latitude":"41.575961","longitude":"-88.160558","name":"Toys\"R\"Us-Joliet,IL","address":"3128 Voyager Lane, Joliet,IL 60435, (815) 439-1009 "},{"latitude":"37.744956","longitude":"-88.976218","name":"Toys\"R\"Us-Marion,IL","address":"2904 West Deyoung St, Marion,IL 62959, (618) 997-1892"},{"latitude":"41.505984","longitude":"-87.735238","name":"Toys\"R\"Us-Matteson,IL","address":"5001 Lincoln Highway, Matteson,IL 60443, (708) 748-1777 "},{"latitude":"41.90819","longitude":"-87.839929","name":"Toys\"R\"Us-Melrose Park,IL","address":"9200 W North Avenue, Melrose Park,IL 60160, (708) 343-9000"},{"latitude":"41.467824","longitude":"-90.507364","name":"Toys\"R\"Us-Moline,IL","address":"4555 16th Street, Moline,IL 61265, (309) 797-3602 "},{"latitude":"41.77275","longitude":"-88.203645","name":"Babies\"R\"Us-Naperville,IL","address":"1955 Glacier Park Avenue, Naperville,IL 60540, (630) 416-2225"},{"latitude":"42.012131","longitude":"-87.769097","name":"Babies\"R\"Us-Niles,IL","address":"5660 Touhy Avenue, Niles,IL 60714, (847) 588-2081"},{"latitude":"42.053806","longitude":"-87.837372","name":"Toys\"R\"Us\/Babies\"R\"Us-Niles,IL","address":"9555 N Milwaukee Avenue, Niles,IL 60714, (847) 967-9000"},{"latitude":"41.850165","longitude":"-87.808958","name":"Toys\"R\"Us\/Babies\"R\"Us-North Riverside,IL","address":"7451 West Cermak Road, North Riverside,IL 60546, (708) 442-5155"},{"latitude":"41.604004","longitude":"-87.848218","name":"Babies\"R\"Us-Orland Park,IL","address":"15820 94Th Avenue, Orland Park,IL 60462, (708) 873-9634"},{"latitude":"41.617576","longitude":"-87.849647","name":"Toys\"R\"Us-Orland Park,IL","address":"45 Orland Square Drive, Orland Park,IL 60462, (708) 460-9494"},{"latitude":"40.738658","longitude":"-89.63381","name":"Toys\"R\"Us\/Babies\"R\"Us-Peoria,IL","address":"2601 West Lake Ave, Peoria,IL 61615, (309) 686-2830"},{"latitude":"42.267539","longitude":"-88.990366","name":"Toys\"R\"Us\/Babies\"R\"Us-Rockford,IL","address":"6449 East State St, Rockford,IL 61108, (815) 397-5813"},{"latitude":"42.050095","longitude":"-88.052715","name":"Toys\"R\"Us-Schaumburg,IL","address":"1111 East Golf Road, Schaumburg,IL 60173, (847) 517-1300"},{"latitude":"42.04953","longitude":"-88.079379","name":"Babies\"R\"Us-Schaumburg,IL","address":"16 East Golf Road, Schaumburg,IL 60173, (847) 781-8889"},{"latitude":"41.539246","longitude":"-88.199165","name":"Babies\"R\"Us-Shorewood,IL","address":"994 Brook Forest Ave, Shorewood,IL 60404, (815) 439-3676"},{"latitude":"41.976646","longitude":"-88.341891","name":"Toys\"R\"Us\/Babies\"R\"Us-South Elgin,IL","address":"486 Randall Rd, South Elgin,IL 60177, (847) 888-0235"},{"latitude":"39.777626","longitude":"-89.684402","name":"Babies\"R\"Us-Springfield,IL","address":"2601 Veterasn Pkwy, Springfield,IL 62704, (217) 546-0367"},{"latitude":"39.768333","longitude":"-89.706724","name":"Toys\"R\"Us-Springfield,IL","address":"2701 Veterans Pkwy, Springfield,IL 62704, (217) 787-7346"},{"latitude":"39.7877884","longitude":"-88.2672195","name":"Toys\"R\"Us-Tuscola,IL","address":"C400 Tuscola Blvd [Tanger Outlets], Tuscola,IL 61953, (217) 253-2559"},{"latitude":"42.243602","longitude":"-87.95552","name":"Babies\"R\"Us-Vernon Hills,IL","address":"295 Center Drive, Vernon Hills,IL 60061, (847) 573-1447"},{"latitude":"42.24055","longitude":"-87.940879","name":"Toys\"R\"Us-Vernon Hills,IL","address":"5555 Town Line Road, Vernon Hills,IL 60061, (847) 367-0029"},{"latitude":"38.3169973","longitude":"-85.7569177","name":"Toys\"R\"Us-Clarksville,IN","address":"951 E Lewis And Clark [Clarksville], Clarksville,IN 47129, (812) 282-8632"},{"latitude":"39.3079159","longitude":"-85.9626424","name":"Toys\"R\"Us-Edinburgh,IN","address":"11850 N Executive Dr [Edinburgh Premium Outlet], Edinburgh,IN 46124, (812) 526-3319"},{"latitude":"37.979821","longitude":"-87.49281","name":"Toys\"R\"Us-Evansville,IN","address":"318 N Green River Road, Evansville,IN 47715, (812) 477-5844"},{"latitude":"37.976307","longitude":"-87.478164","name":"Babies\"R\"Us-Evansville,IN","address":"6501 E Lloyd Expresswy, Evansville,IN 47715, (812) 402-4300"},{"latitude":"41.114588","longitude":"-85.146222","name":"Toys\"R\"Us-Fort Wayne,IN","address":"4122 Lima Road, Fort Wayne,IN 46805, (260) 484-5420 "},{"latitude":"41.11547","longitude":"-85.135046","name":"Babies\"R\"Us-Fort Wayne,IN","address":"4140 Coldwater Rd, Fort Wayne,IN 46805, (260) 482-5254"},{"latitude":"41.720223","longitude":"-86.173576","name":"Babies\"R\"Us-Granger,IN","address":"435 E University Drive, Granger,IN 46530, (574) 247-3024"},{"latitude":"39.635711","longitude":"-86.128793","name":"Toys\"R\"Us-Indianapolis,IN","address":"1650 East County Line R, Indianapolis,IN 46227, (317) 882-5838"},{"latitude":"39.908545","longitude":"-86.099905","name":"Babies\"R\"Us-Indianapolis,IN","address":"3928 East 82Nd Street, Indianapolis,IN 46240, (317) 577-2200"},{"latitude":"39.907804","longitude":"-86.070931","name":"Toys\"R\"Us-Indianapolis,IN","address":"8250 Castleton Corner, Indianapolis,IN 46250, (317) 841-9334"},{"latitude":"39.637923","longitude":"-86.128812","name":"Babies\"R\"Us-Indianapolis,IN","address":"8800 Us Route 31 South, Indianapolis,IN 46227, (317) 885-7700"},{"latitude":"39.774205","longitude":"-86.003921","name":"Toys\"R\"Us-Indianapolis,IN","address":"9251 East Washington St, Indianapolis,IN 46229, (317) 897-0320"},{"latitude":"40.3938","longitude":"-86.855394","name":"Toys\"R\"Us-Lafayette,IN","address":"2324 Sagamore Parkway S, Lafayette,IN 47905, (765) 474-4425"},{"latitude":"41.47392","longitude":"-87.320966","name":"Babies\"R\"Us-Merrillville,IN","address":"1335 East 79th St, Merrillville,IN 46410, (219) 736-1028"},{"latitude":"41.471437","longitude":"-87.311665","name":"Toys\"R\"Us-Merrillville,IN","address":"2020 East Lincoln Hwy, Merrillville,IN 46410, (219) 769-0630 "},{"latitude":"41.71397","longitude":"-86.906097","name":"Toys\"R\"Us-Michigan City,IN","address":"601 Wabash St [Lighthouse Place Outlet], Michigan City,IN 46360, (219) 879-1932"},{"latitude":"41.715072","longitude":"-86.187761","name":"Toys\"R\"Us-Mishawaka,IN","address":"6011 North Grape Road, Mishawaka,IN 46545, (574) 277-4928"},{"latitude":"40.220903","longitude":"-85.442495","name":"Toys\"R\"Us-Muncie,IN","address":"3400 North Morrison Rd, Muncie,IN 47304, (765) 282-2614"},{"latitude":"39.425079","longitude":"-87.416864","name":"Toys\"R\"Us\/Babies\"R\"Us-Terre Haute,IN","address":"55 W Honeycreek Parkway, Terre Haute,IN 47802, (812) 234-2197"},{"latitude":"38.862371","longitude":"-94.817369","name":"Toys\"R\"Us-Olathe,KS","address":"14680 S Flaming Road, Olathe,KS 66061, (913) 390-8697"},{"latitude":"38.95678","longitude":"-94.71985","name":"Toys\"R\"Us-Overland Park,KS","address":"11620 West 95Th Street, Overland Park,KS 66214, (913) 492-8333"},{"latitude":"38.884023","longitude":"-94.684087","name":"Babies\"R\"Us-Overland Park,KS","address":"8500 West 135Th Street, Overland Park,KS 66223, (913) 814-8921"},{"latitude":"39.027178","longitude":"-95.762114","name":"Toys\"R\"Us\/Babies\"R\"Us-Topeka,KS","address":"2190 Wanamaker Road, Topeka,KS 66614, (785) 272-1188"},{"latitude":"37.673787","longitude":"-97.396198","name":"Babies\"R\"Us-Wichita,KS","address":"4646 W Kellogg, Wichita,KS 67209, (316) 206-2550"},{"latitude":"37.678957","longitude":"-97.24348","name":"Toys\"R\"Us\/Babies\"R\"Us-Wichita,KS","address":"8011 E Kellogg Ave, Wichita,KS 67207, (316) 684-8697"},{"latitude":"38.4846776","longitude":"-82.6515855","name":"Toys\"R\"Us-Ashland,KY","address":"500 Winchester Ave [Ashland Town Center Mall], Ashland,KY 41101, (606) 329-2291"},{"latitude":"36.944278","longitude":"-86.422134","name":"Toys\"R\"Us\/Babies\"R\"Us-Bowling Green,KY","address":"3000 Scottsville Rd, Bowling Green,KY 42101, (270) 843-9936"},{"latitude":"39.013442","longitude":"-84.640723","name":"Babies\"R\"Us-Florence,KY","address":"4999 Houston Road, Florence,KY 41042, (859) 282-8921"},{"latitude":"38.994975","longitude":"-84.654195","name":"Toys\"R\"Us-Florence,KY","address":"7960 Connector Drive, Florence,KY 41042, (859) 371-0672"},{"latitude":"38.025136","longitude":"-84.419874","name":"Babies\"R\"Us-Lexington,KY","address":"1965 Star Shoot Parkway, Lexington,KY 40509, (859) 263-8598"},{"latitude":"38.006347","longitude":"-84.534572","name":"Toys\"R\"Us\/Babies\"R\"Us-Lexington,KY","address":"3220 Nicholsville Rd, Lexington,KY 40503, (859) 271-6374"},{"latitude":"38.2507","longitude":"-85.626739","name":"Babies\"R\"Us-Louisville,KY","address":"4623 Shelbyville Road, Louisville,KY 40207, (502) 896-9994"},{"latitude":"38.138013","longitude":"-85.673379","name":"Toys\"R\"Us-Louisville,KY","address":"4805 Outer Loop [Jefferson Mall], Louisville,KY 40219, (502) 969-4354"},{"latitude":"37.082645","longitude":"-88.685977","name":"Toys\"R\"Us\/Babies\"R\"Us-Paducah,KY","address":"3411 James Sanders Blvd, Paducah,KY 42001, (270) 575-3336"},{"latitude":"38.250375","longitude":"-85.626072","name":"Toys\"R\"Us-Saint Matthews,KY","address":"4900 Shelbyville Road, Saint Matthews,KY 40207, (502) 896-1243"},{"latitude":"38.20448","longitude":"-85.3485983","name":"Toys\"R\"Us-Simpsonville,KY","address":"1155 Buck Creek Rd [Outlets of Bluegrass], Simpsonville,KY 40067, (502) 722-5693"},{"latitude":"30.377545","longitude":"-91.059585","name":"Toys\"R\"Us\/Babies\"R\"Us-Baton Rouge,LA","address":"10780 North Mall Dr, Baton Rouge,LA 70809, (225) 296-0126"},{"latitude":"32.553802","longitude":"-93.703814","name":"Toys\"R\"Us\/Babies\"R\"Us-Bossier City,LA","address":"2918 E Texas Streetpierre, Bossier City,LA 71111, (318) 746-6023"},{"latitude":"30.2129133","longitude":"-90.9504864","name":"Toys\"R\"Us-Gonzales,LA","address":"2410 Tanger Blvd [Tanger Gonzales Outlet], Gonzales,LA 70737, (225) 644-8931"},{"latitude":"30.175729","longitude":"-92.077263","name":"Toys\"R\"Us\/Babies\"R\"Us-Lafayette,LA","address":"5700 Johnston St, Lafayette,LA 70506, (337) 988-2228"},{"latitude":"30.195581","longitude":"-93.179972","name":"Toys\"R\"Us-Lake Charles,LA","address":"3405 Gerstner Memorial Blvd, Lake Charles,LA 70607, (337) 478-0250"},{"latitude":"29.875276","longitude":"-90.093776","name":"Toys\"R\"Us-Marrero,LA","address":"4800 La Palco Boulevard, Marrero,LA 70072, (504) 347-8426"},{"latitude":"30.004082","longitude":"-90.16256","name":"Toys\"R\"Us\/Babies\"R\"Us-Metairie,LA","address":"3609 Veterans Memorial, Metairie,LA 70002, (504) 455-9513"},{"latitude":"30.005219","longitude":"-90.215456","name":"Babies\"R\"Us-Metairie,LA","address":"6851 Veterans Boulevard, Metairie,LA 70003, (504) 885-8242"},{"latitude":"32.49657","longitude":"-92.064985","name":"Toys\"R\"Us-Monroe,LA","address":"1350 Pecan Land Drive, Monroe,LA 71201, (318) 322-8590"},{"latitude":"30.305199","longitude":"-89.82596","name":"Toys\"R\"Us-Slidell,LA","address":"137 Northshore Boulevard, Slidell,LA 70459, (985) 639-9997"},{"latitude":"42.20223","longitude":"-71.838848","name":"Toys\"R\"Us-Auburn,MA","address":"416 Southbridge Street, Auburn,MA 01501, (508) 832-9598"},{"latitude":"42.113939","longitude":"-71.469704","name":"Toys\"R\"Us-Bellingham,MA","address":"217 Hartford Avenue, Bellingham,MA 02019, (508) 966-1113"},{"latitude":"42.212187","longitude":"-70.999165","name":"Babies\"R\"Us-Braintree,MA","address":"450 Grossman Drive, Braintree,MA 02184, (781) 356-0475"},{"latitude":"42.100759","longitude":"-71.052883","name":"Toys\"R\"Us\/Babies\"R\"Us-Brockton,MA","address":"105 Campenelli Industrial, Brockton,MA 02301, (508) 584-8697"},{"latitude":"42.253229","longitude":"-71.171363","name":"Toys\"R\"Us\/Babies\"R\"Us-Dedham,MA","address":"302 Providence Hwy Rt 1, Dedham,MA 02026, (781) 326-0112"},{"latitude":"42.401004","longitude":"-71.071083","name":"Babies\"R\"Us-Everett,MA","address":"12 Mystic View Road, Everett,MA 02149, (617) 381-1537"},{"latitude":"42.299068","longitude":"-71.39381","name":"Toys\"R\"Us-Framingham,MA","address":"1 Worcester Road, Framingham,MA 01701, (508) 370-4445"},{"latitude":"42.171956","longitude":"-72.640184","name":"Babies\"R\"Us-Holyoke,MA","address":"50 Holyoke Streetingleside Mall, Holyoke,MA 01040, (413) 315-2000"},{"latitude":"41.672868","longitude":"-70.304289","name":"Toys\"R\"Us\/Babies\"R\"Us-Hyannis,MA","address":"1070 Route 132 Festival Mall, Hyannis,MA 02601, (508) 778-5653"},{"latitude":"41.975852","longitude":"-70.714038","name":"Toys\"R\"Us-Kingston,MA","address":"8 Gallen Road, Kingston,MA 02364, (781) 585-1200"},{"latitude":"42.281353","longitude":"-73.2155991","name":"Toys\"R\"Us-Lee,MA","address":"17 Prime Outlets Boulevard, Lee,MA 01238, (413) 243-9778"},{"latitude":"42.525347","longitude":"-71.737829","name":"Toys\"R\"Us\/Babies\"R\"Us-Leominister,MA","address":"118 Commercial Road Searstown Mall, Leominster,MA 01453, (978) 534-4300"},{"latitude":"42.195417","longitude":"-71.774047","name":"Babies\"R\"Us-Millbury,MA","address":"70 Worcester Providence, Millbury,MA 01527, (508) 865-9868"},{"latitude":"41.942772","longitude":"-71.348254","name":"Toys\"R\"Us-North Attleboro,MA","address":"1190 S Washington Street, North Attleboro,MA 02760, (508) 695-6195"},{"latitude":"41.939695","longitude":"-71.349567","name":"Babies\"R\"Us-North Attleboro,MA","address":"1255 S Washington St, North Attleboro,MA 02760, (508) 699-8218"},{"latitude":"41.640365","longitude":"-70.991278","name":"Toys\"R\"Us\/Babies\"R\"Us-North Dartmouth,MA","address":"492 SR Dartmouth Towne Ctr, North Dartmouth,MA 02747, (508) 992-6240"},{"latitude":"42.310129","longitude":"-71.655451","name":"Toys\"R\"Us\/Babies\"R\"Us-Northborough,MA","address":"6110 Shops Way, Northborough,MA 01532, (508) 393-2811"},{"latitude":"42.549782","longitude":"-70.954483","name":"Babies\"R\"Us-Peabody,MA","address":"300 Andover Street, Peabody,MA 01960, (978) 532-0400"},{"latitude":"42.463827","longitude":"-71.024945","name":"Toys\"R\"Us-Saugus,MA","address":"1201 Broadway, Saugus,MA 01906, (781) 231-0219"},{"latitude":"42.144246","longitude":"-72.486684","name":"Toys\"R\"Us\/Babies\"R\"Us-Springfield,MA","address":"1686 Boston Rd, Springfield,MA 01129, (423) 543-6555"},{"latitude":"41.752086","longitude":"-71.214439","name":"Toys\"R\"Us-Swansea,MA","address":"86 Swansea Mall Drive, Swansea,MA 02777, (508) 675-1200"},{"latitude":"42.460697","longitude":"-71.165284","name":"Toys\"R\"Us\/Babies\"R\"Us-Woburn,MA","address":"366 Cambridge St, Woburn,MA 01801, (781) 935-7654"},{"latitude":"38.985163","longitude":"-76.546397","name":"Toys\"R\"Us\/Babies\"R\"Us-Annapolis,MD","address":"2115 West St, Annapolis,MD 21401, (410) 573-0440"},{"latitude":"39.338651","longitude":"-76.479747","name":"Toys\"R\"Us-Baltimore,MD","address":"8804 Pulaski Hwy, Baltimore,MD 21237, (410) 682-5166"},{"latitude":"39.522021","longitude":"-76.351527","name":"Toys\"R\"Us\/Babies\"R\"Us-Bel Air,MD","address":"660 Market Place Dr, Bel Air,MD 21014, (410) 838-0010"},{"latitude":"38.774609","longitude":"-76.883919","name":"Toys\"R\"Us-Clinton,MD","address":"8401 Mike Shapiro Drive, Clinton,MD 20735, (301) 868-1683"},{"latitude":"39.19752","longitude":"-76.81182","name":"Toys\"R\"Us\/Babies\"R\"Us-Columbia,MD","address":"6100 Dobbin Rd, Columbia,MD 21045, (410) 290-4490"},{"latitude":"39.418508","longitude":"-77.454309","name":"Toys\"R\"Us-Frederick,MD","address":"1308 West Patrick St, Frederick,MD 21701, (301) 694-7278"},{"latitude":"39.150262","longitude":"-77.209547","name":"Toys\"R\"Us-Gaithersburg,MD","address":"600 N Frederick Rd, Gaithersburg,MD 20877, (301) 869-5510"},{"latitude":"39.192214","longitude":"-76.61325","name":"Toys\"R\"Us-Glen Burnie,MD","address":"6711 Ritchie Hwy, Glen Burnie,MD 21061, (410) 768-4556"},{"latitude":"39.62275","longitude":"-77.768269","name":"Toys\"R\"Us\/Babies\"R\"Us-Hagestown,MD","address":"1730 Valley Mall Rd, Hagerstown,MD 21740, (301) 582-9742"},{"latitude":"39.420847","longitude":"-76.784415","name":"Toys\"R\"Us\/Babies\"R\"Us-Owings Mills,MD","address":"10200 Reistertown Rd, Owings Mills,MD 21117, (410) 356-4824"},{"latitude":"38.7974574","longitude":"-77.0029251","name":"Toys\"R\"Us-Oxon Hill,MD","address":"6800 Oxon Hill Road [Tanger National Harbor], Oxon Hill,MD 20745, (301) 839-4637"},{"latitude":"39.128055","longitude":"-76.520671","name":"Babies\"R\"Us-Pasadena,MD","address":"8040 Richie Hwy, Pasadena,MD 21122, (410) 863-8840"},{"latitude":"38.409898","longitude":"-75.567207","name":"Toys\"R\"Us\/Babies\"R\"Us-Salisbury,MD","address":"500 East Naylor Mill Rd, Salisbury,MD 21804, (443) 260-2388"},{"latitude":"39.057108","longitude":"-76.954969","name":"Babies\"R\"Us-Silver Spring,MD","address":"12012 Cherry Hill Rd, Silver Spring,MD 20904, (301) 586-8630"},{"latitude":"39.393207","longitude":"-76.581049","name":"Toys\"R\"Us\/Babies\"R\"Us-Towson,MD","address":"1238 Putty Hill Ave, Towson,MD 21204, (410) 372-5000"},{"latitude":"38.617314","longitude":"-76.922148","name":"Toys\"R\"Us\/Babies\"R\"Us-Waldorf,MD","address":"11055 Mall Circle Road, Waldorf,MD 20603, (301) 705-9800"},{"latitude":"38.630568","longitude":"-76.91112","name":"Babies\"R\"Us-Waldorf,MD","address":"2969 Festival Way, Waldorf,MD 20601, (301) 396-8037"},{"latitude":"44.835532","longitude":"-68.743548","name":"Toys\"R\"Us-Bangor,ME","address":"6 Bangor Mall Boulevard, Bangor,ME 04401, (207) 942-1005"},{"latitude":"43.1153981","longitude":"-70.7292563","name":"Toys\"R\"Us-Kittery,ME","address":"345 Us Route 1 [Kittery Premium Outlets], Kittery,ME 03904, (207) 439-0049"},{"latitude":"43.63724","longitude":"-70.343951","name":"Babies\"R\"Us-South Portland,ME","address":"200 Running Hill Road Ste 6, South Portland,ME 04106, (207) 773-4861"},{"latitude":"43.636237","longitude":"-70.336447","name":"Toys\"R\"Us-South Portland,ME","address":"303 Maine Mall Road, South Portland,ME 04106, (207) 774-9430 "},{"latitude":"42.25535","longitude":"-83.686967","name":"Toys\"R\"Us-Ann Arbor,MI","address":"3725 Washtenaw, Ann Arbor,MI 48104, (734) 973-2850"},{"latitude":"42.7014106","longitude":"-83.3065246","name":"Toys\"R\"Us-Auburn Hills,MI","address":"4000 Baldwin Road [Great Lakes Crossing], Auburn Hills,MI 48326, (248) 874-1790"},{"latitude":"43.2483371","longitude":"-83.7822747","name":"Toys\"R\"Us-Birch Run,MI","address":"12150 Beyer Road Ste F250 [Prime Birch Run], Birch Run,MI 48415, (989) 624-8050"},{"latitude":"42.8117325","longitude":"-85.6714846","name":"Toys\"R\"Us-Byron Center,MI","address":"350 84Th Street Sw [Tanger Grand Rapids], Byron Center,MI 49315, (616) 583-0820"},{"latitude":"42.980348","longitude":"-83.772293","name":"Toys\"R\"Us-Flint,MI","address":"3250 South Linden, Flint,MI 48507, (810) 733-3490"},{"latitude":"43.031187","longitude":"-82.456365","name":"Toys\"R\"Us-Fort Gratiot,MI","address":"4235 24Th Avenue, Fort Gratiot,MI 48059, (810) 385-8886"},{"latitude":"43.019984","longitude":"-85.688812","name":"Toys\"R\"Us-Grand Rapids,MI","address":"3130 Alpine Avenue, Grand Rapids,MI 49544, (616) 784-5999"},{"latitude":"42.91267","longitude":"-85.582254","name":"Toys\"R\"Us-Grand Rapids,MI","address":"3445 28th St SE, Grand Rapids,MI 49512, (616) 957-0400"},{"latitude":"42.912748","longitude":"-85.546302","name":"Babies\"R\"Us-Grand Rapids,MI","address":"4923 28Th Street SE, Grand Rapids,MI 49512, (616) 977-9623"},{"latitude":"42.266386","longitude":"-84.428206","name":"Toys\"R\"Us-Jackson,MI","address":"1038 Jackson Crossing, Jackson,MI 49204, (517) 780-0500"},{"latitude":"42.741223","longitude":"-84.633862","name":"Babies\"R\"Us-Lansing,MI","address":"5900 W Saginaw Highway, Lansing,MI 48917, (517) 391-5122"},{"latitude":"42.427303","longitude":"-83.333854","name":"Toys\"R\"Us-Livonia,MI","address":"29150 W Seven Mile Road, Livonia,MI 48152, (248) 477-3000"},{"latitude":"42.531967","longitude":"-83.106735","name":"Toys\"R\"Us-Madison Heights,MI","address":"32700 John R Road, Madison Heights,MI 48071, (248) 585-5700"},{"latitude":"43.155461","longitude":"-86.205946","name":"Toys\"R\"Us-Muskegon Heights,MI","address":"5363 Harvey Street, Muskegon Heights,MI 49444, (231) 798-8697"},{"latitude":"42.433584","longitude":"-83.433635","name":"Babies\"R\"Us-Northville,MI","address":"20111 Haggerty Road, Northville,MI 48167, (248) 735-0365"},{"latitude":"42.491296","longitude":"-83.478393","name":"Toys\"R\"Us-Novi,MI","address":"43460 West Oaks Drive, Novi,MI 48377, (248) 344-1300"},{"latitude":"42.722664","longitude":"-84.411115","name":"Toys\"R\"Us-Okemos,MI","address":"1705 West Newman Road, Okemos,MI 48864, (517) 347-6959"},{"latitude":"42.708124","longitude":"-83.307385","name":"Babies\"R\"Us-Orion,MI","address":"4936 Baldwin Road, Orion,MI 48359, (248) 391-3367"},{"latitude":"42.643131","longitude":"-83.325893","name":"Toys\"R\"Us-Pontiac,MI","address":"220 North Telegraph Roa, Pontiac,MI 48341, (248) 333-1705"},{"latitude":"42.231455","longitude":"-85.589675","name":"Babies\"R\"Us-Portage,MI","address":"5890 S Westnedge Avenue, Portage,MI 49024, (269) 382-2187"},{"latitude":"42.226787","longitude":"-85.589326","name":"Toys\"R\"Us-Portage,MI","address":"6207 South Westnedge Av, Portage,MI 49002, (269) 329-1777"},{"latitude":"42.532852","longitude":"-82.91305","name":"Toys\"R\"Us-Roseville,MI","address":"32070 Gratiot Avenue, Roseville,MI 48066, (586) 296-9800"},{"latitude":"42.533899","longitude":"-82.913166","name":"Babies\"R\"Us-Roseville,MI","address":"32233 Gratiot Avenue, Roseville,MI 48066, (586) 296-5615"},{"latitude":"43.48086","longitude":"-84.034109","name":"Toys\"R\"Us-Saginaw,MI","address":"2800 Tittabawasee Road, Saginaw,MI 48603, (989) 790-2400"},{"latitude":"43.479965","longitude":"-83.982196","name":"Babies\"R\"Us-Saginaw,MI","address":"3321 Tittabawassee Road, Saginaw,MI 48604, (989) 790-5961"},{"latitude":"42.487028","longitude":"-83.270653","name":"Toys\"R\"Us-Southfield,MI","address":"27000 Telegraph Road, Southfield,MI 48034, (248) 354-6300 "},{"latitude":"42.199058","longitude":"-83.197787","name":"Toys\"R\"Us-Southgate,MI","address":"14333 Eureka Road, Southgate,MI 48195, (734) 285-7100"},{"latitude":"42.626052","longitude":"-83.007991","name":"Babies\"R\"Us-Sterling Heights,MI","address":"12050 Hall Road, Sterling Heights,MI 48313, (586) 997-2929"},{"latitude":"42.624086","longitude":"-82.990947","name":"Toys\"R\"Us-Sterling Heights,MI","address":"13801 Lakeside Circle, Sterling Heights,MI 48313, (586) 247-1443"},{"latitude":"42.200721","longitude":"-83.248413","name":"Babies\"R\"Us-Taylor,MI","address":"14544 Racho Road, Taylor,MI 48180, (734) 287-5982"},{"latitude":"44.725078","longitude":"-85.634377","name":"Toys\"R\"Us-Traverse City,MI","address":"2620 Crossing Circle, Traverse City,MI 49684, (231) 933-7043 "},{"latitude":"42.339112","longitude":"-83.383185","name":"Toys\"R\"Us-Westland,MI","address":"34800 Warren Road, Westland,MI 48185, (734) 421-1410"},{"latitude":"42.234473","longitude":"-83.67999","name":"Babies\"R\"Us-Ypsilanti,MI","address":"3725 Carpenter Road, Ypsilanti,MI 48197, (734) 477-0943"},{"latitude":"45.131801","longitude":"-93.26121","name":"Toys\"R\"Us\/Babies\"R\"Us-Blaine,MN","address":"170 89th Ave NE, Blaine,MN 55434, (763) 784-6255"},{"latitude":"44.748675","longitude":"-93.288136","name":"Toys\"R\"Us-Burnsville,MN","address":"14041 Aldrich Avenue, Burnsville,MN 55337, (952) 890-8697"},{"latitude":"45.095256","longitude":"-93.443792","name":"Toys\"R\"Us\/Babies\"R\"Us-Maple Grove,MN","address":"12750 Elm Creek Blvd North, Maple Grove,MN 55369, (763) 494-5747"},{"latitude":"45.032623","longitude":"-93.018153","name":"Toys\"R\"Us\/Babies\"R\"Us-Maplewood,MN","address":"1852 E County Road D, Maplewood,MN 55109, (651) 770-2918"},{"latitude":"44.957615","longitude":"-93.433525","name":"Toys\"R\"Us\/Babies\"R\"Us-Minetonka,MN","address":"14100 Montebello Blvd, Minnetonka,MN 55305, (763) 525-1697"},{"latitude":"44.862565","longitude":"-93.290445","name":"Babies\"R\"Us-Richfield,MN","address":"900 West 78Th Street South, Richfield,MN 55423, (612) 861-2249"},{"latitude":"44.005891","longitude":"-92.474264","name":"Toys\"R\"Us\/Babies\"R\"Us-Rochester,MN","address":"808 Apache Lane, Rochester,MN 55906, (507) 286-9291"},{"latitude":"44.94203","longitude":"-92.938631","name":"Babies\"R\"Us-Woodbury,MN","address":"8236 Tamarack Village, Woodbury,MN 55125, (651) 367-6820"},{"latitude":"36.645141","longitude":"-93.264404","name":"Toys\"R\"Us-Branson,MO","address":"300 Stanley Tanger Blvd [Tanger Outlets Branson], Branson,MO 65616, (417) 336-8770"},{"latitude":"37.30435","longitude":"-89.568529","name":"Toys\"R\"Us-Cape Girardeau,MO","address":"201 Silver Spgs Road, Cape Girardeau,MO 63701, (573) 339-0600 "},{"latitude":"38.6721611","longitude":"-90.6572495","name":"Toys\"R\"Us-Chesterfield,MO","address":"18521 Outlet Blvd [St Louis Outlets], Chesterfield,MO 63005, (636) 778-2220"},{"latitude":"38.667297","longitude":"-90.597151","name":"Babies\"R\"Us-Chesterfield,MO","address":"220 THF Blvd, Chesterfield,MO 63005, (636) 536-0910"},{"latitude":"38.965625","longitude":"-92.368968","name":"Toys\"R\"Us-Columbia,MO","address":"1901 Bernadette, Columbia,MO 65203, (573) 446-4151"},{"latitude":"38.787689","longitude":"-90.418322","name":"Babies\"R\"Us-Hazelwood,MO","address":"5590 Saint Louis Mills Blvd, Hazelwood,MO 63042, (314) 738-0614"},{"latitude":"39.035702","longitude":"-94.416411","name":"Toys\"R\"Us-Independence,MO","address":"13920 East 40 Highway, Independence,MO 64055, (816) 478-4475"},{"latitude":"37.083901","longitude":"-94.477456","name":"Toys\"R\"Us\/Babies\"R\"Us-Joplin,MO","address":"630 S Rangeline Rd, Joplin,MO 64802, (417) 781-8697"},{"latitude":"39.245126","longitude":"-94.585288","name":"Toys\"R\"Us-Kansas City,MO","address":"8330 North Broadway, Kansas City,MO 64118, (816) 468-0808"},{"latitude":"39.251772","longitude":"-94.59301","name":"Babies\"R\"Us-Kansas City,MO","address":"8640 North Madison Avenue, Kansas City,MO 64155, (816) 420-8808"},{"latitude":"38.500656","longitude":"-90.333444","name":"Babies\"R\"Us-Saint Louis,MO","address":"4441 Lemay Ferry Rd, Saint Louis,MO 63129, (314) 894-8055"},{"latitude":"38.510383","longitude":"-90.334094","name":"Toys\"R\"Us\/Babies\"R\"Us-Saint Louis,MO","address":"6926 South Lindbergh, Saint Louis,MO 63129, (314) 845-7400"},{"latitude":"38.796706","longitude":"-90.622961","name":"Toys\"R\"Us-Saint Peters,MO","address":"5821 Sue Mandy Dr, Saint Peters,MO 63376, (636) 397-5000"},{"latitude":"37.159631","longitude":"-93.270464","name":"Toys\"R\"Us\/Babies\"R\"Us-Springfield,MO","address":"1425 East Battlefield, Springfield,MO 65804, (417) 882-6097"},{"latitude":"38.55381","longitude":"-90.406979","name":"Toys\"R\"Us-Sunset Hills,MO","address":"3600 Lindbergh Blvd, Sunset Hills,MO 63127, (314) 909-8788"},{"latitude":"32.340156","longitude":"-90.068267","name":"Babies\"R\"Us-Flowood,MS","address":"260 Ridge Way Road, Flowood,MS 39232, (601) 919-8242"},{"latitude":"30.4275168","longitude":"-89.0983915","name":"Toys\"R\"Us-Gulfport,MS","address":"10135 Factory Shops Blvd [Gulfport Outlets], Gulfport,MS 39503, (228) 214-1546"},{"latitude":"31.324133","longitude":"-89.356979","name":"Toys\"R\"Us-Hattiesburg,MS","address":"4600 Hardy Street, Hattiesburg,MS 39402, (601) 264-2429"},{"latitude":"32.399371","longitude":"-90.133358","name":"Toys\"R\"Us-Jackson,MS","address":"1175 E County Line Road, Jackson,MS 39211, (601) 956-2720"},{"latitude":"32.358866","longitude":"-88.675558","name":"Toys\"R\"Us-Meridian,MS","address":"1003 Bonita Lakes Cir, Meridian,MS 39301, (601) 581-5152"},{"latitude":"32.2720909","longitude":"-90.1492004","name":"Toys\"R\"Us-Pearl,MS","address":"200 Bass Pro Dr [Outlets of Mississippi], Pearl,MS 39288 , (601) 420-8344"},{"latitude":"34.9667892","longitude":"-89.9898987","name":"Toys\"R\"Us-Southaven,MS","address":"5205 Airways Blvd [Tanger Memphis], Southaven,MS 38671, (662) 349-1756"},{"latitude":"34.315549","longitude":"-88.703713","name":"Toys\"R\"Us\/Babies\"R\"Us-Tupelo,MS","address":"969 Barnes Crossing Rd, Tupelo,MS 38804, (662) 841-8697"},{"latitude":"45.758035","longitude":"-108.576404","name":"Toys\"R\"Us-Billings,MT","address":"640 S 24th St W, Billings,MT 59103, (406) 652-8697"},{"latitude":"35.56956","longitude":"-82.50504","name":"Babies\"R\"Us-Asheville,NC","address":"801 Fairview Road, Asheville,NC 28803, (828) 298-2229"},{"latitude":"35.530428","longitude":"-82.605884","name":"Toys\"R\"Us-Asheville,NC","address":"877 Brevard Road, Asheville,NC 28806, (828) 665-8697"},{"latitude":"35.761228","longitude":"-78.741386","name":"Toys\"R\"Us\/Babies\"R\"Us-Cary,NC","address":"201 Crossroad Blvd, Cary,NC 27815, (919) 859-1971"},{"latitude":"35.1300087","longitude":"-81.0076981","name":"Toys\"R\"Us-Charlotte,NC","address":"5404 New Fashion Way [Charlotte Premium Outlets], Charlotte,NC 28278, (704) 588-2986"},{"latitude":"35.107884","longitude":"-80.881398","name":"Babies\"R\"Us-Charlotte,NC","address":"9575 South Boulevard, Charlotte,NC 28273, (704) 643-2229"},{"latitude":"35.370734","longitude":"-80.716703","name":"Toys\"R\"Us-Concord,NC","address":"8050 Concord Mills Boulevard, Concord,NC 28027, (704) 979-3410"},{"latitude":"35.370917","longitude":"-80.716994","name":"Babies\"R\"Us-Concord,NC","address":"8062 Concord Mills Boulevard, Concord,NC 28027, (704) 979-0840"},{"latitude":"35.967927","longitude":"-78.961394","name":"Toys\"R\"Us-Durham,NC","address":"3330 Westgate Dr, Durham,NC 27707, (919) 489-0761"},{"latitude":"35.902001","longitude":"-78.939294","name":"Babies\"R\"Us-Durham,NC","address":"7001 Fayettville Rd, Durham,NC 27713, (919) 544-9024"},{"latitude":"35.075548","longitude":"-78.962209","name":"Toys\"R\"Us\/Babies\"R\"Us-Fayetteville,NC","address":"1736 Skibo Rd, Fayetteville,NC 28303, (910) 864-2789"},{"latitude":"35.261554","longitude":"-81.129562","name":"Toys\"R\"Us\/Babies\"R\"Us-Gastonia,NC","address":"2830 East Franklin Blvd, Gastonia,NC 28056, (704) 833-0084"},{"latitude":"36.0110703","longitude":"-79.8753662","name":"Toys\"R\"Us-Greensboro,NC","address":"3728 W Gate City Boulevard, Greensboro,NC 27407, (336) 855-3221"},{"latitude":"36.059402","longitude":"-79.905992","name":"Babies\"R\"Us-Greensboro,NC","address":"1214 Bridford Parkway, Greensboro,NC 27407, (336) 547-9050"},{"latitude":"35.574493","longitude":"-77.388229","name":"Toys\"R\"Us\/Babies\"R\"Us-Greenville,NC","address":"228 Greenville Blvd Sw, Greenville,NC 27834, (252) 355-1700"},{"latitude":"35.707154","longitude":"-81.306939","name":"Toys\"R\"Us-Hickory,NC","address":"1840 Highway 70 SE, Hickory,NC 28601, (828) 324-8565"},{"latitude":"35.702651","longitude":"-81.309078","name":"Babies\"R\"Us-Hickory,NC","address":"1856 Catawba Vly Boulevard Hickory Ridge Shopping, Hickory,NC 28602, (828) 304-6300"},{"latitude":"34.787286","longitude":"-77.401894","name":"Toys\"R\"Us\/Babies\"R\"Us-Jacksonville,NC","address":"1370 Western Blvd, Jacksonville,NC 28541, (910) 347-9839"},{"latitude":"35.079043","longitude":"-80.878772","name":"Toys\"R\"Us-Pineville,NC","address":"11300 Carolina Pl  Pkw, Pineville,NC 28134, (704) 541-9972"},{"latitude":"35.864205","longitude":"-78.5693593","name":"Toys\"R\"Us\/Babies\"R\"Us-Raleigh,NC","address":"7810 Poyner Pond Circle, Raleigh,NC 27616, (919) 877-861"},{"latitude":"35.4913139","longitude":"-78.3452301","name":"Toys\"R\"Us-Smithfield,NC","address":"1025 Outlet Center Dr [Carolina Premium Outlet], Smithfield,NC 27577, (919) 938-0030"},{"latitude":"34.210398","longitude":"-77.887935","name":"Toys\"R\"Us-Wilmington,NC","address":"4510 Oleander Dr, Wilmington,NC 28403, (910) 791-9067"},{"latitude":"36.071675","longitude":"-80.294954","name":"Toys\"R\"Us\/Babies\"R\"Us-Winston Salem,NC","address":"3200 Silas Creek Parkway, Winston Salem,NC 27103, (336) 659-0011 "},{"latitude":"36.065225","longitude":"-80.313839","name":"Babies\"R\"Us-Winston Salem,NC","address":"975 Hanes Mall Blvd, Winston Salem,NC 27103, (336) 765-5600"},{"latitude":"46.862065","longitude":"-96.863241","name":"Toys\"R\"Us-Fargo,ND","address":"4603 13th Ave South, Fargo,ND 58102, (701) 281-8697"},{"latitude":"40.863526","longitude":"-96.681747","name":"Toys\"R\"Us-Lincoln,NE","address":"5220 N 27th St, Lincoln,NE 68521, (402) 476-1818"},{"latitude":"41.227034","longitude":"-96.136661","name":"Toys\"R\"Us-Omaha,NE","address":"3435 Oakview Dr, Omaha,NE 68144, (402) 697-8244"},{"latitude":"41.225801","longitude":"-96.131774","name":"Babies\"R\"Us-Omaha,NE","address":"3505 S 140th Plaza, Omaha,NE 68144, (402) 333-6427"},{"latitude":"43.227364","longitude":"-71.484373","name":"Toys\"R\"Us\/Babies\"R\"Us-Concord,NH","address":"310 Loudon Road, Concord,NH 03301, (603) 228-5508"},{"latitude":"42.953804","longitude":"-71.4412","name":"Toys\"R\"Us\/Babies\"R\"Us-Manchester,NH","address":"2 Keller Street, Manchester,NH 03103, (603) 623-8077"},{"latitude":"42.7662362","longitude":"-71.4977373","name":"Babies\"R\"Us-Nashua,NH","address":"10 Coliseum Avenue, Nashua,NH 03063, (603) 881-4306"},{"latitude":"42.707209","longitude":"-71.441153","name":"Toys\"R\"Us\/Babies\"R\"Us-Nashua,NH","address":"272 Daniel Webster Hwy, Nashua,NH 03060, (603) 888-9444"},{"latitude":"43.094119","longitude":"-70.794698","name":"Toys\"R\"Us\/Babies\"R\"Us-Newington,NH","address":"85 Gosling Road, Newington,NH 03801, (603) 431-6528"},{"latitude":"42.769619","longitude":"-71.217255","name":"Toys\"R\"Us-Salem,NH","address":"16 Veterans Memorial Park, Salem,NH 03079, (603) 893-8697"},{"latitude":"42.747385","longitude":"-71.20257","name":"Babies\"R\"Us-Salem,NH","address":"447 South Broadway, Salem,NH 03079, (603) 893-2614"},{"latitude":"39.35806","longitude":"-74.438119","name":"Toys\"R\"Us-Atlantic City,NJ","address":"114 N Christopher Columbus Blvd, Atlantic City,NJ 08401, (609) 345-5905"},{"latitude":"39.7830772","longitude":"-75.053894","name":"Toys\"R\"Us-Blackwood,NJ","address":"100 Premium Outlets Dr [Glouster Premium Outlet], Blackwood,NJ 08012, (856) 221-8371"},{"latitude":"40.562156","longitude":"-74.554984","name":"Babies\"R\"Us-Bridgewater,NJ","address":"100 Promenade Boulevard, Bridgewater,NJ 08807, (732) 302-3590"},{"latitude":"39.9311714","longitude":"-75.0250473","name":"Babies\"R\"Us-Cherry Hill,NJ","address":"2137 Nj-38, Cherry Hill,NJ 08002, (856) 317-1559"},{"latitude":"39.941604","longitude":"-74.988067","name":"Toys\"R\"Us\/Babies\"R\"Us-Cherry Hill,NJ","address":"500 Nj-38, Cherry Hill,NJ 08034, (856) 665-8339"},{"latitude":"39.836455","longitude":"-75.088267","name":"Babies\"R\"Us-Deptford,NJ","address":"1120 Hurffville Road, Deptford,NJ 08096, (856) 384-3788"},{"latitude":"39.830617","longitude":"-75.100901","name":"Toys\"R\"Us-Deptford,NJ","address":"409 Almonesson Road, Deptford,NJ 08096, (856) 848-9484"},{"latitude":"40.436777","longitude":"-74.391269","name":"Toys\"R\"Us\/Babies\"R\"Us-East Brunswick,NJ","address":"581 Route 18 South, East Brunswick,NJ 08816, (732) 257-0779"},{"latitude":"40.811021","longitude":"-74.384928","name":"Babies\"R\"Us-East Hanover,NJ","address":"98 Rt 10 West, East Hanover,NJ 07936, (973) 503-1411"},{"latitude":"40.295012","longitude":"-74.053311","name":"Toys\"R\"Us-Eatontown,NJ","address":"137 Route 35 North, Eatontown,NJ 07724, (732) 544-8179"},{"latitude":"40.290909","longitude":"-74.047949","name":"Babies\"R\"Us-Eatontown,NJ","address":"70 Us Highway 36, Eatontown,NJ 07724, (732) 935-9366"},{"latitude":"40.6719332","longitude":"-74.1711326","name":"Toys\"R\"Us\/Babies\"R\"Us-Elizabeth,NJ","address":"900 Ikea Dr, Elizabeth,NJ 07201, (908) 527-0100"},{"latitude":"40.66199","longitude":"-74.175144","name":"Toys\"R\"Us-Elizabeth,NJ","address":"651 Kapkowski Road [Jersey Garden Outlet], Elizabeth,NJ 07201, (908) 354-0152"},{"latitude":"40.883491","longitude":"-74.704688","name":"Babies\"R\"Us-Flanders,NJ","address":"50 International Dr S, Flanders,NJ 07836, (973) 691-5939"},{"latitude":"40.251275","longitude":"-74.29471","name":"Toys\"R\"Us-Freehold,NJ","address":"600 Trotter Way, Freehold,NJ 07728, (732) 462-0500"},{"latitude":"40.419686","longitude":"-74.180768","name":"Toys\"R\"Us-Hazlet,NJ","address":"3035 Route 35 Northhazlet Plaza, Hazlet,NJ 07730, (732) 888-8200"},{"latitude":"40.556955","longitude":"-74.308814","name":"Toys\"R\"Us\/Babies\"R\"Us-Iselin,NJ","address":"675 Rt 1 South, Iselin,NJ 08830, (732) 636-2723"},{"latitude":"40.726951","longitude":"-74.037879","name":"Toys\"R\"Us-Jersey City,NJ","address":"30 Mall Drive West [Newport Centre Mall], Jersey City,NJ 07310, (201) 222-0364"},{"latitude":"40.719121","longitude":"-74.0941","name":"Toys\"R\"Us\/Babies\"R\"Us-Jersey City,NJ","address":"641 Rt 440, Jersey City,NJ 07304, (201) 433-8550"},{"latitude":"40.2944773","longitude":"-74.6822711","name":"Toys\"R\"Us-Lawrenceville,NJ","address":"150 Quaker Bridge Mall Rd, Lawrenceville,NJ 08648, (609) 799-1879"},{"latitude":"40.290583","longitude":"-74.687847","name":"Toys\"R\"Us-Lawrenceville,NJ","address":"3265 Brunswick Pike, Lawrenceville,NJ 08648, (609) 896-3330"},{"latitude":"40.797907","longitude":"-74.353881","name":"Toys\"R\"Us-Livingston,NJ","address":"599 Mount Pleasant Avenue, Livingston,NJ 07039, (973) 994-2277 "},{"latitude":"40.288975","longitude":"-74.295992","name":"Babies\"R\"Us-Manalapan,NJ","address":"17 Us Route Nine South, Manalapan,NJ 07726, (732) 845-2861"},{"latitude":"39.453505","longitude":"-74.630164","name":"Babies\"R\"Us-Mays Landing,NJ","address":"130 Consumers Square, Mays Landing,NJ 08330, (609) 484-1177"},{"latitude":"39.452404","longitude":"-74.647983","name":"Toys\"R\"Us-Mays Landing,NJ","address":"4476 Blackhorse Pike, Mays Landing,NJ 08330, (609) 625-3666"},{"latitude":"40.461476","longitude":"-74.46028","name":"Babies\"R\"Us-North Brunswick,NJ","address":"909 Us Highway 1 South, North Brunswick,NJ 08902, (732) 220-1900"},{"latitude":"40.915013","longitude":"-74.051375","name":"Toys\"R\"Us-Paramus,NJ","address":"250 East Route 4, Paramus,NJ 07652, (201) 845-7260"},{"latitude":"40.957251","longitude":"-74.074615","name":"Babies\"R\"Us-Paramus,NJ","address":"545 Route 17 South, Paramus,NJ 07652, (201) 251-3191"},{"latitude":"40.961588","longitude":"-74.07592","name":"Toys\"R\"Us-Paramus,NJ","address":"634 Ridgewood Avenue at Route 17N, Paramus,NJ 07652, (201) 670-7733"},{"latitude":"40.682898","longitude":"-75.149234","name":"Toys\"R\"Us\/Babies\"R\"Us-Phillipsburg,NJ","address":"1280 Rt 22 & St James, Phillipsburg,NJ 08865, (908) 859-8600"},{"latitude":"40.577077","longitude":"-74.631361","name":"Toys\"R\"Us\/Babies\"R\"Us-Raritan,NJ","address":"451 Route 28, Raritan,NJ 08869, (908) 526-2755"},{"latitude":"40.7904","longitude":"-74.052156","name":"Toys\"R\"Us\/Babies\"R\"Us-Secaucus,NJ","address":"3 Mill Creek Drive, Secaucus,NJ 07094, (201) 558-4750"},{"latitude":"40.224414","longitude":"-74.0920577","name":"Toys\"R\"Us-Tinton Falls,NJ","address":"1 Premium Outlets Boulevard [Jersey Shore Outlets], Tinton Falls,NJ 07753, (none listed)"},{"latitude":"39.981336","longitude":"-74.181664","name":"Babies\"R\"Us-Toms River,NJ","address":"1220 Hooper Avenue, Toms River,NJ 08753, (732) 244-8880"},{"latitude":"39.981471","longitude":"-74.181584","name":"Toys\"R\"Us-Toms River,NJ","address":"1224 Hooper Avenue, Toms River,NJ 08753, (732) 341-2030"},{"latitude":"40.894605","longitude":"-74.232334","name":"Toys\"R\"Us-Totowa,NJ","address":"445 Us Highway 46, Totowa,NJ 07512, (973) 256-6003"},{"latitude":"40.894642","longitude":"-74.232577","name":"Babies\"R\"Us-Totowa,NJ","address":"465 Us Highway 46 West, Totowa,NJ 07512, (973) 256-2566"},{"latitude":"40.693326","longitude":"-74.256829","name":"Toys\"R\"Us\/Babies\"R\"Us-Union,NJ","address":"1701 Morris Avenue, Union,NJ 07083, (908) 851-9695"},{"latitude":"40.688461","longitude":"-74.307721","name":"Babies\"R\"Us-Union,NJ","address":"2700 Route 22 East, Union,NJ 07083, (908) 810-9300"},{"latitude":"39.48619","longitude":"-75.026144","name":"Toys\"R\"Us\/Babies\"R\"Us-Vineland,NJ","address":"100 Cumberland Mall 3849 South Delsea Dr, Vineland,NJ 08360, (856) 327-0800"},{"latitude":"40.64595","longitude":"-74.409729","name":"Toys\"R\"Us\/Babies\"R\"Us-Watchung,NJ","address":"1701-45 US Hwy 22, Watchung,NJ 07069, (908) 322-6065"},{"latitude":"40.961512","longitude":"-74.237149","name":"Toys\"R\"Us-Wayne,NJ","address":"7 Wayne Hills Mall, Wayne,NJ 07470, (973) 628-8697"},{"latitude":"40.30325","longitude":"-74.681078","name":"Babies\"R\"Us-West Windsor,NJ","address":"700 Nassau Park Boulevard, West Windsor,NJ 08550, (609) 987-1751"},{"latitude":"35.207997","longitude":"-106.652703","name":"Toys\"R\"Us-Albuquerque,NM","address":"3701 Ellison Rd Nw, Albuquerque,NM 87110, (505) 899-8697"},{"latitude":"35.084301","longitude":"-106.52925","name":"Babies\"R\"Us-Albuquerque,NM","address":"45 Hotel Circle, Albuquerque,NM 87123, (505) 292-9909"},{"latitude":"35.101828","longitude":"-106.562326","name":"Toys\"R\"Us-Albuquerque,NM","address":"7400 Indian School Rd Ne, Albuquerque,NM 87114, (505) 884-1144"},{"latitude":"36.063517","longitude":"-115.04736","name":"Toys\"R\"Us\/Babies\"R\"Us-Henderson,NV","address":"1425 W Sunset Rd, Henderson,NV 89014, (702) 454-8697"},{"latitude":"36.058247","longitude":"-115.046014","name":"Babies\"R\"Us-Henderson,NV","address":"510 North Stephanie St, Henderson,NV 89014, (702) 450-2330"},{"latitude":"36.1638232","longitude":"-115.1566804","name":"Toys\"R\"Us-Las Vegas,NV","address":"875 S Grand Central Pk, Las Vegas,NV 89106, (702) 986-7536"},{"latitude":"36.198465","longitude":"-115.241834","name":"Babies\"R\"Us-Las Vegas,NV","address":"2150 N Rainbow Blvd, Las Vegas,NV 89108, (702) 647-8514"},{"latitude":"36.11683","longitude":"-115.137642","name":"Toys\"R\"Us-Las Vegas,NV","address":"4000 S Maryland Pkwy, Las Vegas,NV 89119, (702) 732-3733"},{"latitude":"36.170397","longitude":"-115.201278","name":"Toys\"R\"Us-Las Vegas,NV","address":"4550 Meadows Lane, Las Vegas,NV 89107, (702) 877-9070"},{"latitude":"36.063481","longitude":"-115.245174","name":"Babies\"R\"Us-Las Vegas,NV","address":"7020 Arroyo Crossing, Las Vegas,NV 89118, (702) 837-0073"},{"latitude":"36.055008","longitude":"-115.172333","name":"Toys\"R\"Us-Las Vegas,NV","address":"7400 Las Vegas Blvd S [Las Vegas Premium Outlets], Las Vegas,NV 89123, (702) 270-2002"},{"latitude":"36.2868","longitude":"-115.134814","name":"Toys\"R\"Us\/Babies\"R\"Us-North Las Vegas,NV","address":"7020 North 5th Street [Deer Springs Town Ctr], North Las Vegas,NV 89084, (702) 642-0793"},{"latitude":"39.47976","longitude":"-119.793701","name":"Babies\"R\"Us-Reno,NV","address":"4869 Kietzke Lane, Reno,NV 89509, (775) 825-2229"},{"latitude":"39.479336","longitude":"-119.788049","name":"Toys\"R\"Us-Reno,NV","address":"5000 Smith Ridge Dr, Reno,NV 89502, (775) 827-8697"},{"latitude":"42.711635","longitude":"-73.817987","name":"Toys\"R\"Us\/Babies\"R\"Us-Albany,NY","address":"38 Wolf Rd, Albany,NY 12205, (518) 459-5561"},{"latitude":"42.980914","longitude":"-78.821128","name":"Toys\"R\"Us\/Babies\"R\"Us-Amherst,NY","address":"3030 Sheridan Dr, Amherst,NY 14226, (716) 837-4350"},{"latitude":"40.738625","longitude":"-73.235829","name":"Toys\"R\"Us\/Babies\"R\"Us-Bay Shore,NY","address":"1851 Sunrise Highway, Bay Shore,NY 11706, (631) 666-6611"},{"latitude":"40.763187","longitude":"-73.092417","name":"Babies\"R\"Us-Bohemia,NY","address":"5181 Sunrise Highway, Bohemia,NY 11716, (631) 218-9101"},{"latitude":"40.866507","longitude":"-73.830433","name":"Toys\"R\"Us\/Babies\"R\"Us-Bronx,NY","address":"350 Bay Chester Avenue Bay Plaza, Bronx,NY 10475, (718) 862-2240"},{"latitude":"40.819411","longitude":"-73.930233","name":"Toys\"R\"Us\/Babies\"R\"Us-Bronx,NY","address":"610 Exterior Street, Bronx,NY 10451, (718) 862-2240"},{"latitude":"40.825243","longitude":"-73.859233","name":"Toys\"R\"Us\/Babies\"R\"Us-Bronx,NY","address":"970 White Plains Rd, Bronx,NY 10473, (718) 904-8697"},{"latitude":"40.602179","longitude":"-73.913943","name":"Toys\"R\"Us-Brooklyn,NY","address":"2875 Flatbush Avenue, Brooklyn,NY 11234, (718) 252-8697"},{"latitude":"40.649271","longitude":"-73.874784","name":"Babies\"R\"Us-Brooklyn,NY","address":"395 Gateway Drivegateway Shopping Center, Brooklyn,NY 11239, (718) 244-3400"},{"latitude":"40.598892","longitude":"-73.995722","name":"Toys\"R\"Us-Brooklyn,NY","address":"8973\/95 Bay Pkwy, Brooklyn,NY 11214, (718) 372-4646"},{"latitude":"42.997925","longitude":"-78.822179","name":"Babies\"R\"Us-Buffalo,NY","address":"1569 Niagara Falls Blvd, Buffalo,NY 14228, (716) 803-1399"},{"latitude":"40.742526","longitude":"-73.619861","name":"Toys\"R\"Us-Carle Place,NY","address":"117 Old Country Rd, Carle Place,NY 11514, (516) 746-3200"},{"latitude":"41.314335","longitude":"-74.125628","name":"Toys\"R\"Us-Central Valley,NY","address":"620 Bluebird Court [Woodbury Common Outlet], Central Valley,NY 10917, (845) 928-9566"},{"latitude":"43.188582","longitude":"-76.224684","name":"Toys\"R\"Us-Clay,NY","address":"NYS I-480 & Rt 31 [Great Northern Mall], Clay,NY 13041"},{"latitude":"42.863589","longitude":"-73.781188","name":"Toys\"R\"Us-Clifton Park,NY","address":"17 Clifton County Road, Clifton Park,NY 12065, (518) 383-0188"},{"latitude":"40.781668","longitude":"-73.8353216","name":"Babies\"R\"Us-College Point,NY","address":"139\/19 20th Ave, College Point,NY 11356, (718) 321-8166"},{"latitude":"40.840236","longitude":"-73.283955","name":"Toys\"R\"Us\/Babies\"R\"Us-Commack,NY","address":"108 Veterans Memorial H, Commack,NY 11725, (631) 462-6300"},{"latitude":"40.7630505","longitude":"-73.3050942","name":"Toys\"R\"Us-Deer Park,NY","address":"152 The Arches Circle [Tanger Outlets], Deer Park,NY 11729, (631) 242-0162"},{"latitude":"40.7699718","longitude":"-73.8368858","name":"Toys\"R\"Us-Flushing,NY","address":"30\/02 Whitestone Expressway, Flushing,NY 11356, (718) 460-6363"},{"latitude":"40.716594","longitude":"-73.880742","name":"Toys\"R\"Us-Flushing,NY","address":"66\/26 Metropolitan Ave N, Flushing,NY 11379, (718) 326-2038"},{"latitude":"40.7012711","longitude":"-73.8816833","name":"Toys\"R\"Us-Glendale,NY","address":"8016 Cooper Ave [Shops at Atlas Park Mall], Glendale,NY 11385, (718) 894-2602"},{"latitude":"42.790921","longitude":"-78.811203","name":"Toys\"R\"Us\/Babies\"R\"Us-Hamburg,NY","address":"3464 McKinley Pkwy, Hamburg,NY 14075, (716) 825-7227"},{"latitude":"40.769392","longitude":"-73.064391","name":"Toys\"R\"Us-Holbrook,NY","address":"5801 Sunrise Highway, Holbrook,NY 11741, (631) 563-8697"},{"latitude":"42.16191","longitude":"-76.877563","name":"Toys\"R\"Us-Horseheads,NY","address":"7 Arnot Road, Horseheads,NY 14845, (607) 739-3695 "},{"latitude":"41.332269","longitude":"-73.808845","name":"Toys\"R\"Us\/Babies\"R\"Us-Jefferson Valley,NY","address":"621 Bank Street, Jefferson Valley,NY 10535, (914) 962-6878"},{"latitude":"42.123796","longitude":"-75.971511","name":"Toys\"R\"Us\/Babies\"R\"Us-Johnson City,NY","address":"416 Harry L Drive Rts 201 & 17, Johnson City,NY 13790, (607) 770-9300"},{"latitude":"41.935803","longitude":"-74.015704","name":"Toys\"R\"Us-Kingston,NY","address":"100 Value Drivehudson Valley Mall, Kingston,NY 12401, (845) 382-2222"},{"latitude":"40.861728","longitude":"-73.125494","name":"Toys\"R\"Us\/Babies\"R\"Us-Lake Grove,NY","address":"3250 Middle Country Rd, Lake Grove,NY 11755, (631) 686-0173"},{"latitude":"42.75754","longitude":"-73.772536","name":"Babies\"R\"Us-Latham,NY","address":"221 Wade Road Extension, Latham,NY 12110, (518) 783-0632"},{"latitude":"40.755413","longitude":"-73.738346","name":"Toys\"R\"Us-Little Neck,NY","address":"242-02 61st Ave & Dglstn Pkwy, Little Neck,NY 11363, (718) 224-2800"},{"latitude":"40.754473","longitude":"-73.754473","name":"Toys\"R\"Us-Little Neck,NY","address":"242-02 61St Ave [Douglaston Plaza], Little Neck,NY"},{"latitude":"40.752639","longitude":"-73.91505","name":"Toys\"R\"Us-Long Island City,NY","address":"3540 48Th Street, Long Island City,NY 11101, (718) 937-8697"},{"latitude":"40.678466","longitude":"-73.436809","name":"Toys\"R\"Us-Massapequa,NY","address":"5520 Sunrise Highway, Massapequa,NY 11758, (516) 798-3240"},{"latitude":"40.682811","longitude":"-73.447263","name":"Babies\"R\"Us-Massapequa Park,NY","address":"5214 Sunrise Highway sunrise Promenade, Massapequa Park,NY 11762, (516) 795-4314"},{"latitude":"41.450024","longitude":"-74.380198","name":"Babies\"R\"Us-Middletown,NY","address":"88 Dunning Rd, Middletown,NY 10940, (845) 956-4050"},{"latitude":"41.450014","longitude":"-74.380098","name":"Toys\"R\"Us-Middletown,NY","address":"88 Dunning Road, Middletown,NY 10940, (845) 342-4144"},{"latitude":"41.095444","longitude":"-74.00656","name":"Toys\"R\"Us-Nanuet,NY","address":"122 East Route 59, Nanuet,NY 10954, (845) 624-8282"},{"latitude":"41.093726","longitude":"-74.002073","name":"Babies\"R\"Us-Nanuet,NY","address":"250 East Route 59, Nanuet,NY 10954, (845) 627-6636"},{"latitude":"43.084029","longitude":"-75.320763","name":"Toys\"R\"Us\/Babies\"R\"Us-New Hartford,NY","address":"4505 Commercial Dr, New Hartford,NY 13413, (315) 736-1815"},{"latitude":"40.732947","longitude":"-73.987432","name":"Babies\"R\"Us-New York,NY","address":"24\/30 Union Square, New York,NY 10003, (212) 798-9905"},{"latitude":"40.748749","longitude":"-73.98854","name":"Toys\"R\"Us-New York,NY","address":"901 Ave Of The Americas [Manhattan Mall], New York,NY 10001, (212) 239-7306"},{"latitude":"40.624297","longitude":"-73.639619","name":"Toys\"R\"Us-Oceanside,NY","address":"3515 Long Beach Road, Oceanside,NY 11572, (516) 536-2314"},{"latitude":"41.608846","longitude":"-73.911679","name":"Toys\"R\"Us-Poughkeepsie,NY","address":"463 South Road, Poughkeepsie,NY 12601, (845) 473-5178"},{"latitude":"43.327709","longitude":"-73.66767","name":"Toys\"R\"Us-Queensbury,NY","address":"708 Upper Glen Street, Queensbury,NY 12804, (518) 761-7100"},{"latitude":"40.733467","longitude":"-73.864014","name":"Toys\"R\"Us\/Babies\"R\"Us-Rego Park,NY","address":"6135 Junction Blvd 2nd Floor, Rego Park,NY 11374, (718) 595-0023"},{"latitude":"40.9185737","longitude":"-72.715823","name":"Toys\"R\"Us-Riverhead,NY","address":"801 Tanger Mall Drive [Tanger Outlets Riverhead], Riverhead,NY 11901, (631) 727-7718"},{"latitude":"40.930755","longitude":"-72.679093","name":"Toys\"R\"Us-Riverhead,NY","address":"1151 Old Country Road, Riverhead,NY 11901, (631) 369-6501"},{"latitude":"40.9175391","longitude":"-72.7156714","name":"Toys\"R\"Us-Riverhead,NY","address":"200 Tanger Mall Dr [Tanger Riverhead Out], Riverhead,NY 11901, (631) 727-7718"},{"latitude":"43.2055123","longitude":"-77.6677783","name":"Toys\"R\"Us-Rochester,NY","address":"1530 Ridge Road West, Rochester,NY 14615, (585) 621-7510 "},{"latitude":"43.079011","longitude":"-77.630505","name":"Babies\"R\"Us-Rochester,NY","address":"2335 Market Place Dr, Rochester,NY 14623, (585) 424-7170"},{"latitude":"43.081998","longitude":"-77.629451","name":"Toys\"R\"Us-Rochester,NY","address":"654 Hyland Drive, Rochester,NY 14623, (585) 272-8697 "},{"latitude":"40.80248","longitude":"-72.859932","name":"Toys\"R\"Us-Shirley,NY","address":"999-16 Montauk Highway [Southport Plaza], Shirley,NY 11967, (631) 399-1648"},{"latitude":"40.563866","longitude":"-74.110689","name":"Toys\"R\"Us\/Babies\"R\"Us-Staten Island,NY","address":"105 Mill Rd, Staten Island,NY 10306, (718) 987-2316"},{"latitude":"40.581265","longitude":"-74.168922","name":"Babies\"R\"Us-Staten Island,NY","address":"2655 Richmond Ave, Staten Island,NY 10314, (718) 370-3647"},{"latitude":"40.576525","longitude":"-74.16951","name":"Toys\"R\"Us-Staten Island,NY","address":"2845 Richmond Avenue, Staten Island,NY 10314, (718) 682-9010"},{"latitude":"43.071986","longitude":"-76.167202","name":"Babies\"R\"Us-Syracuse,NY","address":"2027 Park St, Syracuse,NY 13208, (315) 424-3998"},{"latitude":"40.662615","longitude":"-73.711644","name":"Toys\"R\"Us\/Babies\"R\"Us-Valley Stream,NY","address":"300 West Sunrise Hwy, Valley Stream,NY 11580, (516) 791-1270"},{"latitude":"41.614176","longitude":"-73.913917","name":"Babies\"R\"Us-Wappingers Falls,NY","address":"1822 South Road, Wappingers Falls,NY 12590, (845) 297-4579"},{"latitude":"40.74323","longitude":"-73.588042","name":"Babies\"R\"Us-Westbury,NY","address":"1350 Corporate Drive, Westbury,NY 11590, (516) 227-2629"},{"latitude":"42.960536","longitude":"-78.696713","name":"Toys\"R\"Us-Williamsville,NY","address":"4135 Transit Road, Williamsville,NY 14221, (716) 632-6788 "},{"latitude":"40.937487","longitude":"-73.855112","name":"Toys\"R\"Us\/Babies\"R\"Us-Yonkers,NY","address":"1000 Central Park Ave, Yonkers,NY 10704, (914) 423-7070"},{"latitude":"40.983757","longitude":"-73.827083","name":"Babies\"R\"Us-Yonkers,NY","address":"2700 Central Park Avenue, Yonkers,NY 10710, (914) 722-4500"},{"latitude":"41.3024937","longitude":"-81.3455334","name":"Toys\"R\"Us-Aurora,OH","address":"549 South Chillicothe Rd, Aurora,OH 44202, (330) 995-3717"},{"latitude":"39.7619992","longitude":"-84.0531242","name":"Toys\"R\"Us\/Babies\"R\"Us-Beavercreek,OH","address":"2500 N Fairfield Rd, Beavercreek,OH 45431, (937) 429-4415"},{"latitude":"41.024178","longitude":"-80.650859","name":"Toys\"R\"Us-Boardman,OH","address":"317 Boardman Poland Rd, Boardman,OH 44512, (330) 726-8697"},{"latitude":"41.0025691","longitude":"-81.9962031","name":"Toys\"R\"Us-Burbank,OH","address":"9911 Avon Lake Rd [Lodi Station Outlets], Burbank,OH 44214, (330) 948-0013"},{"latitude":"40.852169","longitude":"-81.422971","name":"Toys\"R\"Us-Canton,OH","address":"4822 NW Whipple Ave, Canton,OH 44718, (330) 493-8697"},{"latitude":"39.10191","longitude":"-84.273103","name":"Toys\"R\"Us-Cincinnati,OH","address":"4585 Eastgate Boulevard, Cincinnati,OH 45245, (513) 752-6811"},{"latitude":"39.145643","longitude":"-84.62479","name":"Toys\"R\"Us-Cincinnati,OH","address":"6251 Glenway Avenue, Cincinnati,OH 45238, (513) 481-5999"},{"latitude":"39.198918","longitude":"-84.380281","name":"Toys\"R\"Us\/Babies\"R\"Us-Cincinnati,OH","address":"7800 Montgomery Rd, Cincinnati,OH 45236, (513) 791-8697"},{"latitude":"39.252615","longitude":"-84.598828","name":"Toys\"R\"Us-Cincinnati,OH","address":"9959 Colerain Avenue, Cincinnati,OH 45251, (513) 385-2804"},{"latitude":"40.148654","longitude":"-82.98051","name":"Toys\"R\"Us\/Babies\"R\"Us-Columbus,OH","address":"1400 Gemini Place Road, Columbus,OH 43240, (614) 785-0874"},{"latitude":"40.024964","longitude":"-83.102385","name":"Babies\"R\"Us-Columbus,OH","address":"3610 W Dublin, Columbus,OH 43235, (614) 799-2229"},{"latitude":"39.930214","longitude":"-82.882078","name":"Toys\"R\"Us-Columbus,OH","address":"4285 Groves Road, Columbus,OH 43232, (614) 866-9163"},{"latitude":"41.133774","longitude":"-81.648033","name":"Toys\"R\"Us\/Babies\"R\"Us-Copley,OH","address":"52 Rothrock Rd, Copley,OH 44321, (330) 666-8697"},{"latitude":"41.118906","longitude":"-81.474955","name":"Toys\"R\"Us\/Babies\"R\"Us-Cuyahoga Falls,OH","address":"590 Howe Ave, Cuyahoga Falls,OH 44221, (330) 923-8697"},{"latitude":"39.636689","longitude":"-84.218486","name":"Babies\"R\"Us-Dayton,OH","address":"2661 Miamisburg, Dayton,OH 45459, (937) 438-5552"},{"latitude":"40.100337","longitude":"-83.091455","name":"Toys\"R\"Us-Dublin,OH","address":"6547 Saw Mill Road, Dublin,OH 43017, (614) 792-9194"},{"latitude":"41.397023","longitude":"-82.107164","name":"Toys\"R\"Us-Elyria,OH","address":"1601 West River Road No, Elyria,OH 44035, (440) 324-2123"},{"latitude":"39.301226","longitude":"-84.517398","name":"Babies\"R\"Us-Forest Park,OH","address":"925 Cincinnati Mills Dr, Forest Park,OH 45240, (513) 671-2430"},{"latitude":"40.029248","longitude":"-82.44354","name":"Toys\"R\"Us-Heath,OH","address":"851 S 30Th Street, Heath,OH 43055, (740) 522-4455"},{"latitude":"41.615006","longitude":"-83.684396","name":"Babies\"R\"Us-Holland,OH","address":"1360 S Hollang Sylvaniard, Holland,OH 43528, (419) 861-7015"},{"latitude":"39.620506","longitude":"-83.602157","name":"Toys\"R\"Us-Jeffersonville,OH","address":"8000 Factory Shops Blvd [Tanger Jeffersonville], Jeffersonville,OH 43128, (740) 948-2465"},{"latitude":"40.761783","longitude":"-84.146677","name":"Toys\"R\"Us\/Babies\"R\"Us-Lima,OH","address":"2292 Elida Rd, Lima,OH 45805, (419) 229-1014"},{"latitude":"39.323906","longitude":"-82.220489","name":"Toys\"R\"Us-Mansfield,OH","address":"2196 West 4th Street & LexSpringmill Rd, Mansfield,OH 44906, (419) 747-9001"},{"latitude":"41.522751","longitude":"-81.438552","name":"Toys\"R\"Us\/Babies\"R\"Us-Mayfield Heights,OH","address":"1385 Som Center Road, Mayfield Heights,OH 44124, (440) 473-0310"},{"latitude":"41.660129","longitude":"-81.364941","name":"Toys\"R\"Us-Mentor,OH","address":"7723 Mentor Avenue, Mentor,OH 44060, (440) 953-8697"},{"latitude":"41.661341","longitude":"-81.360375","name":"Babies\"R\"Us-Mentor,OH","address":"7841 Mentor Avenue City Shopping Ct, Mentor,OH 44060, (440) 974-7388"},{"latitude":"39.638812","longitude":"-84.22836","name":"Toys\"R\"Us-Miamisburg,OH","address":"2859 Miamisburg Centerville Rd, Miamisburg,OH 45342, (937) 435-6271"},{"latitude":"39.432579","longitude":"-84.336865","name":"Toys\"R\"Us-Monroe,OH","address":"400 Premium Outlets Dr [Cincinnati Premium], Monroe,OH 45050, (513) 539-9082"},{"latitude":"41.211082","longitude":"-80.752447","name":"Toys\"R\"Us-Niles,OH","address":"5555 Youngston Warren Rd, Niles,OH 44446, (330) 652-1115"},{"latitude":"40.87863","longitude":"-81.43255","name":"Babies\"R\"Us-North Canton,OH","address":"6655 Strip Ave NW, North Canton,OH 44720, (330) 305-1750"},{"latitude":"41.4188","longitude":"-81.916232","name":"Babies\"R\"Us-North Olmsted,OH","address":"26520 Lorain Road, North Olmsted,OH 44070, (440) 716-8614"},{"latitude":"41.416706","longitude":"-81.922071","name":"Toys\"R\"Us-North Olmsted,OH","address":"27048 Lorain Road, North Olmsted,OH 44070, (440) 779-9279"},{"latitude":"41.380359","longitude":"-81.744625","name":"Toys\"R\"Us\/Babies\"R\"Us-Parma,OH","address":"8515 Day Drive, Parma,OH 44129, (440) 888-8697"},{"latitude":"41.02844","longitude":"-80.632377","name":"Babies\"R\"Us-Poland,OH","address":"1240 Doral Dr, Poland,OH 44514, (330) 965-0412"},{"latitude":"39.936776","longitude":"-82.782353","name":"Babies\"R\"Us-Reynoldsburg,OH","address":"2686 Taylor Road, Reynoldsburg,OH 43068, (614) 759-7744"},{"latitude":"40.067661","longitude":"-80.862532","name":"Toys\"R\"Us-Saint Clairsville,OH","address":"67681 Mall Road, Saint Clairsville,OH 43950, (740) 695-1866 "},{"latitude":"41.403191","longitude":"-82.65874","name":"Toys\"R\"Us-Sandusky,OH","address":"5500 Milan Road, Sandusky,OH 44870, (419) 621-8697"},{"latitude":"40.2792702","longitude":"-82.8502045","name":"Toys\"R\"Us-Sunbury,OH","address":"400 South Wilson Boulevard, Sunbury,OH 43074, (740) 965-4198"},{"latitude":"41.597799","longitude":"-83.664436","name":"Toys\"R\"Us-Toledo,OH","address":"2333 South Reynolds Roa, Toledo,OH 43614, (419) 382-9990"},{"latitude":"41.698375","longitude":"-83.64304","name":"Toys\"R\"Us-Toledo,OH","address":"5025 Monroe Street, Toledo,OH 43623, (419) 473-0165"},{"latitude":"39.9886827","longitude":"-82.0230205","name":"Toys\"R\"Us-Zanesville,OH","address":"3575 Maple Ave [Colony Square Mall], Zanesville,OH 43701, (740) 454-3747"},{"latitude":"35.211124","longitude":"-97.484154","name":"Toys\"R\"Us-Norman,OK","address":"560 Ed Noble Pky, Norman,OK 73072, (405) 579-8400"},{"latitude":"35.399101","longitude":"-97.49166","name":"Toys\"R\"Us-Oklahoma City,OK","address":"1119 SE 66th St, Oklahoma City,OK 73149, (405) 631-1813"},{"latitude":"35.525412","longitude":"-97.537023","name":"Babies\"R\"Us-Oklahoma City,OK","address":"1731 Bell Isle Blvd, Oklahoma City,OK 73118, (405) 840-2820"},{"latitude":"35.611796","longitude":"-97.550287","name":"Toys\"R\"Us-Oklahoma City,OK","address":"2121 NW 138th St, Oklahoma City,OK 73134, (405) 755-1335"},{"latitude":"35.4641166","longitude":"-97.6500946","name":"Toys\"R\"Us-Oklahoma City,OK","address":"7624 West Reno Ave [Outlets Oklahoma City], Oklahoma City,OK 73127, (405) 787-1183"},{"latitude":"36.060736","longitude":"-95.863434","name":"Babies\"R\"Us-Tulsa,OK","address":"10010 East 71st St South, Tulsa,OK 74133, (918) 250-6444"},{"latitude":"36.1337","longitude":"-95.816481","name":"Toys\"R\"Us-Tulsa,OK","address":"14303 East 21 Street So, Tulsa,OK 74108, (918) 234-8697 "},{"latitude":"36.063103","longitude":"-95.886657","name":"Toys\"R\"Us\/Babies\"R\"Us-Tulsa,OK","address":"6910 S Memorial Dr, Tulsa,OK 74133, (918) 252-2997"},{"latitude":"45.432822","longitude":"-122.57943","name":"Toys\"R\"Us-Clackamas,OR","address":"12535 SE 82nd Avenue, Clackamas,OR 97015, (503) 659-5163 "},{"latitude":"44.070905","longitude":"-123.105516","name":"Toys\"R\"Us-Eugene,OR","address":"1133 Valley River Drive, Eugene,OR 97401, (541) 485-8742 "},{"latitude":"44.9597018","longitude":"-124.0111768","name":"Toys\"R\"Us-Lincoln City,OR","address":"1500 SE East Devils Lake [Tanger Lincoln City], Lincoln City,OR 97367, (541) 557-4110"},{"latitude":"42.34253","longitude":"-122.872957","name":"Toys\"R\"Us-Medford,OR","address":"1300 Biddle Road, Medford,OR 97504, (541) 772-6010 "},{"latitude":"45.6134406","longitude":"-122.6868562","name":"Toys\"R\"Us\/Babies\"R\"Us-Portland,OR","address":"12305 N Starlight Dr, Portland,OR 97217, (503) 286-7558"},{"latitude":"45.46147","longitude":"-122.579069","name":"Babies\"R\"Us-Portland,OR","address":"9650 S East 82nd Ave, Portland,OR 97266, (503) 777-3006"},{"latitude":"44.944544","longitude":"-122.983492","name":"Toys\"R\"Us\/Babies\"R\"Us-Salem,OR","address":"1200 Lancaster Dr NE, Salem,OR 97301, (503) 363-4328"},{"latitude":"46.000972","longitude":"-123.916069","name":"Toys\"R\"Us-Seaside,OR","address":"1111 North Roosevelt Dr [Seaside Factory Outlets], Seaside,OR 97138, (503) 738-9027"},{"latitude":"45.446883","longitude":"-122.783587","name":"Toys\"R\"Us-Tigard,OR","address":"10065 SW Cascade Blv, Tigard,OR 97223, (503) 620-9779 "},{"latitude":"45.435844","longitude":"-122.755964","name":"Babies\"R\"Us-Tigard,OR","address":"7805 SW Dartmouth Rd, Tigard,OR 97223, (503) 670-7539"},{"latitude":"40.5128632","longitude":"-78.3685989","name":"Toys\"R\"Us-Altoona,PA","address":"235 Park Plaza, Altoona,PA 16602, (814) 941-8470"},{"latitude":"40.071747","longitude":"-74.965525","name":"Babies\"R\"Us-Bensalem,PA","address":"1336 Bristol Pike, Bensalem,PA 19020, (215) 633-6990"},{"latitude":"40.34458","longitude":"-80.049855","name":"Toys\"R\"Us\/Babies\"R\"Us-Bethel Park,PA","address":"4000 Oxford Dr, Bethel Park,PA 15102, (412) 479-9020"},{"latitude":"40.689886","longitude":"-80.104497","name":"Toys\"R\"Us-Cranberry Township,PA","address":"1000 Cranberry Square, Cranberry Township,PA 16066, (724) 742-8697 "},{"latitude":"40.682586","longitude":"-80.100906","name":"Babies\"R\"Us-Cranberry Township,PA","address":"20111 Rt 19, Cranberry Township,PA 16066, (724) 772-2500"},{"latitude":"42.065834","longitude":"-80.098923","name":"Toys\"R\"Us-Erie,PA","address":"1920 Edinboro Road, Erie,PA 16509, (814) 864-8697 "},{"latitude":"42.057977","longitude":"-80.091318","name":"Babies\"R\"Us-Erie,PA","address":"6680 Peach St, Erie,PA 16509, (814) 864-5814"},{"latitude":"40.033122","longitude":"-75.631495","name":"Toys\"R\"Us-Exton,PA","address":"103 East Swedesford Road, Exton,PA 19341, (610) 524-8699"},{"latitude":"40.021555","longitude":"-75.629013","name":"Babies\"R\"Us-Exton,PA","address":"104 Bartlett Avenue, Exton,PA 19341, (610) 524-5369"},{"latitude":"40.185629","longitude":"-74.867275","name":"Babies\"R\"Us-Fairless Hills,PA","address":"330 Commerce Boulevard, Fairless Hills,PA 19030, (215) 269-0100"},{"latitude":"40.305954","longitude":"-79.5074997","name":"Toys\"R\"Us-Greensburg,PA","address":"135 Danohoe Rd, Greenburg,PA 15601, (724) 836-8813"},{"latitude":"41.1767807","longitude":"-80.0720062","name":"Toys\"R\"Us-Grove City,PA","address":"1911 Leesburg Grove Rd [Grove City Outlets Mall], Grove City,PA 16127, (724) 748-9645"},{"latitude":"40.312316","longitude":"-76.800169","name":"Babies\"R\"Us-Harrisburg,PA","address":"5125 Jonestown Rd, Harrisburg,PA 17112, (717) 671-7101"},{"latitude":"40.15728","longitude":"-75.143449","name":"Toys\"R\"Us\/Babies\"R\"Us-Horsham,PA","address":"100 Welsh Road, Horsham,PA 19044, (215) 784-1900"},{"latitude":"40.303161","longitude":"-78.832775","name":"Toys\"R\"Us-Johnstown,PA","address":"620 Galleria Dr, Johnstown,PA 15904, (814) 262-0181"},{"latitude":"40.091056","longitude":"-75.391738","name":"Toys\"R\"Us\/Babies\"R\"Us-King Of Prussia,PA","address":"250 Mall Blvd, King Of Prussia,PA 19406, (610) 962-7820"},{"latitude":"40.0224266","longitude":"-76.1977005","name":"Toys\"R\"Us-Lancaster,PA","address":"35 S Willowdale Dr [Rockvale Outlets], Lancaster,PA 17602, (717) 393-3696"},{"latitude":"40.06167","longitude":"-76.336991","name":"Toys\"R\"Us-Lancaster,PA","address":"1430 Harrisburg Pike, Lancaster,PA 17601, (717) 293-1494"},{"latitude":"40.066357","longitude":"-76.343817","name":"Babies\"R\"Us-Lancaster,PA","address":"990 Plaza Blvd, Lancaster,PA 17601, (717) 394-0823"},{"latitude":"40.17944","longitude":"-74.877135","name":"Toys\"R\"Us-Langhorne,PA","address":"2345 East Lincoln Hwy, Langhorne,PA 19047, (215) 943-1556"},{"latitude":"40.247627","longitude":"-77.003168","name":"Toys\"R\"Us\/Babies\"R\"Us-Mechanicsburg,PA","address":"6391 Carlisle Pike, Mechanicsburg,PA 17050, (717) 697-5087"},{"latitude":"39.913234","longitude":"-75.436315","name":"Toys\"R\"Us\/Babies\"R\"Us-Media,PA","address":"1154 West Baltimore Pike, Media,PA 19063, (610) 566-0100"},{"latitude":"40.434786","longitude":"-79.790959","name":"Babies\"R\"Us-Monroeville,PA","address":"3700 William Penn Hwy, Monroeville,PA 15146, (412) 856-9891"},{"latitude":"40.435394","longitude":"-79.789236","name":"Toys\"R\"Us-Monroeville,PA","address":"3735 William Penn Hwy, Monroeville,PA 15146, (412) 373-8043"},{"latitude":"40.226987","longitude":"-75.235528","name":"Babies\"R\"Us-Montgomeryville,PA","address":"980 Bethlehem Pike, Montgomeryville,PA 18936, (215) 699-8762"},{"latitude":"40.236451","longitude":"-75.240565","name":"Toys\"R\"Us-North Wales,PA","address":"2 Airport Square, North Wales,PA 19454, (215) 368-8050"},{"latitude":"39.975146","longitude":"-76.766346","name":"Toys\"R\"Us\/Babies\"R\"Us-North York,PA","address":"1410 Kenneth Rd, North York,PA 17404, (717) 764-1300"},{"latitude":"41.242881","longitude":"-76.82593","name":"Toys\"R\"Us-Pennsdale,PA","address":"421 Lycoming Mall Circl, Pennsdale,PA 17756, (570) 546-9140 "},{"latitude":"40.082433","longitude":"-74.964643","name":"Toys\"R\"Us\/Babies\"R\"Us-Philadelphia,PA","address":"201 Franklin Mills Circle, Philadelphia,PA 19154, (215) 281-0222"},{"latitude":"40.050844","longitude":"-75.065046","name":"Toys\"R\"Us-Philadelphia,PA","address":"2045 Cottman Avenue, Philadelphia,PA 19149, (215) 742-8090"},{"latitude":"39.914133","longitude":"-75.152646","name":"Toys\"R\"Us-Philadelphia,PA","address":"2703-2817 South Third St, Philadelphia,PA 19148, (215) 334-4600"},{"latitude":"39.991037","longitude":"-75.10126","name":"Toys\"R\"Us\/Babies\"R\"Us-Philadelphia,PA","address":"3401 Aramingo Ave, Philadelphia,PA 19134, (215) 423-2680"},{"latitude":"40.453229","longitude":"-80.168159","name":"Toys\"R\"Us-Pittsburg,PA","address":"2001 Park Manor Blvd, Pittsburg,PA 15205, (412) 787-1770"},{"latitude":"40.536458","longitude":"-80.010088","name":"Toys\"R\"Us-Pittsburg,PA","address":"2003 Cheryl Dr, Pittsburg,PA 15237, (412) 364-4062"},{"latitude":"40.236004","longitude":"-75.574613","name":"Toys\"R\"Us-Pottstown,PA","address":"18 West Lightcap Rd [Philly Premium Outlet], Pottstown,PA 19464, (610) 326-3527"},{"latitude":"40.360182","longitude":"-75.987171","name":"Babies\"R\"Us-Reading,PA","address":"2789 Paper Mill Rd, Reading,PA 19610, (610) 373-7174"},{"latitude":"41.462302","longitude":"-75.655011","name":"Toys\"R\"Us\/Babies\"R\"Us-Scranton,PA","address":"409 Scranton Carbondale Highway, Scranton,PA 18508, (570) 963-8987"},{"latitude":"39.917777","longitude":"-75.331869","name":"Babies\"R\"Us-Springfield,PA","address":"770 Baltimore Pike, Springfield,PA 19064, (610) 544-9207"},{"latitude":"41.0475006","longitude":"-75.3125916","name":"Toys\"R\"Us-Tannersville,PA","address":"1000 Premium Outlets Dr [The Crossings Outlets], Tannersville,PA 18372, (570) 629-7041"},{"latitude":"40.2151765","longitude":"-80.2092424","name":"Toys\"R\"Us-Washington,PA","address":"2200 Tanger Boulevard [Tanger Washington Outlets], Washington,PA 15301, (724) 222-2030"},{"latitude":"40.183519","longitude":"-80.235262","name":"Toys\"R\"Us-Washington,PA","address":"301 Oak Spring Rd, Washington,PA 15301, (724) 223-8552"},{"latitude":"40.337667","longitude":"-79.951037","name":"Toys\"R\"Us\/Babies\"R\"Us-West Mifflin,PA","address":"275 Clairton Blvd, West Mifflin,PA 15122, (412) 655-0677"},{"latitude":"40.63207","longitude":"-75.47714","name":"Babies\"R\"Us-Whitehall,PA","address":"600 Lehigh Valley Mall, Whitehall,PA 18052, (610) 231-0481"},{"latitude":"40.634413","longitude":"-75.478476","name":"Toys\"R\"Us-Whitehall,PA","address":"955 Grape Street, Whitehall,PA 18052, (610) 264-4100"},{"latitude":"41.231388","longitude":"-75.935875","name":"Babies\"R\"Us-Wilkes Barre,PA","address":"3300 Wilkes Barre Commons, Wilkes Barre,PA 18702, (570) 822-7854"},{"latitude":"41.251142","longitude":"-75.84926","name":"Toys\"R\"Us-Wilkes Barre,PA","address":"620 Kidder St, Wilkes Barre,PA 18702, (570) 825-8600"},{"latitude":"40.34441","longitude":"-75.970291","name":"Toys\"R\"Us-Wyomissing,PA","address":"1055 Woodland Rd, Wyomissing,PA 19610, (610) 208-0898"},{"latitude":"18.4375524","longitude":"-66.5426432","name":"Toys\"R\"Us-Barceloneta,PR","address":"1 Premium Outlets Blvd [Puerto Rico Outlets], Barceloneta,PR 00617, (787) 846-7233"},{"latitude":"18.490797","longitude":"-66.815031","name":"Toys\"R\"Us\/Babies\"R\"Us-Hatillo,PR","address":"Carrtera 2 Km 81.9, Hatillo,PR 00659, (787) 878-8697"},{"latitude":"18.188282","longitude":"-67.157852","name":"Toys\"R\"Us-Mayaguez,PR","address":"Carretera 2-Km 159.0 , Mayaguez,PR 00682, (787) 265-8697"},{"latitude":"18.421475","longitude":"-66.063959","name":"Toys\"R\"Us\/Babies\"R\"Us-San Juan,PR","address":"555 Calaf St Plaza De Las Americas, San Juan,PR 00918, (787) 250-8697"},{"latitude":"41.687223","longitude":"-71.500743","name":"Babies\"R\"Us-Warwick,RI","address":"300 Quaker Lane, Warwick,RI 02886, (401) 827-9920"},{"latitude":"41.698591","longitude":"-71.461686","name":"Toys\"R\"Us-Warwick,RI","address":"375 East Ave [Rhode Island SC], Warwick,RI 02886, (401) 821-3872 "},{"latitude":"34.546246","longitude":"-82.670553","name":"Toys\"R\"Us-Anderson,SC","address":"3405 Clemson Boulevard, Anderson,SC 29621, (864) 225-9012"},{"latitude":"34.076137","longitude":"-81.158501","name":"Toys\"R\"Us-Columbia,SC","address":"140 Columbiana Drive, Columbia,SC 29212, (803) 781-1002"},{"latitude":"34.071894","longitude":"-81.159931","name":"Babies\"R\"Us-Columbia,SC","address":"254 Harbison Boulevard, Columbia,SC 29212, (803) 407-4782"},{"latitude":"34.189145","longitude":"-79.835874","name":"Toys\"R\"Us-Florence,SC","address":"2680 David Mcleod Boulevard, Florence,SC 29501, (843) 667-1211"},{"latitude":"34.833847","longitude":"-82.306747","name":"Toys\"R\"Us\/Babies\"R\"Us-Greenville,SC","address":"1025 Woodruff Rd, Greenville,SC 29607, (864) 213-2022"},{"latitude":"33.713943","longitude":"-78.894858","name":"Toys\"R\"Us-Myrtle Beach,SC","address":"1100 Seaboard Street, Myrtle Beach,SC 29577, (843) 445-9884"},{"latitude":"32.9325264","longitude":"-80.0366778","name":"Babies\"R\"Us-North Charleston,SC","address":"7220 Rivers Avenue, North Charleston,SC 29406, (843) 824-9493"},{"latitude":"32.944643","longitude":"-80.040665","name":"Toys\"R\"Us-North Charleston,SC","address":"7800 Rivers Avenue Ste 1100, North Charleston,SC 29418, (843) 553-5817"},{"latitude":"34.93698","longitude":"-81.987373","name":"Toys\"R\"Us-Spartanburg,SC","address":"1508B W O  Ezell Boulevard, Spartanburg,SC 29301, (864) 574-9525"},{"latitude":"44.107078","longitude":"-103.204846","name":"Toys\"R\"Us-Rapid City,SD","address":"450 E Disk Dr, Rapid City,SD 57701, (605) 399-9410"},{"latitude":"43.512357","longitude":"-96.777081","name":"Toys\"R\"Us\/Babies\"R\"Us-Sioux Falls,SD","address":"4401 W Empire Rd, Sioux Falls,SD 57106, (605) 361-9277"},{"latitude":"35.030934","longitude":"-85.154983","name":"Babies\"R\"Us-Chattanooga,TN","address":"2020 Gunbarrel Roadsuite 400, Chattanooga,TN 37421, (423) 894-7277"},{"latitude":"35.037023","longitude":"-85.157078","name":"Toys\"R\"Us-Chattanooga,TN","address":"2200 Hamilton Place Blvd, Chattanooga,TN 37421, (423) 892-6555"},{"latitude":"36.639458","longitude":"-87.264905","name":"Toys\"R\"Us\/Babies\"R\"Us-Clarksville,TN","address":"2821 Guthrie Rd, Clarksville,TN 37040, (931) 647-0667"},{"latitude":"35.962666","longitude":"-86.811837","name":"Toys\"R\"Us-Franklin,TN","address":"1735 Galleria Boulevard, Franklin,TN 37064, (615) 771-7744"},{"latitude":"35.660286","longitude":"-88.828368","name":"Toys\"R\"Us-Jackson,TN","address":"2139 North Highland, Jackson,TN 38305, (731) 660-5265"},{"latitude":"36.33691","longitude":"-82.373069","name":"Toys\"R\"Us\/Babies\"R\"Us-Johnson City,TN","address":"1910 N Roan Street, Johnson City,TN 37601, (423) 283-4219"},{"latitude":"35.925198","longitude":"-84.046793","name":"Toys\"R\"Us-Knoxville,TN","address":"8009 Kingston Pike, Knoxville,TN 37919, (865) 690-1632"},{"latitude":"35.907825","longitude":"-84.105346","name":"Babies\"R\"Us-Knoxville,TN","address":"9626 Kingston Pike, Knoxville,TN 37922, (865) 769-9911"},{"latitude":"36.297698","longitude":"-86.698656","name":"Toys\"R\"Us-Madison,TN","address":"1800 Gallatin Pike North, Madison,TN 37115, (615) 868-8953"},{"latitude":"36.30484","longitude":"-86.688504","name":"Babies\"R\"Us-Madison,TN","address":"2205 Gallatin Pike North, Madison,TN 37115, (615) 855-3773"},{"latitude":"35.050916","longitude":"-89.806309","name":"Toys\"R\"Us\/Babies\"R\"Us-Memphis,TN","address":"7676 Polo Ground Blvd, Memphis,TN 38125, (901) 309-3015"},{"latitude":"35.198353","longitude":"-89.794968","name":"Toys\"R\"Us\/Babies\"R\"Us-Memphis,TN","address":"8060 Giacosa Place, Memphis,TN 38133, (901) 937-4139"},{"latitude":"35.845502","longitude":"-86.429549","name":"Toys\"R\"Us\/Babies\"R\"Us-Murfreesboro,TN","address":"2075 Old Fort Pkwy, Murfreesboro,TN 37129, (615) 217-3306"},{"latitude":"36.2038136","longitude":"-86.6948251","name":"Toys\"R\"Us-Nashville,TN","address":"327 Opry Mills Drive [Opry Mills], Nashville,TN 37214, (615) 416-6770"},{"latitude":"36.046409","longitude":"-86.713517","name":"Babies\"R\"Us-Nashville,TN","address":"5731 Nolensville Road, Nashville,TN 37211, (615) 781-2229"},{"latitude":"35.833097","longitude":"-83.572806","name":"Toys\"R\"Us-Sevierville,TN","address":"1645 Parkway [Tanger Sevierville], Sevierville,TN 37862, (865) 908-8654"},{"latitude":"33.096734","longitude":"-96.631346","name":"Toys\"R\"Us\/Babies\"R\"Us-Allen,TX","address":"170 E Stacy Roadbuilding 2250, Allen,TX 75002, (972) 678-4958"},{"latitude":"35.186139","longitude":"-101.937574","name":"Toys\"R\"Us\/Babies\"R\"Us-Amarillo,TX","address":"2403 S Soncy Road, Amarillo,TX 79121, (806) 355-1135"},{"latitude":"32.685062","longitude":"-97.134512","name":"Babies\"R\"Us-Arlington,TX","address":"1501 West Arbrook Boulevard, Arlington,TX 76015, (817) 784-2229"},{"latitude":"32.679913","longitude":"-97.134656","name":"Toys\"R\"Us\/Babies\"R\"Us-Arlington,TX","address":"4111 South Cooper Street, Arlington,TX 76015, (817) 784-0843"},{"latitude":"30.413513","longitude":"-97.67295","name":"Toys\"R\"Us-Austin,TX","address":"12901 Highway 35 Northbuilding 8, Austin,TX 78753, (512) 989-6298"},{"latitude":"30.241355","longitude":"-97.800346","name":"Toys\"R\"Us-Austin,TX","address":"4025 Capitol Texas Highway, Austin,TX 78704, (512) 441-7216"},{"latitude":"30.401805","longitude":"-97.752863","name":"Toys\"R\"Us\/Babies\"R\"Us-Austin,TX","address":"9333 Research Blvd [Bldg A Ste 200], Austin,TX 78759, (512) 342-0805"},{"latitude":"29.804378","longitude":"-94.986595","name":"Toys\"R\"Us\/Babies\"R\"Us-Baytown,TX","address":"4815 I-10 E Eastpoint, Baytown,TX 77521, (281) 421-4647"},{"latitude":"30.127046","longitude":"-94.156685","name":"Toys\"R\"Us\/Babies\"R\"Us-Beaumont,TX","address":"5910 Eastex Freeway, Beaumont,TX 77708, (409) 898-8586"},{"latitude":"31.9113752","longitude":"-106.5833306","name":"Toys\"R\"Us-Canutillo,TX","address":"7051 S Desert Blvd [Outlets at El Paso], Cautillo,TX 79835, (none listed)"},{"latitude":"32.604048","longitude":"-96.949809","name":"Toys\"R\"Us\/Babies\"R\"Us-Cedar Hill,TX","address":"428 E Fm 1382, Cedar Hill,TX 75104, (972) 291-6405"},{"latitude":"30.624941","longitude":"-96.307565","name":"Toys\"R\"Us-College Station,TX","address":"1306 Harvey Road, College Station,TX 77845, (979) 693-2282"},{"latitude":"27.709436","longitude":"-97.362432","name":"Toys\"R\"Us\/Babies\"R\"Us-Corpus Christi,TX","address":"1220 Airline Road, Corpus Christi,TX 78412, (361) 992-2429"},{"latitude":"27.712221","longitude":"-97.374938","name":"Toys\"R\"Us-Corpus Christi,TX","address":"5488 S Padre Island Dr [La Palmera Mall], Corpus Christi,TX 78411, (361) 985-0740"},{"latitude":"29.9953194","longitude":"-95.7583923","name":"Toys\"R\"Us-Cypress,TX","address":"23900 Hempstead Rd [Houston Premium Outlets], Cypress,TX 77433 (281) 256-8735"},{"latitude":"32.934385","longitude":"-96.821626","name":"Toys\"R\"Us\/Babies\"R\"Us-Dallas,TX","address":"13710 Dallas Pkwy, Dallas,TX 75240, (972)980-4001"},{"latitude":"32.875441","longitude":"-96.769701","name":"Toys\"R\"Us\/Babies\"R\"Us-Dallas,TX","address":"9358 N Central Express, Dallas,TX 75231, (214) 363-8732"},{"latitude":"31.765437","longitude":"-106.293273","name":"Babies\"R\"Us-El Paso,TX","address":"1327 George Dieter Drivelas Palmas Market Place, El Paso,TX 79936, (915) 593-2143"},{"latitude":"31.817196","longitude":"-106.541737","name":"Toys\"R\"Us-El Paso,TX","address":"801 Mesa Hills Drive, El Paso,TX 79912, (915) 833-3459"},{"latitude":"31.760268","longitude":"-106.356787","name":"Toys\"R\"Us-El Paso,TX","address":"9801 Gateway Boulevard West, El Paso,TX 79925, (915) 594-1131"},{"latitude":"32.67239","longitude":"-97.412241","name":"Babies\"R\"Us-Fort Worth,TX","address":"5800 Overton Bridge Blv, Fort Worth,TX 76132, (817) 423-8829"},{"latitude":"29.558025","longitude":"-95.159187","name":"Babies\"R\"Us-Friendswood,TX","address":"18182 Gulf Freeway, Friendswood,TX 77546, (281) 990-9390"},{"latitude":"33.103163","longitude":"-96.805869","name":"Toys\"R\"Us\/Babies\"R\"Us-Frisco,TX","address":"2871 Preston Road [Shafer Plaza], Frisco,TX 75034, (972) 712-3986"},{"latitude":"32.9528198","longitude":"-96.6133804","name":"Toys\"R\"Us\/Babies\"R\"Us-Garland,TX","address":"320 Wine Cup Way, Garland,TX 75040, (972) 495-2095"},{"latitude":"32.6776931","longitude":"-97.0549627","name":"Toys\"R\"Us-Grand Prairie,TX","address":"2950 W Interstate 20 [Grand Prairie Outlets], Grand Prairie,TX 75052, (972) 606-4516"},{"latitude":"32.9423866","longitude":"-97.0796585","name":"Toys\"R\"Us-Grapevine,TX","address":"3000 Grapevine Mills Pw [Grapevine Mills Mall], Grapevine,TX 76051, (214) 285-0079"},{"latitude":"29.692704","longitude":"-95.412511","name":"Toys\"R\"Us-Houston,TX","address":"1212 Old Spanish Trail, Houston,TX 77054, (713) 796-8697"},{"latitude":"29.95843","longitude":"-95.54393","name":"Toys\"R\"Us\/Babies\"R\"Us-Houston,TX","address":"17776 State Hwy 249 Ste 1, Houston,TX 77064, (281) 955-5564"},{"latitude":"30.019844","longitude":"-95.434535","name":"Babies\"R\"Us-Houston,TX","address":"380 Fm 1960 West, Houston,TX 77090, (281) 586-9993"},{"latitude":"29.737591","longitude":"-95.491061","name":"Toys\"R\"Us\/Babies\"R\"Us-Houston,TX","address":"6145 Westheimer Road, Houston,TX 77057, (713) 785-8697"},{"latitude":"29.785262","longitude":"-95.533652","name":"Toys\"R\"Us\/Babies\"R\"Us-Houston,TX","address":"9730 Katy Freeway, Houston,TX 77024, (713) 465-4176"},{"latitude":"30.012798","longitude":"-95.263802","name":"Toys\"R\"Us\/Babies\"R\"Us-Humble,TX","address":"20450 Highway 59 North, Humble,TX 77338, (281) 540-1464"},{"latitude":"32.823549","longitude":"-97.201005","name":"Babies\"R\"Us-Hurst,TX","address":"1309 W Pipeline Road, Hurst,TX 76053, (817) 595-2189"},{"latitude":"32.823548","longitude":"-97.201175","name":"Toys\"R\"Us-Hurst,TX","address":"1319 West Pipeline Road, Hurst,TX 76053, (817) 589-7181"},{"latitude":"32.911715","longitude":"-96.958425","name":"Toys\"R\"Us\/Babies\"R\"Us-Irving,TX","address":"7730 N Macarthur Boulevard, Irving,TX 75063, (972) 556-0733"},{"latitude":"29.785771","longitude":"-95.7233","name":"Babies\"R\"Us-Katy,TX","address":"20280 Katy Freeway, Katy,TX 77449, (281) 829-1000"},{"latitude":"29.780793","longitude":"-95.802048","name":"Toys\"R\"Us-Katy,TX","address":"25024 Katy Mills Drive, Katy,TX 77494, (281) 644-7601"},{"latitude":"31.114695","longitude":"-97.729459","name":"Toys\"R\"Us-Killeen,TX","address":"2500 E Central TexasExpressway B, Killeen,TX 76541, (254) 634-8697"},{"latitude":"27.5533981","longitude":"-99.5025024","name":"Toys\"R\"Us-Laredo,TX","address":"5300 San Dario Avenue [Mall Del Norte], Laredo,TX 78041, (956) 729-1960"},{"latitude":"27.549798","longitude":"-99.504409","name":"Toys\"R\"Us\/Babies\"R\"Us-Laredo,TX","address":"5404 San Bernardo Ave, Laredo,TX 78041, (956) 791-8697"},{"latitude":"33.006205","longitude":"-96.969678","name":"Toys\"R\"Us-Lewisville,TX","address":"2412 S Stemmons Freewy, Lewisville,TX 75067, (972) 315-6210"},{"latitude":"33.004489","longitude":"-96.980099","name":"Babies\"R\"Us-Lewisville,TX","address":"420 East Roundgrove Road, Lewisville,TX 75067, (972) 459-9333"},{"latitude":"32.540932","longitude":"-94.755361","name":"Toys\"R\"Us-Longview,TX","address":"402 West Loop 281, Longview,TX 75604, (903) 757-8697"},{"latitude":"33.538689","longitude":"-101.922305","name":"Toys\"R\"Us\/Babies\"R\"Us-Lubbock,TX","address":"6101 Slide Road, Lubbock,TX 79414, (806) 799-8327"},{"latitude":"26.189335","longitude":"-98.234802","name":"Toys\"R\"Us-Mc Allen,TX","address":"1101 W Expressway 83, Mc Allen,TX 78502, (956) 682-8697"},{"latitude":"26.1946","longitude":"-98.259346","name":"Babies\"R\"Us-Mc Allen,TX","address":"3300 W Expressway 83Suite 500, Mc Allen,TX 78501, (956) 618-0383"},{"latitude":"26.1595517","longitude":"-97.8871744","name":"Toys\"R\"Us-Mercedes,TX","address":"5001 East Expressway 83 [Rio Grande Vly Outlets], Mercedes,TX 78570, (956) 514-2458"},{"latitude":"32.809662","longitude":"-96.62513","name":"Babies\"R\"Us-Mesquite,TX","address":"1220 Town East Boulevard, Mesquite,TX 75150, (972) 682-1450"},{"latitude":"32.816757","longitude":"-96.629318","name":"Toys\"R\"Us-Mesquite,TX","address":"2063 N Town East Boulevard##2100, Mesquite,TX 75150, (972) 270-6164"},{"latitude":"32.034086","longitude":"-102.125349","name":"Toys\"R\"Us\/Babies\"R\"Us-Midland,TX","address":"3109 W Loop 250 North, Midland,TX 79705, (432) 520-9821"},{"latitude":"29.650135","longitude":"-95.153894","name":"Toys\"R\"Us\/Babies\"R\"Us-Pasadena,TX","address":"5651 Fairmont Parkway, Pasadena,TX 77505, (281) 998-3009"},{"latitude":"29.555644","longitude":"-95.393465","name":"Toys\"R\"Us-Pearland,TX","address":"11200 Broadway St [Pearland Town Center], Pearland,TX 77584, (713) 436-7359"},{"latitude":"30.5656479","longitude":"-97.6921101","name":"Toys\"R\"Us-Round Rock,TX","address":"4401 North IH 35 [Round Rock Outlets], Round Rock,TX 78664, (512) 863-4170"},{"latitude":"29.608445","longitude":"-98.596757","name":"Babies\"R\"Us-San Antonio,TX","address":"17610 La Cantera, San Antonio,TX 78257, (210) 694-2087"},{"latitude":"29.521035","longitude":"-98.496422","name":"Toys\"R\"Us\/Babies\"R\"Us-San Antonio,TX","address":"321 NW Loop 410 Ste 108, San Antonio,TX 78216, (210) 524-0117"},{"latitude":"29.438215","longitude":"-98.65126","name":"Toys\"R\"Us\/Babies\"R\"Us-San Antonio,TX","address":"8327 Hwy 151, San Antonio,TX 78245, (210) 521-2018"},{"latitude":"29.826876","longitude":"-97.986031","name":"Toys\"R\"Us-San Marcos,TX","address":"4015 I-35 South [Tanger San Marcos li], San Marcos,TX 78666, (512) 396-9718"},{"latitude":"29.571152","longitude":"-98.325049","name":"Toys\"R\"Us\/Babies\"R\"Us-Selma,TX","address":"8270 Agora Parkway, Selma,TX 78154, (210) 658-2183"},{"latitude":"32.942253","longitude":"-97.116727","name":"Toys\"R\"Us\/Babies\"R\"Us-Southlake,TX","address":"250 N Kimball Ave, Southlake,TX 76092, (817) 488-3178"},{"latitude":"29.602686","longitude":"-95.617308","name":"Babies\"R\"Us-Sugar Land,TX","address":"15555 Southwest Freeway, Sugar Land,TX 77478, (281) 980-9595"},{"latitude":"29.591126","longitude":"-95.634098","name":"Toys\"R\"Us-Sugar Land,TX","address":"16618 Sw Freeway, Sugar Land,TX 77478, (281) 277-8697"},{"latitude":"30.231314","longitude":"-97.818921","name":"Babies\"R\"Us-Sunset Valley,TX","address":"5207 Brodie Lane, Sunset Valley,TX 78745, (512) 358-0191"},{"latitude":"32.7022514","longitude":"-96.2821274","name":"Toys\"R\"Us-Terrell,TX","address":"301 Tanger Drive [Tanger Outlets Terrell], Terrell,TX 75160, (972) 551-7031"},{"latitude":"29.4279373","longitude":"-95.0584055","name":"Toys\"R\"Us-Texas City,TX","address":"5885 Gulf Freeway [Tanger Galveston], Texas City,TX 77590, (281) 337-2392"},{"latitude":"30.167958","longitude":"-95.456505","name":"Toys\"R\"Us-The Woodlands,TX","address":"1420 Lake Woodland Drive, The Woodlands,TX 77380, (281) 367-0061"},{"latitude":"31.518178","longitude":"-97.181381","name":"Toys\"R\"Us-Waco,TX","address":"5200 W Waco Drive, Waco,TX 76710, (254) 772-1556"},{"latitude":"29.538661","longitude":"-95.145698","name":"Toys\"R\"Us-Webster,TX","address":"1449 Bay Area Boulevard, Webster,TX 77598, (281) 338-2915"},{"latitude":"32.73866","longitude":"-97.448126","name":"Toys\"R\"Us-White Settlement,TX","address":"7606 West Freeway, White Settlement,TX 76108, (817) 246-2251"},{"latitude":"33.866082","longitude":"-98.530646","name":"Toys\"R\"Us-Wichita Falls,TX","address":"2500 E Elliott Street, Wichita Falls,TX 76308, (940) 691-8697"},{"latitude":"32.303179","longitude":"-95.296951","name":"Toys\"R\"Us\/Babies\"R\"Us-Tyler,TX ","address":"414 East SE  Loop 323, Tyler,TX 75701, (903) 534-8697"},{"latitude":"41.086253","longitude":"-111.98401","name":"Toys\"R\"Us-Layton,UT","address":"1780 Woodland Park Drive, Layton,UT 84041, (801) 779-9900 "},{"latitude":"40.624296","longitude":"-111.860383","name":"Babies\"R\"Us-Midvale,UT","address":"1122 E Fort Union Blvd, Midvale,UT 84047, (801) 352-1086"},{"latitude":"40.64153","longitude":"-111.889169","name":"Toys\"R\"Us-Murray,UT","address":"5968 South State Street, Murray,UT 84107, (801) 261-8697 "},{"latitude":"41.190617","longitude":"-111.981034","name":"Babies\"R\"Us-Ogden,UT","address":"4042 Riverdale Rd, Ogden,UT 84405, (801) 612-0400"},{"latitude":"40.273325","longitude":"-111.69264","name":"Babies\"R\"Us-Orem,UT","address":"106 E University Pkwy, Orem,UT 84058, (801) 802-8200"},{"latitude":"40.273327","longitude":"-111.693024","name":"Toys\"R\"Us-Orem,UT","address":"86 East University Parkway, Orem,UT 84058, (801) 224-4448 "},{"latitude":"40.695636","longitude":"-111.958053","name":"Toys\"R\"Us-West Valley City,UT","address":"3550 Constitution Blv, West Valley City,UT 84119, (801) 967-8697 "},{"latitude":"38.768296","longitude":"-77.14087","name":"Toys\"R\"Us-Alexandria,VA","address":"6001 Kingstowne Village, Alexandria ,VA 22315, (703) 922-0721"},{"latitude":"38.847658","longitude":"-77.123184","name":"Toys\"R\"Us-Baileys Crossroads,VA","address":"5521 Leesburg Pike, Baileys Crossroads,VA 22041, (703) 820-2428"},{"latitude":"38.895766","longitude":"-77.42559","name":"Babies\"R\"Us-Chantilly,VA","address":"13954 Metro Tech Dr, Chantilly,VA 20151, (703) 502-9200"},{"latitude":"38.072877","longitude":"-78.47915","name":"Toys\"R\"Us\/Babies\"R\"Us-Charlottesville,VA","address":"590 Branchlands Boulevard, Charlottesville,VA 22901, (434) 973-4406"},{"latitude":"36.773855","longitude":"-76.229674","name":"Babies\"R\"Us-Chesapeake,VA","address":"1336 Greenbrier Parkway, Chesapeake,VA 23320, (757) 548-2255"},{"latitude":"36.823921","longitude":"-76.412344","name":"Toys\"R\"Us-Chesapeake,VA","address":"4120 Portsmouth Boulevard, Chesapeake,VA 23321, (757) 465-0273 "},{"latitude":"37.2504","longitude":"-77.398839","name":"Toys\"R\"Us-Colonial Heights,VA","address":"1869 S Park Boulevard, Colonial Heights,VA 23834, (804) 520-7854"},{"latitude":"36.59334","longitude":"-79.431101","name":"Toys\"R\"Us-Danville,VA","address":"142 Executive Drive, Danville,VA 24541, (434) 797-1581"},{"latitude":"38.848601","longitude":"-77.334457","name":"Toys\"R\"Us-Fairfax,VA","address":"13035 Fair Lakes Plaza, Fairfax,VA 22030, (703) 803-1050"},{"latitude":"38.849295","longitude":"-77.126167","name":"Babies\"R\"Us-Falls Church,VA","address":"5700 Leesburg Pike, Falls Church,VA 22041, (703) 575-9542"},{"latitude":"38.295899","longitude":"-77.514362","name":"Toys\"R\"Us\/Babies\"R\"Us-Fredericksburg,VA","address":"3101 Plank Road, Fredericksburg,VA 22404, (540) 785-7377"},{"latitude":"37.362485","longitude":"-79.171317","name":"Toys\"R\"Us-Lynchburg,VA","address":"3700 Candlersmountain Rd, Lynchburg,VA 24502, (434) 847-8697"},{"latitude":"38.779811","longitude":"-77.504639","name":"Toys\"R\"Us-Manassas,VA","address":"10318 Portsmouth Road, Manassas,VA 20110, (703) 330-8304"},{"latitude":"37.414291","longitude":"-77.640456","name":"Babies\"R\"Us-Midlothian,VA","address":"13315 Rittenhouse Drive, Midlothian,VA 23112, (804) 744-2595"},{"latitude":"37.107061","longitude":"-76.494978","name":"Toys\"R\"Us-Newport News,VA","address":"12132 Jefferson Avenue, Newport News,VA 23602, (757) 249-8697"},{"latitude":"37.108211","longitude":"-76.496499","name":"Babies\"R\"Us-Newport News,VA","address":"12153 Jefferson Avenue, Newport News,VA 23602, (757) 269-0140"},{"latitude":"36.846897","longitude":"-76.209645","name":"Toys\"R\"Us-Norfolk,VA","address":"400 Military Highway, Norfolk,VA 23502, (757) 461-0440"},{"latitude":"37.5822906","longitude":"-77.494278","name":"Toys\"R\"Us\/Babies\"R\"Us-Richmond,VA","address":"11861 West Broad St, Richmond,VA 23233, (804) 364-2520"},{"latitude":"37.517789","longitude":"-77.568849","name":"Toys\"R\"Us-Richmond,VA","address":"1257 Carmia Way Chesterfield Mkt Pl, Richmond,VA 23235, (804) 897-7297"},{"latitude":"37.306451","longitude":"-79.968983","name":"Toys\"R\"Us\/Babies\"R\"Us-Roanoke,VA","address":"4943 Valley View Blvd, Roanoke,VA 24018, (540) 563-9800"},{"latitude":"38.7721159","longitude":"-77.1759684","name":"Toys\"R\"Us-Springfield,VA","address":"6507 Springfield Mall [Springfield Town Center], Springfield,VA 22150, (703) 922-5760"},{"latitude":"39.026017","longitude":"-77.389676","name":"Babies\"R\"Us-Sterling,VA","address":"21300 Signal Hill Plaza, Sterling,VA 20164, (571) 434-8850"},{"latitude":"39.00274","longitude":"-77.401859","name":"Toys\"R\"Us-Sterling,VA","address":"46300 Unit 100 [Potomac Run Plaza], Sterling,VA 20164, (703) 404-8697"},{"latitude":"36.83444","longitude":"-76.092157","name":"Toys\"R\"Us\/Babies\"R\"Us-Virginia Beach,VA","address":"2701 N Mall Drivesuite 101, Virginia Beach,VA 23452, (757) 498-8271"},{"latitude":"39.16455","longitude":"-78.16233","name":"Toys\"R\"Us-Winchester,VA","address":"655 E Jubal Early Ave, Winchester,VA 22601, (540) 678-0231"},{"latitude":"38.653654","longitude":"-77.284982","name":"Babies\"R\"Us-Woodbridge,VA","address":"14173 Crossing Place, Woodbridge,VA 22192, (703) 492-0209"},{"latitude":"38.637057","longitude":"-77.291912","name":"Toys\"R\"Us-Woodbridge,VA","address":"14603 Telegraph Road, Woodbridge,VA 22194, (703) 490-1466"},{"latitude":"44.443782","longitude":"-73.11429","name":"Toys\"R\"Us\/Babies\"R\"Us-Williston,VT","address":"244 Retail Way, Williston,VT 05495, (802) 872-8787"},{"latitude":"47.610315","longitude":"-122.193776","name":"Toys\"R\"Us\/Babies\"R\"Us-Bellevue,WA","address":"103 110Th Avenue NE, Bellevue,WA 98004, (425) 453-1901"},{"latitude":"47.91216","longitude":"-122.214452","name":"Toys\"R\"Us-Everett,WA","address":"1325A SE Everett Mall, Everett,WA 98208, (425) 353-8697"},{"latitude":"46.216881","longitude":"-119.224957","name":"Toys\"R\"Us-Kennewick,WA","address":"821 Columbia Center, Kennewick,WA 99336, (509) 783-7006"},{"latitude":"47.830257","longitude":"-122.268344","name":"Toys\"R\"Us-Lynnwood,WA","address":"18601 Alderwood Mall Bl, Lynnwood,WA 98037, (425) 771-4748"},{"latitude":"47.821741","longitude":"-122.271215","name":"Babies\"R\"Us-Lynnwood,WA","address":"19500 Alderwood Mall Pw, Lynnwood,WA 98036, (425) 672-3220"},{"latitude":"48.09515","longitude":"-122.1956558","name":"Toys\"R\"Us-Marysville,WA","address":"10600 Quil Ceda Blvd [Seattle Premium Outlets], Marysville,WA 98271, (360) 651-7616"},{"latitude":"47.4918754","longitude":"-121.7934613","name":"Toys\"R\"Us-North Bend,WA","address":"521 South Fork Avenue Sw [North Bend Outlets], North Bend,WA 98045, (425) 396-0347"},{"latitude":"47.054679","longitude":"-122.940966","name":"Toys\"R\"Us\/Babies\"R\"Us-Olympia,WA","address":"1000 Cooper Point Road, Olympia,WA 98502, (360) 357-8697"},{"latitude":"47.157194","longitude":"-122.303809","name":"Toys\"R\"Us-Puyallup,WA","address":"3551 9Th Street SW, Puyallup,WA 98373, (253) 848-1331"},{"latitude":"47.653778","longitude":"-122.695338","name":"Toys\"R\"Us-Silverdale,WA","address":"3567 NW Randall Way, Silverdale,WA 98383, (360) 698-1882 "},{"latitude":"47.71354","longitude":"-117.410945","name":"Babies\"R\"Us-Spokane,WA","address":"6104 N Division Street, Spokane,WA 99207, (509) 842-5020"},{"latitude":"47.213722","longitude":"-122.470483","name":"Babies\"R\"Us-Tacoma,WA","address":"2502 South 48Th Street, Tacoma,WA 98409, (253) 472-4441"},{"latitude":"47.219378","longitude":"-122.464104","name":"Toys\"R\"Us-Tacoma,WA","address":"4214 South Tacoma Mall, Tacoma,WA 98409, (253) 472-4602"},{"latitude":"47.446711","longitude":"-122.262401","name":"Toys\"R\"Us\/Babies\"R\"Us-Tukwila,WA","address":"17501 Southcenter Pkwy, Tukwila,WA 98188, (206) 575-7446"},{"latitude":"46.570534","longitude":"-120.482525","name":"Toys\"R\"Us-Union Gap,WA","address":"1401 East Washington Ave, Union Gap,WA 98903, (509) 248-4202"},{"latitude":"47.664458","longitude":"-117.195861","name":"Toys\"R\"Us-Veradale,WA","address":"15505 E Broadway, Veradale,WA 99037, (509) 927-6759"},{"latitude":"44.272859","longitude":"-88.472847","name":"Toys\"R\"Us\/Babies\"R\"Us-Appleton,WI","address":"4411 West Wisconsin Av, Appleton,WI 54913, (920) 739-7992"},{"latitude":"43.036745","longitude":"-88.141286","name":"Babies\"R\"Us-Brookfield,WI","address":"18550 W Bluemound Road, Brookfield,WI 53045, (262) 782-7520"},{"latitude":"43.060482","longitude":"-88.098539","name":"Toys\"R\"Us-Brookfield,WI","address":"355 South Mooreland Rd, Brookfield,WI 53005, (262) 797-8577"},{"latitude":"44.524788","longitude":"-88.066771","name":"Toys\"R\"Us-Green Bay,WI","address":"1640 West Mason Street, Green Bay,WI 54303, (920) 494-1774 "},{"latitude":"42.9484702","longitude":"-88.0083324","name":"Toys\"R\"Us-Greendale,WI","address":"5300 South 76th St [Southridge Mall], Greendale,WI 53129, (414) 423-0124"},{"latitude":"42.715392","longitude":"-89.000344","name":"Toys\"R\"Us-Janesville,WI","address":"2723 Milton Avenue, Janesville,WI 53546, (608) 758-0747"},{"latitude":"43.0760994","longitude":"-88.7742004","name":"Toys\"R\"Us-Johnson Creek,WI","address":"575 West Linmar Lane, Johnson Creek,WI 53038, (920) 699-2329"},{"latitude":"43.127268","longitude":"-89.30197","name":"Babies\"R\"Us-Madison,WI","address":"2161 Zeier Road, Madison,WI 53704, (608) 234-6936"},{"latitude":"43.056223","longitude":"-89.503732","name":"Toys\"R\"Us-Madison,WI","address":"7309 West Town Way, Madison,WI 53719, (608) 829-0910"},{"latitude":"42.973803","longitude":"-87.948173","name":"Toys\"R\"Us-Milwaukee,WI","address":"3900 South 27Th Street, Milwaukee,WI 53221, (414) 282-4300"},{"latitude":"43.878486","longitude":"-91.187137","name":"Toys\"R\"Us-Onalaska,WI","address":"2906 Market Place, Onalaska,WI 54650, (608) 783-1851 "},{"latitude":"42.515598","longitude":"-87.948944","name":"Toys\"R\"Us-Pleasant Prairie,WI","address":"11211 120th Ave [Pleasant Prairie Outlet], Pleasant Prairie,WI 53158, (262) 857-3046"},{"latitude":"42.70201","longitude":"-87.85253","name":"Toys\"R\"Us\/Babies\"R\"Us-Racine,WI","address":"2433 South Green Bay Ro, Racine,WI 53406, (262) 637-8697"},{"latitude":"38.421069","longitude":"-82.262094","name":"Toys\"R\"Us-Barboursville,WV","address":"109 Mall Road, Barboursville,WV 25504, (304) 733-2224"},{"latitude":"39.308852","longitude":"-80.275899","name":"Toys\"R\"Us-Bridgeport,WV","address":"2301 Meadowbrook Mall Rd, Bridgeport,WV 26330, (304) 842-8697"},{"latitude":"38.319007","longitude":"-81.717709","name":"Toys\"R\"Us\/Babies\"R\"Us-Charleston,WV","address":"2846 Mountaineer Blvd, Charleston,WV 25309, (304) 744-8696"},{"latitude":"39.302664","longitude":"-81.549169","name":"Toys\"R\"Us\/Babies\"R\"Us-Vienna,WV","address":"113 Grand Central Avenue, Vienna,WV 26105, (304) 428-2885"}]