[{"latitude":" 29.50526","longitude":"-98.39821","name":" Toys R Us","address":" USA-United States"},{"latitude":" 33.72441","longitude":"-117.79442","name":" Toys R Us","address":" USA-United States"},{"latitude":" 36.06390","longitude":"-95.88636","name":" Toys R Us","address":" USA-United States"},{"latitude":" 40.53607","longitude":"-80.00980","name":" Toys R Us","address":" USA-United States"},{"latitude":" 39.85622","longitude":"-105.05927","name":" Toys R Us","address":" USA-Westminster"},{"latitude":" 39.47943","longitude":"-119.78799","name":" Toys R Us","address":" USA-United States"},{"latitude":" 40.06105","longitude":"-82.98777","name":" Toys R Us","address":" USA-United States"},{"latitude":" 33.51980","longitude":"-86.80944","name":" Toys R Us Shopping Center","address":" USA-Hoover"},{"latitude":" 42.09999","longitude":"-71.05302","name":" Toys R Us","address":" USA-United States"},{"latitude":" 43.16631","longitude":"-76.15542","name":" Toys R Us","address":" USA-United States"},{"latitude":" 29.53878","longitude":"-95.14584","name":" Toys R Us","address":" USA-United States"},{"latitude":" 34.18084","longitude":"-118.87617","name":" Toys R Us","address":" USA-United States"},{"latitude":" 35.12503","longitude":"-85.24073","name":" Toys R Us","address":" USA-United States"},{"latitude":" 40.75737","longitude":"-73.98575","name":" Toys R Us","address":" USA-United States"},{"latitude":" 39.19215","longitude":"-76.61342","name":" Toys R Us","address":" USA-United States"},{"latitude":" 37.02951","longitude":"-76.42341","name":" Toys R Us","address":" USA-United States"},{"latitude":" 41.65243","longitude":"-72.72736","name":" Toys R Us","address":" USA-United States"},{"latitude":" 36.71688","longitude":"-121.65571","name":" Toys R Us","address":" USA-United States"},{"latitude":" 38.25046","longitude":"-85.62584","name":" Toys R Us","address":" USA-United States"},{"latitude":" 32.00923","longitude":"-81.11468","name":" Toys R Us","address":" USA-United States"},{"latitude":" 40.18343","longitude":"-80.23547","name":" Toys R Us","address":" USA-United States"},{"latitude":" 40.05080","longitude":"-75.06487","name":" Toys R Us","address":" USA-United States"},{"latitude":" 27.70927","longitude":"-97.36217","name":" Toys R Us","address":" USA-United States"},{"latitude":" 27.01209","longitude":"-82.14464","name":" Toys R Us","address":" USA-United States"},{"latitude":" 36.80867","longitude":"-119.69034","name":" Toys R Us","address":" USA-United States"},{"latitude":" 32.66012","longitude":"-117.08841","name":" Toys R Us","address":" USA-United States"},{"latitude":" 47.61072","longitude":"-122.19380","name":" Toys R Us","address":" USA-United States"},{"latitude":" 32.66207","longitude":"-96.88031","name":" Toys R Us","address":" USA-United States"},{"latitude":" 42.20339","longitude":"-71.83724","name":" Toys R Us","address":" USA-United States"},{"latitude":" 33.85827","longitude":"-118.09226","name":" Toys R Us","address":" USA-United States"},{"latitude":" 47.83042","longitude":"-122.26830","name":" Toys R Us","address":" USA-United States"},{"latitude":" 34.67519","longitude":"-118.15502","name":" Toys R Us","address":" USA-United States"},{"latitude":" 40.59979","longitude":"-73.91161","name":" Toys R Us","address":" USA-United States"},{"latitude":" 41.39473","longitude":"-82.10610","name":" Toys R Us","address":" USA-United States"},{"latitude":" 41.37792","longitude":"-73.48314","name":" Toys R Us","address":" USA-United States"},{"latitude":" 25.68705","longitude":"-80.38437","name":" Toys R Us","address":" USA-United States"},{"latitude":" 32.93400","longitude":"-96.91753","name":" Toys R Us","address":" USA-United States"},{"latitude":" 39.03542","longitude":"-77.04929","name":" Toys R Us","address":" USA-United States"},{"latitude":" 41.85009","longitude":"-87.80711","name":" Toys R Us","address":" USA-United States"},{"latitude":" 41.73292","longitude":"-87.62537","name":" Toys R Us","address":" USA-United States"},{"latitude":" 41.50599","longitude":"-87.73656","name":" Toys R Us","address":" USA-United States"},{"latitude":" 34.20109","longitude":"-118.48228","name":" Toys R Us","address":" USA-United States"},{"latitude":" 29.96566","longitude":"-95.53902","name":" Toys R Us","address":" USA-United States"},{"latitude":" 41.37305","longitude":"-72.91693","name":" Toys R Us","address":" USA-United States"},{"latitude":" 35.26225","longitude":"-81.15465","name":" Toys R Us","address":" USA-United States"},{"latitude":" 41.83433","longitude":"-88.01963","name":" Toys R Us","address":" USA-United States"},{"latitude":" 42.25528","longitude":"-83.68700","name":" Toys R Us","address":" USA-United States"},{"latitude":" 44.97265","longitude":"-93.45855","name":" Toys R Us Retail Stores","address":" USA-United States"},{"latitude":" 40.87757","longitude":"-74.44813","name":" Toys R Us","address":" USA-United States"},{"latitude":" 40.64767","longitude":"-74.40783","name":" Toys R Us","address":" USA-United States"},{"latitude":" 31.51860","longitude":"-97.18118","name":" Toys R Us","address":" USA-United States"},{"latitude":" 29.92788","longitude":"-95.41154","name":" Toys R Us","address":" USA-United States"},{"latitude":" 41.38034","longitude":"-81.74342","name":" Toys R Us","address":" USA-United States"},{"latitude":" 39.84854","longitude":"-75.10782","name":" Toys R Us","address":" USA-United States"},{"latitude":" 39.77501","longitude":"-85.98909","name":" Toys R Us","address":" USA-United States"},{"latitude":" 33.86097","longitude":"-117.92425","name":" Toys R Us","address":" USA-United States"},{"latitude":" 61.14294","longitude":"-149.87979","name":" Toys R Us","address":" USA-United States"},{"latitude":" 43.12629","longitude":"-89.30089","name":" Toys R Us","address":" USA-United States"},{"latitude":" 40.46515","longitude":"-74.40564","name":" Toys R Us","address":" USA-United States"},{"latitude":" 33.57134","longitude":"-84.34058","name":" Toys R Us","address":" USA-United States"},{"latitude":" 41.57552","longitude":"-88.16065","name":" Toys R Us","address":" USA-United States"},{"latitude":" 26.18911","longitude":"-98.23382","name":" Toys R Us","address":" USA-United States"},{"latitude":" 38.85708","longitude":"-77.39349","name":" Toys R Us","address":" USA-United States"},{"latitude":" 40.55711","longitude":"-74.30865","name":" Toys R Us","address":" USA-United States"},{"latitude":" 47.45355","longitude":"-122.26245","name":" Toys R Us","address":" USA-United States"},{"latitude":" 26.23955","longitude":"-80.25471","name":" Toys R Us","address":" USA-United States"},{"latitude":" 33.79306","longitude":"-117.91452","name":" Toys R Us","address":" USA-United States"},{"latitude":" 32.82104","longitude":"-96.88151","name":" Toys R Us","address":" USA-United States"},{"latitude":" 39.10050","longitude":"-84.27477","name":" Toys R Us","address":" USA-United States"},{"latitude":" 43.60570","longitude":"-116.28153","name":" Toys R Us","address":" USA-United States"},{"latitude":" 34.03301","longitude":"-118.09238","name":" Toys R Us","address":" USA-United States"},{"latitude":" 41.22765","longitude":"-96.13663","name":" Toys R Us","address":" USA-United States"},{"latitude":" 41.88192","longitude":"-87.62809","name":" Toys R Us","address":" USA-United States"},{"latitude":" 42.24042","longitude":"-87.94960","name":" Toys R Us","address":" USA-United States"},{"latitude":" 34.47698","longitude":"-117.34216","name":" Toys R Us","address":" USA-United States"},{"latitude":" 39.29333","longitude":"-76.77586","name":" Toys R Us","address":" USA-United States"},{"latitude":" 43.70721","longitude":"-79.39866","name":" Toys R Us","address":" USA-United States"},{"latitude":" 39.19898","longitude":"-84.38027","name":" Toys R Us","address":" USA-United States"},{"latitude":" 41.08421","longitude":"-111.98406","name":" Toys R Us","address":" USA-United States"},{"latitude":" 33.18541","longitude":"-87.52616","name":" Toys R Us","address":" USA-United States"},{"latitude":" 41.13824","longitude":"-73.29884","name":" Toys R Us","address":" USA-United States"},{"latitude":" 41.11501","longitude":"-85.14679","name":" Toys R Us","address":" USA-United States"},{"latitude":" 33.80633","longitude":"-118.16796","name":" Toys R Us","address":" USA-United States"},{"latitude":" 37.57163","longitude":"-122.32183","name":" Toys R Us","address":" USA-United States"},{"latitude":" 41.71641","longitude":"-71.47357","name":" Toys R Us","address":" USA-United States"},{"latitude":" 33.56756","longitude":"-112.11987","name":" Toys R Us","address":" USA-United States"},{"latitude":" 39.02697","longitude":"-77.39839","name":" Toys R Us","address":" USA-United States"},{"latitude":" 43.08167","longitude":"-77.62908","name":" Toys R Us","address":" USA-United States"},{"latitude":" 39.91376","longitude":"-75.34669","name":" Toys R Us","address":" USA-United States"},{"latitude":" 40.64099","longitude":"-111.88888","name":" Toys R Us","address":" USA-United States"},{"latitude":" 41.65993","longitude":"-81.36492","name":" Toys R Us","address":" USA-United States"},{"latitude":" 41.59785","longitude":"-83.66461","name":" Toys R Us","address":" USA-United States"},{"latitude":" 38.49476","longitude":"-121.44125","name":" Toys R Us","address":" USA-United States"},{"latitude":" 38.79656","longitude":"-90.62255","name":" Toys R Us","address":" USA-United States"},{"latitude":" 40.53469","longitude":"-105.07643","name":" Toys R Us","address":" USA-United States"},{"latitude":" 26.12090","longitude":"-80.25565","name":" Toys R Us","address":" USA-United States"},{"latitude":" 42.98085","longitude":"-78.82117","name":" Toys R Us","address":" USA-United States"},{"latitude":" 38.73347","longitude":"-90.40243","name":" Toys R Us","address":" USA-United States"},{"latitude":" 40.93737","longitude":"-73.85531","name":" Toys R Us","address":" USA-United States"},{"latitude":" 40.69331","longitude":"-74.25726","name":" Toys R Us","address":" USA-United States"},{"latitude":" 33.73011","longitude":"-118.00287","name":" Toys R Us","address":" USA-United States"},{"latitude":" 35.10188","longitude":"-106.56297","name":" Toys R Us","address":" USA-United States"},{"latitude":" 36.30568","longitude":"-119.31369","name":" Toys R Us","address":" USA-United States"},{"latitude":" 41.08184","longitude":"-81.54849","name":" Toys R Us","address":" USA-United States"},{"latitude":" 37.36731","longitude":"-122.03183","name":" Toys R Us","address":" USA-United States"},{"latitude":" 33.48011","longitude":"-84.43852","name":" Toys R Us","address":" USA-United States"},{"latitude":" 40.10025","longitude":"-83.09123","name":" Toys R Us","address":" USA-United States"},{"latitude":" 41.52625","longitude":"-93.59885","name":" Toys R Us","address":" USA-United States"},{"latitude":" 42.38848","longitude":"-87.95214","name":" Toys R Us","address":" USA-United States"},{"latitude":" 41.22924","longitude":"-95.84674","name":" Toys R Us","address":" USA-United States"},{"latitude":" 40.69062","longitude":"-80.10285","name":" Toys R Us","address":" USA-United States"},{"latitude":" 45.13179","longitude":"-93.26109","name":" Toys R Us Retail Stores","address":" USA-United States"},{"latitude":" 28.29615","longitude":"-82.70929","name":" Toys R Us","address":" USA-United States"},{"latitude":" 35.36996","longitude":"-80.71412","name":" Toys R Us","address":" USA-United States"},{"latitude":" 35.33934","longitude":"-119.04459","name":" Toys R Us","address":" USA-United States"},{"latitude":" 32.38176","longitude":"-86.21258","name":" Toys R Us","address":" USA-United States"},{"latitude":" 41.58936","longitude":"-87.55882","name":" Toys R Us","address":" USA-United States"},{"latitude":" 30.18614","longitude":"-81.73436","name":" Toys R Us","address":" USA-United States"},{"latitude":" 30.30424","longitude":"-89.82590","name":" Toys R Us","address":" USA-United States"},{"latitude":" 30.18043","longitude":"-81.55403","name":" Toys R Us","address":" USA-United States"},{"latitude":" 40.68836","longitude":"-74.30762","name":" Toys R Us","address":" USA-United States"},{"latitude":" 34.24903","longitude":"-119.19610","name":" Toys R Us","address":" USA-United States"},{"latitude":" 34.00998","longitude":"-84.56454","name":" Toys R Us","address":" USA-United States"},{"latitude":" 30.67347","longitude":"-88.11794","name":" Toys R Us","address":" USA-United States"},{"latitude":" 37.99231","longitude":"-84.52311","name":" Toys R Us","address":" USA-United States"},{"latitude":" 35.24949","longitude":"-101.93864","name":" Toys R Us","address":" USA-United States"},{"latitude":" 26.01050","longitude":"-80.24828","name":" Toys R Us","address":" USA-United States"},{"latitude":" 34.78935","longitude":"-92.22240","name":" Toys R Us","address":" USA-United States"},{"latitude":" 33.91765","longitude":"-117.88987","name":" Toys R Us","address":" USA-United States"},{"latitude":" 41.80413","longitude":"-72.56305","name":" Toys R Us","address":" USA-United States"},{"latitude":" 40.09019","longitude":"-75.38974","name":" Toys R Us","address":" USA-United States"},{"latitude":" 42.29877","longitude":"-83.27633","name":" Toys R Us","address":" USA-United States"},{"latitude":" 37.99185","longitude":"-122.30265","name":" Toys R Us","address":" USA-United States"},{"latitude":" 40.77515","longitude":"-73.82943","name":" Toys R Us","address":" USA-United States"},{"latitude":" 29.52251","longitude":"-98.50538","name":" Toys R Us","address":" USA-United States"},{"latitude":" 43.04718","longitude":"-76.06966","name":" Toys R Us","address":" USA-United States"},{"latitude":" 36.29664","longitude":"-86.69868","name":" Toys R Us","address":" USA-United States"},{"latitude":" 38.88314","longitude":"-94.36279","name":" Toys R Us","address":" USA-United States"},{"latitude":" 33.58848","longitude":"-117.67377","name":" Toys R Us","address":" USA-United States"},{"latitude":" 39.91283","longitude":"-75.43661","name":" Toys R Us","address":" USA-United States"},{"latitude":" 33.38214","longitude":"-86.80595","name":" Toys R Us","address":" USA-United States"},{"latitude":" 33.60413","longitude":"-111.97873","name":" Toys R Us","address":" USA-United States"},{"latitude":" 36.04839","longitude":"-86.65725","name":" Toys R Us","address":" USA-United States"},{"latitude":" 33.99672","longitude":"-118.39519","name":" Toys R Us","address":" USA-United States"},{"latitude":" 34.08783","longitude":"-118.15159","name":" Toys R Us","address":" USA-United States"},{"latitude":" 41.69845","longitude":"-83.64294","name":" Toys R Us","address":" USA-United States"},{"latitude":" 41.16404","longitude":"-87.85076","name":" Toys R Us","address":" USA-United States"},{"latitude":" 40.71910","longitude":"-74.09391","name":" Toys R Us","address":" USA-United States"},{"latitude":" 39.91887","longitude":"-75.32719","name":" Toys R Us","address":" USA-United States"},{"latitude":" 32.44822","longitude":"-97.05608","name":" Toys R Us","address":" USA-United States"},{"latitude":" 38.67826","longitude":"-121.27561","name":" Toys R Us","address":" USA-United States"},{"latitude":" 40.85148","longitude":"-81.42317","name":" Toys R Us","address":" USA-United States"},{"latitude":" 45.43243","longitude":"-122.57951","name":" Toys R Us","address":" USA-United States"},{"latitude":" 40.29375","longitude":"-76.86396","name":" Toys R Us","address":" USA-United States"},{"latitude":" 38.78020","longitude":"-77.17812","name":" Toys R Us","address":" USA-United States"},{"latitude":" 39.61848","longitude":"-105.09137","name":" Toys R Us","address":" USA-Littleton"},{"latitude":" 41.05463","longitude":"-81.58097","name":" Toys R Us","address":" USA-United States"},{"latitude":" 36.03953","longitude":"-79.85191","name":" Toys R Us","address":" USA-United States"},{"latitude":" 45.44739","longitude":"-122.78362","name":" Toys R Us","address":" USA-United States"},{"latitude":" 25.74775","longitude":"-80.33395","name":" Toys R Us","address":" USA-United States"},{"latitude":" 40.22205","longitude":"-76.93225","name":" Toys R Us","address":" USA-United States"},{"latitude":" 28.05441","longitude":"-82.44708","name":" Toys R Us","address":" USA-United States"},{"latitude":" 33.72829","longitude":"-84.73824","name":" Toys R Us","address":" USA-United States"},{"latitude":" 40.42580","longitude":"-74.17277","name":" Toys R Us","address":" USA-United States"},{"latitude":" 38.78025","longitude":"-77.50307","name":" Toys R Us","address":" USA-United States"},{"latitude":" 33.75668","longitude":"-84.39052","name":" Toys R Us","address":" USA-United States"},{"latitude":" 32.39952","longitude":"-90.13107","name":" Toys R Us","address":" USA-United States"},{"latitude":" 29.62751","longitude":"-95.23367","name":" Toys R Us","address":" USA-United States"},{"latitude":" 43.50937","longitude":"-96.77228","name":" Toys R Us","address":" USA-United States"},{"latitude":" 42.80867","longitude":"-86.09071","name":" Toys R Us","address":" USA-United States"},{"latitude":" 40.86771","longitude":"-73.83505","name":" Toys R Us","address":" USA-United States"},{"latitude":" 40.71236","longitude":"-73.89165","name":" Toys R Us","address":" USA-United States"},{"latitude":" 40.43524","longitude":"-79.79003","name":" Toys R Us","address":" USA-United States"},{"latitude":" 35.07661","longitude":"-89.90665","name":" Toys R Us","address":" USA-United States"},{"latitude":" 40.45697","longitude":"-80.16791","name":" Toys R Us","address":" USA-United States"},{"latitude":" 33.96924","longitude":"-118.16425","name":" Toys R Us","address":" USA-United States"},{"latitude":" 40.91542","longitude":"-74.05237","name":" Toys R Us","address":" USA-United States"},{"latitude":" 38.42199","longitude":"-121.38807","name":" Toys R Us","address":" USA-United States"},{"latitude":" 34.07017","longitude":"-117.43809","name":" Toys R Us","address":" USA-United States"},{"latitude":" 39.24514","longitude":"-94.58512","name":" Toys R Us","address":" USA-United States"},{"latitude":" 35.84539","longitude":"-86.43008","name":" Toys R Us","address":" USA-United States"},{"latitude":" 43.20547","longitude":"-77.66839","name":" Toys R Us","address":" USA-United States"},{"latitude":" 37.77076","longitude":"-122.40748","name":" Toys R Us","address":" USA-United States"},{"latitude":" 38.75635","longitude":"-77.14585","name":" Toys R Us","address":" USA-United States"},{"latitude":" 38.98599","longitude":"-76.54933","name":" Toys R Us","address":" USA-United States"},{"latitude":" 36.03422","longitude":"-83.87301","name":" Toys R Us","address":" USA-United States"},{"latitude":" 40.86325","longitude":"-74.39008","name":" Toys R Us","address":" USA-United States"},{"latitude":" 40.16567","longitude":"-74.47333","name":" Toys R Us","address":" USA-United States"},{"latitude":" 37.31368","longitude":"-121.95027","name":" Toys R Us","address":" USA-United States"},{"latitude":" 39.82360","longitude":"-86.23603","name":" Toys R Us","address":" USA-United States"},{"latitude":" 33.31681","longitude":"-111.96847","name":" Toys R Us","address":" USA-United States"},{"latitude":" 32.79108","longitude":"-96.69994","name":" Toys R Us","address":" USA-United States"},{"latitude":" 33.86825","longitude":"-117.74798","name":" Toys R Us","address":" USA-United States"},{"latitude":" 38.95637","longitude":"-94.72071","name":" Toys R Us","address":" USA-United States"},{"latitude":" 38.78671","longitude":"-90.41770","name":" Toys R Us","address":" USA-United States"},{"latitude":" 41.14194","longitude":"-81.64353","name":" Toys R Us","address":" USA-United States"},{"latitude":" 28.66270","longitude":"-81.38016","name":" Toys R Us","address":" USA-United States"},{"latitude":" 35.92551","longitude":"-84.04559","name":" Toys R Us","address":" USA-United States"},{"latitude":" 39.31980","longitude":"-84.48579","name":" Toys R Us Distribution Center","address":" USA-United States"},{"latitude":" 37.15950","longitude":"-93.27070","name":" Toys R Us","address":" USA-United States"},{"latitude":" 47.03897","longitude":"-122.93914","name":" Toys R Us","address":" USA-United States"},{"latitude":" 39.52728","longitude":"-76.34961","name":" Toys R Us","address":" USA-United States"},{"latitude":" 37.67983","longitude":"-121.05062","name":" Toys R Us","address":" USA-United States"},{"latitude":" 41.10733","longitude":"-73.42209","name":" Toys R Us","address":" USA-United States"},{"latitude":" 42.44846","longitude":"-83.01159","name":" Toys R Us","address":" USA-United States"},{"latitude":" 41.93939","longitude":"-88.11794","name":" Toys R Us","address":" USA-United States"},{"latitude":" 41.23469","longitude":"-73.02704","name":" Toys R Us","address":" USA-United States"},{"latitude":" 34.09223","longitude":"-117.39247","name":" Toys R Us","address":" USA-United States"},{"latitude":" 40.07166","longitude":"-74.96534","name":" Toys R Us","address":" USA-United States"},{"latitude":" 35.73516","longitude":"-78.74742","name":" Toys R Us","address":" USA-United States"},{"latitude":" 40.33760","longitude":"-79.95126","name":" Toys R Us","address":" USA-United States"},{"latitude":" 39.69655","longitude":"-104.82837","name":" Toys R Us","address":" USA-Aurora"},{"latitude":" 40.57254","longitude":"-74.31729","name":" Toys R Us","address":" USA-United States"},{"latitude":" 33.38802","longitude":"-111.68498","name":" Toys R Us","address":" USA-United States"},{"latitude":" 41.25991","longitude":"-96.03148","name":" Toys R Us","address":" USA-United States"},{"latitude":" 34.08308","longitude":"-84.25985","name":" Toys R Us","address":" USA-United States"},{"latitude":" 35.13301","longitude":"-85.24562","name":" Toys R Us","address":" USA-United States"},{"latitude":" 40.72289","longitude":"-111.85362","name":" Toys R Us","address":" USA-United States"},{"latitude":" 40.59522","longitude":"-74.00095","name":" Toys R Us","address":" USA-United States"},{"latitude":" 40.67848","longitude":"-73.43706","name":" Toys R Us","address":" USA-United States"},{"latitude":" 32.81162","longitude":"-96.63284","name":" Toys R Us","address":" USA-United States"},{"latitude":" 42.97986","longitude":"-83.77203","name":" Toys R Us","address":" USA-United States"},{"latitude":" 41.75106","longitude":"-88.01928","name":" Toys R Us","address":" USA-United States"},{"latitude":" 29.73769","longitude":"-95.49152","name":" Toys R Us","address":" USA-United States"},{"latitude":" 29.83295","longitude":"-95.48611","name":" Toys R Us","address":" USA-United States"},{"latitude":" 37.52401","longitude":"-121.99900","name":" Toys R Us","address":" USA-United States"},{"latitude":" 32.22171","longitude":"-110.87818","name":" Toys R Us","address":" USA-United States"},{"latitude":" 40.03289","longitude":"-75.63148","name":" Toys R Us","address":" USA-United States"},{"latitude":" 29.80418","longitude":"-94.98695","name":" Toys R Us","address":" USA-United States"},{"latitude":" 34.13996","longitude":"-118.01325","name":" Toys R Us","address":" USA-United States"},{"latitude":" 29.78369","longitude":"-95.53087","name":" Toys R Us","address":" USA-United States"},{"latitude":" 37.56158","longitude":"-122.28257","name":" Toys R Us","address":" USA-United States"},{"latitude":" 33.84642","longitude":"-84.25366","name":" Toys R Us","address":" USA-United States"},{"latitude":" 40.75554","longitude":"-73.73836","name":" Toys R Us","address":" USA-United States"},{"latitude":" 37.82873","longitude":"-122.28733","name":" Toys R Us","address":" USA-United States"},{"latitude":" 38.59722","longitude":"-121.42187","name":" Toys R Us","address":" USA-United States"},{"latitude":" 34.18371","longitude":"-118.60598","name":" Toys R Us","address":" USA-United States"},{"latitude":" 29.78675","longitude":"-95.56268","name":" Toys R Us","address":" USA-United States"},{"latitude":" 27.24863","longitude":"-80.27426","name":" Toys R Us","address":" USA-United States"},{"latitude":" 40.08445","longitude":"-75.16927","name":" Toys R Us","address":" USA-United States"},{"latitude":" 38.00763","longitude":"-121.84655","name":" Toys R Us","address":" USA-United States"},{"latitude":" 26.14881","longitude":"-80.11978","name":" Toys R Us","address":" USA-United States"},{"latitude":" 41.55239","longitude":"-73.03185","name":" Toys R Us","address":" USA-United States"},{"latitude":" 36.82377","longitude":"-76.41206","name":" Toys R Us","address":" USA-United States"},{"latitude":" 32.30209","longitude":"-90.24991","name":" Toys R Us","address":" USA-United States"},{"latitude":" 34.12634","longitude":"-118.26304","name":" Toys R Us","address":" USA-United States"},{"latitude":" 40.31403","longitude":"-79.46972","name":" Toys R Us","address":" USA-United States"},{"latitude":" 44.07022","longitude":"-123.10592","name":" Toys R Us","address":" USA-United States"},{"latitude":" 47.15779","longitude":"-122.30402","name":" Toys R Us","address":" USA-United States"},{"latitude":" 33.10267","longitude":"-96.80566","name":" Toys R Us","address":" USA-United States"},{"latitude":" 27.78933","longitude":"-82.72482","name":" Toys R Us","address":" USA-United States"},{"latitude":" 42.53174","longitude":"-83.10654","name":" Toys R Us","address":" USA-United States"},{"latitude":" 41.76105","longitude":"-88.21119","name":" Toys R Us","address":" USA-United States"},{"latitude":" 34.74082","longitude":"-86.60076","name":" Toys R Us","address":" USA-United States"},{"latitude":" 43.18103","longitude":"-88.00452","name":" Toys R Us","address":" USA-United States"},{"latitude":" 40.68996","longitude":"-73.98307","name":" Toys R Us","address":" USA-United States"},{"latitude":" 38.64209","longitude":"-90.56777","name":" Toys R Us","address":" USA-United States"},{"latitude":" 33.69850","longitude":"-84.08859","name":" Toys R Us","address":" USA-United States"},{"latitude":" 45.61465","longitude":"-122.68712","name":" Toys R Us","address":" USA-United States"},{"latitude":" 40.73852","longitude":"-73.23554","name":" Toys R Us","address":" USA-United States"},{"latitude":" 32.61412","longitude":"-117.08986","name":" Toys R Us","address":" USA-Chula Vista"},{"latitude":" 36.17022","longitude":"-115.20093","name":" Toys R Us","address":" USA-United States"},{"latitude":" 39.14661","longitude":"-84.62574","name":" Toys R Us","address":" USA-United States"},{"latitude":" 36.10963","longitude":"-79.75754","name":" Toys R Us","address":" USA-United States"},{"latitude":" 26.21189","longitude":"-81.76852","name":" Toys R Us","address":" USA-United States"},{"latitude":" 33.00665","longitude":"-96.96930","name":" Toys R Us","address":" USA-United States"},{"latitude":" 31.81725","longitude":"-106.54199","name":" Toys R Us","address":" USA-United States"},{"latitude":" 29.64989","longitude":"-95.15875","name":" Toys R Us","address":" USA-United States"},{"latitude":" 36.11634","longitude":"-115.13745","name":" Toys R Us","address":" USA-United States"},{"latitude":" 40.76312","longitude":"-73.09220","name":" Toys R Us","address":" USA-United States"},{"latitude":" 26.53386","longitude":"-80.09069","name":" Toys R Us","address":" USA-United States"},{"latitude":" 42.63954","longitude":"-83.32548","name":" Toys R Us","address":" USA-United States"},{"latitude":" 28.44407","longitude":"-81.40121","name":" Toys R Us","address":" USA-United States"},{"latitude":" 38.96018","longitude":"-94.52006","name":" Toys R Us","address":" USA-United States"},{"latitude":" 38.99340","longitude":"-84.65345","name":" Toys R Us","address":" USA-United States"},{"latitude":" 25.58622","longitude":"-80.36217","name":" Toys R Us","address":" USA-United States"},{"latitude":" 39.63653","longitude":"-84.21842","name":" Toys R Us","address":" USA-United States"},{"latitude":" 42.24978","longitude":"-88.97719","name":" Toys R Us","address":" USA-United States"},{"latitude":" 33.63832","longitude":"-112.21870","name":" Toys R Us","address":" USA-United States"},{"latitude":" 47.66425","longitude":"-117.19644","name":" Toys R Us","address":" USA-United States"},{"latitude":" 33.50927","longitude":"-112.06261","name":" Toys R Us","address":" USA-United States"},{"latitude":" 32.83729","longitude":"-96.98962","name":" Toys R Us","address":" USA-United States"},{"latitude":" 40.58927","longitude":"-74.65369","name":" Toys R Us","address":" USA-United States"},{"latitude":" 37.25410","longitude":"-77.39036","name":" Toys R Us","address":" USA-United States"},{"latitude":" 33.91121","longitude":"-117.46282","name":" Toys R Us","address":" USA-United States"},{"latitude":" 26.37363","longitude":"-80.20369","name":" Toys R Us","address":" USA-United States"},{"latitude":" 42.11448","longitude":"-71.46706","name":" Toys R Us","address":" USA-United States"},{"latitude":" 35.96185","longitude":"-86.81217","name":" Toys R Us","address":" USA-United States"},{"latitude":" 42.42717","longitude":"-83.33364","name":" Toys R Us","address":" USA-United States"},{"latitude":" 33.89603","longitude":"-118.00946","name":" Toys R Us","address":" USA-United States"},{"latitude":" 39.28423","longitude":"-84.46728","name":" Toys R Us","address":" USA-United States"},{"latitude":" 39.95285","longitude":"-83.11613","name":" Toys R Us","address":" USA-United States"},{"latitude":" 40.76683","longitude":"-73.07540","name":" Toys R Us","address":" USA-United States"},{"latitude":" 40.74914","longitude":"-73.98802","name":" Toys R Us","address":" USA-United States"},{"latitude":" 47.31933","longitude":"-122.30808","name":" Toys R Us","address":" USA-United States"},{"latitude":" 35.76062","longitude":"-78.73786","name":" Toys R Us","address":" USA-United States"},{"latitude":" 35.22048","longitude":"-89.90992","name":" Toys R Us","address":" USA-United States"},{"latitude":" 39.25484","longitude":"-84.59988","name":" Toys R Us","address":" USA-United States"},{"latitude":" 40.23919","longitude":"-75.24196","name":" Toys R Us","address":" USA-United States"},{"latitude":" 40.93074","longitude":"-72.67950","name":" Toys R Us","address":" USA-United States"},{"latitude":" 43.60911","longitude":"-79.55641","name":" Toys R Us","address":" USA-United States"},{"latitude":" 27.55046","longitude":"-99.50407","name":" Toys R Us","address":" USA-United States"},{"latitude":" 36.06342","longitude":"-115.04638","name":" Toys R Us","address":" USA-United States"},{"latitude":" 40.72562","longitude":"-73.50671","name":" Toys R Us","address":" USA-United States"},{"latitude":" 44.86132","longitude":"-93.30833","name":" Toys R Us","address":" USA-United States"},{"latitude":" 43.84340","longitude":"-79.41206","name":" Toys R Us","address":" USA-United States"},{"latitude":" 25.86663","longitude":"-80.29248","name":" Toys R Us","address":" USA-United States"},{"latitude":" 42.17822","longitude":"-87.82285","name":" Toys R Us","address":" USA-United States"},{"latitude":" 43.81435","longitude":"-79.52046","name":" Toys R Us","address":" USA-United States"},{"latitude":" 30.00407","longitude":"-90.16240","name":" Toys R Us","address":" USA-United States"},{"latitude":" 47.21942","longitude":"-122.46392","name":" Toys R Us","address":" USA-United States"},{"latitude":" 33.11048","longitude":"-117.09888","name":" Toys R Us","address":" USA-United States"},{"latitude":" 43.18588","longitude":"-76.22218","name":" Toys R Us","address":" USA-United States"},{"latitude":" 40.06115","longitude":"-76.33627","name":" Toys R Us","address":" USA-United States"},{"latitude":" 29.35672","longitude":"-98.53006","name":" Toys R Us","address":" USA-United States"},{"latitude":" 42.71477","longitude":"-89.00031","name":" Toys R Us","address":" USA-United States"},{"latitude":" 30.23877","longitude":"-97.79918","name":" Toys R Us","address":" USA-United States"},{"latitude":" 27.93440","longitude":"-82.32863","name":" Toys R Us","address":" USA-United States"},{"latitude":" 33.59998","longitude":"-84.46389","name":" Toys R Us","address":" USA-United States"},{"latitude":" 36.82062","longitude":"-76.06726","name":" Toys R Us","address":" USA-United States"},{"latitude":" 39.68779","longitude":"-75.65185","name":" Toys R Us","address":" USA-United States"},{"latitude":" 38.99048","longitude":"-76.98741","name":" Toys R Us","address":" USA-United States"},{"latitude":" 32.76938","longitude":"-117.20340","name":" Toys R Us","address":" USA-United States"},{"latitude":" 42.19900","longitude":"-83.19782","name":" Toys R Us","address":" USA-United States"},{"latitude":" 40.57792","longitude":"-74.16922","name":" Toys R Us","address":" USA-United States"},{"latitude":" 38.76820","longitude":"-90.28035","name":" Toys R Us","address":" USA-United States"},{"latitude":" 35.20646","longitude":"-106.65416","name":" Toys R Us","address":" USA-United States"},{"latitude":" 30.45226","longitude":"-91.09566","name":" Toys R Us","address":" USA-United States"},{"latitude":" 42.53291","longitude":"-82.91321","name":" Toys R Us","address":" USA-United States"},{"latitude":" 44.94205","longitude":"-92.93829","name":" Toys R Us","address":" USA-United States"},{"latitude":" 42.16756","longitude":"-87.86725","name":" Toys R Us","address":" USA-United States"},{"latitude":" 34.06280","longitude":"-83.98844","name":" Toys R Us","address":" USA-United States"},{"latitude":" 32.96074","longitude":"-96.81599","name":" Toys R Us","address":" USA-United States"},{"latitude":" 33.55289","longitude":"-111.89186","name":" Toys R Us","address":" USA-United States"},{"latitude":" 37.10242","longitude":"-76.49255","name":" Toys R Us","address":" USA-United States"},{"latitude":" 35.84130","longitude":"-78.67854","name":" Toys R Us","address":" USA-United States"},{"latitude":" 40.66276","longitude":"-73.71164","name":" Toys R Us","address":" USA-United States"},{"latitude":" 40.73556","longitude":"-73.98974","name":" Toys R Us","address":" USA-United States"},{"latitude":" 39.99081","longitude":"-75.10129","name":" Toys R Us","address":" USA-United States"},{"latitude":" 42.05368","longitude":"-87.83723","name":" Toys R Us","address":" USA-United States"},{"latitude":" 32.77380","longitude":"-117.00835","name":" Toys R Us","address":" USA-United States"},{"latitude":" 33.53844","longitude":"-111.88388","name":" Toys R Us","address":" USA-United States"},{"latitude":" 45.03562","longitude":"-93.02654","name":" Toys R Us Retail Stores","address":" USA-United States"},{"latitude":" 40.08204","longitude":"-74.96506","name":" Toys R Us","address":" USA-United States"},{"latitude":" 40.96063","longitude":"-74.23715","name":" Toys R Us","address":" USA-United States"},{"latitude":" 33.99514","longitude":"-117.91265","name":" Toys R Us","address":" USA-United States"},{"latitude":" 34.10241","longitude":"-117.90776","name":" Toys R Us","address":" USA-United States"},{"latitude":" 40.17920","longitude":"-74.87904","name":" Toys R Us","address":" USA-United States"},{"latitude":" 39.90773","longitude":"-86.07069","name":" Toys R Us","address":" USA-United States"},{"latitude":" 40.56385","longitude":"-74.11049","name":" Toys R Us","address":" USA-United States"},{"latitude":" 40.34454","longitude":"-80.04960","name":" Toys R Us","address":" USA-United States"},{"latitude":" 25.96005","longitude":"-97.50764","name":" Toys R Us","address":" USA-United States"},{"latitude":" 27.46246","longitude":"-82.56705","name":" Toys R Us","address":" USA-United States"},{"latitude":" 34.18070","longitude":"-118.32014","name":" Toys R Us","address":" USA-United States"},{"latitude":" 33.89860","longitude":"-118.36717","name":" Toys R Us","address":" USA-United States"},{"latitude":" 43.08648","longitude":"-78.94065","name":" Toys R Us","address":" USA-United States"},{"latitude":" 37.37058","longitude":"-121.84348","name":" Toys R Us","address":" USA-United States"},{"latitude":" 41.72310","longitude":"-83.54133","name":" Toys R Us","address":" USA-United States"},{"latitude":" 25.69390","longitude":"-80.30221","name":" Toys R Us","address":" USA-United States"},{"latitude":" 41.33222","longitude":"-73.80962","name":" Toys R Us","address":" USA-United States"},{"latitude":" 42.33918","longitude":"-83.38023","name":" Toys R Us","address":" USA-United States"},{"latitude":" 40.96382","longitude":"-74.07673","name":" Toys R Us","address":" USA-United States"},{"latitude":" 30.41383","longitude":"-97.67311","name":" Toys R Us","address":" USA-United States"},{"latitude":" 34.74870","longitude":"-92.40586","name":" Toys R Us","address":" USA-United States"},{"latitude":" 33.55723","longitude":"-117.17791","name":" Toys R Us","address":" USA-United States"},{"latitude":" 40.79789","longitude":"-74.35387","name":" Toys R Us","address":" USA-United States"},{"latitude":" 35.96739","longitude":"-78.96185","name":" Toys R Us","address":" USA-United States"},{"latitude":" 44.62873","longitude":"-123.08168","name":" Toys R Us","address":" USA-United States"},{"latitude":" 41.72491","longitude":"-72.75974","name":" Toys R Us","address":" USA-United States"},{"latitude":" 38.51049","longitude":"-90.33400","name":" Toys R Us","address":" USA-United States"},{"latitude":" 25.79006","longitude":"-80.36872","name":" Toys R Us","address":" USA-United States"},{"latitude":" 40.83818","longitude":"-73.27718","name":" Toys R Us","address":" USA-United States"},{"latitude":" 28.09077","longitude":"-81.97381","name":" Toys R Us","address":" USA-United States"},{"latitude":" 33.74843","longitude":"-118.01022","name":" Toys R Us","address":" USA-United States"},{"latitude":" 36.10944","longitude":"-87.17262","name":" Toys R Us","address":" USA-United States"},{"latitude":" 40.70660","longitude":"-73.79184","name":" Toys R Us","address":" USA-United States"},{"latitude":" 38.82634","longitude":"-76.92041","name":" Toys R Us","address":" USA-United States"},{"latitude":" 30.16574","longitude":"-95.45326","name":" Toys R Us","address":" USA-United States"},{"latitude":" 33.18325","longitude":"-117.33487","name":" Toys R Us","address":" USA-United States"},{"latitude":" 41.60067","longitude":"-87.54366","name":" Toys R Us","address":" USA-United States"},{"latitude":" 28.01053","longitude":"-82.73263","name":" Toys R Us","address":" USA-United States"},{"latitude":" 37.78225","longitude":"-122.44697","name":" Toys R Us","address":" USA-United States"},{"latitude":" 36.80835","longitude":"-119.85451","name":" Toys R Us","address":" USA-United States"},{"latitude":" 37.67373","longitude":"-122.46253","name":" Toys R Us","address":" USA-United States"},{"latitude":" 39.98130","longitude":"-74.18148","name":" Toys R Us","address":" USA-United States"},{"latitude":" 31.76058","longitude":"-106.35676","name":" Toys R Us","address":" USA-United States"},{"latitude":" 32.87828","longitude":"-96.76939","name":" Toys R Us","address":" USA-United States"},{"latitude":" 41.18996","longitude":"-111.98211","name":" Toys R Us","address":" USA-United States"},{"latitude":" 38.95520","longitude":"-76.87291","name":" Toys R Us","address":" USA-United States"},{"latitude":" 34.12016","longitude":"-117.93907","name":" Toys R Us Distribution Center","address":" USA-United States"},{"latitude":" 39.03560","longitude":"-94.41636","name":" Toys R Us","address":" USA-United States"},{"latitude":" 42.10116","longitude":"-88.28794","name":" Toys R Us","address":" USA-United States"},{"latitude":" 41.75134","longitude":"-71.21490","name":" Toys R Us","address":" USA-United States"},{"latitude":" 45.53364","longitude":"-122.65634","name":" Toys R Us","address":" USA-United States"},{"latitude":" 38.55374","longitude":"-90.40702","name":" Toys R Us","address":" USA-United States"},{"latitude":" 36.13343","longitude":"-95.81727","name":" Toys R Us","address":" USA-United States"},{"latitude":" 42.48613","longitude":"-83.28434","name":" Toys R Us","address":" USA-United States"},{"latitude":" 33.82791","longitude":"-118.35212","name":" Toys R Us","address":" USA-United States"},{"latitude":" 40.75261","longitude":"-73.91487","name":" Toys R Us","address":" USA-United States"},{"latitude":" 40.24953","longitude":"-74.29168","name":" Toys R Us","address":" USA-United States"},{"latitude":" 28.55471","longitude":"-81.33784","name":" Toys R Us","address":" USA-United States"},{"latitude":" 38.61743","longitude":"-76.92228","name":" Toys R Us","address":" USA-United States"},{"latitude":" 40.37818","longitude":"-79.98869","name":" Toys R Us","address":" USA-United States"},{"latitude":" 28.41519","longitude":"-81.38405","name":" Toys R Us","address":" USA-United States"},{"latitude":" 40.86784","longitude":"-73.83104","name":" Toys R Us","address":" USA-United States"},{"latitude":" 33.48017","longitude":"-112.22065","name":" Toys R Us","address":" USA-United States"},{"latitude":" 32.54118","longitude":"-94.75418","name":" Toys R Us","address":" USA-United States"},{"latitude":" 43.02820","longitude":"-88.10706","name":" Toys R Us","address":" USA-United States"},{"latitude":" 32.54607","longitude":"-84.94464","name":" Toys R Us","address":" USA-United States"},{"latitude":" 29.46443","longitude":"-98.62112","name":" Toys R Us","address":" USA-United States"},{"latitude":" 39.91320","longitude":"-75.15248","name":" Toys R Us","address":" USA-United States"},{"latitude":" 33.69560","longitude":"-117.88556","name":" Toys R Us","address":" USA-United States"},{"latitude":" 38.02084","longitude":"-121.32104","name":" Toys R Us","address":" USA-United States"},{"latitude":" 43.05735","longitude":"-89.51307","name":" Toys R Us","address":" USA-United States"},{"latitude":" 42.22626","longitude":"-88.31709","name":" Toys R Us","address":" USA-United States"},{"latitude":" 42.86350","longitude":"-78.69666","name":" Toys R Us","address":" USA-United States"},{"latitude":" 37.96480","longitude":"-122.51407","name":" Toys R Us","address":" USA-United States"},{"latitude":" 35.07863","longitude":"-80.87927","name":" Toys R Us","address":" USA-United States"},{"latitude":" 35.07557","longitude":"-78.96202","name":" Toys R Us","address":" USA-United States"},{"latitude":" 30.47077","longitude":"-97.80192","name":" Toys R Us","address":" USA-United States"},{"latitude":" 43.79658","longitude":"-79.42583","name":" Toys R Us","address":" USA-United States"},{"latitude":" 37.65319","longitude":"-122.11028","name":" Toys R Us","address":" USA-United States"},{"latitude":" 41.60043","longitude":"-93.73936","name":" Toys R Us","address":" USA-United States"},{"latitude":" 35.96113","longitude":"-78.94758","name":" Toys R Us","address":" USA-United States"},{"latitude":" 38.13653","longitude":"-122.21261","name":" Toys R Us","address":" USA-United States"},{"latitude":" 41.47104","longitude":"-87.35976","name":" Toys R Us","address":" USA-United States"},{"latitude":" 26.92882","longitude":"-80.12337","name":" Toys R Us","address":" USA-United States"},{"latitude":" 47.91203","longitude":"-122.21444","name":" Toys R Us","address":" USA-United States"},{"latitude":" 38.31612","longitude":"-85.75840","name":" Toys R Us","address":" USA-United States"},{"latitude":" 32.75977","longitude":"-97.17518","name":" Toys R Us","address":" USA-United States"},{"latitude":" 44.74874","longitude":"-93.28794","name":" Toys R Us","address":" USA-United States"},{"latitude":" 39.39314","longitude":"-76.58093","name":" Toys R Us","address":" USA-United States"},{"latitude":" 33.94521","longitude":"-117.27899","name":" Toys R Us","address":" USA-United States"},{"latitude":" 42.29890","longitude":"-71.39368","name":" Toys R Us","address":" USA-United States"},{"latitude":" 40.04894","longitude":"-74.83861","name":" Toys R Us","address":" USA-United States"},{"latitude":" 43.44562","longitude":"-79.70536","name":" Toys R Us","address":" USA-United States"},{"latitude":" 33.84995","longitude":"-84.37274","name":" Toys R Us","address":" USA-United States"},{"latitude":" 40.25400","longitude":"-76.83113","name":" Toys R Us","address":" USA-United States"},{"latitude":" 39.19977","longitude":"-76.81415","name":" Toys R Us","address":" USA-United States"},{"latitude":" 38.92453","longitude":"-77.23768","name":" Toys R Us","address":" USA-United States"},{"latitude":" 37.67913","longitude":"-97.24357","name":" Toys R Us","address":" USA-United States"},{"latitude":" 44.94487","longitude":"-122.98349","name":" Toys R Us","address":" USA-United States"},{"latitude":" 38.26306","longitude":"-122.05312","name":" Toys R Us","address":" USA-United States"},{"latitude":" 39.93591","longitude":"-75.05225","name":" Toys R Us","address":" USA-United States"},{"latitude":" 39.93044","longitude":"-82.88631","name":" Toys R Us","address":" USA-United States"},{"latitude":" 40.02915","longitude":"-82.44357","name":" Toys R Us","address":" USA-United States"},{"latitude":" 38.41444","longitude":"-122.71357","name":" Toys R Us","address":" USA-United States"},{"latitude":" 42.34215","longitude":"-83.44483","name":" Toys R Us","address":" USA-United States"},{"latitude":" 40.81791","longitude":"-73.41118","name":" Toys R Us","address":" USA-United States"},{"latitude":" 39.63548","longitude":"-86.13303","name":" Toys R Us","address":" USA-United States"},{"latitude":" 29.57113","longitude":"-98.32574","name":" Toys R Us","address":" USA-United States"},{"latitude":" 29.92304","longitude":"-95.41230","name":" Toys R Us","address":" USA-United States"},{"latitude":" 41.94590","longitude":"-71.34718","name":" Toys R Us","address":" USA-United States"},{"latitude":" 41.85198","longitude":"-87.68932","name":" Toys R Us","address":" USA-United States"},{"latitude":" 37.70460","longitude":"-121.92989","name":" Toys R Us","address":" USA-United States"},{"latitude":" 26.58613","longitude":"-81.87176","name":" Toys R Us","address":" USA-United States"},{"latitude":" 26.00780","longitude":"-80.31154","name":" Toys R Us","address":" USA-United States"},{"latitude":" 43.60462","longitude":"-79.64957","name":" Toys R Us","address":" USA-United States"},{"latitude":" 40.11802","longitude":"-75.13651","name":" Toys R Us","address":" USA-United States"},{"latitude":" 42.79068","longitude":"-78.81091","name":" Toys R Us","address":" USA-United States"},{"latitude":" 32.82349","longitude":"-97.20230","name":" Toys R Us","address":" USA-United States"},{"latitude":" 40.82524","longitude":"-73.85924","name":" Toys R Us","address":" USA-United States"},{"latitude":" 40.92964","longitude":"-72.68155","name":" Toys R Us","address":" USA-United States"},{"latitude":" 39.93300","longitude":"-83.83355","name":" Toys R Us","address":" USA-United States"},{"latitude":" 38.63637","longitude":"-77.29203","name":" Toys R Us","address":" USA-United States"},{"latitude":" 38.86513","longitude":"-94.81680","name":" Toys R Us","address":" USA-United States"},{"latitude":" 40.85739","longitude":"-96.68177","name":" Toys R Us","address":" USA-United States"},{"latitude":" 42.25928","longitude":"-71.16951","name":" Toys R Us","address":" USA-United States"},{"latitude":" 42.24027","longitude":"-87.99275","name":" Toys R Us","address":" USA-United States"},{"latitude":" 36.98776","longitude":"-121.98193","name":" Toys R Us","address":" USA-United States"},{"latitude":" 37.97781","longitude":"-122.06594","name":" Toys R Us","address":" USA-United States"},{"latitude":" 37.49190","longitude":"-122.22188","name":" Toys R Us","address":" USA-United States"},{"latitude":" 40.85114","longitude":"-73.11249","name":" Toys R Us","address":" USA-United States"},{"latitude":" 41.61851","longitude":"-87.84414","name":" Toys R Us","address":" USA-United States"},{"latitude":" 25.92830","longitude":"-80.18926","name":" Toys R Us","address":" USA-United States"},{"latitude":" 43.88334","longitude":"-78.91160","name":" Toys R Us","address":" USA-United States"},{"latitude":" 32.73850","longitude":"-97.44806","name":" Toys R Us","address":" USA-United States"},{"latitude":" 32.52833","longitude":"-93.70810","name":" Toys R Us","address":" USA-United States"},{"latitude":" 42.62439","longitude":"-82.99046","name":" Toys R Us","address":" USA-United States"},{"latitude":" 39.09605","longitude":"-76.85219","name":" Toys R Us","address":" USA-United States"},{"latitude":" 29.95676","longitude":"-90.07461","name":" Toys R Us","address":" USA-United States"},{"latitude":" 29.78012","longitude":"-95.81010","name":" Toys R Us","address":" USA-United States"},{"latitude":" 43.01934","longitude":"-85.68878","name":" Toys R Us","address":" USA-United States"},{"latitude":" 32.30301","longitude":"-95.29755","name":" Toys R Us","address":" USA-United States"},{"latitude":" 47.71340","longitude":"-117.41113","name":" Toys R Us","address":" USA-United States"},{"latitude":" 42.11341","longitude":"-87.98138","name":" Toys R Us","address":" USA-United States"},{"latitude":" 39.56620","longitude":"-104.87857","name":" Toys R Us","address":" USA-Englewood"},{"latitude":" 41.90769","longitude":"-87.87611","name":" Toys R Us","address":" USA-United States"},{"latitude":" 35.96842","longitude":"-78.96138","name":" Toys R Us","address":" USA-United States"},{"latitude":" 32.28879","longitude":"-110.97838","name":" Toys R Us","address":" USA-United States"},{"latitude":" 41.92131","longitude":"-88.26356","name":" Toys R Us","address":" USA-United States"},{"latitude":" 29.69255","longitude":"-95.41306","name":" Toys R Us","address":" USA-United States"},{"latitude":" 40.69555","longitude":"-111.95708","name":" Toys R Us","address":" USA-United States"},{"latitude":" 47.70860","longitude":"-122.32444","name":" Toys R Us","address":" USA-United States"},{"latitude":" 28.80948","longitude":"-81.33483","name":" Toys R Us","address":" USA-United States"},{"latitude":" 37.57475","longitude":"-77.54197","name":" Toys R Us","address":" USA-United States"},{"latitude":" 36.84691","longitude":"-76.20976","name":" Toys R Us","address":" USA-United States"},{"latitude":" 37.25074","longitude":"-121.87456","name":" Toys R Us","address":" USA-United States"},{"latitude":" 41.64076","longitude":"-71.00477","name":" Toys R Us","address":" USA-United States"},{"latitude":" 29.96676","longitude":"-95.53681","name":" Toys R Us","address":" USA-United States"},{"latitude":" 40.14407","longitude":"-75.11702","name":" Toys R Us","address":" USA-United States"},{"latitude":" 33.53878","longitude":"-101.92228","name":" Toys R Us","address":" USA-United States"},{"latitude":" 38.78565","longitude":"-121.26585","name":" Toys R Us","address":" USA-United States"},{"latitude":" 35.03944","longitude":"-85.15516","name":" Toys R Us","address":" USA-United States"},{"latitude":" 40.70621","longitude":"-74.01317","name":" Toys R Us","address":" USA-United States"},{"latitude":" 42.91250","longitude":"-85.58226","name":" Toys R Us","address":" USA-United States"},{"latitude":" 27.23691","longitude":"-80.26977","name":" Toys R Us","address":" USA-United States"},{"latitude":" 30.32112","longitude":"-81.54992","name":" Toys R Us","address":" USA-United States"},{"latitude":" 37.67379","longitude":"-97.39595","name":" Toys R Us","address":" USA-United States"},{"latitude":" 41.52217","longitude":"-81.43845","name":" Toys R Us","address":" USA-United States"},{"latitude":" 33.53116","longitude":"-86.71899","name":" Toys R Us","address":" USA-United States"},{"latitude":" 41.92385","longitude":"-87.78583","name":" Toys R Us","address":" USA-United States"},{"latitude":" 36.07090","longitude":"-80.29335","name":" Toys R Us","address":" USA-United States"},{"latitude":" 33.94546","longitude":"-117.27929","name":" Toys R Us","address":" USA-United States"},{"latitude":" 42.49108","longitude":"-83.47815","name":" Toys R Us","address":" USA-United States"},{"latitude":" 41.94175","longitude":"-87.68843","name":" Toys R Us","address":" USA-United States"},{"latitude":" 43.70693","longitude":"-79.73170","name":" Toys R Us","address":" USA-United States"},{"latitude":" 42.05014","longitude":"-88.05294","name":" Toys R Us","address":" USA-United States"},{"latitude":" 34.04378","longitude":"-118.37670","name":" Toys R Us","address":" USA-United States"}]