[{"latitude":" 42.14614","longitude":"-70.84498","name":" Trader Joe's","address":" USA-Hanover"},{"latitude":" 33.71164","longitude":"-116.29473","name":" Trader Joe's","address":" USA-La Quinta"},{"latitude":" 42.34818","longitude":"-71.08471","name":" Trader Joe's","address":" USA-Back Bay"},{"latitude":" 34.25799","longitude":"-118.57969","name":" Trader Joe's","address":" USA-Chatsworth"},{"latitude":" 34.02656","longitude":"-118.45593","name":" Trader Joe's","address":" USA-Santa Monica"},{"latitude":" 37.69922","longitude":"-122.46784","name":" Trader Joe's","address":" USA-Daly City"},{"latitude":" 47.71301","longitude":"-122.17997","name":" Trader Joe's","address":" USA-Kirkland"},{"latitude":" 38.11181","longitude":"-122.56855","name":" Trader Joe's","address":" USA-Novato"},{"latitude":" 34.35224","longitude":"-116.39025","name":" Trader Joe's","address":" USA-Palm Desert"},{"latitude":" 42.35956","longitude":"-72.54752","name":" Trader Joe's","address":" USA-Hadley"},{"latitude":" 33.78962","longitude":"-118.32895","name":" Trader Joe's","address":" USA-Torrance"},{"latitude":" 37.36739","longitude":"-122.03226","name":" Trader Joe's","address":" USA-Sunnyvale"},{"latitude":" 37.24362","longitude":"-121.95903","name":" Trader Joe's","address":" USA-Los Gatos"},{"latitude":" 40.78151","longitude":"-73.50265","name":" Trader Joe's","address":" USA-Plainview"},{"latitude":" 32.28316","longitude":"-110.94367","name":" Trader Joe's","address":" USA-Tucson"},{"latitude":" 42.35764","longitude":"-71.11534","name":" Trader Joe's","address":" USA-Cambridge"},{"latitude":" 33.91690","longitude":"-117.92427","name":" Trader Joe's","address":" USA-Brea"},{"latitude":" 34.08945","longitude":"-117.67059","name":" Trader Joe's","address":" USA-Upland"},{"latitude":" 36.97531","longitude":"-122.02564","name":" Trader Joe's","address":" USA-Santa Cruz"},{"latitude":" 39.95400","longitude":"-75.17550","name":" Trader Joe's","address":" USA-Philadelphia"},{"latitude":" 38.90396","longitude":"-77.05197","name":" Trader Joe's","address":" USA-West End"},{"latitude":" 33.63626","longitude":"-117.92508","name":" Trader Joe's","address":" USA-Costa Mesa"},{"latitude":" 34.17217","longitude":"-118.51727","name":" Trader Joe's","address":" USA-Encino"},{"latitude":" 38.26323","longitude":"-122.05247","name":" Trader Joe's","address":" USA-Fairfield"},{"latitude":" 39.88824","longitude":"-74.92356","name":" Trader Joe's","address":" USA-Marlton"},{"latitude":" 33.18325","longitude":"-117.33172","name":" Trader Joe's","address":" USA-Oceanside"},{"latitude":" 34.60035","longitude":"-118.11204","name":" Trader Joe's","address":" USA-Palmdale"},{"latitude":" 42.48409","longitude":"-71.41623","name":" Trader Joe's","address":" USA-Acton"},{"latitude":" 33.75424","longitude":"-118.30931","name":" Trader Joe's","address":" USA-Rancho Palos Verdes"},{"latitude":" 33.52822","longitude":"-111.92589","name":" Trader Joe's","address":" USA-Scottsdale"},{"latitude":" 39.47702","longitude":"-119.78371","name":" Trader Joe's","address":" USA-Reno"},{"latitude":" 34.10650","longitude":"-117.82281","name":" Trader Joe's","address":" USA-San Dimas"},{"latitude":" 41.72333","longitude":"-72.76010","name":" Trader Joe's","address":" USA-West Hartford"},{"latitude":" 34.14276","longitude":"-118.23011","name":" Trader Joe's","address":" USA-Eagle Rock"},{"latitude":" 33.90160","longitude":"-118.38321","name":" Trader Joe's","address":" USA-Manhattan Beach"},{"latitude":" 38.42066","longitude":"-122.71338","name":" Trader Joe's","address":" USA-Santa Rosa"},{"latitude":" 34.13841","longitude":"-118.07332","name":" Trader Joe's","address":" USA-Pasadena"},{"latitude":" 39.05731","longitude":"-77.12046","name":" Trader Joe's","address":" USA-Rockville"},{"latitude":" 37.40064","longitude":"-122.10877","name":" Trader Joe's","address":" USA-Mountain View"},{"latitude":" 38.00957","longitude":"-121.31979","name":" Trader Joe's","address":" USA-Stockton"},{"latitude":" 34.19935","longitude":"-118.18855","name":" Trader Joe's","address":" USA-La Ca\u00f1ada Flintridge"},{"latitude":" 41.86386","longitude":"-88.33207","name":" Trader Joe's","address":" USA-Batavia"},{"latitude":" 38.85188","longitude":"-77.13255","name":" Trader Joe's","address":" USA-Bailey's Crossroads"},{"latitude":" 33.50702","longitude":"-112.03875","name":" Trader Joe's","address":" USA-Phoenix"},{"latitude":" 37.54331","longitude":"-121.98681","name":" Trader Joe's","address":" USA-Fremont"},{"latitude":" 37.75652","longitude":"-122.25223","name":" Trader Joe's","address":" USA-Alameda"},{"latitude":" 39.15525","longitude":"-77.19729","name":" Trader Joe's","address":" USA-Gaithersburg"},{"latitude":" 47.62805","longitude":"-122.13478","name":" Trader Joe's","address":" USA-Bellevue"},{"latitude":" 33.70369","longitude":"-117.88570","name":" Trader Joe's","address":" USA-Santa Ana"},{"latitude":" 35.17555","longitude":"-106.54369","name":" Trader Joe's","address":" USA-Albuquerque"},{"latitude":" 33.59204","longitude":"-117.66069","name":" Trader Joe's","address":" USA-Mission Viejo"},{"latitude":" 33.56863","longitude":"-117.83267","name":" Trader Joe's","address":" USA-Newport Beach"},{"latitude":" 37.49675","longitude":"-122.24799","name":" Trader Joe's","address":" USA-San Carlos"},{"latitude":" 34.15208","longitude":"-118.35191","name":" Trader Joe's","address":" USA-Toluca Lake"},{"latitude":" 33.75012","longitude":"-117.81065","name":" Trader Joe's","address":" USA-Tustin"},{"latitude":" 37.83674","longitude":"-122.29356","name":" Trader Joe's","address":" USA-Emeryville"},{"latitude":" 34.12930","longitude":"-118.07329","name":" Trader Joe's","address":" USA-San Gabriel"},{"latitude":" 32.86559","longitude":"-117.23386","name":" Trader Joe's","address":" USA-La Jolla"},{"latitude":" 34.42124","longitude":"-119.67843","name":" Trader Joe's","address":" USA-Santa Barbara"},{"latitude":" 34.43972","longitude":"-119.72921","name":" Trader Joe's","address":" USA-Santa Barbara"},{"latitude":" 40.07300","longitude":"-75.43168","name":" Trader Joe's","address":" USA-Wayne"},{"latitude":" 41.14010","longitude":"-73.35195","name":" Trader Joe's","address":" USA-Westport"},{"latitude":" 39.68926","longitude":"-84.16532","name":" Trader Joe's","address":" USA-Kettering"},{"latitude":" 37.93814","longitude":"-122.02463","name":" Trader Joe's","address":" USA-Concord"},{"latitude":" 44.93453","longitude":"-93.33715","name":" Trader Joe's","address":" USA-St. Louis Park"},{"latitude":" 33.64803","longitude":"-117.59540","name":" Trader Joe's","address":" USA-Rancho Santa Margarita"},{"latitude":" 33.69184","longitude":"-117.99116","name":" Trader Joe's","address":" USA-Huntington Beach"},{"latitude":" 47.31450","longitude":"-122.31358","name":" Trader Joe's","address":" USA-Federal Way"},{"latitude":" 32.74891","longitude":"-117.17341","name":" Trader Joe's","address":" USA-Hillcrest"},{"latitude":" 37.45127","longitude":"-122.18341","name":" Trader Joe's","address":" USA-Menlo Park"},{"latitude":" 33.95901","longitude":"-118.39635","name":" Trader Joe's","address":" USA-Westchester"},{"latitude":" 33.52703","longitude":"-117.15678","name":" Trader Joe's","address":" USA-Temecula"},{"latitude":" 33.57357","longitude":"-112.12451","name":" Trader Joe's","address":" USA-Phoenix"},{"latitude":" 42.69919","longitude":"-71.44035","name":" Trader Joe's","address":" USA-Tyngsborough"},{"latitude":" 38.97822","longitude":"-76.49241","name":" Trader Joe's","address":" USA-Annapolis"},{"latitude":" 40.86782","longitude":"-73.12830","name":" Trader Joe's","address":" USA-Lake Grove"},{"latitude":" 40.65247","longitude":"-74.34981","name":" Trader Joe's","address":" USA-Westfield"},{"latitude":" 34.03011","longitude":"-118.42195","name":" Trader Joe's","address":" USA-West Los Angeles"},{"latitude":" 45.48860","longitude":"-122.62303","name":" Trader Joe's","address":" USA-Portland"},{"latitude":" 33.61172","longitude":"-117.70418","name":" Trader Joe's","address":" USA-Laguna Hills"},{"latitude":" 38.41015","longitude":"-121.41769","name":" Trader Joe's","address":" USA-Elk Grove"},{"latitude":" 39.38735","longitude":"-76.73688","name":" Trader Joe's","address":" USA-Pikesville"},{"latitude":" 34.21755","longitude":"-118.86928","name":" Trader Joe's","address":" USA-Thousand Oaks"},{"latitude":" 37.13020","longitude":"-76.51359","name":" Trader Joe's","address":" USA-Newport News"},{"latitude":" 44.06626","longitude":"-123.07440","name":" Trader Joe's","address":" USA-Eugene"},{"latitude":" 41.75599","longitude":"-88.14237","name":" Trader Joe's","address":" USA-Naperville"},{"latitude":" 41.91457","longitude":"-87.65469","name":" Trader Joe's","address":" USA-Chicago"},{"latitude":" 38.66241","longitude":"-121.27293","name":" Trader Joe's","address":" USA-Fair Oaks"},{"latitude":" 38.64407","longitude":"-90.56634","name":" Trader Joe's","address":" USA-Chesterfield"},{"latitude":" 40.65373","longitude":"-73.55864","name":" Trader Joe's","address":" USA-Merrick"},{"latitude":" 41.39242","longitude":"-73.52000","name":" Trader Joe's","address":" USA-Danbury"},{"latitude":" 45.48671","longitude":"-122.79760","name":" Trader Joe's","address":" USA-Beaverton"},{"latitude":" 42.08041","longitude":"-87.79851","name":" Trader Joe's","address":" USA-Glenview"},{"latitude":" 33.87013","longitude":"-118.06109","name":" Trader Joe's","address":" USA-Cerritos"},{"latitude":" 40.63910","longitude":"-73.70164","name":" Trader Joe's","address":" USA-Hewlett"},{"latitude":" 39.83386","longitude":"-75.54261","name":" Trader Joe's","address":" USA-Wilmington"},{"latitude":" 47.63244","longitude":"-122.35500","name":" Trader Joe's","address":" USA-Seattle"},{"latitude":" 33.88908","longitude":"-117.79002","name":" Trader Joe's","address":" USA-Yorba Linda"},{"latitude":" 40.09592","longitude":"-83.09172","name":" Trader Joe's","address":" USA-Dublin"},{"latitude":" 32.23567","longitude":"-110.85765","name":" Trader Joe's","address":" USA-Tucson"},{"latitude":" 42.34212","longitude":"-71.12131","name":" Trader Joe's","address":" USA-Brookline"},{"latitude":" 37.55421","longitude":"-122.30277","name":" Trader Joe's","address":" USA-San Mateo"},{"latitude":" 34.27248","longitude":"-118.50203","name":" Trader Joe's","address":" USA-Granada Hills"},{"latitude":" 36.97566","longitude":"-121.96807","name":" Trader Joe's","address":" USA-Capitola"},{"latitude":" 36.18120","longitude":"-115.25915","name":" Trader Joe's","address":" USA-Summerlin"},{"latitude":" 34.08789","longitude":"-118.37945","name":" Trader Joe's","address":" USA-West Hollywood"},{"latitude":" 33.64846","longitude":"-117.83521","name":" Trader Joe's","address":" USA-Irvine"},{"latitude":" 42.25947","longitude":"-83.71325","name":" Trader Joe's","address":" USA-Ann Arbor"},{"latitude":" 35.35414","longitude":"-119.09487","name":" Trader Joe's","address":" USA-Bakersfield"},{"latitude":" 33.63646","longitude":"-111.91766","name":" Trader Joe's","address":" USA-North Scottsdale"},{"latitude":" 33.75994","longitude":"-118.11284","name":" Trader Joe's","address":" USA-Long Beach"},{"latitude":" 33.37904","longitude":"-111.78758","name":" Trader Joe's","address":" USA-Mesa"},{"latitude":" 41.45733","longitude":"-81.95107","name":" Trader Joe's","address":" USA-Westlake"},{"latitude":" 36.06988","longitude":"-115.08214","name":" Trader Joe's","address":" USA-Henderson"},{"latitude":" 42.47294","longitude":"-71.21218","name":" Trader Joe's","address":" USA-Burlington"},{"latitude":" 38.97807","longitude":"-77.09088","name":" Trader Joe's","address":" USA-Bethesda"},{"latitude":" 41.18252","longitude":"-73.25367","name":" Trader Joe's","address":" USA-Farifield"},{"latitude":" 33.94872","longitude":"-118.00599","name":" Trader Joe's","address":" USA-Whittier"},{"latitude":" 33.49592","longitude":"-117.69342","name":" Trader Joe's","address":" USA-Laguna Niguel"},{"latitude":" 33.82326","longitude":"-117.83605","name":" Trader Joe's","address":" USA-Orange"},{"latitude":" 42.42518","longitude":"-71.18769","name":" Trader Joe's","address":" USA-Arlington"},{"latitude":" 37.82713","longitude":"-122.00826","name":" Trader Joe's","address":" USA-Danville"},{"latitude":" 34.13532","longitude":"-118.16634","name":" Trader Joe's","address":" USA-Pasadena"},{"latitude":" 38.67145","longitude":"-90.43572","name":" Trader Joe's","address":" USA-Creve Coeur"},{"latitude":" 33.83198","longitude":"-118.18501","name":" Trader Joe's","address":" USA-Bixby Knolls"},{"latitude":" 40.00774","longitude":"-75.28741","name":" Trader Joe's","address":" USA-Ardmore"},{"latitude":" 33.79679","longitude":"-118.12517","name":" Trader Joe's","address":" USA-Long Beach"},{"latitude":" 34.14020","longitude":"-118.01176","name":" Trader Joe's","address":" USA-Monrovia"},{"latitude":" 36.83069","longitude":"-119.72972","name":" Trader Joe's","address":" USA-Clovis"},{"latitude":" 47.82184","longitude":"-122.31478","name":" Trader Joe's","address":" USA-Lynnwood"},{"latitude":" 33.30498","longitude":"-111.99667","name":" Trader Joe's","address":" USA-Ahwatukee"},{"latitude":" 38.56075","longitude":"-121.44453","name":" Trader Joe's","address":" USA-Sacramento"},{"latitude":" 42.27467","longitude":"-71.75132","name":" Trader Joe's","address":" USA-Shrewsbury"},{"latitude":" 33.95609","longitude":"-117.38805","name":" Trader Joe's","address":" USA-Riverside"},{"latitude":" 37.97968","longitude":"-122.05722","name":" Trader Joe's","address":" USA-Concord"},{"latitude":" 34.17465","longitude":"-118.29949","name":" Trader Joe's","address":" USA-Burbank"},{"latitude":" 40.04923","longitude":"-82.91677","name":" Trader Joe's","address":" USA-Columbus"},{"latitude":" 41.81068","longitude":"-87.95077","name":" Trader Joe's","address":" USA-Downers Grove"},{"latitude":" 34.15776","longitude":"-118.44067","name":" Trader Joe's","address":" USA-Sherman Oaks"},{"latitude":" 33.45994","longitude":"-117.65315","name":" Trader Joe's","address":" USA-San Clemente"},{"latitude":" 36.14847","longitude":"-115.20792","name":" Trader Joe's","address":" USA-Las Vegas"},{"latitude":" 47.91017","longitude":"-122.22176","name":" Trader Joe's","address":" USA-Everett"},{"latitude":" 32.25054","longitude":"-110.89095","name":" Trader Joe's","address":" USA-Tucson"},{"latitude":" 34.19306","longitude":"-118.62355","name":" Trader Joe's","address":" USA-West Hills"},{"latitude":" 42.52833","longitude":"-83.35834","name":" Trader Joe's","address":" USA-Farmington Hills"},{"latitude":" 34.10717","longitude":"-118.27228","name":" Trader Joe's","address":" USA-Silverlake"},{"latitude":" 42.34951","longitude":"-71.21937","name":" Trader Joe's","address":" USA-Newton"},{"latitude":" 33.70588","longitude":"-117.78615","name":" Trader Joe's","address":" USA-Irvine"},{"latitude":" 33.81771","longitude":"-118.38562","name":" Trader Joe's","address":" USA-Redondo Beach"},{"latitude":" 33.63826","longitude":"-112.22459","name":" Trader Joe's","address":" USA-Glendale"},{"latitude":" 37.60418","longitude":"-122.39581","name":" Trader Joe's","address":" USA-Millbrae"},{"latitude":" 38.81085","longitude":"-77.04474","name":" Trader Joe's","address":" USA-Alexandria"},{"latitude":" 34.06021","longitude":"-117.18249","name":" Trader Joe's","address":" USA-Redlands"},{"latitude":" 38.47268","longitude":"-122.73080","name":" Trader Joe's","address":" USA-Santa Rosa"},{"latitude":" 33.78826","longitude":"-116.48223","name":" Trader Joe's","address":" USA-Cathedral City"},{"latitude":" 33.88722","longitude":"-118.38045","name":" Trader Joe's","address":" USA-Manhattan Beach"},{"latitude":" 39.19854","longitude":"-84.38109","name":" Trader Joe's","address":" USA-Cincinnati"},{"latitude":" 37.33779","longitude":"-122.06822","name":" Trader Joe's","address":" USA-Los Altos"},{"latitude":" 38.66960","longitude":"-121.15475","name":" Trader Joe's","address":" USA-Folsom"},{"latitude":" 42.54978","longitude":"-70.95436","name":" Trader Joe's","address":" USA-Peabody"},{"latitude":" 34.02006","longitude":"-118.42267","name":" Trader Joe's","address":" USA-West Los Angeles"},{"latitude":" 32.35029","longitude":"-110.97495","name":" Trader Joe's","address":" USA-Tucson"},{"latitude":" 41.94955","longitude":"-87.67569","name":" Trader Joe's","address":" USA-Chicago"},{"latitude":" 40.84037","longitude":"-73.31317","name":" Trader Joe's","address":" USA-Commack"},{"latitude":" 39.03096","longitude":"-77.00457","name":" Trader Joe's","address":" USA-Silver Spring"},{"latitude":" 40.62764","longitude":"-73.64099","name":" Trader Joe's","address":" USA-Oceanside"},{"latitude":" 39.76083","longitude":"-121.84590","name":" Trader Joe's","address":" USA-Chico"},{"latitude":" 38.90416","longitude":"-77.20414","name":" Trader Joe's","address":" USA-Falls Church"},{"latitude":" 37.70004","longitude":"-121.86991","name":" Trader Joe's","address":" USA-Pleasanton"},{"latitude":" 34.14316","longitude":"-118.39223","name":" Trader Joe's","address":" USA-Studio City"},{"latitude":" 41.85938","longitude":"-88.05717","name":" Trader Joe's","address":" USA-Glen Ellyn"},{"latitude":" 41.61934","longitude":"-87.85346","name":" Trader Joe's","address":" USA-Orland Park"},{"latitude":" 41.81676","longitude":"-87.86971","name":" Trader Joe's","address":" USA-La Grange"},{"latitude":" 34.41926","longitude":"-118.54556","name":" Trader Joe's","address":" USA-Valencia"},{"latitude":" 37.68508","longitude":"-122.07370","name":" Trader Joe's","address":" USA-Castro Valley"},{"latitude":" 40.99261","longitude":"-74.03589","name":" Trader Joe's","address":" USA-Westwood"},{"latitude":" 37.77065","longitude":"-122.40771","name":" Trader Joe's","address":" USA-San Francisco"},{"latitude":" 37.89919","longitude":"-122.30176","name":" Trader Joe's","address":" USA-El Cerrito"},{"latitude":" 37.29177","longitude":"-121.99450","name":" Trader Joe's","address":" USA-San Jose"},{"latitude":" 34.14684","longitude":"-118.24710","name":" Trader Joe's","address":" USA-Glendale"},{"latitude":" 38.61806","longitude":"-121.40041","name":" Trader Joe's","address":" USA-Sacramento"},{"latitude":" 38.60094","longitude":"-90.46813","name":" Trader Joe's","address":" USA-Des Peres"},{"latitude":" 34.06978","longitude":"-118.34409","name":" Trader Joe's","address":" USA-Los Angeles"},{"latitude":" 34.25793","longitude":"-119.21097","name":" Trader Joe's","address":" USA-Ventura"},{"latitude":" 33.04658","longitude":"-117.25962","name":" Trader Joe's","address":" USA-Encinitas"},{"latitude":" 42.43736","longitude":"-83.43551","name":" Trader Joe's","address":" USA-Northville"},{"latitude":" 40.10823","longitude":"-75.12312","name":" Trader Joe's","address":" USA-Jenkintown"},{"latitude":" 38.25008","longitude":"-122.62737","name":" Trader Joe's","address":" USA-Petaluma"},{"latitude":" 47.46036","longitude":"-122.33370","name":" Trader Joe's","address":" USA-Burien"},{"latitude":" 37.28940","longitude":"-121.93185","name":" Trader Joe's","address":" USA-Campbell"},{"latitude":" 42.15409","longitude":"-88.33580","name":" Trader Joe's","address":" USA-Algonquin"},{"latitude":" 38.96723","longitude":"-77.35948","name":" Trader Joe's","address":" USA-Reston"},{"latitude":" 39.91770","longitude":"-75.38889","name":" Trader Joe's","address":" USA-Media"},{"latitude":" 40.97124","longitude":"-73.80590","name":" Trader Joe's","address":" USA-Scarsdale"},{"latitude":" 34.09082","longitude":"-118.34903","name":" Trader Joe's","address":" USA-West Hollywood"},{"latitude":" 36.60635","longitude":"-121.92141","name":" Trader Joe's","address":" USA-Pacific Grove"},{"latitude":" 33.85258","longitude":"-118.35380","name":" Trader Joe's","address":" USA-Torrance"},{"latitude":" 42.29224","longitude":"-71.23503","name":" Trader Joe's","address":" USA-Needham"},{"latitude":" 38.74398","longitude":"-121.27449","name":" Trader Joe's","address":" USA-Roseville"},{"latitude":" 42.19749","longitude":"-88.08019","name":" Trader Joe's","address":" USA-Lake Zurich"},{"latitude":" 34.22050","longitude":"-119.05072","name":" Trader Joe's","address":" USA-Camarillo"},{"latitude":" 47.66227","longitude":"-122.31771","name":" Trader Joe's","address":" USA-Seattle"},{"latitude":" 34.02484","longitude":"-118.39332","name":" Trader Joe's","address":" USA-Culver City"},{"latitude":" 37.97064","longitude":"-122.51698","name":" Trader Joe's","address":" USA-San Rafael"},{"latitude":" 38.78169","longitude":"-77.18915","name":" Trader Joe's","address":" USA-Springfield"},{"latitude":" 34.11583","longitude":"-118.16351","name":" Trader Joe's","address":" USA-South Pasadena"},{"latitude":" 40.78874","longitude":"-74.39356","name":" Trader Joe's","address":" USA-Florham Park"},{"latitude":" 38.83895","longitude":"-77.43508","name":" Trader Joe's","address":" USA-Centreville"},{"latitude":" 41.25236","longitude":"-73.01915","name":" Trader Joe's","address":" USA-Orange"},{"latitude":" 42.49504","longitude":"-83.16374","name":" Trader Joe's","address":" USA-Royal Oak"},{"latitude":" 37.25321","longitude":"-121.87552","name":" Trader Joe's","address":" USA-San Jose"},{"latitude":" 32.79822","longitude":"-117.24800","name":" Trader Joe's","address":" USA-Pacific Beach"},{"latitude":" 41.02492","longitude":"-73.79258","name":" Trader Joe's","address":" USA-Hartsdale"},{"latitude":" 33.10051","longitude":"-117.07355","name":" Trader Joe's","address":" USA-Escondido"},{"latitude":" 34.23307","longitude":"-118.25398","name":" Trader Joe's","address":" USA-La Crescenta"},{"latitude":" 36.81496","longitude":"-119.79020","name":" Trader Joe's","address":" USA-Fresno"},{"latitude":" 37.89101","longitude":"-122.12749","name":" Trader Joe's","address":" USA-Lafayette"},{"latitude":" 37.78597","longitude":"-122.44688","name":" Trader Joe's","address":" USA-San Francisco"},{"latitude":" 35.12671","longitude":"-120.59577","name":" Trader Joe's","address":" USA-Arroyo Grande"},{"latitude":" 37.80547","longitude":"-122.41377","name":" Trader Joe's","address":" USA-San Francisco"},{"latitude":" 38.62780","longitude":"-90.34133","name":" Trader Joe's","address":" USA-Brentwood"},{"latitude":" 40.96071","longitude":"-74.24163","name":" Trader Joe's","address":" USA-Wayne"},{"latitude":" 41.66707","longitude":"-70.29187","name":" Trader Joe's","address":" USA-Hyannis"},{"latitude":" 34.44119","longitude":"-119.82404","name":" Trader Joe's","address":" USA-Goleta"},{"latitude":" 42.29818","longitude":"-71.42343","name":" Trader Joe's","address":" USA-Framingham"},{"latitude":" 38.32192","longitude":"-122.30727","name":" Trader Joe's","address":" USA-Napa"},{"latitude":" 47.61579","longitude":"-122.31012","name":" Trader Joe's","address":" USA-Seattle"},{"latitude":" 42.47858","longitude":"-70.90760","name":" Trader Joe's","address":" USA-Swampscott"},{"latitude":" 45.61942","longitude":"-122.55462","name":" Trader Joe's","address":" USA-Vancouver"},{"latitude":" 35.24461","longitude":"-120.67503","name":" Trader Joe's","address":" USA-San Luis Obispo"},{"latitude":" 34.27903","longitude":"-118.73821","name":" Trader Joe's","address":" USA-Simi Valley"},{"latitude":" 39.40177","longitude":"-76.60187","name":" Trader Joe's","address":" USA-Towson"},{"latitude":" 42.68081","longitude":"-83.19449","name":" Trader Joe's","address":" USA-Rochester Hills"},{"latitude":" 45.41377","longitude":"-122.74310","name":" Trader Joe's","address":" USA-Lake Oswego"},{"latitude":" 34.14016","longitude":"-118.13242","name":" Trader Joe's","address":" USA-Pasadena"},{"latitude":" 33.36308","longitude":"-111.91130","name":" Trader Joe's","address":" USA-Tempe"},{"latitude":" 32.98251","longitude":"-117.07658","name":" Trader Joe's","address":" USA-Carmel Mountain"},{"latitude":" 37.68777","longitude":"-121.05349","name":" Trader Joe's","address":" USA-Modesto"},{"latitude":" 38.84130","longitude":"-77.27117","name":" Trader Joe's","address":" USA-Fairfax"},{"latitude":" 41.08513","longitude":"-73.46180","name":" Trader Joe's","address":" USA-Darien"},{"latitude":" 45.53612","longitude":"-122.61953","name":" Trader Joe's","address":" USA-Portland"},{"latitude":" 32.77866","longitude":"-117.00675","name":" Trader Joe's","address":" USA-La Mesa"},{"latitude":" 35.67393","longitude":"-105.95330","name":" Trader Joe's","address":" USA-Santa Fe"},{"latitude":" 33.60589","longitude":"-112.26877","name":" Trader Joe's","address":" USA-Sun City"},{"latitude":" 40.94857","longitude":"-74.07189","name":" Trader Joe's","address":" USA-Paramus"},{"latitude":" 34.16331","longitude":"-118.82687","name":" Trader Joe's","address":" USA-Westlake Village"},{"latitude":" 47.54811","longitude":"-122.05419","name":" Trader Joe's","address":" USA-Issaquah"},{"latitude":" 41.46256","longitude":"-81.47474","name":" Trader Joe's","address":" USA-Woodmere"},{"latitude":" 40.93736","longitude":"-73.74645","name":" Trader Joe's","address":" USA-Larchmont"},{"latitude":" 42.16320","longitude":"-87.84302","name":" Trader Joe's","address":" USA-Northbrook"},{"latitude":" 45.52618","longitude":"-122.69495","name":" Trader Joe's","address":" USA-Portland"},{"latitude":" 47.22278","longitude":"-122.53730","name":" Trader Joe's","address":" USA-University Place (Tacoma)"}]