[{"latitude":"30.061161","longitude":"-81.513604","name":"Winn Dixie 0002 - 2220 CR 210 W; Jacksonville","address":"FL 32259>904-823-2171"},{"latitude":"30.534743","longitude":"-83.870384","name":"Winn Dixie 0003 - 1245 S Jefferson St; Monticello","address":"FL 32344>850-997-2247"},{"latitude":"30.227194","longitude":"-81.388677","name":"Winn Dixie 0005 - 290 Solana Rd; Ponte Vedra Beach","address":"FL 32082>904-543-8668"},{"latitude":"30.121717","longitude":"-81.800418","name":"Winn Dixie 0008 - 1339 Blanding Blvd; Orange Park","address":"FL 32065>904-272-1547"},{"latitude":"30.460542","longitude":"-81.633103","name":"Winn Dixie 0012 - 12333 Sago Ave; Jacksonville","address":"FL 32218>904-757-8982"},{"latitude":"30.324264","longitude":"-81.410317","name":"Winn Dixie 0018 - 1209 Atlantic Blvd; Neptune Beach","address":"FL 32266>904-241-4368"},{"latitude":"31.172998","longitude":"-81.384092","name":"Winn Dixie 0019 - 220 Retreat Village; St Simons Island","address":"GA 31522>912-638-4805"},{"latitude":"30.061161","longitude":"-81.513604","name":"Winn Dixie 0021 Liquor - 2220 CR 210 W; Jacksonville","address":"FL 32259>904-808-9961"},{"latitude":"30.221742","longitude":"-81.59276","name":"Winn Dixie 0025 - 8775 Old Kings Rd S; Jacksonville","address":"FL 32217>904-636-8962"},{"latitude":"30.472007","longitude":"-83.426696","name":"Winn Dixie 0028 - 1219 W Base St; Madison","address":"FL 32340>850-973-2690"},{"latitude":"29.840664","longitude":"-82.602249","name":"Winn Dixie 0030 - 20303 N US Hwy 441; High Springs","address":"FL 32643>386-454-3067"},{"latitude":"29.84132","longitude":"-82.602525","name":"Winn Dixie 0031 Liquor - 1070 NW Santa Fe Blvd; High Springs","address":"FL 32643>386-454-4845"},{"latitude":"30.682088","longitude":"-83.217696","name":"Winn Dixie 0032 - 1060 Lakes Blvd; Lake Park","address":"GA 31636>229-559-6409"},{"latitude":"30.3312","longitude":"-81.652503","name":"Winn Dixie 0037 - 777 N Market St; Jacksonville","address":"FL 32202>904-353-6810"},{"latitude":"30.167287","longitude":"-81.701348","name":"Winn Dixie 0040 - 1900-1 Park Ave; Orange Park","address":"FL 32073>904-278-2691"},{"latitude":"30.366088","longitude":"-81.597167","name":"Winn Dixie 0051 - 6060-10 Ft Caroline Rd; Jacksonville","address":"FL 32277>904-743-0251"},{"latitude":"30.501578","longitude":"-84.32853","name":"Winn Dixie 0052 - 3813-10 N Monroe St; Tallahassee","address":"FL 32303>850-562-1369"},{"latitude":"30.346344","longitude":"-81.527052","name":"Winn Dixie 0054 - 1531 Monument Rd; Jacksonville","address":"FL 32225>904-646-0771"},{"latitude":"31.159704","longitude":"-81.477972","name":"Winn Dixie 0060 - 1941 Glynn Ave; Brunswick","address":"GA 31520>912-267-0557"},{"latitude":"30.910206","longitude":"-83.263017","name":"Winn Dixie 0065 - 4036 Bemiss Rd;  Valdosta","address":"GA 31605>229-247-2775"},{"latitude":"31.248149","longitude":"-81.50649","name":"Winn Dixie 0067 - 341 Venture Dr; Brunswick","address":"GA 31525>912-264-0698"},{"latitude":"31.141048","longitude":"-81.587183","name":"Winn Dixie 0068 - 284 Hyde Park Commons; Brunswick","address":"GA 31523>912-267-1759"},{"latitude":"30.754049","longitude":"-81.578663","name":"Winn Dixie 0070 - 2714 Osborne Rd; Saint Marys","address":"GA 31558>912-882-6714"},{"latitude":"29.879425","longitude":"-81.325083","name":"Winn Dixie 0077 - 1010 S Ponce De Leon Blvd; Saint Augustine","address":"FL 32084>904-829-5509"},{"latitude":"30.218532","longitude":"-81.554728","name":"Winn Dixie 0080 - 9866 Baymeadows Rd; Jacksonville","address":"FL 32256>904-642-6509"},{"latitude":"30.179321","longitude":"-82.637073","name":"Winn Dixie 0081 - 580 S Marion Ave; Lake City","address":"FL 32025>386-755-4404"},{"latitude":"30.18244","longitude":"-82.63785","name":"Winn Dixie 0082 Liquor - 580 S Marion Ave; Lake City","address":"FL 32025>386-755-5907"},{"latitude":"30.679959","longitude":"-81.447432","name":"Winn Dixie 0084 - 947 Ameila Plaza; Fernandina Beach","address":"FL 32034>904-277-2539"},{"latitude":"29.944213","longitude":"-82.113472","name":"Winn Dixie 0085 - 470 W Madison St; Starke","address":"FL 32091>904-964-8673"},{"latitude":"30.441572","longitude":"-84.261624","name":"Winn Dixie 0086 - 111-39 S Magnolia Dr; Tallahassee","address":"FL 32301>850-656-2219"},{"latitude":"30.379071","longitude":"-81.698085","name":"Winn Dixie 0089 - 2261 Edgewood Ave W; Jacksonville","address":"FL 32209>904-764-3438"},{"latitude":"30.441572","longitude":"-84.261624","name":"Winn Dixie 0090 Liquor - 111-39 S Magnolia Dr; Tallahassee","address":"FL 32301>850-656-7800"},{"latitude":"30.06087","longitude":"-81.877246","name":"Winn Dixie 0093 - 2720 Blanding Blvd; Middleburg","address":"FL 32068>904-282-3070"},{"latitude":"30.06087","longitude":"-81.877246","name":"Winn Dixie 0094 Liquor - 2720 Blanding Blvd; Middleburg","address":"FL 32068>904-291-2418"},{"latitude":"30.102125","longitude":"-81.711149","name":"Winn Dixie 0103 - 1545 CR 220; Fleming Island","address":"FL 32003>904-264-0398"},{"latitude":"30.098492","longitude":"-83.583794","name":"Winn Dixie 0104 - 2057 S Byron Butler Pkwy; Perry","address":"FL 32348>850-584-5614"},{"latitude":"30.324264","longitude":"-81.410317","name":"Winn Dixie 0106 Liquor - 1209 Atlantic Blvd; Neptune Beach","address":"FL 32266>904-249-1917"},{"latitude":"30.276077","longitude":"-81.604671","name":"Winn Dixie 0107 - 5909 University Blvd W; Jacksonville","address":"FL 32216>904-448-6100"},{"latitude":"30.405345","longitude":"-84.283314","name":"Winn Dixie 0116 - 110 Paul Russell Rd; Tallahassee","address":"FL 32301>850-656-7020"},{"latitude":"30.245225","longitude":"-81.696882","name":"Winn Dixie 0123 - 5647 Roosevelt Blvd; Jacksonville","address":"FL 32244>904-384-0711"},{"latitude":"30.463394","longitude":"-84.312676","name":"Winn Dixie 0125 - 1625 W Tharpe St; Tallahassee","address":"FL 32303>850-297-2555"},{"latitude":"29.88173","longitude":"-81.314939","name":"Winn Dixie 0129 - 3905 A1A S; Saint Augustine","address":"FL 32080>904-471-5115"},{"latitude":"29.88173","longitude":"-81.314939","name":"Winn Dixie 0130 Liquor - 3907 A1A S; Saint Augustine","address":"FL 32080>904-471-5065"},{"latitude":"30.04658","longitude":"-81.809172","name":"Winn Dixie 0135 - 2851 Henley Rd; Green Cove Springs","address":"FL 32043>904-899-6900"},{"latitude":"30.04658","longitude":"-81.809172","name":"Winn Dixie 0136 Liquor - 2851 Henley Rd; Green Cove Springs","address":"FL 32043>904-899-6902"},{"latitude":"30.023079","longitude":"-81.706152","name":"Winn Dixie 0138 - 3260 Hwy 17; Green Cove Springs","address":"FL 32043>904-529-8888"},{"latitude":"30.875226","longitude":"-83.292099","name":"Winn Dixie 0140 - 3200 N Ashley St; Valdosta","address":"GA 31602>229-242-0917"},{"latitude":"30.159721","longitude":"-81.632438","name":"Winn Dixie 0141 - 11701-10 San Jose Blvd; Jacksonville","address":"FL 32223>904-886-1976"},{"latitude":"30.65528","longitude":"-81.877439","name":"Winn Dixie 0142 - 541494 US Hwy 1; Hilliard","address":"FL 32046>904-845-3782"},{"latitude":"30.159721","longitude":"-81.632438","name":"Winn Dixie 0143 Liquor - 11701-10 San Jose Blvd; Jacksonville","address":"FL 32223>904-680-1032"},{"latitude":"30.25621","longitude":"-82.123039","name":"Winn Dixie 0144 - 1436 S SR 121; MacClenny","address":"FL 32063>904-259-2204"},{"latitude":"30.174331","longitude":"-81.745651","name":"Winn Dixie 0145 - 248 Blanding Blvd; Orange Park","address":"FL 32073>904-276-4200"},{"latitude":"29.636361","longitude":"-82.328814","name":"Winn Dixie 0150 Liquor - 300 SW 16th Ave; Gainesville","address":"FL 32601>352-379-0023"},{"latitude":"30.566566","longitude":"-81.827065","name":"Winn Dixie 0151 - 450078 SR 200; Callahan","address":"FL 32011>904-879-4833"},{"latitude":"30.293544","longitude":"-81.779694","name":"Winn Dixie 0153 - 7921 Normandy Blvd; Jacksonville","address":"FL 32221>904-783-6901"},{"latitude":"29.639388","longitude":"-81.676816","name":"Winn Dixie 0156 Liquor - 901 S SR 19; Palatka","address":"FL 32177>386-328-3053"},{"latitude":"31.22379","longitude":"-81.525143","name":"Winn Dixie 0159 - 5420 New Jesup Hwy; Brunswick","address":"GA 31523>912-264-5429"},{"latitude":"29.676152","longitude":"-82.320451","name":"Winn Dixie 0160 - 2500 N Main St; Gainesville","address":"FL 32609>580-482-8189"},{"latitude":"30.312405","longitude":"-81.578816","name":"Winn Dixie 0161 - 49 Arlington Rd S; Jacksonville","address":"FL 32216>904-721-3069"},{"latitude":"29.639388","longitude":"-81.676816","name":"Winn Dixie 0163 - 901 S SR 19; Palatka","address":"FL 32177>386-328-6239"},{"latitude":"30.789151","longitude":"-81.655247","name":"Winn Dixie 0166 - 1390 Boone Ave Ext E; Kingsland","address":"GA 31548>912-729-3621"},{"latitude":"30.438676","longitude":"-81.698157","name":"Winn Dixie 0167 - 3000 Dunn Ave; Jacksonville","address":"FL 32218>904-765-4543"},{"latitude":"30.90407","longitude":"-84.565279","name":"Winn Dixie 0169 - 915 Shotwell St; Bainbridge","address":"GA 39819>229-246-3454"},{"latitude":"29.38608","longitude":"-82.455952","name":"Winn Dixie 0171 - 727 W Noble Ave; Williston","address":"FL 32696>352-528-5551"},{"latitude":"30.817918","longitude":"-83.275157","name":"Winn Dixie 0173 - 1105 Madison Hwy; Valdosta","address":"GA 31601>229-242-0127"},{"latitude":"30.319135","longitude":"-81.471388","name":"Winn Dixie 0174 - 12777 Atlantic Blvd; Jacksonville","address":"FL 32225>904-221-3062"},{"latitude":"30.196135","longitude":"-81.795984","name":"Winn Dixie 0176 - 8560 Argyle Forest Blvd; Jacksonville","address":"FL 32244>904-779-5000"},{"latitude":"30.271143","longitude":"-81.735705","name":"Winn Dixie 0177 - 3538 Blanding Blvd; Jacksonville","address":"FL 32210>904-779-5906"},{"latitude":"30.28669","longitude":"-81.526301","name":"Winn Dixie 0179 - 11380-8 Beach Blvd; Jacksonville","address":"FL 32216>904-996-0990"},{"latitude":"30.624179","longitude":"-81.544472","name":"Winn Dixie 0180 - 96076 Lofton Square Ct; Yulee","address":"FL 32097>904-261-6100"},{"latitude":"29.925075","longitude":"-81.325977","name":"Winn Dixie 0182 - 3551 N Ponce De Leon Blvd; Saint Augustine","address":"FL 32084>904-824-6233"},{"latitude":"30.271522","longitude":"-81.737588","name":"Winn Dixie 0183 Liquor - 3538-A Blanding Blvd; Jacksonville","address":"FL 32210>904-771-2822"},{"latitude":"30.587349","longitude":"-84.594715","name":"Winn Dixie 0184 - 1632 W Jefferson St; Quncy","address":"FL 32351>850-627-1134"},{"latitude":"30.193016","longitude":"-84.371484","name":"Winn Dixie 0186 - 2629 Crawfordville Hwy; Crawfordville","address":"FL 32327>850-926-2204"},{"latitude":"30.196135","longitude":"-81.795984","name":"Winn Dixie 0187 Liquor - 8560 Argyle Forest Blvd; Jacksonville","address":"FL 32244>904-771-5337"},{"latitude":"30.260738","longitude":"-81.644942","name":"Winn Dixie 0190 - 1520 University Blvd W; Jacksonville","address":"FL 32217>904-448-5400"},{"latitude":"30.309278","longitude":"-81.735521","name":"Winn Dixie 0191 - 5207 Normandy Blvd; Jacksonville","address":"FL 32205>904-786-5181"},{"latitude":"30.370368","longitude":"-81.684612","name":"Winn Dixie 0194 - 5250 Moncrief Rd W; Jacksonville","address":"FL 32209>904-768-8600"},{"latitude":"28.680177","longitude":"-82.111243","name":"Winn Dixie 0196 - 1115 N Summit St; Crescent City","address":"FL 32112>386-698-4900"},{"latitude":"29.077367","longitude":"-82.259446","name":"Winn Dixie 0196 - 8445 SW Hwy 200; Ocala","address":"FL 34481>352-854-1122"},{"latitude":"29.636361","longitude":"-82.328814","name":"Winn Dixie 0197 - 300 SW 16th Ave; Gainesville","address":"FL 32601>352-378-5001"},{"latitude":"30.250405","longitude":"-83.235539","name":"Winn Dixie 0198 - 911 Pinewood Dr SW; Live Oak","address":"FL 32064>386-362-6300"},{"latitude":"30.306198","longitude":"-81.84844","name":"Winn Dixie 0199 - 703 Chaffee Rd S; Jacksonville","address":"FL 32221>904-693-4853"},{"latitude":"25.881455","longitude":"-80.291846","name":"Winn Dixie 0201 - 6500 W 4th Ave; Hialeah","address":"FL 33012>305-558-7618"},{"latitude":"25.983837","longitude":"-80.163795","name":"Winn Dixie 0203 - 1055 W Hallandale Beach Blvd; Hallandale ","address":"FL 33009>954-457-7380"},{"latitude":"26.137746","longitude":"-80.15416","name":"Winn Dixie 0204 - 1035 NW 9th Ave; Fort Lauderdale","address":"FL 33311>954-763-2184"},{"latitude":"26.273751","longitude":"-80.097911","name":"Winn Dixie 0207 - 3435 N Federal Hwy; Pompano Beach","address":"FL 33064>954-781-0226"},{"latitude":"26.014651","longitude":"-80.27852","name":"Winn Dixie 0209 - 701 NW 99th Ave; Pembroke Pines","address":"FL 33025>954-435-0182"},{"latitude":"26.186131","longitude":"-80.187942","name":"Winn Dixie 0210 - 3116 W Commercial Blvd; Fort Lauderdale","address":"FL 33309>954-739-9607"},{"latitude":"26.707342","longitude":"-80.229402","name":"Winn Dixie 0212 - 1135 Royal Palm Beach Blvd; West Palm Beach","address":"FL 33411>561-793-0422"},{"latitude":"25.823327","longitude":"-80.215238","name":"Winn Dixie 0214 - 1150 NW 54th St; Miami","address":"FL 33127>305-757-0696"},{"latitude":"26.030552","longitude":"-80.296786","name":"Winn Dixie 0218 - 2581 N Hiatus Rd; Hollywood","address":"FL 33026>954-436-1165"},{"latitude":"26.637977","longitude":"-80.112975","name":"Winn Dixie 0221 - 2675 S Military Trl; West Palm Beach","address":"FL 33415>561-964-1944"},{"latitude":"26.101434","longitude":"-80.130874","name":"Winn Dixie 0226 - 1625 Cordova Rd; Fort Lauderdale","address":"FL 33316>954-763-2275"},{"latitude":"26.227258","longitude":"-80.156833","name":"Winn Dixie 0228 - 277 S Pompano Pkwy; Pompano","address":"FL 33069>954-974-1263"},{"latitude":"26.157521","longitude":"-80.117167","name":"Winn Dixie 0230 - 2420 N Federal Hwy; Fort Lauderdale","address":"FL 33305>954-764-2454"},{"latitude":"25.939371","longitude":"-80.29699","name":"Winn Dixie 0231 - 5850 NW 183rd St; Hialeah","address":"FL 33015>305-819-0097"},{"latitude":"25.875917","longitude":"-80.210222","name":"Winn Dixie 0233 - 11030 NW 7th Ave; Miami","address":"FL 33168>877-932-7948"},{"latitude":"25.808126","longitude":"-80.22485","name":"Winn Dixie 0235 - 3401 NW 18th; Ave Miami","address":"FL 33142>305-634-4492"},{"latitude":"26.092653","longitude":"-80.153504","name":"Winn Dixie 0236 - 941 W SR 84; Fort Lauderdale","address":"FL 33315>954-763-2191"},{"latitude":"26.934662","longitude":"-80.137585","name":"Winn Dixie 0238 - 6707 W Indiantown Rd; Jupiter","address":"FL 33458>561-575-0944"},{"latitude":"25.728761","longitude":"-80.429325","name":"Winn Dixie 0239 - 14555 SW 42nd St; Miami","address":"FL 33175>305-552-8349"},{"latitude":"25.833709","longitude":"-80.260696","name":"Winn Dixie 0242 - 1201 E 10th Ave; Hialeah","address":"FL 33010>305-863-3317"},{"latitude":"25.866743","longitude":"-80.293773","name":"Winn Dixie 0243 - 541 W 49th St; Hialeah","address":"FL 33012>305-556-6588"},{"latitude":"25.973789","longitude":"-80.211737","name":"Winn Dixie 0244 - 6301 County Line Rd; Miramar","address":"FL 33023>954-981-1424"},{"latitude":"25.931236","longitude":"-80.244737","name":"Winn Dixie 0246 - 17221 NW 27th Ave; Miami Gardens","address":"FL 33056>305-625-6155"},{"latitude":"25.784731","longitude":"-80.213315","name":"Winn Dixie 0247 - 1155 NW 11th St; Miami","address":"FL 33136>305-545-0127"},{"latitude":"26.257874","longitude":"-80.201319","name":"Winn Dixie 0248 - 2450 N SR 7; Pompano Beach","address":"FL 33063>954-977-4207"},{"latitude":"25.733302","longitude":"-80.304369","name":"Winn Dixie 0249 - 6770 Bird Rd; Miami","address":"FL 33155>305-661-1863"},{"latitude":"25.978654","longitude":"-80.375053","name":"Winn Dixie 0250 - 17101 Miramar Pkwy; Hollywood","address":"FL 33027>954-704-1884"},{"latitude":"25.750163","longitude":"-80.248084","name":"Winn Dixie 0251 - 3275 SW 22nd; Miami","address":"FL 33145>305-460-9596"},{"latitude":"25.750999","longitude":"-80.219356","name":"Winn Dixie 0252 - 1525 Coral Way; Miami","address":"FL 33145>305-854-8479"},{"latitude":"25.733759","longitude":"-80.377773","name":"Winn Dixie 0254 - 11241 SW 40th St; Miami","address":"FL 33165>305-221-3660"},{"latitude":"26.459701","longitude":"-80.122793","name":"Winn Dixie 0255 - 14595 S Military Trl; Delray Beach","address":"FL 33484>561-637-2360"},{"latitude":"25.980548","longitude":"-80.375253","name":"Winn Dixie 0258 Liquor - 17131 Miramar Pkwy; Hollywood","address":"FL 33027>954-704-8559"},{"latitude":"26.514151","longitude":"-80.05878","name":"Winn Dixie 0259 - 1620 S Federal Hwy; Boynton Beach","address":"FL 33435>561-736-1264"},{"latitude":"26.637977","longitude":"-80.112975","name":"Winn Dixie 0261 Liquor - 2675 S Military Trl; West Palm Beach","address":"FL 33415>561-964-2307"},{"latitude":"25.91492","longitude":"-80.328418","name":"Winn Dixie 0262 - 15450 NW 77th Ct; Miami Lakes","address":"FL 33016>305-558-9207"},{"latitude":"26.459701","longitude":"-80.122793","name":"Winn Dixie 0266 Liquor - 14595 S Military Trl; Delray Beach","address":"FL 33484>561-637-6105"},{"latitude":"24.71651","longitude":"-81.073457","name":"Winn Dixie 0267 - 5585 Overseas Hwy; Marathon","address":"FL 33050>305-743-3636"},{"latitude":"25.882917","longitude":"-80.338587","name":"Winn Dixie 0270 - 2750 W 68th St Ste 201; Hialeah","address":"FL 33016>305-828-0812"},{"latitude":"26.572586","longitude":"-80.053724","name":"Winn Dixie 0271 - 1491 S Dixie Hwy; Lake Worth","address":"FL 33462>561-586-5820"},{"latitude":"26.903474","longitude":"-80.102596","name":"Winn Dixie 0272 - 3757 Military Trl; Jupiter","address":"FL 33458>561-746-9779"},{"latitude":"26.024649","longitude":"-80.22337","name":"Winn Dixie 0274 - 6775 Taft St; Hollywood","address":"FL 33024>954-985-0490"},{"latitude":"26.273751","longitude":"-80.097911","name":"Winn Dixie 0277 Liquor - 3435 N Federal Hwy; Pompano Beach","address":"FL 33064>954-781-6821"},{"latitude":"26.131391","longitude":"-80.13653","name":"Winn Dixie 0279 Liquor - 678 N Federal Hwy; Fort Lauderdale","address":"FL 33304>954-764-2245"},{"latitude":"25.812728","longitude":"-80.367342","name":"Winn Dixie 0280 - 10505 NW 41st St; Miami","address":"FL 33178>305-591-0780"},{"latitude":"25.748537","longitude":"-80.338144","name":"Winn Dixie 0283 - 855 Coral Way; Miami","address":"FL 33165>305-220-9268"},{"latitude":"25.702883","longitude":"-80.288822","name":"Winn Dixie 0285 - 5850 SW 73rd St; Miami","address":"FL 33143>305-666-5241"},{"latitude":"25.761885","longitude":"-80.303881","name":"Winn Dixie 0286 - 948 SW 67th Ave; Miami","address":"FL 33144>856-767-7330"},{"latitude":"25.670376","longitude":"-80.4312","name":"Winn Dixie 0287 - 14655 SW 104th St; Miami","address":"FL 33186>305-388-1518"},{"latitude":"25.964841","longitude":"-80.143074","name":"Winn Dixie 0289 Liquor - 20417 Biscayne Blvd; Miami","address":"FL 33180>305-935-4250"},{"latitude":"26.131127","longitude":"-80.137312","name":"Winn Dixie 0290 - 680 N Federal Hwy; Fort Lauderdale","address":"FL 33304>954-764-2454"},{"latitude":"25.964841","longitude":"-80.143074","name":"Winn Dixie 0291 - 20417 Biscayne Blvd; Miami","address":"FL 33180>305-935-2969"},{"latitude":"25.866518","longitude":"-80.315441","name":"Winn Dixie 0292 - 1630 W 49th St; Hialeah","address":"FL 33012>305-822-7811"},{"latitude":"25.86494","longitude":"-80.315795","name":"Winn Dixie 0293 Liquor - 1640 W 49th St; Hialeah","address":"FL 33012>305-822-7740"},{"latitude":"26.753465","longitude":"-80.074549","name":"Winn Dixie 0295 - 1225 45th St Ste 301; West Palm Beach","address":"FL 33407>561-845-0559"},{"latitude":"26.170658","longitude":"-80.146477","name":"Winn Dixie 0296 - 3500 N Andrews Ave; Fort Lauderdale","address":"FL 33309>954-564-0160"},{"latitude":"25.673695","longitude":"-80.323699","name":"Winn Dixie 0297 - 7930 SW 104th St Miami","address":"FL 33156>305-595-0422"},{"latitude":"26.706619","longitude":"-80.108174","name":"Winn Dixie 0299 - 4360 Okeechobee Blvd; West Palm Beach","address":"FL 33409>561-616-9525"},{"latitude":"26.110829","longitude":"-80.300132","name":"Winn Dixie 0300 Liquor - 11292 W SR 84; Davie","address":"FL 33325>954-916-0733"},{"latitude":"25.477138","longitude":"-80.472496","name":"Winn Dixie 0302 - 240 NE 8th St; Homestead","address":"FL 33030>618-252-8677"},{"latitude":"25.866685","longitude":"-80.293735","name":"Winn Dixie 0303 Liquor - 539 W 49th St; Hialeah","address":"FL 33012>305-556-0256"},{"latitude":"26.144844","longitude":"-80.20294","name":"Winn Dixie 0304 - 1531 N SR 7; Fort Lauderdale","address":"FL 33313>954-791-4516"},{"latitude":"27.060127","longitude":"-80.135139","name":"Winn Dixie 0305 - 8867 SE Bridge Rd; Hobe Sound","address":"FL 33455>772-546-3221"},{"latitude":"25.98699","longitude":"-80.132051","name":"Winn Dixie 0306 - 1515 E Hallandale Beach Blvd; Hallandale","address":"FL 33009>954-454-6676"},{"latitude":"27.17891","longitude":"-80.238073","name":"Winn Dixie 0307 - 2160 SE Federal Hwy; Stuart","address":"FL 34994>772-221-3260"},{"latitude":"27.245043","longitude":"-80.237958","name":"Winn Dixie 0308 - 1105 NE Jensen Beach Blvd; Jensen Beach","address":"FL 34957>772-334-7270"},{"latitude":"26.647074","longitude":"-80.056433","name":"Winn Dixie 0309 - 7915 S Dixie Hwy; West Palm Beach","address":"FL 33405>561-585-8460"},{"latitude":"26.110829","longitude":"-80.300132","name":"Winn Dixie 0311 - 11290 W SR 84; Davie","address":"FL 33325>954-916-4121"},{"latitude":"25.987105","longitude":"-80.13209","name":"Winn Dixie 0314 Liquor - 1515 E Hallandale BCH Blvd; Hallandale","address":"FL 33009>954-454-7824"},{"latitude":"24.565705","longitude":"-81.772702","name":"Winn Dixie 0317 - 2778 N Roosevelt Blvd; Key West","address":"FL 33040>305-294-0658"},{"latitude":"25.690031","longitude":"-80.163863","name":"Winn Dixie 0318 - 604 Crandon Blvd; Key Biscayne","address":"FL 33149>305-361-8261"},{"latitude":"25.486721","longitude":"-80.463444","name":"Winn Dixie 0319 - 30346 S Dixie Hwy; Homestead","address":"FL 33030>305-246-3998"},{"latitude":"26.647074","longitude":"-80.056433","name":"Winn Dixie 0322 Liquor - 7915 S Dixie Hwy; West Palm Beach","address":"FL 33405>561-585-8950"},{"latitude":"24.565673","longitude":"-81.772732","name":"Winn Dixie 0324 Liquor - 2760 N Roosevelt Blvd; Key West","address":"FL 33040>305-294-0658"},{"latitude":"26.208882","longitude":"-80.25264","name":"Winn Dixie 0326 - 7015 N University Dr; Tamarac","address":"FL 33321>954-720-4770"},{"latitude":"27.179233","longitude":"-80.23816","name":"Winn Dixie 0327 Liquor - 2150 S Federal Hwy; Stuart","address":"FL 34994>772-221-8688"},{"latitude":"24.93346","longitude":"-80.620474","name":"Winn Dixie 0328 - 92100 Overseas Hwy Tavernier","address":"FL 33070>305-852-5904"},{"latitude":"26.10493","longitude":"-80.188888","name":"Winn Dixie 0330 - 3260 Davie Blvd; Fort Lauderdale","address":"FL 33312>954-587-0624"},{"latitude":"27.212804","longitude":"-80.829596","name":"Winn Dixie 0331 - 3246 US Hwy 441 S; Okeechobee","address":"FL 34974>863-763-8354"},{"latitude":"26.807879","longitude":"-80.106152","name":"Winn Dixie 0333 - 8924 N Military Trl; Palm Beach Gardens","address":"FL 33410>561-622-0143"},{"latitude":"26.045098","longitude":"-80.190711","name":"Winn Dixie 0336 - 3850 N 46th Ave; Hollywood","address":"FL 33021>954-987-7537"},{"latitude":"25.91187","longitude":"-80.212924","name":"Winn Dixie 0343 - 14900 NW 7th Ave; Miami","address":"FL 33168>305-685-9586"},{"latitude":"26.304445","longitude":"-80.093228","name":"Winn Dixie 0345 - 1019 S Federal Hwy; Deerfield Beach","address":"FL 33441>954-426-4404"},{"latitude":"26.120948","longitude":"-80.268517","name":"Winn Dixie 0348 - 7139 W Broward Blvd; Fort Lauderdale","address":"FL 33317>954-792-1405"},{"latitude":"26.271485","longitude":"-80.199963","name":"Winn Dixie 0349 - 5600 W Sample Rd; Margate ","address":"FL 33073>954-977-0902"},{"latitude":"25.160098","longitude":"-80.384639","name":"Winn Dixie 0352 - 105300 Overseas Hwy; Key Largo","address":"FL 33037>305-451-0328"},{"latitude":"25.769117","longitude":"-80.351181","name":"Winn Dixie 0353 - 9565 W Flagler St; Miami","address":"FL 33174>305-221-0640"},{"latitude":"26.051462","longitude":"-80.138465","name":"Winn Dixie 0354 - 308 E Dania Beach Blvd; Dania","address":"FL 33004>954-920-0733"},{"latitude":"26.352005","longitude":"-80.154698","name":"Winn Dixie 0355 - 7024 Beracasa Way; Boca Raton","address":"FL 33433>561-368-5442"},{"latitude":"25.96185","longitude":"-80.185244","name":"Winn Dixie 0357 - 980 Ives Dairy Rd; Miami","address":"FL 33179>305-653-2657"},{"latitude":"24.672903","longitude":"-81.357215","name":"Winn Dixie 0358 - 251 Key Deer Blvd; Big Pine Key","address":"FL 33043>305-872-4124"},{"latitude":"25.698478","longitude":"-80.382188","name":"Winn Dixie 0359 - 7480 SW 117th Ave; Miami","address":"FL 33183>305-274-7563"},{"latitude":"25.699185","longitude":"-80.435786","name":"Winn Dixie 0361 - 15050 SW 72 St; Miami","address":"FL 33193>305-385-0814"},{"latitude":"27.140982","longitude":"-80.208746","name":"Winn Dixie 0364 - 3320 SE Salerno Rd; Stuart","address":"FL 34997>772-283-2511"},{"latitude":"27.141155","longitude":"-80.208556","name":"Winn Dixie 0365 Liquor - 3310 SE Salerno Rd Stuart","address":"FL 34997>772-283-9565"},{"latitude":"25.781358","longitude":"-80.256236","name":"Winn Dixie 0366 - 3701 NW 7th St; Miami","address":"FL 33126>305-541-8688"},{"latitude":"26.690301","longitude":"-80.055944","name":"Winn Dixie 0368 - 500 Belvedere Rd; West Palm Beach","address":"FL 33405>561-659-7662"},{"latitude":"25.700947","longitude":"-80.334758","name":"Winn Dixie 0370 - 8710 SW 72nd St; Miami","address":"FL 33173>305-279-5719"},{"latitude":"25.589998","longitude":"-80.358672","name":"Winn Dixie 0371 - 19167 S Dixie Hwy; Cutler Bay","address":"FL 33157>305-232-1316"},{"latitude":"25.690031","longitude":"-80.163863","name":"Winn Dixie 0373 Liquor - 624 Crandon Blvd; Key Biscayne","address":"FL 33149>305-365-0771"},{"latitude":"26.651175","longitude":"-80.090373","name":"Winn Dixie 0375 - 3131 Forest Hill Blvd; West Palm Beach","address":"FL 33406>561-967-0499"},{"latitude":"26.176246","longitude":"-80.267868","name":"Winn Dixie 0377 - 4201 NW 88th Ave; Fort Lauderdale","address":"FL 33351>954-749-9507"},{"latitude":"25.929906","longitude":"-80.132723","name":"Winn Dixie 0378 - 3805 NE 163rd St; North Miami Beach","address":"FL 33160>305-949-8298"},{"latitude":"26.675491","longitude":"-80.670613","name":"Winn Dixie 0381 - 900 S Main St; Belle Glade","address":"FL 33430>561-996-7886"},{"latitude":"25.627662","longitude":"-80.388636","name":"Winn Dixie 0384 - 12107 SW 152nd St; Miami","address":"FL 33177>305-232-4013"},{"latitude":"25.512564","longitude":"-80.431503","name":"Winn Dixie 0385 - 27359 S Dixie Hwy; Homestead","address":"FL 33032>305-248-0660"},{"latitude":"26.174523","longitude":"-80.099357","name":"Winn Dixie 0386 - 3800 N Ocean Blvd; Fort Lauderdale","address":"FL 33308>954-563-4110"},{"latitude":"25.59327","longitude":"-80.380869","name":"Winn Dixie 0387 - 18801 SW 117th Ave; Miami","address":"FL 33177>305-252-6837"},{"latitude":"25.597631","longitude":"-80.414689","name":"Winn Dixie 0388 - 18300 SW 137th Ave; Miami","address":"FL 33177>305-234-3929"},{"latitude":"25.597631","longitude":"-80.414689","name":"Winn Dixie 0389 Liquor - 18302 SW 137th Ave; Miami","address":"FL 33177>305-234-0265"},{"latitude":"26.792192","longitude":"-80.054083","name":"Winn Dixie 0390 - 3700 Broadway; West Palm Beach","address":"FL 33404>561-494-0858"},{"latitude":"25.627121","longitude":"-80.3884","name":"Winn Dixie 0393 Liquor - 12095 SW 152nd St; Miami","address":"FL 33177>305-254-8928"},{"latitude":"25.750115","longitude":"-80.248613","name":"Winn Dixie 0394 Liquor - 3299 SW 22nd; Miami","address":"FL 33145>305-445-3938"},{"latitude":"26.271523","longitude":"-80.199963","name":"Winn Dixie 0395 Liquor - 5600 W Sample Rd; Margate ","address":"FL 33073>954-984-9824"},{"latitude":"26.571154","longitude":"-80.147681","name":"Winn Dixie 0396 Liquor - 6574 Hypoluxo Rd; Lake Worth","address":"FL 33467>561-649-5225"},{"latitude":"26.571201","longitude":"-80.147699","name":"Winn Dixie 0397 - 6600 Hypoluxo Rd; Lake Worth","address":"FL 33467>561-966-2177"},{"latitude":"25.733759","longitude":"-80.377773","name":"Winn Dixie 0399 Liquor - 11241 SW 40th St; Miami","address":"FL 33165>305-223-4280"},{"latitude":"33.268548","longitude":"-86.353956","name":"Winn Dixie 0400 - 33404 US Hwy 280; Childersburg","address":"AL 35044>256-378-7736"},{"latitude":"33.495973","longitude":"-86.878223","name":"Winn Dixie 0405 - 2220 Bessemer Rd; Birmingham","address":"AL 35208>205-788-6651"},{"latitude":"33.197568","longitude":"-87.481685","name":"Winn Dixie 0407 - 4205 University Blvd E; Tuscaloosa","address":"AL 35404>205-553-3360"},{"latitude":"33.598547","longitude":"-86.283009","name":"Winn Dixie 0410 - 1009 Martin St S; Pell City","address":"AL 35128>205-884-1001"},{"latitude":"32.84992","longitude":"-86.633553","name":"Winn Dixie 0411 - 640 Ollie Ave; Clanton","address":"AL 35045>205-755-6765"},{"latitude":"30.38699","longitude":"-87.084381","name":"Winn Dixie 0412 - 3355 Gulf Breeze Pkwy; Gulf Breeze","address":"FL 32563>850-932-0858"},{"latitude":"31.233291","longitude":"-85.449289","name":"Winn Dixie 0422 - 3850 W Main St; Dothan","address":"AL 36305>334-793-4518"},{"latitude":"31.258484","longitude":"-85.431963","name":"Winn Dixie 0426 - 1571 Westgate Pkwy; Dothan","address":"AL 36303>334-794-4377"},{"latitude":"32.518987","longitude":"-86.210711","name":"Winn Dixie 0428 - 5326 US Hwy 231; Wetumpka","address":"AL 36092>334-567-2386"},{"latitude":"33.654649","longitude":"-85.829877","name":"Winn Dixie 0429 - 800 Noble St; Anniston","address":"AL 36201>573-754-5871"},{"latitude":"32.470392","longitude":"-85.098406","name":"Winn Dixie 0433 - 3952 Us Hwy 80; W Phenix City","address":"AL 36870>334-214-0123"},{"latitude":"33.715483","longitude":"-85.858238","name":"Winn Dixie 0434 - 2495 US Hwy; 431 Anniston","address":"AL 36206>603-635-3001"},{"latitude":"33.519045","longitude":"-86.728174","name":"Winn Dixie 0435 - 4476 Montevallo Rd; Birmingham","address":"AL 35213>205-951-6768"},{"latitude":"30.231578","longitude":"-85.64924","name":"Winn Dixie 0436 - 1812 S Hwy 77; Lynn Haven","address":"FL 32444>850-271-8016"},{"latitude":"32.663371","longitude":"-85.363446","name":"Winn Dixie 0437 - 1441 Foxrun Pkwy; Opwlika","address":"AL 36801>334-741-4140"},{"latitude":"32.542887","longitude":"-84.953804","name":"Winn Dixie 0439 - 6770 Veterans Pkwy; Columbus","address":"GA 31909>706-653-0574"},{"latitude":"33.959428","longitude":"-86.036257","name":"Winn Dixie 0442 - 3331 Rainbow Dr; Rainbow City","address":"AL 35906>575-347-9998"},{"latitude":"32.490602","longitude":"-84.919075","name":"Winn Dixie 0443 - 4231 Macon Rd; Columbus","address":"GA 31907>706-563-6928"},{"latitude":"33.418396","longitude":"-86.694888","name":"Winn Dixie 0445-  500 Inverness Corners; Hoover","address":"AL 35242>205-991-0230"},{"latitude":"32.309928","longitude":"-86.349994","name":"Winn Dixie 0446 - 4724 Mobile Hwy; Montgomery","address":"AL 36108>334-286-9770"},{"latitude":"33.629093","longitude":"-85.786276","name":"Winn Dixie 0447 - 1408 Golden Springs Rd; Anniston","address":"AL 36207>256-831-9960"},{"latitude":"32.33857","longitude":"-86.177145","name":"Winn Dixie 0448 - 7946 Vaughn Rd; Montgomery","address":"AL 36116>334-272-5979"},{"latitude":"32.51468","longitude":"-86.377785","name":"Winn Dixie 0451 - 3625 Hwy 14; Millbrook","address":"AL 36054>334-285-7997"},{"latitude":"33.200727","longitude":"-87.589461","name":"Winn Dixie 0453 - 1503 Culver Rd; Tuscaloosa","address":"AL 35401>205-758-3968"},{"latitude":"31.189862","longitude":"-85.398994","name":"Winn Dixie 0454 - 2131 Ross Clark Cir; Dothan","address":"AL 36301>334-677-6067"},{"latitude":"30.231578","longitude":"-85.64924","name":"Winn Dixie 0455 Liquor - 1812 S Hwy 77; Lynn Haven","address":"FL 32444>850-271-2023"},{"latitude":"32.953891","longitude":"-85.994476","name":"Winn Dixie 0456 - 1061 Hwy 280 E; Alexander City","address":"AL 35010>256-234-5141"},{"latitude":"31.213051","longitude":"-85.361656","name":"Winn Dixie 0457 - 1151 Ross Clark Cir; Dothan","address":"AL 36301>334-673-1604"},{"latitude":"33.622992","longitude":"-86.801887","name":"Winn Dixie 0458 - 1721 Hwy 31 N; Fultondale","address":"AL 35068>205-841-2420"},{"latitude":"32.382346","longitude":"-86.199711","name":"Winn Dixie 0460 - 5841 Atlanta Hwy; Montgomery","address":"AL 36117>334-277-9652"},{"latitude":"33.616996","longitude":"-86.616504","name":"Winn Dixie 0461 - 465 Main St; Trussville","address":"AL 35173>205-661-0026"},{"latitude":"33.596746","longitude":"-85.928303","name":"Winn Dixie 0462 - 4920 US Hwy 78 W; Oxford","address":"AL 36203>603-749-9361"},{"latitude":"32.345615","longitude":"-86.223876","name":"Winn Dixie 0463 - 2730 Easton Blvd; Montgomery","address":"AL 36117>334-272-4513"},{"latitude":"32.358578","longitude":"-86.284148","name":"Winn Dixie 0464 - 1740 Carter Hill Rd; Montgomery","address":"AL 36106>334-269-5554"},{"latitude":"30.385864","longitude":"-87.085188","name":"Winn Dixie 0466 Liquor - 3327 Gulf Breeze Pkwy; Gulf Breeze","address":"FL 32563>850-916-7872"},{"latitude":"32.610227","longitude":"-85.447794","name":"Winn Dixie 0470 - 1625 E University Dr; Auburn","address":"AL 36830>334-887-9517"},{"latitude":"31.28393","longitude":"-86.51847","name":"Winn Dixie 0471 - 1130 Dr MLK Expy; Andalusia","address":"AL 36420>334-222-9121"},{"latitude":"32.377795","longitude":"-88.680304","name":"Winn Dixie 0472 - 2014 Hwy 45 N; Meridian","address":"MS 39301>601-482-5752"},{"latitude":"30.778707","longitude":"-88.256448","name":"Winn Dixie 0473 - 9082 Moffett Rd; Semmes","address":"AL 36575>251-649-1646"},{"latitude":"31.324758","longitude":"-85.832376","name":"Winn Dixie 0476 - 705 Boll Weevil Cir; Enterprise","address":"AL 36330>334-347-4303"},{"latitude":"31.878031","longitude":"-85.146834","name":"Winn Dixie 0478 - 1055 S Eufaula Ave; Eufaula","address":"AL 36027>334-687-8796"},{"latitude":"33.115435","longitude":"-87.551129","name":"Winn Dixie 0479 - 9750 Highway 69 S; Tuscaloosa","address":"AL 35405>205-366-0355"},{"latitude":"32.524326","longitude":"-84.888098","name":"Winn Dixie 0480 - 5750 Milgen Rd; Columbus","address":"GA 31907>706-561-1342"},{"latitude":"30.213839","longitude":"-85.606912","name":"Winn Dixie 0481 - 3621 N Hwy 231; Panama City ","address":"FL 32404>850-914-2333"},{"latitude":"30.213839","longitude":"-85.606912","name":"Winn Dixie 0481 Liquor - 3619 N Hwy 231; Panama City","address":"FL 32404>850-914-0643"},{"latitude":"32.466745","longitude":"-84.916058","name":"Winn Dixie 0482 - 1100 Hunt Ave; Columbus","address":"GA 31907>706-562-9919"},{"latitude":"30.325209","longitude":"-87.416243","name":"Winn Dixie 0483 Liquor - 13019 Sorrento Rd; Pensacola","address":"FL 32507>850-492-8925"},{"latitude":"30.213839","longitude":"-85.606912","name":"Winn Dixie 0485 Liquor - 3619 N Hwy 231; Panama City ","address":"FL 32404>850-785-0643"},{"latitude":"30.189577","longitude":"-85.70252","name":"Winn Dixie 0487 - 3157 W 23rd St; Panama City","address":"FL 32405>850-747-0777"},{"latitude":"30.26276","longitude":"-85.974846","name":"Winn Dixie 0488 - 23202 Front Beach Rd; Panama City Beach","address":"FL 32413>850-234-2001"},{"latitude":"30.632286","longitude":"-87.055455","name":"Winn Dixie 0489 - 5428 Dogwood Dr; Milton","address":"FL 32570>850-626-9800"},{"latitude":"30.268648","longitude":"-87.591128","name":"Winn Dixie 0490 - 25405 Perdido Beach Blvd; Orange Beach","address":"AL 36561>508-883-3708"},{"latitude":"30.325209","longitude":"-87.416243","name":"Winn Dixie 0493 - 13019 Sorrento Rd; Pensacola","address":"FL 32507>850-492-2076"},{"latitude":"30.224291","longitude":"-85.893012","name":"Winn Dixie 0494 - 17184 Front Beach Rd; Panama City Beach","address":"FL 32413>850-234-2289"},{"latitude":"30.460729","longitude":"-87.301063","name":"Winn Dixie 0495 - 5975 Mobile Hwy; Pensacola","address":"FL 32526>850-453-3846"},{"latitude":"33.8421","longitude":"-87.245606","name":"Winn Dixie 0496 - 2405 Hwy 78 E; Jasper","address":"AL 35501>205-221-2449"},{"latitude":"30.224291","longitude":"-85.893012","name":"Winn Dixie 0497 Liquor - 17186 Front Beach Rd; Panama City Beach","address":"FL 32413>850-234-2142"},{"latitude":"30.579921","longitude":"-87.296603","name":"Winn Dixie 0498 - 1550 S Hwy 29; Cantonment","address":"FL 32533>850-968-3388"},{"latitude":"33.694727","longitude":"-86.681777","name":"Winn Dixie 0500 - 4701 Center Point Rd; Pinson","address":"AL 35126>205-680-2550"},{"latitude":"30.401967","longitude":"-86.859818","name":"Winn Dixie 0501 - 8674 Navarre Pkwy; Navarre","address":"FL 32566>850-939-5627"},{"latitude":"32.420836","longitude":"-86.268735","name":"Winn Dixie 0503 - 2055 Coliseum Blvd; Montgomery","address":"AL 36110>334-271-6456"},{"latitude":"30.498277","longitude":"-87.18718","name":"Winn Dixie 0504 - 7135 N 9th Ave; Pensacola","address":"FL 32504>850-476-0494"},{"latitude":"30.26276","longitude":"-85.974846","name":"Winn Dixie 0505 Liquor - 2320 Front Beach Rd; Panama City Beach","address":"FL 32413>850-234-2001"},{"latitude":"30.524999","longitude":"-87.220311","name":"Winn Dixie 0506 - 312 E Nine Mile Rd; Pensacola","address":"FL 32514>850-478-7488"},{"latitude":"30.603949","longitude":"-87.147072","name":"Winn Dixie 0507 - 4224 Hwy 90; Milton","address":"FL 32571>850-994-4240"},{"latitude":"33.346473","longitude":"-86.630854","name":"Winn Dixie 0509 - 150 Chelsea Corners; Chelsea","address":"AL 35043>205-678-8808"},{"latitude":"30.37733","longitude":"-86.352483","name":"Winn Dixie 0510 - 65 Poinciana Blvd; Miramar Beach","address":"FL 32550>850-650-2139"},{"latitude":"30.37733","longitude":"-86.352483","name":"Winn Dixie 0511 Liquor - 65 Poinciana Blvd; Miramar Beach","address":"FL 32550>850-650-2159"},{"latitude":"31.022578","longitude":"-87.486851","name":"Winn Dixie 0512 - 600 E Church St; Atmore","address":"AL 36502>505-473-2204"},{"latitude":"33.383616","longitude":"-86.73955","name":"Winn Dixie 0514 - 2653 Valleydale Rd; Birmingham","address":"AL 35244>205-995-4962"},{"latitude":"30.460729","longitude":"-87.301063","name":"Winn Dixie 0515 Liquor - 5977 Mobile Hwy; Pensacola","address":"FL 32526>850-453-0292"},{"latitude":"33.462706","longitude":"-86.731179","name":"Winn Dixie 0517 - 3925 Crosshaven Dr; Vestavia","address":"AL 35243>205-969-2307"},{"latitude":"31.135342","longitude":"-87.068617","name":"Winn Dixie 0518 - 1730 Douglas Ave; Brewton","address":"AL 36426>508-695-9111"},{"latitude":"32.431905","longitude":"-87.040994","name":"Winn Dixie 0520 - 1352 E Highland Ave; Selma","address":"AL 36703>334-872-9524"},{"latitude":"32.383454","longitude":"-86.246615","name":"Winn Dixie 0521 - 3881 Atlanta Hwy; Montgomery","address":"AL 36109>334-271-0757"},{"latitude":"33.806659","longitude":"-85.76155","name":"Winn Dixie 0525 - 815 Pelham Rd S; Jacksonville","address":"AL 36265>256-435-5217"},{"latitude":"33.304712","longitude":"-87.601148","name":"Winn Dixie 0526 - 13580 Hwy 43 N; Northport","address":"AL 35475>205-333-0321"},{"latitude":"32.460484","longitude":"-86.454755","name":"Winn Dixie 0527 - 701 E Main St; Prattville","address":"AL 36067>334-365-7015"},{"latitude":"33.236467","longitude":"-87.553447","name":"Winn Dixie 0528 - 10 McFarland Blvd; Northport","address":"AL 35476>205-345-2735"},{"latitude":"32.314444","longitude":"-86.227153","name":"Winn Dixie 0531 - 4035 Eastern Blvd Pkwy; Montgomery","address":"AL 36116>334-284-2611"},{"latitude":"32.411503","longitude":"-88.678701","name":"Winn Dixie 0533 - 5100 Hwy 39 N; Meridian","address":"MS 39301>601-485-0808"},{"latitude":"30.402211","longitude":"-87.342331","name":"Winn Dixie 0535 - 50 S Blue Angel Pkwy; Pensacola","address":"FL 32506>850-457-1395"},{"latitude":"30.144888","longitude":"-85.591421","name":"Winn Dixie 0538 - 132 S Tyndall Pkwy; Panama City","address":"FL 32404>850-913-0086"},{"latitude":"30.447604","longitude":"-86.6388","name":"Winn Dixie 0541 - 798 Beal Pkwy NW; Fort Walton Beach ","address":"FL 32547>850-864-3891"},{"latitude":"32.397702","longitude":"-87.065481","name":"Winn Dixie 0543 - 1952 W Dallas Ave; Selma","address":"AL 36701>334-872-7007"},{"latitude":"30.144888","longitude":"-85.591421","name":"Winn Dixie 0548 Liquor - 120 S Tyndall Pkwy; Panama City","address":"FL 32404>850-763-3830"},{"latitude":"30.706031","longitude":"-88.225298","name":"Winn Dixie 0549 - 740 Schillinger Rd N; Mobile","address":"AL 36608>508-428-1278"},{"latitude":"33.452048","longitude":"-86.983648","name":"Winn Dixie 0550 - 104 River Square Plz; Bessemer","address":"AL 35023>205-491-5145"},{"latitude":"30.486407","longitude":"-86.42002","name":"Winn Dixie 0551 - 4512 E Hwy 20; Niceville","address":"FL 32578>850-897-3535"},{"latitude":"30.158719","longitude":"-85.75296","name":"Winn Dixie 0552 - 2533 Thomas Dr; Panama City","address":"FL 32408>850-234-1200"},{"latitude":"30.774893","longitude":"-85.222897","name":"Winn Dixie 0555 - 4478 Market St; Marianna","address":"FL 32446>850-482-5303"},{"latitude":"30.469624","longitude":"-87.206948","name":"Winn Dixie 0556 - 4751 Bayou Blvd; Pensacola","address":"FL 32503>850-479-9186"},{"latitude":"30.792672","longitude":"-86.558091","name":"Winn Dixie 0558 - 1326 N Ferdon Blvd; Crestview","address":"FL 32536>850-689-1551"},{"latitude":"30.388591","longitude":"-86.477791","name":"Winn Dixie 0560 - 981 Hwy 98 E; Destin","address":"FL 32541>850-654-5353"},{"latitude":"30.376232","longitude":"-86.350422","name":"Winn Dixie 0561 - 130 Scenic Gulf Dr; Miramar Beach","address":"FL 32550>850-837-4849"},{"latitude":"30.63901","longitude":"-88.224838","name":"Winn Dixie 0564 - 2502 Schillinger Rd S; Mobile","address":"AL 36695>251-634-8811"},{"latitude":"30.41738","longitude":"-86.60784","name":"Winn Dixie 0566 - 99 Eglin Pkwy NE; Fort Walton Beach","address":"FL 32548>850-244-4261"},{"latitude":"30.388591","longitude":"-86.477791","name":"Winn Dixie 0567 Liquor - 981 Highway 98 E; Destin","address":"FL 32541>850-654-2649"},{"latitude":"31.50031","longitude":"-87.320024","name":"Winn Dixie 0569 - 1834 S Alabama Ave; Monroeville","address":"AL 36460>251-575-3449"},{"latitude":"30.392897","longitude":"-87.683185","name":"Winn Dixie 0570 - 1235 S Mckenzie; St Foley","address":"AL 36535>570-895-4700"},{"latitude":"30.884796","longitude":"-87.787895","name":"Winn Dixie 0571 - 710 McMeans Ave; Bay Minette","address":"AL 36507>251-937-1122"},{"latitude":"30.59038","longitude":"-88.169719","name":"Winn Dixie 0572 - 5440 Hwy 90 W; Mobile","address":"AL 36619>508-240-1021"},{"latitude":"33.651721","longitude":"-86.648717","name":"Winn Dixie 0574 - 2402 Old Springville Rd; Birmingham","address":"AL 35215>205-854-8880"},{"latitude":"30.707763","longitude":"-86.123017","name":"Winn Dixie 0577 - 1030 US Hwy 331 S; Defuniak Springs","address":"FL 32435>850-892-0668"},{"latitude":"30.72837","longitude":"-88.171796","name":"Winn Dixie 0578 - 5651A Moffett Rd; Mobile","address":"AL 36618>501-663-3257"},{"latitude":"32.576204","longitude":"-85.498301","name":"Winn Dixie 0579 - 1617 S College St; Auburn","address":"AL 36832>334-826-2220"},{"latitude":"30.554426","longitude":"-88.171509","name":"Winn Dixie 0580 - 5827 Hwy 90; Theodore","address":"AL 36582>508-441-5016"},{"latitude":"30.26944","longitude":"-87.688209","name":"Winn Dixie 0586 - Hwy 59 And 16th St; Gulf Shores","address":"AL 36542>845-691-9155"},{"latitude":"30.774893","longitude":"-85.222897","name":"Winn Dixie 0589 Liquor - 4478 Market St Suite B; Marianna","address":"FL 32446>850-526-2125"},{"latitude":"30.6612","longitude":"-88.190669","name":"Winn Dixie 0590 - 6300 Grelot Rd; Mobile","address":"AL 36609>508-366-4368"},{"latitude":"30.670843","longitude":"-88.278225","name":"Winn Dixie 0591 - 9948 Airport Blvd; Mobile","address":"AL 36608>508-394-0995"},{"latitude":"33.336244","longitude":"-86.917514","name":"Winn Dixie 0595 - 2910 Morgan Rd Suite 128; Bessemer","address":"AL 35022>205-425-2121"},{"latitude":"30.617647","longitude":"-87.905151","name":"Winn Dixie 0596 - 3075 US Hwy 98; Daphne","address":"AL 36526>251-621-6660"},{"latitude":"30.51614","longitude":"-87.818619","name":"Winn Dixie 0599 - 187 Baldwin Sq; Fairhope","address":"AL 36532>251-990-5188"},{"latitude":"27.837824","longitude":"-82.760004","name":"Winn Dixie 0606 - 8740 Park Blvd; Seminole","address":"FL 33777>727-393-6900"},{"latitude":"27.843741","longitude":"-82.818192","name":"Winn Dixie 0607 - 12975 Park Blvd; Seminole","address":"FL 33776>727-319-3840"},{"latitude":"28.341453","longitude":"-82.187735","name":"Winn Dixie 0608 - 12649 US Hwy 301 Dade City","address":"FL 33525>352-523-2929"},{"latitude":"27.588199","longitude":"-81.514626","name":"Winn Dixie 0609 - 802 US Hwy 27 S; Avon Park","address":"FL 33825>863-452-6228"},{"latitude":"27.837824","longitude":"-82.760004","name":"Winn Dixie 0610 Liquor - 8740A Park Blvd; Seminole","address":"FL 33777>727-393-4007"},{"latitude":"28.140686","longitude":"-82.462474","name":"Winn Dixie 0611 - 18407 N US Hwy 41; Lutz","address":"FL 33549>813-948-1184"},{"latitude":"28.053633","longitude":"-81.775988","name":"Winn Dixie 0612 - 445 Havendale Blvd; Auburndale","address":"FL 33823>863-967-7803"},{"latitude":"27.845023","longitude":"-82.818074","name":"Winn Dixie 0614 Liquor - 12951 Park Blvd; Seminole","address":"FL 33776>727-393-1050"},{"latitude":"27.208606","longitude":"-81.844119","name":"Winn Dixie 0618 - 1330 E Oak St Arcadia","address":"FL 34266>863-494-5400"},{"latitude":"27.712058","longitude":"-82.353237","name":"Winn Dixie 0619 - 4445 Sun City Center Blvd; Sun City Center","address":"FL 33573>813-633-9695"},{"latitude":"27.880866","longitude":"-82.788716","name":"Winn Dixie 0622 - 11912 Seminole Blvd; Largo","address":"FL 33778>727-584-1075"},{"latitude":"28.138691","longitude":"-82.756448","name":"Winn Dixie 0624 - 955 S Pinellas Ave; Tarpon Springs","address":"FL 34689>727-942-2369"},{"latitude":"28.080613","longitude":"-82.432463","name":"Winn Dixie 0627 - 2540 E Bearss Ave; Tampa","address":"FL 33613>813-972-2286"},{"latitude":"28.049007","longitude":"-81.906857","name":"Winn Dixie 0629 - 2630 US Hwy 92 ELakeland","address":"FL 33801>863-665-4752"},{"latitude":"27.447541","longitude":"-82.553484","name":"Winn Dixie 0630 - 1010 53rd Ave E; Bradenton","address":"FL 34203>941-727-2790"},{"latitude":"28.009657","longitude":"-81.922649","name":"Winn Dixie 0631 - 2900 Lakeland Highlands Rd; Lakeland","address":"FL 33803>863-666-3350"},{"latitude":"27.939801","longitude":"-81.97235","name":"Winn Dixie 0632 - 6902 S Florida Ave; Lakeland","address":"FL 33813>863-644-2214"},{"latitude":"27.940757","longitude":"-82.368045","name":"Winn Dixie 0637 - 7851 Palm River Rd; Tampa   ","address":"FL 33619>813-620-1043"},{"latitude":"28.026242","longitude":"-82.48422","name":"Winn Dixie 0639 - 8438 N Armenia Ave; Tampa","address":"FL 33604>813-931-5918"},{"latitude":"28.045764","longitude":"-82.759352","name":"Winn Dixie 0640 - 1296 Country Lakes Dr; Dunedin","address":"FL 34698>727-733-1760"},{"latitude":"28.182703","longitude":"-82.739973","name":"Winn Dixie 0644 - 1640 US Hwy 19; Holiday","address":"FL 34691>727-943-8065"},{"latitude":"27.939745","longitude":"-81.97236","name":"Winn Dixie 0645 Liquor - 6902 S Florida Ave; Lakeland","address":"FL 33813>863-648-5153"},{"latitude":"27.87302","longitude":"-82.640024","name":"Winn Dixie 0649 - 11100 4th St N Saint Petersburg  closed","address":"FL 33716>727-577-7095"},{"latitude":"28.187869","longitude":"-82.437435","name":"Winn Dixie 0651 - 2126 Collier Pkwy; Land O Lakes","address":"FL 34639>813-948-6767"},{"latitude":"28.522897","longitude":"-82.230637","name":"Winn Dixie 0652 - 31100 Cortez Blvd; Brooksville","address":"FL 34602>352-799-7700"},{"latitude":"27.352531","longitude":"-82.503754","name":"Winn Dixie 0654 - 3301 17th St; Sarasota","address":"FL 34235>941-957-3857"},{"latitude":"28.217263","longitude":"-82.714576","name":"Winn Dixie 0655 - 6033 SR 54; New Port Richey","address":"FL 34653>727-847-1044"},{"latitude":"27.337893","longitude":"-82.45744","name":"Winn Dixie 0655 Liquor - 5402 Fruitville Rd; Sarasota","address":"FL 34232>941-341-9788"},{"latitude":"27.462708","longitude":"-82.635674","name":"Winn Dixie 0656 - 7400 Cortez Rd W; Bradenton","address":"FL 34210>941-795-4638"},{"latitude":"27.337693","longitude":"-82.461345","name":"Winn Dixie 0657 - 5400 Fruitville Rd; Sarasota","address":"FL 34232>941-342-8383"},{"latitude":"27.803834","longitude":"-82.801803","name":"Winn Dixie 0658 - 15200 Municipal Dr; Madeira Beach","address":"FL 33708>727-392-1003"},{"latitude":"27.447528","longitude":"-82.59786","name":"Winn Dixie 0660 - 3500 53rd Ave W; Bradenton","address":"FL 34210>941-752-3448"},{"latitude":"27.803834","longitude":"-82.801803","name":"Winn Dixie 0661 Liquor - 15200 Municipal Dr; Madeira Beach","address":"FL 33708>727-392-3540"},{"latitude":"27.044186","longitude":"-82.236915","name":"Winn Dixie 0662 - 14275 S Tamiami Trail; North Port","address":"FL 34287>941-426-2529"},{"latitude":"28.014593","longitude":"-81.758535","name":"Winn Dixie 0663 - 2700 Recker Hwy; Winter Haven","address":"FL 33880>863-291-3218"},{"latitude":"28.127325","longitude":"-81.947766","name":"Winn Dixie 0664 - 6600 N Socrum Loop Rd; Lakeland","address":"FL 33809>863-859-4611"},{"latitude":"27.588146","longitude":"-81.821332","name":"Winn Dixie 0667 - 1510 US Hwy 17 N; Wauchula","address":"FL 33873>863-767-1008"},{"latitude":"27.78235","longitude":"-82.71351","name":"Winn Dixie 0671 - 1050 58th St N; Saint Petersburg","address":"FL 33710>727-345-0063"},{"latitude":"28.33365","longitude":"-82.603181","name":"Winn Dixie 0672 - 12120 Moon Lake Rd; New Port Richey","address":"FL 34654>727-856-3800"},{"latitude":"27.768194","longitude":"-82.392664","name":"Winn Dixie 0673 - 6188 N US Hwy 41; Apollo Beach","address":"FL 33572>813-649-1300"},{"latitude":"27.893602","longitude":"-82.284153","name":"Winn Dixie 0676 - 179 E Bloomingdale Ave Brandon","address":"FL 33511>813-681-7337"},{"latitude":"27.856067","longitude":"-82.326494","name":"Winn Dixie 0678 - 9822 US Hwy 301 S; Riverview","address":"FL 33578>813-677-7252"},{"latitude":"27.866316","longitude":"-82.727126","name":"Winn Dixie 0681 - 6501 102 Ave N; Pinellas Park","address":"FL 33782>727-541-2070"},{"latitude":"28.229804","longitude":"-82.215547","name":"Winn Dixie 0683 - 36348 SR 54; Zephyrhills","address":"FL 33541>813-788-3322"},{"latitude":"27.819946","longitude":"-82.712905","name":"Winn Dixie 0684 - 5802 54th Ave N; Kenneth City","address":"FL 33709>727-544-7211"},{"latitude":"27.512206","longitude":"-81.492605","name":"Winn Dixie 0687 - 600 Sebring Sq; Sebring","address":"FL 33870>863-382-6479"},{"latitude":"28.026969","longitude":"-82.583284","name":"Winn Dixie 0697 - 8424 Sheldon Rd; Tampa","address":"FL 33615>813-884-6819"},{"latitude":"27.829612","longitude":"-82.64925","name":"Winn Dixie 0698 - 1049 62nd Ave N; Saint Petersburg","address":"FL 33702>727-525-4632"},{"latitude":"27.79094","longitude":"-82.679557","name":"Winn Dixie 0699 - 2020 34th St N; Saint Petersburg closed","address":"FL 33713>727-323-1001"},{"latitude":"27.893934","longitude":"-81.557649","name":"Winn Dixie 0701 - 1860 SR 60 E; Lake Wales","address":"FL 33853>863-676-1223"},{"latitude":"28.541507","longitude":"-82.403365","name":"Winn Dixie 0702 - 1230 S Broad St; Brooksville","address":"FL 34601>352-799-2220"},{"latitude":"28.123667","longitude":"-81.639802","name":"Winn Dixie 0705 - 36019 Hwy 27 N; Haines City","address":"FL 33844>863-421-6535"},{"latitude":"28.026941","longitude":"-81.975584","name":"Winn Dixie 0706 - 1305 Ariana St W; Lakeland","address":"FL 33803>863-683-8352"},{"latitude":"28.461295","longitude":"-82.540767","name":"Winn Dixie 0708 - 11092 Spring Hill Dr; Spring Hill","address":"FL 34608>352-686-8057"},{"latitude":"28.362585","longitude":"-82.69431","name":"Winn Dixie 0710 - 14134 US Hwy 19; Hudson","address":"FL 34667>727-863-9298"},{"latitude":"28.46381","longitude":"-82.624166","name":"Winn Dixie 0711 - 2240 Commercial Way; Spring Hill","address":"FL 34606>352-688-4800"},{"latitude":"28.016815","longitude":"-81.631942","name":"Winn Dixie 0713 - 243 US Hwy 27 S; Dundee","address":"FL 33838>863-439-6047"},{"latitude":"26.492384","longitude":"-81.943112","name":"Winn Dixie 0717 - 17105 San Carlos Blvd; Fort Myers Beach","address":"FL 33931>425-355-9303"},{"latitude":"26.933209","longitude":"-82.274308","name":"Winn Dixie 0720 - 4100 McCall Rd; Englewood","address":"FL 34224>941-473-8909"},{"latitude":"26.749363","longitude":"-81.438149","name":"Winn Dixie 0721 - 906 S Main St; Labelle","address":"FL 33935>863-675-3838"},{"latitude":"26.933209","longitude":"-82.274308","name":"Winn Dixie 0722 Liquor - 4104 McCall Rd; Englewood","address":"FL 34224>941-474-2226"},{"latitude":"26.683688","longitude":"-81.88382","name":"Winn Dixie 0723 - 1850 N Tamiami Trl N; Fort Myers","address":"FL 33903>480-644-8873"},{"latitude":"26.601544","longitude":"-82.113948","name":"Winn Dixie 0726 - 9706 Stringfellow Rd; Saint James City","address":"FL 33956>413-447-7301"},{"latitude":"26.710553","longitude":"-81.718423","name":"Winn Dixie 0728 - 14600 Palm Beach Blvd; Fort Myers","address":"FL 33905>478-453-3228"},{"latitude":"25.951894","longitude":"-81.730158","name":"Winn Dixie 0729 - 625 N Collier Blvd; Marco Island","address":"FL 34145>239-642-9126"},{"latitude":"25.951894","longitude":"-81.730158","name":"Winn Dixie 0730 Liquor - 625 N Collier Blvd; Marco Island","address":"FL 34145>239-389-4578"},{"latitude":"26.983702","longitude":"-82.099529","name":"Winn Dixie 0736 - 3280 Tamiami Trl; Port Charlotte","address":"FL 33952>941-625-2151"},{"latitude":"27.003748","longitude":"-82.055083","name":"Winn Dixie 0737 - 2000 Kings Hwy; Punta Gorda","address":"FL 33980>941-629-2662"},{"latitude":"26.947361","longitude":"-81.998179","name":"Winn Dixie 0741 - 27680 Bermont Rd; Punta Gorda","address":"FL 33982>941-505-9208"},{"latitude":"26.180927","longitude":"-81.706128","name":"Winn Dixie 0743 - 4849 Golden Gate Pkwy; Naples","address":"FL 34116>239-455-3244"},{"latitude":"26.605038","longitude":"-81.648132","name":"Winn Dixie 0745 - 1145 Homestead Rd N; Lehigh Acres","address":"FL 33936>239-368-6001"},{"latitude":"27.299368","longitude":"-81.356219","name":"Winn Dixie 0746 - 70 Plaza Ave; Lake Placid","address":"FL 33852>863-465-6821"},{"latitude":"28.521432","longitude":"-82.570138","name":"Winn Dixie 0750 - 6270 Commercial Way; Brooksville","address":"FL 34613>352-596-6182"},{"latitude":"26.433108","longitude":"-81.435644","name":"Winn Dixie 0751 - 1602 Lake Trafford Rd; Immokalee","address":"FL 34142>425-778-2144"},{"latitude":"28.522897","longitude":"-82.230637","name":"Winn Dixie 0753 Liquor - 310800 Cortez Blvd; Brooksville","address":"FL 34602>352-799-1033"},{"latitude":"28.139828","longitude":"-82.756554","name":"Winn Dixie 0754 Liquor - 891 S Pinellas Ave; Tarpon Springs","address":"FL 34689>727-943-2850"},{"latitude":"27.448037","longitude":"-82.551951","name":"Winn Dixie 0755 Liquor - 1006 53rd Ave E; Bradenton","address":"FL 34203>941-753-5940"},{"latitude":"27.829612","longitude":"-82.64925","name":"Winn Dixie 0756 Liquor - 1049 62nd Ave N; Saint Petersburg","address":"FL 33702>727-527-2786"},{"latitude":"26.13388","longitude":"-80.287481","name":"Winn Dixie 0757 - 901 N Nob Hill Rd; Fort Lauderdale","address":"FL 33324>954-473-8662"},{"latitude":"26.134921","longitude":"-80.288527","name":"Winn Dixie 0758 Liquor - 963 N Nob Hill Rd; Fort Lauderdale","address":"FL 33324>954-473-8054"},{"latitude":"26.983807","longitude":"-82.098036","name":"Winn Dixie 0761 - 3280 S Tamiami Trail; Port Charolette","address":"FL 33952>941-764-6387"},{"latitude":"28.459952","longitude":"-82.540651","name":"Winn Dixie 0768 Liquor - 11060 Spring Hill Dr; Spring Hill","address":"FL 34608>352-686-9032"},{"latitude":"28.05415","longitude":"-82.333565","name":"Winn Dixie 0777 - 9535 E Fowler Ave Thonotosassa","address":"FL 33592>813-986-5798"},{"latitude":"30.000388","longitude":"-90.124802","name":"Winn Dixie 1329 - 211 Veterans Memorial Blvd; Metairie","address":"LA 70005>504-831-8544"},{"latitude":"30.680038","longitude":"-88.074283","name":"Winn Dixie 1333 - 1550 Government St; Mobile","address":"AL 36604>501-758-9307"},{"latitude":"31.304212","longitude":"-89.331424","name":"Winn Dixie 1334 - 2800 Lincoln Rd; Hattiesburg","address":"MS 39401>601-268-9568"},{"latitude":"30.544788","longitude":"-87.70851","name":"Winn Dixie 1345 - 21951 SR Hwy 59 S; Robertsdale","address":"AL 36567>508-824-3979"},{"latitude":"30.310355","longitude":"-89.746095","name":"Winn Dixie 1353 - 851 Brownswitch Rd; Slidell","address":"LA 70458>985-649-0820"},{"latitude":"30.403399","longitude":"-88.974865","name":"Winn Dixie 1356 Liquor - 2386 Pass Rd; Biloxi","address":"MS 39531>228-385-0812"},{"latitude":"30.402074","longitude":"-88.975128","name":"Winn Dixie 1357 - 2384 Pass Rd; Biloxi","address":"MS 39531>228-385-2323"},{"latitude":"29.941432","longitude":"-90.212747","name":"Winn Dixie 1404 - 8601 Jefferson Hwy; River Ridge","address":"LA 70123>504-738-2682"},{"latitude":"29.890727","longitude":"-90.03423","name":"Winn Dixie 1405 - 2112 Belle Chasse Hwy; Gretna","address":"LA 70056>504-433-3646"},{"latitude":"30.029418","longitude":"-90.238789","name":"Winn Dixie 1406 - 4041 Williams Ave; Kenner closed","address":"LA 70065>504-443-3846"},{"latitude":"30.005441","longitude":"-90.035436","name":"Winn Dixie 1408 - 4600 Chef Menteur; New Orleans","address":"LA 70126>504-947-0212"},{"latitude":"29.976908","longitude":"-90.196299","name":"Winn Dixie 1411 - 5901 Airline Hwy; Metairie","address":"LA 70003>504-734-0702"},{"latitude":"29.9943","longitude":"-90.241374","name":"Winn Dixie 1412 - 2104 Williams Blvd; Kenner","address":"LA 70065>504-469-0861"},{"latitude":"29.874809","longitude":"-90.111297","name":"Winn Dixie 1416 - 5969 Lapalco Blvd; Marrero closed","address":"LA 70072>504-340-0170"},{"latitude":"29.909958","longitude":"-90.205013","name":"Winn Dixie 1418 - 3001 Hwy 90; Avondale","address":"LA 70094>504-437-0540"},{"latitude":"29.872086","longitude":"-90.081624","name":"Winn Dixie 1425 - 3645 Lapalco Blvd; Harvey","address":"LA 70058>504-348-1059"},{"latitude":"29.923463","longitude":"-90.013748","name":"Winn Dixie 1426 - 3008 Holiday Dr; New Orleans","address":"LA 70131>504-398-0313"},{"latitude":"29.963436","longitude":"-90.162671","name":"Winn Dixie 1428 - 3623 Jefferson Hwy; New Orleans","address":"LA 70121>504-831-1840"},{"latitude":"29.916366","longitude":"-90.116318","name":"Winn Dixie 1430 - 5400 Tchoupitoulas St; New Orleans","address":"LA 70115>504-895-2966"},{"latitude":"29.897126","longitude":"-90.141216","name":"Winn Dixie 1431 - 1070 Westbank Expy; Westwego","address":"LA 70094>504-340-9951"},{"latitude":"29.949798","longitude":"-89.960316","name":"Winn Dixie 1432 - 3300 Paris Rd; Chalmette","address":"LA 70043>504-271-4664"},{"latitude":"30.017477","longitude":"-89.973057","name":"Winn Dixie 1439 - 9701 Chef Menteur Hwy; New Orleans","address":"LA 70127>504-244-0701"},{"latitude":"29.869126","longitude":"-90.107863","name":"Winn Dixie 1440 - 4627 Westbank Expy; Marrero","address":"LA 70072>504-340-9898"},{"latitude":"30.453772","longitude":"-90.137799","name":"Winn Dixie 1443 - 70431 Hwy 21; Covington","address":"LA 70443>985-871-1179"},{"latitude":"29.914638","longitude":"-90.34059","name":"Winn Dixie 1444 - 12125 Hwy 90; Luling","address":"LA 70070>985-785-0610"},{"latitude":"30.374155","longitude":"-90.09183","name":"Winn Dixie 1446 - 619 N Causeway Blvd; Mandeville","address":"LA 70448>985-626-5578"},{"latitude":"30.422294","longitude":"-90.083692","name":"Winn Dixie 1448 - 1001 Hwy 190; Covington","address":"LA 70433>985-893-1531"},{"latitude":"30.726736","longitude":"-90.520227","name":"Winn Dixie 1449 - 804 W Oak St; Amite","address":"LA 70442>985-748-7144"},{"latitude":"30.391534","longitude":"-91.161783","name":"Winn Dixie 1454 - 5555 Burbank Dr; Baton Rouge","address":"LA 70820>225-757-0501"},{"latitude":"29.996862","longitude":"-91.802218","name":"Winn Dixie 1456 - 1104 E Main St; New Iberia","address":"LA 70560>337-365-6020"},{"latitude":"30.248933","longitude":"-92.269886","name":"Winn Dixie 1459 - 1411 The Blvd; Rayne","address":"LA 70578>337-334-2527"},{"latitude":"30.372767","longitude":"-91.071719","name":"Winn Dixie 1461 - 8601 Siegen Lane; Baton Rouge","address":"LA 70810>225-766-8400"},{"latitude":"30.062211","longitude":"-90.700312","name":"Winn Dixie 1463 - 1803 Hwy 3125; Gramercy","address":"LA 70052>225-869-8090"},{"latitude":"30.447078","longitude":"-91.03215","name":"Winn Dixie 1467  - 13555 Old Hammond Hwy; Baton Rouge","address":"LA 70816>225-273-4499; "},{"latitude":"29.978292","longitude":"-90.099262","name":"Winn Dixie 1472 - 401 N Carrolton; New Orleans","address":"LA 70119>504-482-6771"},{"latitude":"30.549584","longitude":"-89.679875","name":"Winn Dixie 1477 - 1701 Hwy 43 N; Picayune","address":"MS 39466>601-798-7696"},{"latitude":"30.416372","longitude":"-88.818257","name":"Winn Dixie 1478 - 1515 Bienville Blvd; Ocean Springs","address":"MS 39564>228-875-8388"},{"latitude":"30.35278","longitude":"-89.146922","name":"Winn Dixie 1479 - 109 N Cleveland Ave; Long Beach","address":"MS 39560>228-863-8680"},{"latitude":"30.490989","longitude":"-89.689111","name":"Winn Dixie 1483 - 801 Hwy 11 S; Picayune","address":"MS 39466>601-798-5880"},{"latitude":"30.230262","longitude":"-92.382334","name":"Winn Dixie 1490 - 2004 N Parkerson Ave; Crowley","address":"LA 70526>337-785-0010"},{"latitude":"30.410251","longitude":"-90.041272","name":"Winn Dixie 1500 - 4100 Hwy 59; Mandeville","address":"LA 70471>985-893-1968"},{"latitude":"30.844338","longitude":"-90.156889","name":"Winn Dixie 1501 - 731 Washington St; Franklinton","address":"LA 70438>985-839-5525"},{"latitude":"30.290692","longitude":"-89.722101","name":"Winn Dixie 1502 - 2985 Gause Blvd; Sidell","address":"LA 70461>985-639-0021"},{"latitude":"30.273262","longitude":"-89.772694","name":"Winn Dixie 1504 - 3030 Pontchartrain Dr; Slidell","address":"LA 70458>985-645-0026"},{"latitude":"30.450428","longitude":"-89.099252","name":"Winn Dixie 1511 - 11312 H Hwy 49; Gulfport","address":"MS 39503>228-832-8452"},{"latitude":"30.39913","longitude":"-89.025529","name":"Winn Dixie 1512 - 1444 East Pass Rd; Gulfport","address":"MS 39501>228-896-6337"},{"latitude":"30.438939","longitude":"-88.896008","name":"Winn Dixie 1513 - 10511 D'iberville Blvd; Diberville","address":"MS 39540>228-392-9298"},{"latitude":"31.238762","longitude":"-89.819796","name":"Winn Dixie 1534 - 771 Hwy 98; Columbia","address":"MS 39429>601-736-0551"},{"latitude":"30.501038","longitude":"-90.484571","name":"Winn Dixie 1537 - 2302 W Thomas St; Hammond","address":"LA 70401>985-542-8901"},{"latitude":"30.276641","longitude":"-91.890595","name":"Winn Dixie 1549 - 924 Rees St; Breaux Bridge","address":"LA 70517>337-332-2599"},{"latitude":"30.273875","longitude":"-92.00823","name":"Winn Dixie 1555 - 3803-F Moss St; Lafayette","address":"LA 70507>337-264-9200"},{"latitude":"29.984768","longitude":"-92.153095","name":"Winn Dixie 1558 - 2210 Veterans Memorial Dr; Abbeville","address":"LA 70510>337-898-1255"},{"latitude":"29.812764","longitude":"-91.513284","name":"Winn Dixie 1559 - 204 Northwest Blvd; Franklin","address":"LA 70538>337-828-9081"},{"latitude":"30.495045","longitude":"-92.43431","name":"Winn Dixie 1570 - 1800 W Laurel; Eunice","address":"LA 70535>337-457-0878"},{"latitude":"30.685317","longitude":"-91.464517","name":"Winn Dixie 1572 - 420 Hospital Rd; New Roads","address":"LA 70760>225-638-5130"},{"latitude":"30.420063","longitude":"-91.090051","name":"Winn Dixie 1576 - 10974 Joor Rd; Baton Rouge","address":"LA 70818>225-261-6001"},{"latitude":"30.410026","longitude":"-91.035056","name":"Winn Dixie 1577 - 13002 Coursey Blvd; Baton Rouge","address":"LA 70816>225-756-7102"},{"latitude":"30.649516","longitude":"-91.151253","name":"Winn Dixie 1581 - 5005 Church St; Zachary","address":"LA 70791>225-654-5030"},{"latitude":"30.073704","longitude":"-90.501493","name":"Winn Dixie 1583 - 1830 W Airline Hwy; LA Place","address":"LA 70068>985-653-0860"},{"latitude":"29.9845","longitude":"-90.352193","name":"Winn Dixie 1588 - 12519 Airline Hwy; Destrehan","address":"LA 70047>985-764-1318"},{"latitude":"30.334165","longitude":"-90.985901","name":"Winn Dixie 1590 - 17682 Airline Hwy; Prairieville","address":"LA 70769>405-364-9310"},{"latitude":"30.474677","longitude":"-90.863413","name":"Winn Dixie 1591 - 28145 Walker Rd S; Walker","address":"LA 70785>406-273-6661"},{"latitude":"29.501454","longitude":"-82.871156","name":"Winn Dixie 1680 - 2200 N Young Blvd; Chiefland","address":"FL 32626>352-493-0839"},{"latitude":"28.892115","longitude":"-82.584739","name":"Winn Dixie 1733 - 1651 SE Hwy 19; Crystal River","address":"FL 34429>352-563-0100"},{"latitude":"28.01236","longitude":"-82.709011","name":"Winn Dixie 1775 - 2514 N McMullen Booth Rd; Clearwater","address":"FL 33761>727-723-0281"},{"latitude":"27.56035","longitude":"-81.813891","name":"Winn Dixie 1791 - 1133 US Hwy 17 S; Wauchula","address":"FL 33873>863-773-2300"},{"latitude":"29.057163","longitude":"-82.050584","name":"Winn Dixie 1797 - 11310 SE US Hwy 301; Belleview","address":"FL 34420>352-245-7215"},{"latitude":"28.972","longitude":"-80.89569","name":"Winn Dixie 2203 - 1838 S Ridgewood Ave; Edgewater","address":"FL 32141>386-427-2094"},{"latitude":"29.054765","longitude":"-82.041796","name":"Winn Dixie 2205 - 10393-97 S Hwy 441-27; Belleview","address":"FL 34420>352-307-8255"},{"latitude":"29.182136","longitude":"-81.889061","name":"Winn Dixie 2206 - 15912 E SR 40; Silver Springs","address":"FL 34488>352-625-6253"},{"latitude":"28.195755","longitude":"-81.292493","name":"Winn Dixie 2207 - 3318 Canoe Creek Rd; Saint Cloud","address":"FL 34772>407-891-0634"},{"latitude":"28.832121","longitude":"-82.328045","name":"Winn Dixie 2210 - 333 E Highland Blvd Space 600; Inverness","address":"FL 34452>352-726-4141"},{"latitude":"29.200439","longitude":"-82.101333","name":"Winn Dixie 2211 - 2640 NE 14th St; Ocala","address":"FL 34470>352-622-5604"},{"latitude":"29.211219","longitude":"-82.194514","name":"Winn Dixie 2213 - 4417 NW Blitchton Rd; Ocala","address":"FL 34482>352-401-7667"},{"latitude":"28.391985","longitude":"-81.50586","name":"Winn Dixie 2215 - 11957 S Apopka Vineland Rd; Orlando","address":"FL 32836>407-465-8606"},{"latitude":"28.881297","longitude":"-82.540478","name":"Winn Dixie 2217 - 6405 W Gulf To Lake Hwy; Crystal River","address":"FL 34429>352-795-9211"},{"latitude":"29.077935","longitude":"-82.45252","name":"Winn Dixie 2219 - 10051 S US Hwy 41; Dunnellon","address":"FL 34432>352-465-4111"},{"latitude":"28.915988","longitude":"-82.471111","name":"Winn Dixie 2220 - 3565 N Lecanto Hwy; Beverly Hills","address":"FL 34465>352-746-7080"},{"latitude":"28.807011","longitude":"-82.576595","name":"Winn Dixie 2223 - 3792 S Suncoast Blvd; Homosassa","address":"FL 34448>352-628-1918"},{"latitude":"28.548652","longitude":"-81.746362","name":"Winn Dixie 2225 - 684 E Hwy 50; Clermont","address":"FL 34711>352-242-2326"},{"latitude":"28.195755","longitude":"-81.292493","name":"Winn Dixie 2226 Liquor - 3320 Canoe Creek Rd; Saint Cloud","address":"FL 34772>407-957-4681"},{"latitude":"29.222274","longitude":"-82.146869","name":"Winn Dixie 2228 - 3435 NW Pine Ave; Ocala","address":"FL 34475>352-368-2096"},{"latitude":"29.014368","longitude":"-82.178098","name":"Winn Dixie 2229 - 184 Marion Oaks Blvd; Ocala","address":"FL 34473>352-347-6990"},{"latitude":"27.998926","longitude":"-80.674761","name":"Winn Dixie 2230 - 190 Malabar Rd SW; Palm Bay","address":"FL 32907>321-952-1680"},{"latitude":"28.698089","longitude":"-81.361031","name":"Winn Dixie 2233 - 951 W SR 434; Longwood","address":"FL 32750>407-332-8025"},{"latitude":"28.553409","longitude":"-81.35173","name":"Winn Dixie 2235 - 2415 E Colonial Dr; Orlando","address":"FL 32803>407-898-2489"},{"latitude":"28.87438","longitude":"-81.312909","name":"Winn Dixie 2237 - 2 N Charles Richard Beall Blvd; Debary","address":"FL 32713>386-668-8845"},{"latitude":"28.246321","longitude":"-81.246019","name":"Winn Dixie 2238 - 4855 E Irlo Bronson Memorial Hwy; Saint Cloud","address":"FL 34771>407-892-3755"},{"latitude":"28.896475","longitude":"-81.271428","name":"Winn Dixie 2241 - 1200 Deltona Blvd; Deltona","address":"FL 32725>386-574-6023"},{"latitude":"29.475664","longitude":"-81.179468","name":"Winn Dixie 2244 - 111 Flager Plaza Dr; Palm Coast","address":"FL 32137>386-439-4301"},{"latitude":"28.551297","longitude":"-81.766519","name":"Winn Dixie 2245 Liquor - 682 E Hwy 50; Clermont","address":"FL 34711>352-242-0027"},{"latitude":"28.714565","longitude":"-81.587123","name":"Winn Dixie 2246 - 1565 US 441 N; Apopka","address":"FL 32712>407-880-8299"},{"latitude":"29.553553","longitude":"-81.232798","name":"Winn Dixie 2247 - 1260 Palm Coast Pkwy NW; Palm Coast","address":"FL 32137>386-446-4774"},{"latitude":"28.88235","longitude":"-81.240931","name":"Winn Dixie 2249 - 1229 A Providence Blvd; Deltona","address":"FL 32725>386-574-2698"},{"latitude":"28.573535","longitude":"-81.520892","name":"Winn Dixie 2250 - 1531 E Silver Star Rd; Ocoee","address":"FL 34761>407-296-9296"},{"latitude":"28.697979","longitude":"-81.361526","name":"Winn Dixie 2253 Liquor - 955 W SR 434; Longwood","address":"FL 32750>407-331-1484"},{"latitude":"29.23721","longitude":"-81.056587","name":"Winn Dixie 2258 - 1541 N Nova Rd; Daytona Beach","address":"FL 32117>386-257-7774"},{"latitude":"28.304513","longitude":"-81.389244","name":"Winn Dixie 2260 - 1347 E Vine St; Kissimmee","address":"FL 34744>407-933-7525"},{"latitude":"28.817333","longitude":"-81.724526","name":"Winn Dixie 2261 - 450 E Burleigh Blvd; Tavares","address":"FL 32778>352-343-2002"},{"latitude":"29.196187","longitude":"-80.993265","name":"Winn Dixie 2263 - 2200 S Atlantic Ave; Daytona Beach","address":"FL 32118>386-253-7713"},{"latitude":"28.652285","longitude":"-81.348644","name":"Winn Dixie 2266 - 7800 S Hwy 17-92 Suite 190; Fern Park","address":"FL 32730>407-339-0154"},{"latitude":"28.514395","longitude":"-81.288001","name":"Winn Dixie 2267 - 7382 Curry Ford Rd; Orlando","address":"FL 32822>407-282-4527"},{"latitude":"28.079113","longitude":"-80.673812","name":"Winn Dixie 2268 - 3170 W New Haven Ave; Melbourne","address":"FL 32904>321-725-9311"},{"latitude":"28.565137","longitude":"-81.186461","name":"Winn Dixie 2269 - 13200 E Colonial Dr; Orlando","address":"FL 32826>407-380-5445"},{"latitude":"28.546593","longitude":"-81.201823","name":"Winn Dixie 2270 - 12500 Lake Underhill Rd; Orlando","address":"FL 32828>407-384-1774"},{"latitude":"28.656869","longitude":"-81.179017","name":"Winn Dixie 2271 - 1021 Lockwood Blvd; Oviedo","address":"FL 32765>407-977-0066"},{"latitude":"28.696789","longitude":"-81.320618","name":"Winn Dixie 2273 - 1750 Sunshadow Dr; Casselberry","address":"FL 32707>407-696-9656"},{"latitude":"28.513462","longitude":"-81.327722","name":"Winn Dixie 2276 - 4686 E Michigan St; Orlando","address":"FL 32812>407-281-7768"},{"latitude":"28.524094","longitude":"-81.47083","name":"Winn Dixie 2278 - 1401 S Hiawassee Rd; Orlando","address":"FL 32835>407-521-9333"},{"latitude":"29.158765","longitude":"-82.087972","name":"Winn Dixie 2286 - 3535 SE Maricamp Rd Ste 400; Ocala","address":"FL 34471>352-694-5565"},{"latitude":"29.127165","longitude":"-82.036487","name":"Winn Dixie 2287 - 6851 SE Maricamp Rd; Ocala","address":"FL 34472>352-687-4406"},{"latitude":"28.524028","longitude":"-81.345161","name":"Winn Dixie 2288 - 2960 Curry Ford Rd; Orlando","address":"FL 32806>407-897-3579"},{"latitude":"28.519693","longitude":"-81.47326","name":"Winn Dixie 2299 Liquor - 1403 S Hiawassee Rd; Orlando","address":"FL 32835>407-521-2276"},{"latitude":"28.579397","longitude":"-81.451694","name":"Winn Dixie 2301 - 2722 N Pine Hills Rd; Orlando","address":"FL 32808>407-292-3300"},{"latitude":"29.014425","longitude":"-80.943159","name":"Winn Dixie 2304 - 1835 SR 44; New Smyrna Beach","address":"FL 32168>386-423-3111"},{"latitude":"28.798349","longitude":"-81.273234","name":"Winn Dixie 2306 - 1514 S French Ave; Sanford","address":"FL 32771>407-323-6664"},{"latitude":"29.281058","longitude":"-81.066812","name":"Winn Dixie 2309 - 352 W Granada Blvd; Ormond Beach","address":"FL 32174>386-677-4070"},{"latitude":"29.117451","longitude":"-80.994063","name":"Winn Dixie 2311 - 4025 S Nova Rd; Port Orange","address":"FL 32127>386-756-4814"},{"latitude":"28.944123","longitude":"-81.22537","name":"Winn Dixie 2313 - 2880 Howland Blvd; Deltona","address":"FL 32725>386-532-7168"},{"latitude":"28.372427","longitude":"-80.754882","name":"Winn Dixie 2314 - 1066 Clearlake Rd; Cocoa","address":"FL 32922>321-631-5295"},{"latitude":"28.680177","longitude":"-82.111243","name":"Winn Dixie 2320 - 1122 N Main St; Bushnell","address":"FL 33513>352-568-0663"},{"latitude":"28.846978","longitude":"-82.048234","name":"Winn Dixie 2321 - 440 W Gulf Atlantic Hwy; Wildwood","address":"FL 34785>352-330-4100"},{"latitude":"28.847089","longitude":"-82.046689","name":"Winn Dixie 2322 Liquor - 438 W Gulf Atlantic Hwy Wildwood","address":"FL 34785>352-330-4268"},{"latitude":"28.355925","longitude":"-80.60955","name":"Winn Dixie 2325 - 100 Canaveral Plaza Blvd; Cocoa Beach","address":"FL 32931>321-783-7265"},{"latitude":"28.585855","longitude":"-80.819873","name":"Winn Dixie 2326 - 1564 Harrison St; Titusville","address":"FL 32780>321-383-1198"},{"latitude":"28.638187","longitude":"-80.846089","name":"Winn Dixie 2327 - 1535 N Singleton Ave; Titusville","address":"FL 32796>321-267-6977"},{"latitude":"28.138524","longitude":"-80.582783","name":"Winn Dixie 2328 - 961 E Eau Gallie Blvd; Satellite Beach","address":"FL 32937>321-773-0216"},{"latitude":"28.471954","longitude":"-80.766971","name":"Winn Dixie 2329 - 6257 N US Hwy 1; Cocoa","address":"FL 32927>321-636-3801"},{"latitude":"28.037889","longitude":"-80.61142","name":"Winn Dixie 2333 - 5270 Babcock St NE; Palm Bay","address":"FL 32905>321-728-1876"},{"latitude":"28.87437","longitude":"-81.687675","name":"Winn Dixie 2335 - 1955 N Hwy 19; Eustis","address":"FL 32726>352-589-2644"},{"latitude":"28.740769","longitude":"-81.873641","name":"Winn Dixie 2336 - 27405 US Hwy 27 Suite 119; Leesburg","address":"FL 34748>352-315-4188"},{"latitude":"28.936331","longitude":"-81.944292","name":"Winn Dixie 2337 - 944 Bichara Blvd; Lady Lake","address":"FL 32159>352-753-5073"},{"latitude":"28.637939","longitude":"-80.846176","name":"Winn Dixie 2338 Liquor - 1529 N Singleton Ave; Titusville","address":"FL 32796>321-267-3142"},{"latitude":"28.980575","longitude":"-81.299256","name":"Winn Dixie 2341 - 2701 S Woodland Blvd; Deland","address":"FL 32720>386-736-6003"},{"latitude":"29.085349","longitude":"-81.321739","name":"Winn Dixie 2342 - 3120 N Woodland Blvd; Deland","address":"FL 32720>386-738-1272"},{"latitude":"29.027812","longitude":"-81.323529","name":"Winn Dixie 2343 - 1050 W New York Ave; Deland","address":"FL 32720>386-738-5321"},{"latitude":"27.274459","longitude":"-80.354409","name":"Winn Dixie 2348 - 281 SW Port St Lucie Blvd; Port Saint Lucie","address":"FL 34984>772-340-0446"},{"latitude":"27.522438","longitude":"-80.398167","name":"Winn Dixie 2349 - 4870 N Kings Hwy; Fort Pierce","address":"FL 34951>772-464-8889"},{"latitude":"27.779935","longitude":"-80.496292","name":"Winn Dixie 2354 - 995 Sebastian Blvd; Sebastian","address":"FL 32958>772-388-4866"},{"latitude":"27.374885","longitude":"-80.326004","name":"Winn Dixie 2355 - 4967 S US Hwy 1; Fort Pierce","address":"FL 34982>772-466-5308"},{"latitude":"27.427978","longitude":"-80.326067","name":"Winn Dixie 2358 - 2009 S US Hwy 1; Fort Pierce","address":"FL 34950>772-461-3503"},{"latitude":"28.652285","longitude":"-81.348644","name":"Winn Dixie 2364 Liquor - 7800 S Hwy 17-92; Fern Park","address":"FL 32730>407-339-0154"},{"latitude":"27.587336","longitude":"-80.416485","name":"Winn Dixie 2366 - 2950 9th St SW; Vero Beach","address":"FL 32968>772-562-4303"},{"latitude":"27.882072","longitude":"-80.502431","name":"Winn Dixie 2367 - 7960 US Hwy 1; Sebastian","address":"FL 32976>772-663-0835"},{"latitude":"28.340537","longitude":"-81.600529","name":"Winn Dixie 2379 - 7840 W Irlo Bronson Hwy; Kissimmee","address":"FL 34747>407-397-2210"},{"latitude":"28.756827","longitude":"-81.368341","name":"Winn Dixie 2380 - 120 International Pkwy; Lake Mary","address":"FL 32746>407-333-9792"},{"latitude":"28.597206","longitude":"-81.285172","name":"Winn Dixie 2383 - 7580 University Blvd; Winter Park","address":"FL 32792>407-677-4500"},{"latitude":"28.657149","longitude":"-81.419674","name":"Winn Dixie 2388 - 340 S SR 434; Altamonte Springs","address":"FL 32714>407-682-1703"},{"latitude":"28.657149","longitude":"-81.419674","name":"Winn Dixie 2389 Liquor - 340 S SR 434; Altamonte Springs","address":"FL 32714>407-788-0138"},{"latitude":"28.614838","longitude":"-81.4763","name":"Winn Dixie 2390 - 5732 N Hiawassee Rd; Orlando","address":"FL 32818>407-523-2427"},{"latitude":"28.463669","longitude":"-81.39691","name":"Winn Dixie 2392 - 7053 S Orange Blossom Trl; Orlando","address":"FL 32809>407-240-0817"},{"latitude":"28.67318","longitude":"-81.469883","name":"Winn Dixie 2393 - 2231 E Semoran Blvd; Apopka","address":"FL 32703>407-884-7788"},{"latitude":"27.275514","longitude":"-80.354932","name":"Winn Dixie 2398 Liquor - 255 SW Port St Lucie Blvd; Port Saint Lucie","address":"FL 34984>772-340-4433"},{"latitude":"27.094398","longitude":"-82.433667","name":"Winn Dixie 2400 - 458 Venice By-Pass; Venice","address":"FL 34285>941-485-2912"},{"latitude":"26.329919","longitude":"-81.803467","name":"Winn Dixie 2402 - 8951 Bonita Beach Rd SE; Bonita Springs","address":"FL 34135>239-947-0329"},{"latitude":"27.494791","longitude":"-82.619087","name":"Winn Dixie 2404 - 5805 Manatee Ave; Bradenton","address":"FL 34209>941-792-2857"},{"latitude":"27.494791","longitude":"-82.619087","name":"Winn Dixie 2405 Liquor - 5805 Manatee Ave; Bradenton","address":"FL 34209>941-795-6409"},{"latitude":"27.321425","longitude":"-82.528678","name":"Winn Dixie 2406 - 1325 S Tamiami Trail; Sarasota","address":"FL 34239>941-366-9698"},{"latitude":"27.96401","longitude":"-82.504347","name":"Winn Dixie 2407 - 2525 N Dale Mabry Hwy; Tampa","address":"FL 33607>813-871-1888"},{"latitude":"27.96401","longitude":"-82.504347","name":"Winn Dixie 2408 Liquor - 2525 N Dale Mabry Hwy; Tampa","address":"FL 33607>813-871-1888"},{"latitude":"27.790855","longitude":"-82.67817","name":"Winn Dixie 2409 - 2139 34th St N; Saint Petersburg","address":"FL 33713>727-323-2900"},{"latitude":"27.803834","longitude":"-82.801803","name":"Winn Dixie 2410 Liquor - 3350 22nd Ave N ; Madeira Beach","address":"FL 33713>727-323-2900"},{"latitude":"27.759286","longitude":"-82.734083","name":"Winn Dixie 2411 - 6851 Gulfport Blvd; South Pasadena","address":"FL 33707>727-344-5491"},{"latitude":"27.759286","longitude":"-82.734083","name":"Winn Dixie 2412 Liquor - 6851 Gulfport Blvd; South Pasadena","address":"FL 33707>727-344-5491"},{"latitude":"28.094686","longitude":"-82.503625","name":"Winn Dixie 2413 - 15692 N Dale Mabry Hwy; Tampa","address":"FL 33618>813-963-7883"},{"latitude":"28.094686","longitude":"-82.503625","name":"Winn Dixie 2414 Liquor - 15690 N Dale Mabry Hwy; Tampa","address":"FL 33618>813-963-7883"},{"latitude":"28.070244","longitude":"-82.460411","name":"Winn Dixie 2415 - 13508 N Florida Ave; Tampa","address":"FL 33612>813-962-0774"},{"latitude":"28.070244","longitude":"-82.460411","name":"Winn Dixie 2416 Liquor - 13508 N Florida Ave; Tampa","address":"FL 33612>813-960-0694"},{"latitude":"27.894711","longitude":"-82.516817","name":"Winn Dixie 2417 - 4317 W Gandy Blvd; Tampa","address":"FL 33611>813-839-6331"},{"latitude":"27.894711","longitude":"-82.516817","name":"Winn Dixie 2418 Liquor - 4315 W Gandy Blvd; Tampa","address":"FL 33611>813-839-6331"},{"latitude":"27.461346","longitude":"-82.586725","name":"Winn Dixie 2419 - 2501 Cortez Rd W; Bradenton","address":"FL 34207>941-756-0681"},{"latitude":"28.031282","longitude":"-82.354853","name":"Winn Dixie 2423 - 8775 Temple Terrace Hwy; Tampa","address":"FL 33637>813-985-4439"},{"latitude":"28.031282","longitude":"-82.354853","name":"Winn Dixie 2424 Liquor - 8775 Temple Terrace Hwy; Tampa ","address":"FL 33637>813-985-4439"},{"latitude":"28.068004","longitude":"-82.76186","name":"Winn Dixie 2425 - 1360 Tampa Rd; Palm Harbor","address":"FL 34683>727-787-3599"},{"latitude":"28.068004","longitude":"-82.76186","name":"Winn Dixie 2426 Liquor - 1360 Tampa Rd; Palm Harbor","address":"FL 34683>727-787-3925"},{"latitude":"27.080066","longitude":"-82.388828","name":"Winn Dixie 2427 - 1254 Jacaranda Blvd; Venice","address":"FL 34292>941-497-2602"},{"latitude":"28.258516","longitude":"-82.708153","name":"Winn Dixie 2429 - 6400 Massachusetts Ave; New Port Richey","address":"FL 34652>727-841-7381"},{"latitude":"28.257407","longitude":"-82.70862","name":"Winn Dixie 2430 Liquor - 6416 Massachusetts Ave; New Port Richey","address":"FL 34652>727-841-7381"},{"latitude":"28.025931","longitude":"-82.559349","name":"Winn Dixie 2431 - 7095 W Waters Ave; Tampa","address":"FL 33634>813-886-2365"},{"latitude":"27.937364","longitude":"-82.480967","name":"Winn Dixie 2433 - 2100 W Swann Ave; Tampa","address":"FL 33606>813-254-6800"},{"latitude":"27.937364","longitude":"-82.480967","name":"Winn Dixie 2434 Liquor - 2100 W Swann Ave; Tampa","address":"FL 33606>813-254-6800"},{"latitude":"27.989221","longitude":"-82.123851","name":"Winn Dixie 2435 - 205 W Alexander St; Plant City","address":"FL 33566>813-754-9338"},{"latitude":"29.260961","longitude":"-82.150662","name":"Winn Dixie 2437 - 7131 N US Hwy 441; Ocala","address":"FL 34475>352-351-0100"},{"latitude":"26.936698","longitude":"-82.336116","name":"Winn Dixie 2439 - 1951 S McCall Rd; Englewood","address":"FL 34223>941-475-9590"},{"latitude":"28.02903","longitude":"-82.392402","name":"Winn Dixie 2441 - 8837 N 56th St; Temple Terrace","address":"FL 33617>813-988-4155"},{"latitude":"28.02903","longitude":"-82.392402","name":"Winn Dixie 2442 Liquor - 8841 N 56th St; Temple Terrace ","address":"FL 33617>813-988-4155"},{"latitude":"27.802389","longitude":"-82.646751","name":"Winn Dixie 2443 - 3327 9th St N; Saint Petersburg","address":"FL 33704>727-823-3538"},{"latitude":"27.710629","longitude":"-82.434213","name":"Winn Dixie 2444 - 1023 N Tamiami Trail; Ruskin","address":"FL 33570>813-645-9157"},{"latitude":"27.84052","longitude":"-82.637593","name":"Winn Dixie 2446 - 7489 4th St N; Saint Petersburg","address":"FL 33702>727-528-2121"},{"latitude":"27.84052","longitude":"-82.637593","name":"Winn Dixie 2447 Liquor - 7489 4th St N; Saint Petersburg","address":"FL 33702>727-528-0490"},{"latitude":"27.51673","longitude":"-82.570107","name":"Winn Dixie 2448 - 515 7th St; Palmetto","address":"FL 34220>941-722-1954"},{"latitude":"27.51673","longitude":"-82.570107","name":"Winn Dixie 2449 Liquor - 519 7th St; Palmetto","address":"FL 34220>941-723-0400"},{"latitude":"27.975504","longitude":"-82.484754","name":"Winn Dixie 2450 - 4056 N Armenia Ave; Tampa","address":"FL 33607>813-876-3280"},{"latitude":"27.975504","longitude":"-82.484754","name":"Winn Dixie 2451 Liquor - 4056 N Armenia Ave; Tampa","address":"FL 33607>813-876-3280"},{"latitude":"28.01236","longitude":"-82.709011","name":"Winn Dixie 2452 - 2519 N McMullen Booth Rd; Clearwater","address":"FL 33761>727-726-7635"},{"latitude":"28.01236","longitude":"-82.709011","name":"Winn Dixie 2453 Liquor - 2519 N McMullen Booth Rd; Clearwater","address":"FL 33761>727-726-7635"},{"latitude":"27.979587","longitude":"-82.288252","name":"Winn Dixie 2454 - 750 W Dr. MLK Blvd; Seffner","address":"FL 33584>813-685-3843"},{"latitude":"27.980149","longitude":"-82.288634","name":"Winn Dixie 2455 Liquor - 778 W Dr MLK Blvd; Seffner","address":"FL 33584>813-651-1588"},{"latitude":"27.917888","longitude":"-82.761769","name":"Winn Dixie 2456 - 2460 E Bay Blvd; Largo","address":"FL 33771>727-535-1322"},{"latitude":"29.633671","longitude":"-82.373729","name":"Winn Dixie 2457 - 2002 SW 34th St; Gainesville","address":"FL 32608>352-371-3500"},{"latitude":"29.633859","longitude":"-82.372625","name":"Winn Dixie 2458 Liquor - 2020 SW 34th St; Gainesville","address":"FL 32608>352-371-3500"},{"latitude":"28.289459","longitude":"-82.677292","name":"Winn Dixie 2459 - 9101 Little Rd; New Port Richey","address":"FL 34654>727-868-9228"},{"latitude":"28.289459","longitude":"-82.677292","name":"Winn Dixie 2460 Liquor - 9111 Little Rd; New Port Richey","address":"FL 34654>727-868-9228"},{"latitude":"28.054954","longitude":"-82.42851","name":"Winn Dixie 2461 - 2770 E Fowler Ave; Tampa","address":"FL 33612>904-555-1212"},{"latitude":"28.054954","longitude":"-82.42851","name":"Winn Dixie 2462 Liquor - 2712 Fowler Ave; Tampa","address":"FL 33612>813-971-5149"},{"latitude":"27.469688","longitude":"-81.440434","name":"Winn Dixie 2465 - 3250 US 27 S; Sebring","address":"FL 33870>863-385-3555"},{"latitude":"27.469688","longitude":"-81.440434","name":"Winn Dixie 2466 Liquor - 3250 US 27 S; Sebring","address":"FL 33870>863-385-2586"},{"latitude":"29.058939","longitude":"-82.456369","name":"Winn Dixie 2467 - 11352 N Williams St; Dunnellon","address":"FL 34432>352-489-6607"},{"latitude":"27.980776","longitude":"-82.452223","name":"Winn Dixie 2472 - 805 E Dr. MLK Blvd; Tampa","address":"FL 33603>813-301-0210"},{"latitude":"27.980776","longitude":"-82.452223","name":"Winn Dixie 2473 Liquor - 805 E Dr. MLK Blvd; Tampa","address":"FL 33603>813-301-0210"},{"latitude":"26.602607","longitude":"-81.612499","name":"Winn Dixie 2474 - 61 Bell Blvd N; Lehigh Acres","address":"FL 33936>239-369-6200"},{"latitude":"27.880558","longitude":"-82.326826","name":"Winn Dixie 2475 - 6929 US Hwy 301 S; Riverview","address":"FL 33569>813-672-8455"},{"latitude":"27.880558","longitude":"-82.326826","name":"Winn Dixie 2476 Liquor - 6927 US Hwy 301 S; Riverview","address":"FL 33569>813-672-8455"},{"latitude":"28.208449","longitude":"-82.738172","name":"Winn Dixie 2477 - 3406 US Hwy 19 N; Holiday","address":"FL 34690>727-842-5533"},{"latitude":"28.208373","longitude":"-82.739502","name":"Winn Dixie 2478 - 3408 US Hwy 19; Holiday","address":"FL 34691>727-842-5533"},{"latitude":"28.208449","longitude":"-82.738172","name":"Winn Dixie 2478 Liquor - 3406 US Hwy 19 N; Holiday","address":"FL 34690>727-842-5533"},{"latitude":"28.4514","longitude":"-81.490549","name":"Winn Dixie 2479 - 7600 Dr Phillips Blvd; Orlando","address":"FL 32819>407-578-4011"},{"latitude":"27.744364","longitude":"-82.750211","name":"Winn Dixie 2479 - 7625 Blind Pass Rd; Saint Petersburg","address":"FL 33706>727-363-3808"},{"latitude":"26.687234","longitude":"-81.864764","name":"Winn Dixie 2480 - 5660 Bayshore Rd; Fort Myers","address":"FL 33917>239-731-1007"},{"latitude":"26.689003","longitude":"-81.863642","name":"Winn Dixie 2481 - 5696 Bayshore Rd; Fort Myers","address":"FL 33917>239-731-1007"},{"latitude":"26.689003","longitude":"-81.863642","name":"Winn Dixie 2481 Liquor - 5696 Bayshore Rd; Fort Myers","address":"FL 33917>239-731-1007"},{"latitude":"27.269725","longitude":"-82.512827","name":"Winn Dixie 2482 - 2881 Clark Rd; Sarasota","address":"FL 34231>941-923-2676"},{"latitude":"27.269725","longitude":"-82.512827","name":"Winn Dixie 2483 Liquor - 2879 Clark Rd; Sarasota","address":"FL 34231>941-923-2549"},{"latitude":"28.49354","longitude":"-82.539583","name":"Winn Dixie 2484 - 4221 Mariner Blvd; Spring Hill","address":"FL 34608>352-688-1771"},{"latitude":"28.49354","longitude":"-82.539583","name":"Winn Dixie 2485 Liquor - 4213 Mariner Blvd; Spring Hill","address":"FL 34608>352-688-1771"},{"latitude":"28.233312","longitude":"-82.182309","name":"Winn Dixie 2487 - 38901 SR 54 E; Zephyrhills","address":"FL 33540>813-782-6465"},{"latitude":"28.251978","longitude":"-82.172063","name":"Winn Dixie 2488 Liquor - 38935 SR 54 E; Zephyrhills","address":"FL 33540>813-782-6465"},{"latitude":"27.209797","longitude":"-81.838056","name":"Winn Dixie 2491 - 1737 E Oak St; Arcadia","address":"FL 34266>863-993-3293"},{"latitude":"27.209797","longitude":"-81.838056","name":"Winn Dixie 2492 Liquor - 1737 E Oak St; Arcadia","address":"FL 34266>863-494-4047"},{"latitude":"26.469738","longitude":"-81.792185","name":"Winn Dixie 2493 - 18731 Three Oaks Pkwy; Fort Myers","address":"FL 33912>239-267-0333"},{"latitude":"27.982786","longitude":"-82.308899","name":"Winn Dixie 2495 - 11230 MLK Blvd; Seffner","address":"FL 33584>813-684-4949"},{"latitude":"27.982786","longitude":"-82.308899","name":"Winn Dixie 2496 Liquor - 11230 MLK Blvd; Seffner","address":"FL 33584>813-684-4949"},{"latitude":"27.856729","longitude":"-82.204873","name":"Winn Dixie 2500 - 16751 Fishhawk Blvd; Lithia","address":"FL 33547>813-643-5564"},{"latitude":"28.136636","longitude":"-82.757098","name":"Winn Dixie 2500 Liquor - 16741 Fishhawk Blvd; Lithia","address":"FL 33547>813-643-5564"},{"latitude":"27.298752","longitude":"-82.483112","name":"Winn Dixie 2501 - 4230 Bee Ridge Rd; Sarasota","address":"FL 34233>941-377-4047"},{"latitude":"27.298752","longitude":"-82.483112","name":"Winn Dixie 2502 Liquor - 4240 Bee Ridge Rd; Sarasota","address":"FL 34233>941-377-4047"},{"latitude":"28.238402","longitude":"-82.364701","name":"Winn Dixie 2503 - 27301 SR 54; Wesley Chapel","address":"FL 33543>813-994-5570"},{"latitude":"28.238402","longitude":"-82.364701","name":"Winn Dixie 2504 Liquor - 27303 SR 54; Wesley Chapel","address":"FL 33543>813-994-5570"},{"latitude":"27.937726","longitude":"-82.242761","name":"Winn Dixie 2505 - 2535 SR 60 E; Valrico","address":"FL 33594>813-651-9535"},{"latitude":"27.937726","longitude":"-82.242761","name":"Winn Dixie 2506 Liquor - 2535 SR 60 E; Valrico","address":"FL 33594>813-651-9535"},{"latitude":"28.127756","longitude":"-82.574998","name":"Winn Dixie 2507 - 17649 Gunn Hwy; Odessa","address":"FL 33556>813-920-7626"},{"latitude":"28.127756","longitude":"-82.574998","name":"Winn Dixie 2508 Liquor - 17641 Gunn Hwy; Odessa","address":"FL 33556>813-920-7626"},{"latitude":"27.791992","longitude":"-82.329479","name":"Winn Dixie 2509 - 10579 Big Bend Rd; Riverview","address":"FL 33579>813-234-0865"},{"latitude":"27.791992","longitude":"-82.329479","name":"Winn Dixie 2510 Liquor - 10667 Big Bend Rd; Riverview","address":"FL 33579>813-234-0865"},{"latitude":"27.86642","longitude":"-82.7882","name":"Winn Dixie 2511 - 10202 Seminole Blvd; Seminole","address":"FL 33772>727-392-8211"},{"latitude":"27.854714","longitude":"-82.786351","name":"Winn Dixie 2512 Liquor - 10368 Seminole Blvd; Seminole","address":"FL 33772>727-392-8211"},{"latitude":"26.520705","longitude":"-81.896683","name":"Winn Dixie 2513 - 8650 Gladiolus Dr; Fort Myers","address":"FL 33908>239-432-2630"},{"latitude":"26.520705","longitude":"-81.896683","name":"Winn Dixie 2514 Liquor - 8652 Gladiolus Dr; Fort Myers","address":"FL 33908>239-432-2630"},{"latitude":"26.243864","longitude":"-81.68893","name":"Winn Dixie 2515 - 7575 Vanderbilt Beach Rd; Naples","address":"FL 34119>239-304-3340"},{"latitude":"28.070783","longitude":"-82.63306","name":"Winn Dixie 2517 - 13016 Race Track Rd; Tampa","address":"FL 33626>813-814-0394"},{"latitude":"28.070783","longitude":"-82.63306","name":"Winn Dixie 2518 Liquor - 13016 Race Track Rd; Tampa","address":"FL 33626>813-814-0394"},{"latitude":"27.438055","longitude":"-82.576564","name":"Winn Dixie 2519 - 5802 14th St W; Bradenton","address":"FL 34207>941-751-4394"},{"latitude":"27.438055","longitude":"-82.576564","name":"Winn Dixie 2520 Liquor - 5824 14th St W; Bradenton","address":"FL 34207>941-751-4394"},{"latitude":"26.611135","longitude":"-81.783385","name":"Winn Dixie 2521 - 10580 Colonial Blvd; Fort Myers","address":"FL 33913>239-561-0493"},{"latitude":"26.611135","longitude":"-81.783385","name":"Winn Dixie 2522 Liquor - 10580 Colonial Blvd; Ft. Myers","address":"FL 33913>239-561-0493"},{"latitude":"28.907201","longitude":"-81.970222","name":"Winn Dixie 2523 -  820 Old Camp Rd; The Villages","address":"FL 32162>352-391-1594"},{"latitude":"26.397208","longitude":"-81.788692","name":"Winn Dixie 2525 - 10026 Coconut Rd; Bonita Springs","address":"FL 34135>239-495-2598"},{"latitude":"27.751923","longitude":"-82.412705","name":"Winn Dixie 2527 - 252 Harbor Village Lane; Apollo Beach","address":"FL 33572>813-645-9674"},{"latitude":"27.751923","longitude":"-82.412705","name":"Winn Dixie 2528 Liquor - 252 Harbor Village Lane; Apollo Beach","address":"FL 33572>813-645-9674"},{"latitude":"28.169878","longitude":"-82.354776","name":"Winn Dixie 2529 - 6425 County Line Rd; Tampa","address":"FL 33647>813-907-2024"},{"latitude":"28.17129","longitude":"-82.414174","name":"Winn Dixie 2530 Liquor - 6427 County Line Rd; Tampa","address":"FL 33647>813-907-2024"},{"latitude":"28.136636","longitude":"-82.757098","name":"Winn Dixie 2531 - 1171 S Pinellas Ave; Tarpon Springs","address":"FL 34689>727-937-4074"},{"latitude":"28.136636","longitude":"-82.757098","name":"Winn Dixie 2532 Liquor - 1167 S Pinellas Ave; Tarpon Springs","address":"FL 34689>727-937-4074"},{"latitude":"26.56225","longitude":"-81.951771","name":"Winn Dixie 2533 - 1016 Cape Coral Pkwy Suite 110 Cape Coral","address":"FL 33904>239-542-6464"},{"latitude":"26.56225","longitude":"-81.951771","name":"Winn Dixie 2534 Liquor - 1016 Cape Coral Pkwy; Cape Coral","address":"FL 33904>239-542-6464"},{"latitude":"28.86485","longitude":"-82.016709","name":"Winn Dixie 2545 - 2458 Burnsed Blvd; The Villages","address":"FL 34785>904-555-1212"},{"latitude":"27.173154","longitude":"-81.32856","name":"Winn Dixie 2548 - 1519 US Hwy 27 S; Lake Placid","address":"FL 33852>863-465-0416"},{"latitude":"30.336977","longitude":"-81.731284","name":"Winn Dixie 2601 - 1012 Edgewood Ave; Jacksonville","address":"FL 32254>904-786-2421"},{"latitude":"30.375865","longitude":"-81.654697","name":"Winn Dixie 2603 - 201 W 48th St; Jacksonville","address":"FL 32208>904-764-6178"},{"latitude":"31.324575","longitude":"-89.354545","name":"Winn Dixie 2626 - 4400 Hardy St; Hattiesburg","address":"MS 39402>601-268-1683"},{"latitude":"31.690664","longitude":"-89.133942","name":"Winn Dixie 2628 - 170 Beacon St; Laurel","address":"MS 39440>601-426-2161"},{"latitude":"28.553016","longitude":"-81.417151","name":"Winn Dixie 2656 - 3201 E Colonial Dr Orlando","address":"FL 32803>407-297-0027"},{"latitude":"28.553016","longitude":"-81.417151","name":"Winn Dixie 2656 Liquor - 3201 W Colonial Dr; Orlando","address":"FL 32804>407-297-1401"},{"latitude":"28.553016","longitude":"-81.417151","name":"Winn Dixie 2657 - 3201 W Colonial Dr; Orlando","address":"FL 32804>407-578-8151"},{"latitude":"27.994654","longitude":"-82.431102","name":"Winn Dixie 2659 - 2525 E Hillsboroug Ave; Tampa","address":"FL 33610>813-239-9603"},{"latitude":"30.299738","longitude":"-81.944653","name":"Winn Dixie Regional HQ - 15500 Beaver St W; Jacksonville","address":"FL 32234>904-266-8000"}]