[{"name":"Apple Store - Manhattan Village","code":null,"latitude":33.8952639,"longitude":-118.3942198,"address":"3200 Sepulveda Boulevard, Manhattan Beach CA","chain_name":null,"distance":0},{"name":"Apple Store - University Park Mall","code":null,"latitude":41.71949,"longitude":-86.1910124,"address":"6501 North Grape Road, Mishawaka IN","chain_name":null,"distance":0},{"name":"Apple Store - Park City","code":null,"latitude":40.0687293,"longitude":-76.3359897,"address":"541 Park City Center, Lancaster PA","chain_name":null,"distance":0},{"name":"Apple Store - Otay Ranch","code":null,"latitude":32.623489,"longitude":-116.9654569,"address":"2015 Birch Road, Chula Vista CA","chain_name":null,"distance":0},{"name":"Apple Store - Bridge Street","code":null,"latitude":34.7160189,"longitude":-86.6728156,"address":"320 The Bridge Street, Huntsville AL","chain_name":null,"distance":0},{"name":"Apple Store - Nanuet","code":null,"latitude":41.0958414,"longitude":-74.0166281,"address":"8115 Fashion Drive, Nanuet NY","chain_name":null,"distance":0},{"name":"Apple Store - Stanford","code":null,"latitude":37.442784,"longitude":-122.1730075,"address":"379 Stanford Shopping Center, Palo Alto CA","chain_name":null,"distance":0},{"name":"Apple Store - Willowbrook Mall","code":null,"latitude":29.958396,"longitude":-95.5386592,"address":"2000 Willowbrook Drive, Houston TX","chain_name":null,"distance":0},{"name":"Apple Store - Lakeside Shopping Center","code":null,"latitude":30.0062985,"longitude":-90.1573105,"address":"3301 Veterans Memorial Boulevard, Metairie LA","chain_name":null,"distance":0},{"name":"Apple Store - Danbury Fair Mall","code":null,"latitude":41.3800517,"longitude":-73.4817327,"address":"Seven Backus Avenue, Danbury CT","chain_name":null,"distance":0},{"name":"Apple Store - Quaker Bridge","code":null,"latitude":40.2910416,"longitude":-74.6826687,"address":"150 Quaker Bridge Mall, Lawrence Township NJ","chain_name":null,"distance":0},{"name":"Apple Store - Vintage Faire","code":null,"latitude":37.6872578,"longitude":-121.0498496,"address":"3401 Dale Road, Modesto CA","chain_name":null,"distance":0},{"name":"Apple Store - Tacoma Mall","code":null,"latitude":47.2164165,"longitude":-122.4678568,"address":"4502 S Steele Street, Tacoma WA","chain_name":null,"distance":0},{"name":"Apple Store - Country Club Plaza","code":null,"latitude":39.0414934,"longitude":-94.5898819,"address":"227 Nichols Road, Kansas City MO","chain_name":null,"distance":0},{"name":"Apple Store - Montgomery Mall","code":null,"latitude":39.0257717,"longitude":-77.1475762,"address":"7101 Democracy Boulevard, Bethesda MD","chain_name":null,"distance":0},{"name":"Apple Store - Manhasset","code":null,"latitude":40.7949568,"longitude":-73.6767486,"address":"1900 Northern Boulevard, Manhasset NY","chain_name":null,"distance":0},{"name":"Apple Store - Lenox Square","code":null,"latitude":33.8475546,"longitude":-84.3619696,"address":"3393 Peachtree Road NE, Atlanta GA","chain_name":null,"distance":0},{"name":"Apple Store - Washington Square","code":null,"latitude":45.4502155,"longitude":-122.7806224,"address":"9585 SW Washington Square Road, Tigard OR","chain_name":null,"distance":0},{"name":"Apple Store - Park Meadows","code":null,"latitude":39.5614707,"longitude":-104.8753259,"address":"8405 Park Meadows Center Drive, Lone Tree CO","chain_name":null,"distance":0},{"name":"Apple Store - Saddle Creek","code":null,"latitude":35.0934714,"longitude":-89.8128164,"address":"2031 West Street, Germantown TN","chain_name":null,"distance":0},{"name":"Apple Store - Bay Street","code":null,"latitude":37.8352204,"longitude":-122.2922643,"address":"5640 Bay Street, Emeryville CA","chain_name":null,"distance":0},{"name":"Apple Store - The Promenade at Chenal","code":null,"latitude":34.7662944,"longitude":-92.4589331,"address":"17711 Chenal Parkway, Little Rock AR","chain_name":null,"distance":0},{"name":"Apple Store - The Greene","code":null,"latitude":39.6944669,"longitude":-84.1021206,"address":"4422 Cedar Park Drive, Beavercreek OH","chain_name":null,"distance":0},{"name":"Apple Store - Scottsdale Quarter","code":null,"latitude":33.6237114,"longitude":-111.9251354,"address":"15169 North Scottsdale Road, Scottsdale AZ","chain_name":null,"distance":0},{"name":"Apple Store - Freehold Raceway Mall","code":null,"latitude":40.2532995,"longitude":-74.3002341,"address":"3710 Route 9 South, Freehold NJ","chain_name":null,"distance":0},{"name":"Apple Store - Menlo Park","code":null,"latitude":40.5480869,"longitude":-74.3343192,"address":"55 Parsonage Road, Edison NJ","chain_name":null,"distance":0},{"name":"Apple Store - Queens Center","code":null,"latitude":40.7344589,"longitude":-73.8704971,"address":"90-15 Queens Boulevard, Elmhurst NY","chain_name":null,"distance":0},{"name":"Apple Store - Suburban Square","code":null,"latitude":40.0087702,"longitude":-75.2878883,"address":"61 St. James Place, Ardmore PA","chain_name":null,"distance":0},{"name":"Apple Store - Fashion Fair","code":null,"latitude":36.8065876,"longitude":-119.7760061,"address":"645 E. Shaw Avenue, Fresno CA","chain_name":null,"distance":0},{"name":"Apple Store - Barton Creek","code":null,"latitude":30.2573391,"longitude":-97.8071884,"address":"2901 S. Capital of Texas Highway, Austin TX","chain_name":null,"distance":0},{"name":"Apple Store - Village Pointe","code":null,"latitude":41.2606989,"longitude":-96.184381,"address":"17255 Davenport Street, Omaha NE","chain_name":null,"distance":0},{"name":"Apple Store - El Paseo Village","code":null,"latitude":33.7194398,"longitude":-116.3832284,"address":"73445 El PaseoPalm , Desert CA","chain_name":null,"distance":0},{"name":"Apple Store - Walden Galleria","code":null,"latitude":42.914913,"longitude":-78.762121,"address":"G116 Walden Galleria, Buffalo NY","chain_name":null,"distance":0},{"name":"Apple Store - Sherman Oaks","code":null,"latitude":34.1565639,"longitude":-118.4369927,"address":"14006 Riverside Drive, Sherman Oaks CA","chain_name":null,"distance":0},{"name":"Apple Store - City Creek Center","code":null,"latitude":40.7681878,"longitude":-111.8918804,"address":"50 South Main Street, Salt Lake City UT","chain_name":null,"distance":0},{"name":"Apple Store - Maine Mall","code":null,"latitude":43.6342134,"longitude":-70.3367879,"address":"364 Maine Mall RoadSouth , Portland ME","chain_name":null,"distance":0},{"name":"Apple Store - Northbrook","code":null,"latitude":42.1518443,"longitude":-87.8170583,"address":"1310 Northbrook Court, Northbrook IL","chain_name":null,"distance":0},{"name":"Apple Store - Union Square","code":null,"latitude":37.7887802,"longitude":-122.4070931,"address":"300 Post Street, San Francisco CA","chain_name":null,"distance":0},{"name":"Apple Store - Main Place","code":null,"latitude":41.7727282,"longitude":-88.1504182,"address":"120 West Jefferson Avenue, Naperville IL","chain_name":null,"distance":0},{"name":"Apple Store - Walnut Street","code":null,"latitude":39.9499263,"longitude":-75.1679127,"address":"1607 Walnut Street, Philadelphia PA","chain_name":null,"distance":0},{"name":"Apple Store - West Town Mall","code":null,"latitude":35.9230111,"longitude":-84.0412354,"address":"7600 Kingston Pike, Knoxville TN","chain_name":null,"distance":0},{"name":"Apple Store - Rockingham Park","code":null,"latitude":42.7661196,"longitude":-71.2303197,"address":"99 Rockingham Park Boulevard, Salem NH","chain_name":null,"distance":0},{"name":"Apple Store - Del Monte","code":null,"latitude":36.5854341,"longitude":-121.8971718,"address":"240 Del Monte Center, Monterey CA","chain_name":null,"distance":0},{"name":"Apple Store - Third Street Promenade","code":null,"latitude":34.015423,"longitude":-118.495301,"address":"1415 Third Street Promenade, Santa Monica CA","chain_name":null,"distance":0},{"name":"Apple Store - Santa Rosa Plaza","code":null,"latitude":38.4401681,"longitude":-122.717091,"address":"1071 Santa Rosa Plaza, Santa Rosa CA","chain_name":null,"distance":0},{"name":"Apple Store - Promenade Temecula","code":null,"latitude":33.5259385,"longitude":-117.1581976,"address":"40764 Winchester Road, Temecula CA","chain_name":null,"distance":0},{"name":"Apple Store - Avalon","code":null,"latitude":34.0707949,"longitude":-84.2764762,"address":"8130 Avalon Boulevard, Alpharetta GA","chain_name":null,"distance":0},{"name":"Apple Store - Mission Viejo","code":null,"latitude":33.5589529,"longitude":-117.6685347,"address":"936C The Shops at Mission Viejo, Mission Viejo CA","chain_name":null,"distance":0},{"name":"Apple Store - North Michigan Avenue","code":null,"latitude":41.8948062,"longitude":-87.6238553,"address":"679 North Michigan Avenue, Chicago IL","chain_name":null,"distance":0},{"name":"Apple Store - River Park Square","code":null,"latitude":47.6592469,"longitude":-117.4225708,"address":"710 West Main Avenue, Spokane WA","chain_name":null,"distance":0},{"name":"Apple Store - Cumberland Mall","code":null,"latitude":33.8804303,"longitude":-84.4687488,"address":"1000 Cumberland Mall, Atlanta GA","chain_name":null,"distance":0},{"name":"Apple Store - University Town Center","code":null,"latitude":27.384433,"longitude":-82.4531881,"address":"140 University Town Center Drive, Sarasota FL","chain_name":null,"distance":0},{"name":"Apple Store - Twenty Ninth Street","code":null,"latitude":40.0176477,"longitude":-105.2562969,"address":"1755 29th Street, Boulder CO","chain_name":null,"distance":0},{"name":"Apple Store - Corte Madera","code":null,"latitude":37.9309722,"longitude":-122.5125716,"address":"1520 Redwood Highway, Corte Madera CA","chain_name":null,"distance":0},{"name":"Apple Store - Irvine Spectrum Center","code":null,"latitude":33.6495615,"longitude":-117.7452164,"address":"763 Spectrum Center Drive, Irvine CA","chain_name":null,"distance":0},{"name":"Apple Store - Oxmoor","code":null,"latitude":38.2465422,"longitude":-85.6103635,"address":"7900 Shelbyville Road, Louisville KY","chain_name":null,"distance":0},{"name":"Apple Store - FlatIron Crossing","code":null,"latitude":39.9321113,"longitude":-105.1314025,"address":"One West Flatiron Crossing Drive, Broomfield CO","chain_name":null,"distance":0},{"name":"Apple Store - Clarendon","code":null,"latitude":38.8876873,"longitude":-77.0911053,"address":"2700 Clarendon Boulevard, Arlington VA","chain_name":null,"distance":0},{"name":"Apple Store - Knox Street","code":null,"latitude":32.8225264,"longitude":-96.787939,"address":"3101 Knox Street, Dallas TX","chain_name":null,"distance":0},{"name":"Apple Store - Willow Bend","code":null,"latitude":33.0304543,"longitude":-96.8317351,"address":"6121 West Park Boulevard, Plano TX","chain_name":null,"distance":0},{"name":"Apple Store - University Park Village","code":null,"latitude":32.7274302,"longitude":-97.3616888,"address":"1620 S. University Drive, Fort Worth TX","chain_name":null,"distance":0},{"name":"Apple Store - Staten Island","code":null,"latitude":40.582418,"longitude":-74.1659155,"address":"2655 Richmond Avenue, Staten Island NY","chain_name":null,"distance":0},{"name":"Apple Store - Bellevue Square","code":null,"latitude":47.6124185,"longitude":-122.2016361,"address":"213 Bellevue Square, Bellevue WA","chain_name":null,"distance":0},{"name":"Apple Store - Georgetown","code":null,"latitude":38.905937,"longitude":-77.0623736,"address":"1229 Wisconsin Avenue NW, Washington DC","chain_name":null,"distance":0},{"name":"Apple Store - The Grove","code":null,"latitude":34.0716042,"longitude":-118.357882,"address":"189 The Grove Drive, Los Angeles CA","chain_name":null,"distance":0},{"name":"Apple Store - Bridgewater","code":null,"latitude":40.5858409,"longitude":-74.6194948,"address":"400 Commons Way, Bridgewater NJ","chain_name":null,"distance":0},{"name":"Apple Store - Roosevelt Field","code":null,"latitude":40.7399709,"longitude":-73.6135758,"address":"630 Old Country Road, Garden City NY","chain_name":null,"distance":0},{"name":"Apple Store - Bridgeport Village","code":null,"latitude":45.3967345,"longitude":-122.7518181,"address":"7293 SW Bridgeport Road, Tigard OR","chain_name":null,"distance":0},{"name":"Apple Store - Pioneer Place","code":null,"latitude":45.5177608,"longitude":-122.6775569,"address":"450 SW Yamhill Street, Portland OR","chain_name":null,"distance":0},{"name":"Apple Store - Deer Park","code":null,"latitude":42.161279,"longitude":-88.0562941,"address":"20530 N. Rand Road, Deer Park IL","chain_name":null,"distance":0},{"name":"Apple Store - The Falls","code":null,"latitude":25.6443825,"longitude":-80.3394789,"address":"8888 SW 136th Street, Miami FL","chain_name":null,"distance":0},{"name":"Apple Store - Fashion Place","code":null,"latitude":40.6381663,"longitude":-111.8888049,"address":"6191 S State Street, Murray UT","chain_name":null,"distance":0},{"name":"Apple Store - South Shore","code":null,"latitude":42.2200925,"longitude":-71.0226617,"address":"250 Granite Street, Braintree MA","chain_name":null,"distance":0},{"name":"Apple Store - Carlsbad","code":null,"latitude":33.0715929,"longitude":-117.2650856,"address":"1923 Calle Barcelona, Carlsbad CA","chain_name":null,"distance":0},{"name":"Apple Store - Mayfair","code":null,"latitude":43.0638475,"longitude":-88.0456476,"address":"2500 N. Mayfair Road, Wauwatosa WI","chain_name":null,"distance":0},{"name":"Apple Store - Fashion Show","code":null,"latitude":36.1272241,"longitude":-115.1715512,"address":"3200 Las Vegas Boulevard, Las Vegas NV","chain_name":null,"distance":0},{"name":"Apple Store - North County","code":null,"latitude":33.0711094,"longitude":-117.0657814,"address":"272 E Via Rancho Parkway, Escondido CA","chain_name":null,"distance":0},{"name":"Apple Store - Chestnut Street","code":null,"latitude":37.8003459,"longitude":-122.4383374,"address":"2125 Chestnut Street, San Francisco CA","chain_name":null,"distance":0},{"name":"Apple Store - Perimeter","code":null,"latitude":33.9232565,"longitude":-84.3400292,"address":"4400 Ashford Dunwoody Road, Atlanta GA","chain_name":null,"distance":0},{"name":"Apple Store - The Americana at Brand","code":null,"latitude":34.1444167,"longitude":-118.2554939,"address":"877 Americana Way, Glendale CA","chain_name":null,"distance":0},{"name":"Apple Store - Eton","code":null,"latitude":41.4634672,"longitude":-81.4769308,"address":"28849 Chagrin Boulevard, Woodmere OH","chain_name":null,"distance":0},{"name":"Apple Store - Sagemore","code":null,"latitude":39.9001412,"longitude":-74.9317018,"address":"500 Route 73 South, Marlton NJ","chain_name":null,"distance":0},{"name":"Apple Store - South Coast Plaza","code":null,"latitude":33.6920547,"longitude":-117.8928998,"address":"3333 Bear Street, Costa Mesa CA","chain_name":null,"distance":0},{"name":"Apple Store - Woodfield","code":null,"latitude":42.045961,"longitude":-88.03753,"address":"K303 Woodfield Mall, Schaumburg IL","chain_name":null,"distance":0},{"name":"Apple Store - Palo Alto","code":null,"latitude":37.4463807,"longitude":-122.1607674,"address":"340 University Avenue, Palo Alto CA","chain_name":null,"distance":0},{"name":"Apple Store - Arden Fair","code":null,"latitude":38.601511,"longitude":-121.4278631,"address":"1689 Arden Way, Sacramento CA","chain_name":null,"distance":0},{"name":"Apple Store - Oakridge","code":null,"latitude":37.2515431,"longitude":-121.8624492,"address":"925 Blossom Hill Road, San Jose CA","chain_name":null,"distance":0},{"name":"Apple Store - Cielo Vista Mall","code":null,"latitude":31.7754938,"longitude":-106.3793949,"address":"8401 Gateway Boulevard West, El Paso TX","chain_name":null,"distance":0},{"name":"Apple Store - Northlake Mall","code":null,"latitude":35.352549,"longitude":-80.851181,"address":"6801 Northlake Mall Drive, Charlotte NC","chain_name":null,"distance":0},{"name":"Apple Store - Wellington Green","code":null,"latitude":26.646333,"longitude":-80.2084654,"address":"10300 W. Forest Hill Boulevard, Wellington FL","chain_name":null,"distance":0},{"name":"Apple Store - Orland Square Mall","code":null,"latitude":41.6195628,"longitude":-87.8483756,"address":"428 Orland Square, Orland Park IL","chain_name":null,"distance":0},{"name":"Apple Store - Somerset","code":null,"latitude":42.5627151,"longitude":-83.1840415,"address":"2800 W Big Beaver Road, Troy MI","chain_name":null,"distance":0},{"name":"Apple Store - Woodland","code":null,"latitude":42.9162654,"longitude":-85.5882673,"address":"3195 28th Street, Grand Rapids MI","chain_name":null,"distance":0},{"name":"Apple Store - Century City","code":null,"latitude":34.0599924,"longitude":-118.4200376,"address":"10250 Santa Monica Boulevard, Los Angeles CA","chain_name":null,"distance":0},{"name":"Apple Store - Brea Mall","code":null,"latitude":33.9148897,"longitude":-117.8866922,"address":"1016C Brea Mall, Brea CA","chain_name":null,"distance":0},{"name":"Apple Store - West 14th Street","code":null,"latitude":40.7413536,"longitude":-74.0055356,"address":"401 W 14th Street, New York NY","chain_name":null,"distance":0},{"name":"Apple Store - CoolSprings Galleria","code":null,"latitude":35.957118,"longitude":-86.8135382,"address":"1800 Galleria Boulevard, Franklin TN","chain_name":null,"distance":0},{"name":"Apple Store - Bayshore","code":null,"latitude":43.1216063,"longitude":-87.9150521,"address":"5715 N Centerpark Way, Glendale WI","chain_name":null,"distance":0},{"name":"Apple Store - The Pier","code":null,"latitude":39.3547815,"longitude":-74.4348863,"address":"The Pier at Caesars, Atlantic City NJ","chain_name":null,"distance":0},{"name":"Apple Store - University Village","code":null,"latitude":47.6632832,"longitude":-122.2991532,"address":"2656 NE University Village Street, Seattle WA","chain_name":null,"distance":0},{"name":"Apple Store - MarketStreet","code":null,"latitude":42.5156687,"longitude":-71.0341966,"address":"1220 Market Street, Lynnfield MA","chain_name":null,"distance":0},{"name":"Apple Store - Fashion Valley","code":null,"latitude":32.7681421,"longitude":-117.1698284,"address":"7007 Friars Road, San Diego CA","chain_name":null,"distance":0},{"name":"Apple Store - Penn Square","code":null,"latitude":35.5246909,"longitude":-97.5440106,"address":"1901 NW Expressway Street, Oklahoma City OK","chain_name":null,"distance":0},{"name":"Apple Store - MacArthur Center","code":null,"latitude":36.8489027,"longitude":-76.2879503,"address":"300 Monticello Avenue, Norfolk VA","chain_name":null,"distance":0},{"name":"Apple Store - The Forum Shops","code":null,"latitude":36.1173432,"longitude":-115.1763623,"address":"3500 Las Vegas Blvd South, Las Vegas NV","chain_name":null,"distance":0},{"name":"Apple Store - Memorial City","code":null,"latitude":29.7810332,"longitude":-95.5397304,"address":"303 Memorial City, Houston TX","chain_name":null,"distance":0},{"name":"Apple Store - Walnut Creek","code":null,"latitude":37.8969815,"longitude":-122.0602576,"address":"1129 S. Main Street, Walnut Creek CA","chain_name":null,"distance":0},{"name":"Apple Store - Partridge Creek","code":null,"latitude":42.6252504,"longitude":-82.9464749,"address":"17360 Hall Road, Clinton Township MI","chain_name":null,"distance":0},{"name":"Apple Store - Southdale","code":null,"latitude":44.880335,"longitude":-93.324465,"address":"1560 Southdale Center, Edina MN","chain_name":null,"distance":0},{"name":"Apple Store - Lincoln Park","code":null,"latitude":41.9105977,"longitude":-87.6485178,"address":"801 W. North Avenue, Chicago IL","chain_name":null,"distance":0},{"name":"Apple Store - Grand Central","code":null,"latitude":40.752735,"longitude":-73.977002,"address":"45 Grand Central Terminal, New York NY","chain_name":null,"distance":0},{"name":"Apple Store - Upper West Side","code":null,"latitude":40.775071,"longitude":-73.9826624,"address":"1981 Broadway, New York NY","chain_name":null,"distance":0},{"name":"Apple Store - Summit Mall","code":null,"latitude":41.1341338,"longitude":-81.6176897,"address":"3265 West Market Street, Akron OH","chain_name":null,"distance":0},{"name":"Apple Store - La Encantada","code":null,"latitude":32.3247418,"longitude":-110.9301132,"address":"2905 East Skyline Drive, Tucson AZ","chain_name":null,"distance":0},{"name":"Apple Store - Summerlin","code":null,"latitude":36.1502694,"longitude":-115.3338102,"address":"1985 Festival Plaza Drive, Las Vegas NV","chain_name":null,"distance":0},{"name":"Apple Store - The Oaks","code":null,"latitude":34.1852016,"longitude":-118.8859322,"address":"432 West Hillcrest Drive, Thousand Oaks CA","chain_name":null,"distance":0},{"name":"Apple Store - UTC","code":null,"latitude":32.8723957,"longitude":-117.2092816,"address":"4505 La Jolla Village Drive, San Diego CA","chain_name":null,"distance":0},{"name":"Apple Store - Short Pump Town Center","code":null,"latitude":37.6562009,"longitude":-77.6194616,"address":"11800 W. Broad Street, Richmond VA","chain_name":null,"distance":0},{"name":"Apple Store - Burlingame","code":null,"latitude":37.5782646,"longitude":-122.3470871,"address":"1301 Burlingame Avenue, Burlingame CA","chain_name":null,"distance":0},{"name":"Apple Store - Waterside Shops","code":null,"latitude":26.2128929,"longitude":-81.8025183,"address":"5555 Tamiami Trail North, Naples FL","chain_name":null,"distance":0},{"name":"Apple Store - Willow Grove Park","code":null,"latitude":40.1431285,"longitude":-75.1201341,"address":"2500 West Moreland Road, Willow Grove PA","chain_name":null,"distance":0},{"name":"Apple Store - Cherry Creek","code":null,"latitude":39.7175014,"longitude":-104.952671,"address":"3000 E 1st Avenue, Denver CO","chain_name":null,"distance":0},{"name":"Apple Store - The Domain","code":null,"latitude":30.4015938,"longitude":-97.7267811,"address":"11410 Century Oaks Terrace, Austin TX","chain_name":null,"distance":0},{"name":"Apple Store - Stonestown","code":null,"latitude":37.7278702,"longitude":-122.4770819,"address":"3251 20th Avenue, San Francisco CA","chain_name":null,"distance":0},{"name":"Apple Store - Altamonte","code":null,"latitude":28.663915,"longitude":-81.377079,"address":"451 E Altamonte Drive, Altamonte Springs FL","chain_name":null,"distance":0},{"name":"Apple Store - Town Square","code":null,"latitude":36.0661928,"longitude":-115.1722432,"address":"6671 Las Vegas Boulevard South, Las Vegas NV","chain_name":null,"distance":0},{"name":"Apple Store - Ridge Hill","code":null,"latitude":40.963703,"longitude":-73.856564,"address":"143 Market Street, Yonkers NY","chain_name":null,"distance":0},{"name":"Apple Store - Lehigh Valley","code":null,"latitude":40.6307581,"longitude":-75.4799733,"address":"250 Lehigh Valley Mall, Whitehall PA","chain_name":null,"distance":0},{"name":"Apple Store - Old Orchard","code":null,"latitude":42.0595722,"longitude":-87.749028,"address":"4999 Old Orchard Center, Skokie IL","chain_name":null,"distance":0},{"name":"Apple Store - Eastwood Towne Center","code":null,"latitude":42.7639062,"longitude":-84.5133864,"address":"3025 Preyde Boulevard, Lansing MI","chain_name":null,"distance":0},{"name":"Apple Store - Chestnut Hill","code":null,"latitude":42.3213853,"longitude":-71.175966,"address":"199 Boylston Street, Chestnut Hill MA","chain_name":null,"distance":0},{"name":"Apple Store - Saint Louis Galleria","code":null,"latitude":38.6372982,"longitude":-90.3483764,"address":"2440 Saint Louis Galleria, St. Louis MO","chain_name":null,"distance":0},{"name":"Apple Store - Florida Mall","code":null,"latitude":28.4554186,"longitude":-81.398841,"address":"8001 South Orange Blossom Trail, Orlando FL","chain_name":null,"distance":0},{"name":"Apple Store - Derby Street","code":null,"latitude":42.17746,"longitude":-70.9087745,"address":"94 Derby Street, Hingham MA","chain_name":null,"distance":0},{"name":"Apple Store - Tice's Corner","code":null,"latitude":41.0419119,"longitude":-74.0750021,"address":"441 Chestnut Ridge Road, Woodcliff Lake NJ","chain_name":null,"distance":0},{"name":"Apple Store - CambridgeSide","code":null,"latitude":42.3681321,"longitude":-71.0763644,"address":"100 CambridgeSide Place, Cambridge MA","chain_name":null,"distance":0},{"name":"Apple Store - Holyoke","code":null,"latitude":42.167247,"longitude":-72.641327,"address":"50 Holyoke Street, Holyoke MA","chain_name":null,"distance":0},{"name":"Apple Store - Alderwood Mall","code":null,"latitude":47.8299542,"longitude":-122.2725709,"address":"3000 184th Street S.W., Lynnwood WA","chain_name":null,"distance":0},{"name":"Apple Store - Brandon","code":null,"latitude":27.9312118,"longitude":-82.325879,"address":"459 Brandon Town Center Drive, Brandon FL","chain_name":null,"distance":0},{"name":"Apple Store - The Woodlands","code":null,"latitude":30.1639591,"longitude":-95.45537,"address":"1201 Lake Woodlands Drive, The Woodlands TX","chain_name":null,"distance":0},{"name":"Apple Store - Dadeland","code":null,"latitude":25.6905453,"longitude":-80.3124946,"address":"7535 Dadeland Mall, Miami FL","chain_name":null,"distance":0},{"name":"Apple Store - Garden State Plaza","code":null,"latitude":40.914763,"longitude":-74.075323,"address":"1 Garden State Plaza, Paramus NJ","chain_name":null,"distance":0},{"name":"Apple Store - Franklin Park Mall","code":null,"latitude":41.6947913,"longitude":-83.6405727,"address":"5001 Monroe Street, Toledo OH","chain_name":null,"distance":0},{"name":"Apple Store - Green Hills","code":null,"latitude":36.1085772,"longitude":-86.8133432,"address":"2126 Abbott Martin Road, Nashville TN","chain_name":null,"distance":0},{"name":"Apple Store - Evergreen Walk","code":null,"latitude":41.8127151,"longitude":-72.5564937,"address":"401 Evergreen WalkSouth , Windsor CT","chain_name":null,"distance":0},{"name":"Apple Store - Burlington","code":null,"latitude":42.481127,"longitude":-71.216752,"address":"75 Middlesex Turnpike, Burlington MA","chain_name":null,"distance":0},{"name":"Apple Store - Augusta","code":null,"latitude":33.4635508,"longitude":-82.0788358,"address":"3450 Wrightsboro Road, Augusta GA","chain_name":null,"distance":0},{"name":"Apple Store - Coconut Point","code":null,"latitude":26.402173,"longitude":-81.806526,"address":"23151 Fashion Drive, Estero FL","chain_name":null,"distance":0},{"name":"Apple Store - Columbia","code":null,"latitude":39.2153109,"longitude":-76.8612159,"address":"10300 Little Patuxent Parkway, Columbia MD","chain_name":null,"distance":0},{"name":"Apple Store - Jordan Creek","code":null,"latitude":41.5702624,"longitude":-93.8070392,"address":"101 Jordan Creek Parkway, West Des Moines IA","chain_name":null,"distance":0},{"name":"Apple Store - Biltmore","code":null,"latitude":33.5103953,"longitude":-112.0286923,"address":"2502 East Camelback Road, Phoenix AZ","chain_name":null,"distance":0},{"name":"Apple Store - Baybrook","code":null,"latitude":29.541913,"longitude":-95.1481783,"address":"500 Baybrook Mall, Friendswood TX","chain_name":null,"distance":0},{"name":"Apple Store - Pheasant Lane","code":null,"latitude":42.7016049,"longitude":-71.4367899,"address":"310 Daniel Webster Highway, Nashua NH","chain_name":null,"distance":0},{"name":"Apple Store - Potomac Town Center","code":null,"latitude":38.6280732,"longitude":-77.2879214,"address":"15100 Potomac Town Place, Woodbridge VA","chain_name":null,"distance":0},{"name":"Apple Store - Aventura","code":null,"latitude":25.9581542,"longitude":-80.1468335,"address":"19501 Biscayne Boulevard, Aventura FL","chain_name":null,"distance":0},{"name":"Apple Store - Woodland Hills","code":null,"latitude":36.0619114,"longitude":-95.8862805,"address":"7021 S. Memorial Drive, Tulsa OK","chain_name":null,"distance":0},{"name":"Apple Store - Towson Town Center","code":null,"latitude":39.4038642,"longitude":-76.5987395,"address":"825 Dulaney Valley Road, Towson MD","chain_name":null,"distance":0},{"name":"Apple Store - The Summit","code":null,"latitude":33.4465154,"longitude":-86.7296322,"address":"217 Summit Boulevard, Birmingham AL","chain_name":null,"distance":0},{"name":"Apple Store - Houston Galleria","code":null,"latitude":29.7382947,"longitude":-95.4645046,"address":"5085 Westheimer Road, Houston TX","chain_name":null,"distance":0},{"name":"Apple Store - Briarwood","code":null,"latitude":42.2403679,"longitude":-83.7475749,"address":"100 Briarwood Circle, Ann Arbor MI","chain_name":null,"distance":0},{"name":"Apple Store - West Towne","code":null,"latitude":43.057412,"longitude":-89.512696,"address":"18 West Towne Mall, Madison WI","chain_name":null,"distance":0},{"name":"Apple Store - Twelve Oaks","code":null,"latitude":42.4899334,"longitude":-83.4759009,"address":"27500 Novi Road, Novi MI","chain_name":null,"distance":0},{"name":"Apple Store - Topanga","code":null,"latitude":34.1854111,"longitude":-118.6045941,"address":"6600 Topanga Canyon Boulevard, Canoga Park CA","chain_name":null,"distance":0},{"name":"Apple Store - Hillsdale","code":null,"latitude":37.536709,"longitude":-122.300118,"address":"340 Hillsdale Shopping Center, San Mateo CA","chain_name":null,"distance":0},{"name":"Apple Store - West County","code":null,"latitude":38.6009346,"longitude":-90.4476968,"address":"131 West County Center, St. Louis MO","chain_name":null,"distance":0},{"name":"Apple Store - Uptown","code":null,"latitude":44.9476919,"longitude":-93.2986118,"address":"3018 Hennepin Avenue, Minneapolis MN","chain_name":null,"distance":0},{"name":"Apple Store - ABQ Uptown","code":null,"latitude":35.1024312,"longitude":-106.5669329,"address":"2240 Q Street NE, Albuquerque NM","chain_name":null,"distance":0},{"name":"Apple Store - Christiana Mall","code":null,"latitude":39.679285,"longitude":-75.653025,"address":"125 Christiana Mall, Newark DE","chain_name":null,"distance":0},{"name":"Apple Store - Eastview","code":null,"latitude":43.0277091,"longitude":-77.4436866,"address":"7979 Pittsford-, Victor RoadVictor NY","chain_name":null,"distance":0},{"name":"Apple Store - The Fashion Mall at Keystone","code":null,"latitude":39.9140651,"longitude":-86.1111523,"address":"8702 Keystone Crossing, Indianapolis IN","chain_name":null,"distance":0},{"name":"Apple Store - Mall of America","code":null,"latitude":44.8532693,"longitude":-93.2417851,"address":"132 South Avenue, Bloomington MN","chain_name":null,"distance":0},{"name":"Apple Store - Providence Place","code":null,"latitude":41.827286,"longitude":-71.415986,"address":"20 Providence Place, Providence RI","chain_name":null,"distance":0},{"name":"Apple Store - Valley Fair","code":null,"latitude":37.325845,"longitude":-121.9456152,"address":"2855 Stevens Creek Boulevard, Santa Clara CA","chain_name":null,"distance":0},{"name":"Apple Store - SoHo","code":null,"latitude":40.7251148,"longitude":-73.9989687,"address":"103 Prince Street, New York NY","chain_name":null,"distance":0},{"name":"Apple Store - Rosedale Center","code":null,"latitude":45.0128486,"longitude":-93.1690483,"address":"1595 Highway 36 W, Roseville MN","chain_name":null,"distance":0},{"name":"Apple Store - Willowbrook","code":null,"latitude":40.8900807,"longitude":-74.2615039,"address":"1400 Willowbrook Mall, Wayne NJ","chain_name":null,"distance":0},{"name":"Apple Store - La Cantera","code":null,"latitude":29.5932926,"longitude":-98.6109397,"address":"15900 La Cantera Parkway, San Antonio TX","chain_name":null,"distance":0},{"name":"Apple Store - Millenia","code":null,"latitude":28.485565,"longitude":-81.4315497,"address":"4200 Conroy Road, Orlando FL","chain_name":null,"distance":0},{"name":"Apple Store - Easton Town Center","code":null,"latitude":40.0540687,"longitude":-82.9148552,"address":"4210 The Strand, Columbus OH","chain_name":null,"distance":0},{"name":"Apple Store - Fayette Mall","code":null,"latitude":37.99027,"longitude":-84.524191,"address":"3401 Nicholasville Road, Lexington KY","chain_name":null,"distance":0},{"name":"Apple Store - Highland Village","code":null,"latitude":29.7420592,"longitude":-95.4457387,"address":"4012 Westheimer Road, Houston TX","chain_name":null,"distance":0},{"name":"Apple Store - Cherry Hill","code":null,"latitude":39.9423869,"longitude":-75.025193,"address":"2000 Route 38, Cherry Hill NJ","chain_name":null,"distance":0},{"name":"Apple Store - Stoneridge Mall","code":null,"latitude":37.6957464,"longitude":-121.92924,"address":"One Stoneridge Mall, Pleasanton CA","chain_name":null,"distance":0},{"name":"Apple Store - Southpoint","code":null,"latitude":35.9048455,"longitude":-78.9448592,"address":"8030 Renaissance Parkway, Durham NC","chain_name":null,"distance":0},{"name":"Apple Store - Station Park","code":null,"latitude":40.9833287,"longitude":-111.9065687,"address":"148 N. East Promontory, Farmington UT","chain_name":null,"distance":0},{"name":"Apple Store - Upper East Side","code":null,"latitude":40.7733789,"longitude":-73.9645457,"address":"940 Madison Avenue, New York NY","chain_name":null,"distance":0},{"name":"Apple Store - St. Johns Town Center","code":null,"latitude":30.2533507,"longitude":-81.5251315,"address":"4835 River City Drive, Jacksonville FL","chain_name":null,"distance":0},{"name":"Apple Store - King of Prussia","code":null,"latitude":40.0879055,"longitude":-75.3897629,"address":"160 N. Gulph Road, King of Prussia PA","chain_name":null,"distance":0},{"name":"Apple Store - Reston","code":null,"latitude":38.9587147,"longitude":-77.3577355,"address":"11949 Market Street, Reston VA","chain_name":null,"distance":0},{"name":"Apple Store - Stamford","code":null,"latitude":41.0530773,"longitude":-73.5371438,"address":"100 Greyrock Place, Stamford CT","chain_name":null,"distance":0},{"name":"Apple Store - Higuera Street","code":null,"latitude":35.2802914,"longitude":-120.661687,"address":"899 Higuera StreetSan , Luis Obispo CA","chain_name":null,"distance":0},{"name":"Apple Store - Stonebriar","code":null,"latitude":33.0982299,"longitude":-96.805935,"address":"2601 Preston Road, Frisco TX","chain_name":null,"distance":0},{"name":"Apple Store - Rockaway","code":null,"latitude":40.9006225,"longitude":-74.5461549,"address":"301 Mt. Hope Avenue, Rockaway NJ","chain_name":null,"distance":0},{"name":"Apple Store - Polaris Fashion Place","code":null,"latitude":40.1415928,"longitude":-82.9773875,"address":"1500 Polaris Parkway, Columbus OH","chain_name":null,"distance":0},{"name":"Apple Store - Annapolis","code":null,"latitude":38.9895813,"longitude":-76.5485936,"address":"1735 Annapolis Mall, Annapolis MD","chain_name":null,"distance":0},{"name":"Apple Store - Oakbrook","code":null,"latitude":41.8497458,"longitude":-87.9536297,"address":"70 Oakbrook Center, Oak Brook IL","chain_name":null,"distance":0},{"name":"Apple Store - Haywood Mall","code":null,"latitude":34.8499171,"longitude":-82.3335876,"address":"700 Haywood Road, Greenville SC","chain_name":null,"distance":0},{"name":"Apple Store - Mall of Louisiana","code":null,"latitude":30.3889748,"longitude":-91.0885434,"address":"6401 Bluebonnet Boulevard, Baton Rouge LA","chain_name":null,"distance":0},{"name":"Apple Store - Short Hills","code":null,"latitude":40.7396366,"longitude":-74.3656369,"address":"1200 Morris Turnpike, Short Hills NJ","chain_name":null,"distance":0},{"name":"Apple Store - Boylston Street","code":null,"latitude":42.3488956,"longitude":-71.0824216,"address":"815 Boylston Street, Boston MA","chain_name":null,"distance":0},{"name":"Apple Store - Bethesda Row","code":null,"latitude":38.9806494,"longitude":-77.0977075,"address":"4860 Bethesda Avenue, Bethesda MD","chain_name":null,"distance":0},{"name":"Apple Store - Kenwood Towne Centre","code":null,"latitude":39.2025027,"longitude":-84.3770223,"address":"7875 Montgomery Road, Cincinnati OH","chain_name":null,"distance":0},{"name":"Apple Store - Ross Park","code":null,"latitude":40.5445585,"longitude":-80.0087394,"address":"1000 Ross Park Mall Drive, Pittsburgh PA","chain_name":null,"distance":0},{"name":"Apple Store - Shadyside","code":null,"latitude":40.4510431,"longitude":-79.9333379,"address":"5508 Walnut Street, Pittsburgh PA","chain_name":null,"distance":0},{"name":"Apple Store - Crabtree Valley Mall","code":null,"latitude":35.8377024,"longitude":-78.6758944,"address":"4325 Glenwood Avenue, Raleigh NC","chain_name":null,"distance":0},{"name":"Apple Store - NorthPark Center","code":null,"latitude":32.8685017,"longitude":-96.7735125,"address":"8687 North Central Expressway, Dallas TX","chain_name":null,"distance":0},{"name":"Apple Store - World Trade Center","code":null,"latitude":40.7115712,"longitude":-74.0114251,"address":"185 Greenwich Street, New York NY","chain_name":null,"distance":0},{"name":"Apple Store - Los Gatos","code":null,"latitude":37.223439,"longitude":-121.983882,"address":"23 N. Santa Cruz Avenue, Los Gatos CA","chain_name":null,"distance":0},{"name":"Apple Store - Legacy Place","code":null,"latitude":42.2310068,"longitude":-71.1783863,"address":"508 Legacy Place, Dedham MA","chain_name":null,"distance":0},{"name":"Apple Store - Natick Collection","code":null,"latitude":42.3019258,"longitude":-71.3843794,"address":"1245 Worcester Street, Natick MA","chain_name":null,"distance":0},{"name":"Apple Store - Lincoln Road","code":null,"latitude":25.79075,"longitude":-80.1393315,"address":"1021 Lincoln Road, Miami Beach FL","chain_name":null,"distance":0},{"name":"Apple Store - Chandler Fashion Center","code":null,"latitude":33.30525,"longitude":-111.8984042,"address":"3111 W Chandler Boulevard, Chandler AZ","chain_name":null,"distance":0},{"name":"Apple Store - Tysons Corner","code":null,"latitude":38.9176225,"longitude":-77.2222369,"address":"1961 Chain Bridge Road, McLean VA","chain_name":null,"distance":0},{"name":"Apple Store - Williamsburg","code":null,"latitude":40.7155938,"longitude":-73.9599319,"address":"247 Bedford Avenue, Brooklyn NY","chain_name":null,"distance":0},{"name":"Apple Store - Beverly Center","code":null,"latitude":34.0753309,"longitude":-118.3774933,"address":"8500 Beverly Boulevard, Los Angeles CA","chain_name":null,"distance":0},{"name":"Apple Store - Pasadena","code":null,"latitude":34.1454131,"longitude":-118.1516385,"address":"54 West Colorado Boulevard, Pasadena CA","chain_name":null,"distance":0},{"name":"Apple Store - Renaissance at Colony Park","code":null,"latitude":32.438187,"longitude":-90.147741,"address":"1000 Highland Colony Parkway, Ridgeland MS","chain_name":null,"distance":0},{"name":"Apple Store - Aspen Grove","code":null,"latitude":39.5844826,"longitude":-105.0253232,"address":"7301 S Santa Fe Drive, Littleton CO","chain_name":null,"distance":0},{"name":"Apple Store - Mall of Georgia","code":null,"latitude":34.0642698,"longitude":-83.982806,"address":"3333 Buford Drive, Buford GA","chain_name":null,"distance":0},{"name":"Apple Store - The Galleria","code":null,"latitude":26.1372239,"longitude":-80.1150952,"address":"2388 E. Sunrise Boulevard, Fort Lauderdale FL","chain_name":null,"distance":0},{"name":"Apple Store - Valley Plaza","code":null,"latitude":35.3381784,"longitude":-119.0343967,"address":"2701 Ming Avenue, Bakersfield CA","chain_name":null,"distance":0},{"name":"Apple Store - Southlake Town Square","code":null,"latitude":32.9438372,"longitude":-97.1305752,"address":"260 Grand Avenue, Southlake TX","chain_name":null,"distance":0},{"name":"Apple Store - 4th Street","code":null,"latitude":37.8693462,"longitude":-122.3001651,"address":"1823 4th Street, Berkeley CA","chain_name":null,"distance":0},{"name":"Apple Store - Smith Haven","code":null,"latitude":40.8643874,"longitude":-73.1332695,"address":"518 Smith Haven Mall, Lake Grove NY","chain_name":null,"distance":0},{"name":"Apple Store - Los Cerritos","code":null,"latitude":33.8632709,"longitude":-118.0937029,"address":"242 Los Cerritos Center, Cerritos CA","chain_name":null,"distance":0},{"name":"Apple Store - Brickell City Centre","code":null,"latitude":25.7671674,"longitude":-80.1930873,"address":"701 S. Miami Avenue, Miami FL","chain_name":null,"distance":0},{"name":"Apple Store - South Hills Village","code":null,"latitude":40.3426231,"longitude":-80.0561688,"address":"301 South Hills Village, Pittsburgh PA","chain_name":null,"distance":0},{"name":"Apple Store - Syracuse","code":null,"latitude":43.0692244,"longitude":-76.1737549,"address":"1 Destiny USA Drive, Syracuse NY","chain_name":null,"distance":0},{"name":"Apple Store - Summit Sierra","code":null,"latitude":39.4065597,"longitude":-119.7511759,"address":"13925 S. Virginia Street, Reno NV","chain_name":null,"distance":0},{"name":"Apple Store - International Plaza","code":null,"latitude":27.9656125,"longitude":-82.5211208,"address":"2223 N West Shore Boulevard, Tampa FL","chain_name":null,"distance":0},{"name":"Apple Store - Victoria Gardens","code":null,"latitude":34.1106127,"longitude":-117.5336233,"address":"12461 South Main Street, Rancho Cucamonga CA","chain_name":null,"distance":0},{"name":"Apple Store - Crocker Park","code":null,"latitude":41.459021,"longitude":-81.953204,"address":"267 Crocker Park Boulevard, Westlake OH","chain_name":null,"distance":0},{"name":"Apple Store - The Westchester","code":null,"latitude":41.0315151,"longitude":-73.7585505,"address":"125 Westchester Avenue, White Plains NY","chain_name":null,"distance":0},{"name":"Apple Store - Simi Valley","code":null,"latitude":34.284423,"longitude":-118.7719737,"address":"1555 Simi Town Center Way, Simi Valley CA","chain_name":null,"distance":0},{"name":"Apple Store - The Promenade Shops at Briargate","code":null,"latitude":38.962592,"longitude":-104.7957324,"address":"1685 Briargate ParkwaySuite 315, Colorado Springs CO","chain_name":null,"distance":0},{"name":"Apple Store - North Star","code":null,"latitude":29.5174091,"longitude":-98.4982007,"address":"7400 San Pedro AvenueSan , Antonio TX","chain_name":null,"distance":0},{"name":"Apple Store - Fifth Avenue","code":null,"latitude":40.7635861,"longitude":-73.9723967,"address":"767 Fifth Avenue, New York NY","chain_name":null,"distance":0},{"name":"Apple Store - Arrowhead","code":null,"latitude":33.6420894,"longitude":-112.2254067,"address":"7700 West Arrowhead Towne Center, Glendale AZ","chain_name":null,"distance":0},{"name":"Apple Store - Ridgedale","code":null,"latitude":44.9690334,"longitude":-93.4382175,"address":"12531 Wayzata Boulevard, Minnetonka MN","chain_name":null,"distance":0},{"name":"Apple Store - Infinite Loop","code":null,"latitude":37.3320003,"longitude":-122.0307812,"address":"One Infinite Loop, Cupertino CA","chain_name":null,"distance":0},{"name":"Apple Store - Friendly Center","code":null,"latitude":36.0860898,"longitude":-79.8360379,"address":"3320 West Friendly Avenue, Greensboro NC","chain_name":null,"distance":0},{"name":"Apple Store - The Gardens Mall","code":null,"latitude":26.8473981,"longitude":-80.0853836,"address":"3101 PGA Boulevard, Palm Beach Gardens FL","chain_name":null,"distance":0},{"name":"Apple Store - Solomon Pond Mall","code":null,"latitude":42.3550944,"longitude":-71.6132072,"address":"601 Donald Lynch Boulevard, Marlborough MA","chain_name":null,"distance":0},{"name":"Apple Store - SouthPark","code":null,"latitude":35.1523852,"longitude":-80.8321253,"address":"4400 Sharon Road, Charlotte NC","chain_name":null,"distance":0},{"name":"Apple Store - The Mall of New Hampshire","code":null,"latitude":42.9553882,"longitude":-71.4327448,"address":"1500 S Willow Street, Manchester NH","chain_name":null,"distance":0},{"name":"Apple Store - King Street","code":null,"latitude":32.7833456,"longitude":-79.9349292,"address":"301 King Street, Charleston SC","chain_name":null,"distance":0},{"name":"Apple Store - Walt Whitman","code":null,"latitude":40.8229235,"longitude":-73.4106894,"address":"160 Walt Whitman Road, Huntington Station NY","chain_name":null,"distance":0},{"name":"Apple Store - State Street","code":null,"latitude":34.421413,"longitude":-119.7012304,"address":"928 State Street, Santa Barbara CA","chain_name":null,"distance":0},{"name":"Apple Store - Greenwich Avenue","code":null,"latitude":41.0233649,"longitude":-73.6254486,"address":"356 Greenwich Avenue, Greenwich CT","chain_name":null,"distance":0},{"name":"Apple Store - New Haven","code":null,"latitude":41.3120018,"longitude":-72.9306827,"address":"65 Broadway, New Haven CT","chain_name":null,"distance":0},{"name":"Apple Store - SanTan Village","code":null,"latitude":33.3088069,"longitude":-111.7426997,"address":"2218 E. Williams Field Road, Gilbert AZ","chain_name":null,"distance":0},{"name":"Apple Store - Valencia Town Center","code":null,"latitude":34.4176299,"longitude":-118.5608039,"address":"24201 West , Valencia BoulevardValencia CA","chain_name":null,"distance":0},{"name":"Apple Store - Boise Towne Square","code":null,"latitude":43.6086364,"longitude":-116.2781046,"address":"350 North Milwaukee Street#1083, Boise ID","chain_name":null,"distance":0},{"name":"Apple Store - Westfarms","code":null,"latitude":41.7219021,"longitude":-72.7634768,"address":"500 Westfarms Mall, Farmington CT","chain_name":null,"distance":0},{"name":"Apple Store - Northridge","code":null,"latitude":34.2385732,"longitude":-118.5562362,"address":"9301 Tampa Avenue, Northridge CA","chain_name":null,"distance":0},{"name":"Apple Store - First Colony Mall","code":null,"latitude":29.5929163,"longitude":-95.6230478,"address":"16535 Southwest Freeway, Sugar Land TX","chain_name":null,"distance":0},{"name":"Apple Store - Southcenter","code":null,"latitude":47.4594188,"longitude":-122.2607647,"address":"801 Southcenter Mall, Tukwila WA","chain_name":null,"distance":0},{"name":"Apple Store - Fair Oaks","code":null,"latitude":38.8623883,"longitude":-77.3592103,"address":"11750 Fair Oaks, Fairfax VA","chain_name":null,"distance":0},{"name":"Apple Store - Boca Raton","code":null,"latitude":26.3659017,"longitude":-80.1343467,"address":"6000 West Glades Road, Boca Raton FL","chain_name":null,"distance":0},{"name":"Apple Store - Pentagon City","code":null,"latitude":38.8639404,"longitude":-77.0601179,"address":"1100 South Hayes Street, Arlington VA","chain_name":null,"distance":0},{"name":"Apple Store - Roseville","code":null,"latitude":38.7734416,"longitude":-121.2692829,"address":"1151 Galleria Boulevard, Roseville CA","chain_name":null,"distance":0},{"name":"Apple Store - Leawood","code":null,"latitude":38.9114916,"longitude":-94.6374712,"address":"4529 West 119th Street, Leawood KS","chain_name":null,"distance":0},{"name":"Apple Store - Fashion Island","code":null,"latitude":33.6151092,"longitude":-117.8768732,"address":"1113 Newport Center Drive, Newport Beach CA","chain_name":null,"distance":0},{"name":"Apple Store - Glendale Galleria","code":null,"latitude":34.145276,"longitude":-118.2585,"address":"2126 Glendale Galleria, Glendale CA","chain_name":null,"distance":0},{"name":"Apple Store - Trumbull","code":null,"latitude":41.2293532,"longitude":-73.226474,"address":"5065 Main Street, Trumbull CT","chain_name":null,"distance":0},{"name":"Apple Store - Lynnhaven Mall","code":null,"latitude":36.8165135,"longitude":-76.0708276,"address":"701 Lynnhaven Parkway, Virginia Beach VA","chain_name":null,"distance":0},{"name":"Apple Store - Crossgates","code":null,"latitude":42.688374,"longitude":-73.845376,"address":"1 Crossgates Mall Road, Albany NY","chain_name":null,"distance":0}]