[{"name":"at home - The Home Decor Superstore","code":null,"latitude":28.5672309,"longitude":-81.2208147,"address":"11100 E. Colonial Drive, FL 32817","chain_name":null,"distance":0},{"name":"at home - The Home Decor Superstore","code":null,"latitude":32.8372701,"longitude":-97.1996244,"address":"8651 Airport Freeway, TX 76180","chain_name":null,"distance":0},{"name":"at home - The Home Decor Superstore","code":null,"latitude":30.1888736,"longitude":-81.7359302,"address":"1919 Wells Rd., FL 32073","chain_name":null,"distance":0},{"name":"at home - The Home Decor Superstore","code":null,"latitude":34.0972184,"longitude":-84.0097823,"address":"1605 Buford Highway, GA 30518","chain_name":null,"distance":0},{"name":"at home - The Home Decor Superstore","code":null,"latitude":41.7710473,"longitude":-88.2088155,"address":"956 N. Route 59, IL 60504","chain_name":null,"distance":0},{"name":"at home - The Home Decor Superstore","code":null,"latitude":41.5989034,"longitude":-83.6648228,"address":"2244 S. Reynolds Rd., OH 43614","chain_name":null,"distance":0},{"name":"at home - The Home Decor Superstore","code":null,"latitude":29.786898,"longitude":-95.710193,"address":"19411 Atrium Place, TX 77084","chain_name":null,"distance":0},{"name":"at home - The Home Decor Superstore","code":null,"latitude":33.5768402,"longitude":-112.2566736,"address":"10140 N. 91St Ave, AZ 85345","chain_name":null,"distance":0},{"name":"at home - The Home Decor Superstore","code":null,"latitude":40.0419539,"longitude":-85.997169,"address":"301 Noble Creek Dr, IN 46060","chain_name":null,"distance":0},{"name":"at home - The Home Decor Superstore","code":null,"latitude":40.455553,"longitude":-80.181519,"address":"2000 Casteel Drive, PA 15108","chain_name":null,"distance":0},{"name":"at home - The Home Decor Superstore","code":null,"latitude":35.1578958,"longitude":-89.8852983,"address":"5280 Summer Ave., TN 38122","chain_name":null,"distance":0},{"name":"at home - The Home Decor Superstore","code":null,"latitude":38.7453346,"longitude":-90.4223247,"address":"11968 Paul Mayer Ave., MO 63044","chain_name":null,"distance":0},{"name":"at home - The Home Decor Superstore","code":null,"latitude":31.326184,"longitude":-89.37731,"address":"1000 Turtle Creek Drive, MS 39402","chain_name":null,"distance":0},{"name":"at home - The Home Decor Superstore","code":null,"latitude":36.1409239,"longitude":-86.8831166,"address":"3701 Annex Ave., TN 37209","chain_name":null,"distance":0},{"name":"at home - The Home Decor Superstore","code":null,"latitude":42.2698648,"longitude":-85.6474026,"address":"4620 Stadium Drive, MI 49024","chain_name":null,"distance":0},{"name":"at home - The Home Decor Superstore","code":null,"latitude":39.9547508,"longitude":-82.8357687,"address":"6060 E. Main Street, OH 43213","chain_name":null,"distance":0},{"name":"at home - The Home Decor Superstore","code":null,"latitude":39.6801674,"longitude":-86.1242881,"address":"7667 Shelby St, IN 46227","chain_name":null,"distance":0},{"name":"at home - The Home Decor Superstore","code":null,"latitude":33.5297577,"longitude":-86.6955861,"address":"5401 Beacon Drive, AL 35210","chain_name":null,"distance":0},{"name":"at home - The Home Decor Superstore","code":null,"latitude":29.590032,"longitude":-95.63874,"address":"16960 Southwest Freeway, TX 77479","chain_name":null,"distance":0},{"name":"at home - The Home Decor Superstore","code":null,"latitude":33.0586107,"longitude":-96.6877266,"address":"1717 E Spring Creek Parkway, TX 75074","chain_name":null,"distance":0},{"name":"at home - The Home Decor Superstore","code":null,"latitude":39.2917505,"longitude":-84.4594433,"address":"11925 Commons Drive, OH 45246","chain_name":null,"distance":0},{"name":"at home - The Home Decor Superstore","code":null,"latitude":42.251809,"longitude":-83.65969,"address":"3100 Washtenaw, MI 48197","chain_name":null,"distance":0},{"name":"at home - The Home Decor Superstore","code":null,"latitude":37.508557,"longitude":-77.6087386,"address":"11500 Midlothian Turnpike, VA 23235","chain_name":null,"distance":0},{"name":"at home - The Home Decor Superstore","code":null,"latitude":35.0467638,"longitude":-89.8068289,"address":"7697 Winchester Rd., TN 38125","chain_name":null,"distance":0},{"name":"at home - The Home Decor Superstore","code":null,"latitude":35.0768987,"longitude":-80.876534,"address":"11415 Carolina Place Parkway, NC 28134","chain_name":null,"distance":0},{"name":"at home - The Home Decor Superstore","code":null,"latitude":34.023049,"longitude":-84.569058,"address":"2875 George Busbee Parkway NW, GA 30144","chain_name":null,"distance":0},{"name":"at home - The Home Decor Superstore","code":null,"latitude":42.053626,"longitude":-88.041809,"address":"1325 Meacham, IL 60173","chain_name":null,"distance":0},{"name":"at home - The Home Decor Superstore","code":null,"latitude":29.955013,"longitude":-95.5457817,"address":"12605 N. Gessner Drive, TX 77064","chain_name":null,"distance":0},{"name":"at home - The Home Decor Superstore","code":null,"latitude":42.902283,"longitude":-85.79038,"address":"334 Chicago Drive, MI 49428","chain_name":null,"distance":0},{"name":"at home - The Home Decor Superstore","code":null,"latitude":35.0842152,"longitude":-106.5277861,"address":"11150 Lomas Blvd., NM 87112","chain_name":null,"distance":0},{"name":"at home - The Home Decor Superstore","code":null,"latitude":35.4588068,"longitude":-97.6217953,"address":"701 S. MacArthur Blvd., OK 73128","chain_name":null,"distance":0},{"name":"at home - The Home Decor Superstore","code":null,"latitude":36.7718794,"longitude":-76.2516513,"address":"1517 Sams Circle, VA 23320","chain_name":null,"distance":0},{"name":"at home - The Home Decor Superstore","code":null,"latitude":33.3614151,"longitude":-86.8497282,"address":"5501 Grove Blvd., AL 35226","chain_name":null,"distance":0},{"name":"at home - The Home Decor Superstore","code":null,"latitude":37.528543,"longitude":-77.331617,"address":"401 International Center Drive, VA 23150","chain_name":null,"distance":0},{"name":"at home - The Home Decor Superstore","code":null,"latitude":29.590994,"longitude":-98.352223,"address":"7613 N. Loop 1604 East, TX 78233","chain_name":null,"distance":0},{"name":"at home - The Home Decor Superstore","code":null,"latitude":35.8481306,"longitude":-78.5856737,"address":"4700 Green Road, NC 27604","chain_name":null,"distance":0},{"name":"at home - The Home Decor Superstore","code":null,"latitude":30.212038,"longitude":-95.460125,"address":"16778 Interstate 45 South, TX 77384","chain_name":null,"distance":0},{"name":"at home - The Home Decor Superstore","code":null,"latitude":33.383123,"longitude":-111.964485,"address":"5000 S. Arizona Mills Circle, Ste 313, AZ 85282","chain_name":null,"distance":0},{"name":"at home - The Home Decor Superstore","code":null,"latitude":41.6018577,"longitude":-93.7593518,"address":"10331 University Ave., IA 50325","chain_name":null,"distance":0},{"name":"at home - The Home Decor Superstore","code":null,"latitude":39.0183132,"longitude":-84.6264772,"address":"4874 Houston Road, KY 41042","chain_name":null,"distance":0},{"name":"at home - The Home Decor Superstore","code":null,"latitude":38.8377546,"longitude":-104.7550604,"address":"335 N. Academy Blvd., CO 80909","chain_name":null,"distance":0},{"name":"at home - The Home Decor Superstore","code":null,"latitude":30.5048988,"longitude":-97.8093331,"address":"4801 183A Toll Rd., TX 78613","chain_name":null,"distance":0},{"name":"at home - The Home Decor Superstore","code":null,"latitude":29.7337687,"longitude":-95.5116345,"address":"2827 Dunvale Road, TX 77063","chain_name":null,"distance":0},{"name":"at home - The Home Decor Superstore","code":null,"latitude":32.3072019,"longitude":-95.2691552,"address":"3900 Troup Highway, TX 75703","chain_name":null,"distance":0},{"name":"at home - The Home Decor Superstore","code":null,"latitude":35.9634902,"longitude":-78.9578304,"address":"4215 University Dr. Suite A2, NC 27707","chain_name":null,"distance":0},{"name":"at home - The Home Decor Superstore","code":null,"latitude":35.3635213,"longitude":-80.7160201,"address":"7965 Lyles Lane NW, NC 28027","chain_name":null,"distance":0},{"name":"at home - The Home Decor Superstore","code":null,"latitude":40.0255673,"longitude":-83.120467,"address":"3599 Park Mill Run Drive, OH 43026","chain_name":null,"distance":0},{"name":"at home - The Home Decor Superstore","code":null,"latitude":33.725769,"longitude":-84.765912,"address":"7400 Douglas Blvd., GA 30168","chain_name":null,"distance":0},{"name":"at home - The Home Decor Superstore","code":null,"latitude":26.194638,"longitude":-98.203577,"address":"1600 West Kelly, TX 78577","chain_name":null,"distance":0},{"name":"at home - The Home Decor Superstore","code":null,"latitude":28.306533,"longitude":-81.432704,"address":"3003 W. Vine St., FL 34741","chain_name":null,"distance":0},{"name":"at home - The Home Decor Superstore","code":null,"latitude":34.820633,"longitude":-82.293869,"address":"35 Park Woodruff Road, SC 29607","chain_name":null,"distance":0},{"name":"at home - The Home Decor Superstore","code":null,"latitude":29.459599,"longitude":-98.622146,"address":"6840 NW Loop 410, TX 78238","chain_name":null,"distance":0},{"name":"at home - The Home Decor Superstore","code":null,"latitude":38.2210394,"longitude":-85.5404852,"address":"11501 Bluegrass Parkway, KY 40299","chain_name":null,"distance":0},{"name":"at home - The Home Decor Superstore","code":null,"latitude":30.426437,"longitude":-89.089031,"address":"15065 Creosote Road, MS 39503","chain_name":null,"distance":0},{"name":"at home - The Home Decor Superstore","code":null,"latitude":30.234884,"longitude":-97.83075,"address":"5151 U.S. Highway 290, TX 78735","chain_name":null,"distance":0},{"name":"at home - The Home Decor Superstore","code":null,"latitude":36.0909564,"longitude":-95.8544286,"address":"11015 E. 51st St., OK 74146","chain_name":null,"distance":0},{"name":"at home - The Home Decor Superstore","code":null,"latitude":30.13054,"longitude":-91.852288,"address":"4641 Lafayette Road, IN 46254","chain_name":null,"distance":0},{"name":"at home - The Home Decor Superstore","code":null,"latitude":30.0050507,"longitude":-95.2646303,"address":"9450 FM 1960 Bypass Road West, TX 77338","chain_name":null,"distance":0},{"name":"at home - The Home Decor Superstore","code":null,"latitude":27.745634,"longitude":-97.441822,"address":"4949 Greenwood Dr., TX 78416","chain_name":null,"distance":0},{"name":"at home - The Home Decor Superstore","code":null,"latitude":41.2353198,"longitude":-96.1158708,"address":"12990 W Center Rd, NE 68144","chain_name":null,"distance":0},{"name":"at home - The Home Decor Superstore","code":null,"latitude":38.58595,"longitude":-89.9428638,"address":"1287 Central Park Drive, IL 62269","chain_name":null,"distance":0},{"name":"at home - The Home Decor Superstore","code":null,"latitude":39.9204089,"longitude":-105.0891764,"address":"1660 W. Midway Blvd., CO 80020","chain_name":null,"distance":0},{"name":"at home - The Home Decor Superstore","code":null,"latitude":35.0030558,"longitude":-85.2259924,"address":"482 McBrien Road, TN 37412","chain_name":null,"distance":0},{"name":"at home - The Home Decor Superstore","code":null,"latitude":32.686391,"longitude":-97.409843,"address":"5608 SW Loop 820, TX 76132","chain_name":null,"distance":0},{"name":"at home - The Home Decor Superstore","code":null,"latitude":33.5544051,"longitude":-101.9429116,"address":"4304 W. Loop 289, TX 79407","chain_name":null,"distance":0},{"name":"at home - The Home Decor Superstore","code":null,"latitude":33.9288725,"longitude":-84.1724724,"address":"1887 Willow Trail Pkwy NW, GA 30093","chain_name":null,"distance":0},{"name":"at home - The Home Decor Superstore","code":null,"latitude":35.9066,"longitude":-84.154757,"address":"11221 Outlet Drive, TN 37932","chain_name":null,"distance":0},{"name":"at home - The Home Decor Superstore","code":null,"latitude":33.3798529,"longitude":-111.7409687,"address":"1944 S. Greenfield Road, AZ 85206","chain_name":null,"distance":0},{"name":"at home - The Home Decor Superstore","code":null,"latitude":35.9123897,"longitude":-86.8328641,"address":"209 S Royal Oaks Blvd, TN 37064","chain_name":null,"distance":0},{"name":"at home - The Home Decor Superstore","code":null,"latitude":29.6871,"longitude":-98.129033,"address":"642 S Walnut, TX 78130","chain_name":null,"distance":0},{"name":"at home - The Home Decor Superstore","code":null,"latitude":33.5468988,"longitude":-84.2823856,"address":"5000 Mt. Zion Parkway, GA 30281","chain_name":null,"distance":0},{"name":"at home - The Home Decor Superstore","code":null,"latitude":37.1464337,"longitude":-93.2944146,"address":"3700 S. Campbell Ave., MO 65807","chain_name":null,"distance":0},{"name":"at home - The Home Decor Superstore","code":null,"latitude":35.9584116,"longitude":-115.0742168,"address":"11801 Chenal Parkway, CO 72211","chain_name":null,"distance":0},{"name":"at home - The Home Decor Superstore","code":null,"latitude":36.0526536,"longitude":-79.897745,"address":"6103 Landmark Center Blvd., NC 27407","chain_name":null,"distance":0},{"name":"at home - The Home Decor Superstore","code":null,"latitude":32.9063562,"longitude":-80.0242608,"address":"6185 Rivers Ave., SC 29406","chain_name":null,"distance":0},{"name":"at home - The Home Decor Superstore","code":null,"latitude":29.5243906,"longitude":-95.1305181,"address":"20780 Gulf Freeway, TX 77598","chain_name":null,"distance":0},{"name":"at home - The Home Decor Superstore","code":null,"latitude":32.8046848,"longitude":-96.6238187,"address":"2727 Towne Centre Drive, TX 75150","chain_name":null,"distance":0},{"name":"at home - The Home Decor Superstore","code":null,"latitude":42.3223519,"longitude":-83.2032285,"address":"5901 Mercury Drive, MI 48126","chain_name":null,"distance":0},{"name":"at home - The Home Decor Superstore","code":null,"latitude":30.47254,"longitude":-97.5967878,"address":"19000 Limestone Commercial Dr., TX 78660","chain_name":null,"distance":0},{"name":"at home - The Home Decor Superstore","code":null,"latitude":42.6278423,"longitude":-83.0094903,"address":"45160 Utica Park Blvd., MI 48315","chain_name":null,"distance":0},{"name":"at home - The Home Decor Superstore","code":null,"latitude":37.2837283,"longitude":-93.7031872,"address":"601 N State Highway 291, MO 64086","chain_name":null,"distance":0},{"name":"at home - The Home Decor Superstore","code":null,"latitude":33.5956804,"longitude":-112.0117994,"address":"12025 N. 32nd St., AZ 85028","chain_name":null,"distance":0},{"name":"at home - The Home Decor Superstore","code":null,"latitude":38.5100262,"longitude":-90.4413619,"address":"665 Gravois Bluffs Blvd., MO 63026","chain_name":null,"distance":0},{"name":"at home - The Home Decor Superstore","code":null,"latitude":38.0251822,"longitude":-84.4192402,"address":"1996 Pavilion Way, KY 40509","chain_name":null,"distance":0},{"name":"at home - The Home Decor Superstore","code":null,"latitude":33.0186271,"longitude":-96.9830822,"address":"2512 Stemmons Freeway, TX 75067","chain_name":null,"distance":0},{"name":"at home - The Home Decor Superstore","code":null,"latitude":32.6786568,"longitude":-97.0486673,"address":"2650 W. Interstate 20, TX 75052","chain_name":null,"distance":0}]