[{"latitude":"33.96932","longitude":"-118.10025","name":"AutoZone","address":"USA-(CA) Pico Rivera","street_number":null,"street_name":null,"zip":null,"city":null,"area":null,"county":null,"state":null,"country":null,"formatted_address":null,"place_id":null,"datatype":null},{"latitude":"34.03146","longitude":"-117.91472","name":"AutoZone","address":"USA-(CA) West Covina","street_number":null,"street_name":null,"zip":null,"city":null,"area":null,"county":null,"state":null,"country":null,"formatted_address":null,"place_id":null,"datatype":null},{"latitude":"35.49326","longitude":"-97.27548","name":"AutoZone","address":"USA-(OK) Choctaw","street_number":null,"street_name":null,"zip":null,"city":null,"area":null,"county":null,"state":null,"country":null,"formatted_address":null,"place_id":null,"datatype":null},{"latitude":"42.12671","longitude":"-83.20723","name":"AutoZone","address":"USA-(MI) Trenton","street_number":null,"street_name":null,"zip":null,"city":null,"area":null,"county":null,"state":null,"country":null,"formatted_address":null,"place_id":null,"datatype":null},{"latitude":"40.77072","longitude":"-111.91702","name":"AutoZone","address":"USA-(UT) Salt Lake City","street_number":null,"street_name":null,"zip":null,"city":null,"area":null,"county":null,"state":null,"country":null,"formatted_address":null,"place_id":null,"datatype":null},{"latitude":"44.05255","longitude":"-91.68643","name":"AutoZone","address":"USA-(MN) Winona","street_number":null,"street_name":null,"zip":null,"city":null,"area":null,"county":null,"state":null,"country":null,"formatted_address":null,"place_id":null,"datatype":null},{"latitude":"39.77602","longitude":"-85.96866","name":"AutoZone","address":"USA-(IN) Indianapolis","street_number":null,"street_name":null,"zip":null,"city":null,"area":null,"county":null,"state":null,"country":null,"formatted_address":null,"place_id":null,"datatype":null},{"latitude":"42.61138","longitude":"-82.87021","name":"AutoZone","address":"USA-(MI) Clinton Township","street_number":null,"street_name":null,"zip":null,"city":null,"area":null,"county":null,"state":null,"country":null,"formatted_address":null,"place_id":null,"datatype":null},{"latitude":"37.35026","longitude":"-121.82754","name":"AutoZone","address":"USA-(CA) San Jose","street_number":null,"street_name":null,"zip":null,"city":null,"area":null,"county":null,"state":null,"country":null,"formatted_address":null,"place_id":null,"datatype":null},{"latitude":"35.03934","longitude":"-82.08202","name":"AutoZone","address":"USA-(SC) Inman","street_number":null,"street_name":null,"zip":null,"city":null,"area":null,"county":null,"state":null,"country":null,"formatted_address":null,"place_id":null,"datatype":null},{"latitude":"37.84296","longitude":"-82.01681","name":"AutoZone","address":"USA-(WV) Logan","street_number":null,"street_name":null,"zip":null,"city":null,"area":null,"county":null,"state":null,"country":null,"formatted_address":null,"place_id":null,"datatype":null},{"latitude":"38.78269","longitude":"-121.26555","name":"AutoZone","address":"USA-(CA) Rocklin","street_number":null,"street_name":null,"zip":null,"city":null,"area":null,"county":null,"state":null,"country":null,"formatted_address":null,"place_id":null,"datatype":null},{"latitude":"40.79988","longitude":"-81.39583","name":"AutoZone","address":"USA-(OH) Canton","street_number":null,"street_name":null,"zip":null,"city":null,"area":null,"county":null,"state":null,"country":null,"formatted_address":null,"place_id":null,"datatype":null},{"latitude":"41.62523","longitude":"-80.19261","name":"AutoZone","address":"USA-(PA) Meadville","street_number":null,"street_name":null,"zip":null,"city":null,"area":null,"county":null,"state":null,"country":null,"formatted_address":null,"place_id":null,"datatype":null},{"latitude":"31.59232","longitude":"-106.27334","name":"AutoZone","address":"USA-(TX) San Elizario","street_number":null,"street_name":null,"zip":null,"city":null,"area":null,"county":null,"state":null,"country":null,"formatted_address":null,"place_id":null,"datatype":null},{"latitude":"41.77653","longitude":"-87.68375","name":"AutoZone","address":"USA-(IL) Chicago","street_number":null,"street_name":null,"zip":null,"city":null,"area":null,"county":null,"state":null,"country":null,"formatted_address":null,"place_id":null,"datatype":null},{"latitude":"36.87788","longitude":"-76.25229","name":"AutoZone","address":"USA-(VA) Norfolk","street_number":null,"street_name":null,"zip":null,"city":null,"area":null,"county":null,"state":null,"country":null,"formatted_address":null,"place_id":null,"datatype":null},{"latitude":"36.20783","longitude":"-83.28839","name":"AutoZone","address":"USA-(TN) Morristown","street_number":null,"street_name":null,"zip":null,"city":null,"area":null,"county":null,"state":null,"country":null,"formatted_address":null,"place_id":null,"datatype":null},{"latitude":"34.82187","longitude":"-87.68164","name":"AutoZone","address":"USA-(AL) Florence","street_number":null,"street_name":null,"zip":null,"city":null,"area":null,"county":null,"state":null,"country":null,"formatted_address":null,"place_id":null,"datatype":null},{"latitude":"35.20229","longitude":"-106.64813","name":"AutoZone","address":"USA-(NM) Albuquerque","street_number":null,"street_name":null,"zip":null,"city":null,"area":null,"county":null,"state":null,"country":null,"formatted_address":null,"place_id":null,"datatype":null},{"latitude":"33.57942","longitude":"-84.41172","name":"AutoZone","address":"USA-(GA) Riverdale","street_number":null,"street_name":null,"zip":null,"city":null,"area":null,"county":null,"state":null,"country":null,"formatted_address":null,"place_id":null,"datatype":null},{"latitude":"35.46018","longitude":"-86.05885","name":"AutoZone","address":"USA-(TN) Manchester","street_number":null,"street_name":null,"zip":null,"city":null,"area":null,"county":null,"state":null,"country":null,"formatted_address":null,"place_id":null,"datatype":null},{"latitude":"30.44608","longitude":"-97.64875","name":"AutoZone","address":"USA-(TX) Pflugerville","street_number":null,"street_name":null,"zip":null,"city":null,"area":null,"county":null,"state":null,"country":null,"formatted_address":null,"place_id":null,"datatype":null},{"latitude":"41.57440","longitude":"-90.57145","name":"AutoZone","address":"USA-(IA) Davenport","street_number":null,"street_name":null,"zip":null,"city":null,"area":null,"county":null,"state":null,"country":null,"formatted_address":null,"place_id":null,"datatype":null},{"latitude":"36.91539","longitude":"-76.27286","name":"AutoZone","address":"USA-(VA) Norfolk","street_number":null,"street_name":null,"zip":null,"city":null,"area":null,"county":null,"state":null,"country":null,"formatted_address":null,"place_id":null,"datatype":null},{"latitude":"40.72533","longitude":"-89.61292","name":"AutoZone","address":"USA-(IL) Peoria","street_number":null,"street_name":null,"zip":null,"city":null,"area":null,"county":null,"state":null,"country":null,"formatted_address":null,"place_id":null,"datatype":null},{"latitude":"35.59165","longitude":"-78.78326","name":"AutoZone","address":"USA-(NC) Fuquay Varina","street_number":null,"street_name":null,"zip":null,"city":null,"area":null,"county":null,"state":null,"country":null,"formatted_address":null,"place_id":null,"datatype":null},{"latitude":"40.67253","longitude":"-89.54835","name":"AutoZone","address":"USA-(IL) E Peoria","street_number":null,"street_name":null,"zip":null,"city":null,"area":null,"county":null,"state":null,"country":null,"formatted_address":null,"place_id":null,"datatype":null},{"latitude":"30.18366","longitude":"-92.00823","name":"AutoZone","address":"USA-(LA) Lafayette","street_number":null,"street_name":null,"zip":null,"city":null,"area":null,"county":null,"state":null,"country":null,"formatted_address":null,"place_id":null,"datatype":null},{"latitude":"32.90963","longitude":"-80.09805","name":"AutoZone","address":"USA-(SC) N. Charleston","street_number":null,"street_name":null,"zip":null,"city":null,"area":null,"county":null,"state":null,"country":null,"formatted_address":null,"place_id":null,"datatype":null},{"latitude":"38.61071","longitude":"-121.41640","name":"AutoZone","address":"USA-(CA) Sacramento","street_number":null,"street_name":null,"zip":null,"city":null,"area":null,"county":null,"state":null,"country":null,"formatted_address":null,"place_id":null,"datatype":null},{"latitude":"33.71243","longitude":"-117.88527","name":"AutoZone","address":"USA-(CA) Santa Ana","street_number":null,"street_name":null,"zip":null,"city":null,"area":null,"county":null,"state":null,"country":null,"formatted_address":null,"place_id":null,"datatype":null},{"latitude":"30.06221","longitude":"-90.70019","name":"AutoZone","address":"USA-(LA) Gramercy","street_number":null,"street_name":null,"zip":null,"city":null,"area":null,"county":null,"state":null,"country":null,"formatted_address":null,"place_id":null,"datatype":null},{"latitude":"32.38786","longitude":"-106.70595","name":"AutoZone","address":"USA-(NM) Las Cruces","street_number":null,"street_name":null,"zip":null,"city":null,"area":null,"county":null,"state":null,"country":null,"formatted_address":null,"place_id":null,"datatype":null},{"latitude":"40.09938","longitude":"-84.62790","name":"AutoZone","address":"USA-(OH) Greenville","street_number":null,"street_name":null,"zip":null,"city":null,"area":null,"county":null,"state":null,"country":null,"formatted_address":null,"place_id":null,"datatype":null},{"latitude":"35.49312","longitude":"-97.53408","name":"AutoZone","address":"USA-(OK) Oklahoma City","street_number":null,"street_name":null,"zip":null,"city":null,"area":null,"county":null,"state":null,"country":null,"formatted_address":null,"place_id":null,"datatype":null},{"latitude":"38.74802","longitude":"-90.27990","name":"AutoZone","address":"USA-(MO) Dellwood","street_number":null,"street_name":null,"zip":null,"city":null,"area":null,"county":null,"state":null,"country":null,"formatted_address":null,"place_id":null,"datatype":null},{"latitude":"46.99635","longitude":"-122.82102","name":"AutoZone","address":"USA-(WA) Lacey","street_number":null,"street_name":null,"zip":null,"city":null,"area":null,"county":null,"state":null,"country":null,"formatted_address":null,"place_id":null,"datatype":null},{"latitude":"32.69182","longitude":"-97.08186","name":"AutoZone","address":"USA-(TX) Arlington","street_number":null,"street_name":null,"zip":null,"city":null,"area":null,"county":null,"state":null,"country":null,"formatted_address":null,"place_id":null,"datatype":null},{"latitude":"28.57934","longitude":"-81.45169","name":"AutoZone","address":"USA-(FL) Orlando","street_number":null,"street_name":null,"zip":null,"city":null,"area":null,"county":null,"state":null,"country":null,"formatted_address":null,"place_id":null,"datatype":null},{"latitude":"38.24417","longitude":"-104.64534","name":"AutoZone","address":"USA-(CO) Pueblo","street_number":null,"street_name":null,"zip":null,"city":null,"area":null,"county":null,"state":null,"country":null,"formatted_address":null,"place_id":null,"datatype":null},{"latitude":"38.67219","longitude":"-121.32924","name":"AutoZone","address":"USA-(CA) Sacramento","street_number":null,"street_name":null,"zip":null,"city":null,"area":null,"county":null,"state":null,"country":null,"formatted_address":null,"place_id":null,"datatype":null},{"latitude":"41.93308","longitude":"-83.38986","name":"AutoZone","address":"USA-(MI) Monroe","street_number":null,"street_name":null,"zip":null,"city":null,"area":null,"county":null,"state":null,"country":null,"formatted_address":null,"place_id":null,"datatype":null},{"latitude":"32.74106","longitude":"-97.25827","name":"AutoZone","address":"USA-(TX) Fort Worth","street_number":null,"street_name":null,"zip":null,"city":null,"area":null,"county":null,"state":null,"country":null,"formatted_address":null,"place_id":null,"datatype":null},{"latitude":"38.13929","longitude":"-85.61831","name":"AutoZone","address":"USA-(KY) Louisville","street_number":null,"street_name":null,"zip":null,"city":null,"area":null,"county":null,"state":null,"country":null,"formatted_address":null,"place_id":null,"datatype":null},{"latitude":"36.14770","longitude":"-95.93798","name":"AutoZone","address":"USA-(OK) Tulsa","street_number":null,"street_name":null,"zip":null,"city":null,"area":null,"county":null,"state":null,"country":null,"formatted_address":null,"place_id":null,"datatype":null},{"latitude":"30.17959","longitude":"-96.91811","name":"AutoZone","address":"USA-(TX) Giddings","street_number":null,"street_name":null,"zip":null,"city":null,"area":null,"county":null,"state":null,"country":null,"formatted_address":null,"place_id":null,"datatype":null},{"latitude":"28.28029","longitude":"-82.71301","name":"AutoZone","address":"USA-(FL) Port Richey","street_number":null,"street_name":null,"zip":null,"city":null,"area":null,"county":null,"state":null,"country":null,"formatted_address":null,"place_id":null,"datatype":null},{"latitude":"40.00074","longitude":"-85.73404","name":"AutoZone","address":"USA-(IN) Pendleton","street_number":null,"street_name":null,"zip":null,"city":null,"area":null,"county":null,"state":null,"country":null,"formatted_address":null,"place_id":null,"datatype":null},{"latitude":"38.53018","longitude":"-89.15522","name":"AutoZone","address":"USA-(IL) Centralia","street_number":null,"street_name":null,"zip":null,"city":null,"area":null,"county":null,"state":null,"country":null,"formatted_address":null,"place_id":null,"datatype":null},{"latitude":"36.03236","longitude":"-114.97311","name":"AutoZone","address":"USA-(NV) Henderson","street_number":null,"street_name":null,"zip":null,"city":null,"area":null,"county":null,"state":null,"country":null,"formatted_address":null,"place_id":null,"datatype":null},{"latitude":"39.10822","longitude":"-93.20939","name":"AutoZone","address":"USA-(MO) Marshall","street_number":null,"street_name":null,"zip":null,"city":null,"area":null,"county":null,"state":null,"country":null,"formatted_address":null,"place_id":null,"datatype":null},{"latitude":"42.44677","longitude":"-83.04373","name":"AutoZone","address":"USA-(MI) Detroit","street_number":null,"street_name":null,"zip":null,"city":null,"area":null,"county":null,"state":null,"country":null,"formatted_address":null,"place_id":null,"datatype":null},{"latitude":"31.67774","longitude":"-88.64259","name":"AutoZone","address":"USA-(MS) Waynesboro","street_number":null,"street_name":null,"zip":null,"city":null,"area":null,"county":null,"state":null,"country":null,"formatted_address":null,"place_id":null,"datatype":null},{"latitude":"33.56352","longitude":"-101.82261","name":"AutoZone","address":"USA-(TX) Lubbock","street_number":null,"street_name":null,"zip":null,"city":null,"area":null,"county":null,"state":null,"country":null,"formatted_address":null,"place_id":null,"datatype":null},{"latitude":"32.88719","longitude":"-90.38813","name":"AutoZone","address":"USA-(MS) Yazoo City","street_number":null,"street_name":null,"zip":null,"city":null,"area":null,"county":null,"state":null,"country":null,"formatted_address":null,"place_id":null,"datatype":null},{"latitude":"41.66235","longitude":"-70.20075","name":"AutoZone","address":"USA-(MA) S Yarmouth","street_number":null,"street_name":null,"zip":null,"city":null,"area":null,"county":null,"state":null,"country":null,"formatted_address":null,"place_id":null,"datatype":null},{"latitude":"33.95486","longitude":"-118.12886","name":"AutoZone","address":"USA-(CA) Downey","street_number":null,"street_name":null,"zip":null,"city":null,"area":null,"county":null,"state":null,"country":null,"formatted_address":null,"place_id":null,"datatype":null},{"latitude":"33.33824","longitude":"-86.79271","name":"AutoZone","address":"USA-(AL) Pelham","street_number":null,"street_name":null,"zip":null,"city":null,"area":null,"county":null,"state":null,"country":null,"formatted_address":null,"place_id":null,"datatype":null},{"latitude":"36.57552","longitude":"-82.18951","name":"AutoZone","address":"USA-(TN) Bristol","street_number":null,"street_name":null,"zip":null,"city":null,"area":null,"county":null,"state":null,"country":null,"formatted_address":null,"place_id":null,"datatype":null},{"latitude":"31.91028","longitude":"-106.60006","name":"AutoZone","address":"USA-(TX) Canutillo","street_number":null,"street_name":null,"zip":null,"city":null,"area":null,"county":null,"state":null,"country":null,"formatted_address":null,"place_id":null,"datatype":null},{"latitude":"37.16439","longitude":"-76.46492","name":"AutoZone","address":"USA-(VA) Yorktown","street_number":null,"street_name":null,"zip":null,"city":null,"area":null,"county":null,"state":null,"country":null,"formatted_address":null,"place_id":null,"datatype":null},{"latitude":"42.79776","longitude":"-82.73410","name":"AutoZone","address":"USA-(MI) Richmond","street_number":null,"street_name":null,"zip":null,"city":null,"area":null,"county":null,"state":null,"country":null,"formatted_address":null,"place_id":null,"datatype":null},{"latitude":"44.78202","longitude":"-88.58816","name":"AutoZone","address":"USA-(WI) Shawano","street_number":null,"street_name":null,"zip":null,"city":null,"area":null,"county":null,"state":null,"country":null,"formatted_address":null,"place_id":null,"datatype":null},{"latitude":"34.09061","longitude":"-118.31698","name":"AutoZone","address":"USA-(CA) Los Angeles","street_number":null,"street_name":null,"zip":null,"city":null,"area":null,"county":null,"state":null,"country":null,"formatted_address":null,"place_id":null,"datatype":null},{"latitude":"29.57804","longitude":"-90.68979","name":"AutoZone","address":"USA-(LA) Houma","street_number":null,"street_name":null,"zip":null,"city":null,"area":null,"county":null,"state":null,"country":null,"formatted_address":null,"place_id":null,"datatype":null},{"latitude":"39.82173","longitude":"-105.02485","name":"AutoZone","address":"USA-(CO) Denver","street_number":null,"street_name":null,"zip":null,"city":null,"area":null,"county":null,"state":null,"country":null,"formatted_address":null,"place_id":null,"datatype":null},{"latitude":"33.58742","longitude":"-112.24500","name":"AutoZone","address":"USA-(AZ) Peoria","street_number":null,"street_name":null,"zip":null,"city":null,"area":null,"county":null,"state":null,"country":null,"formatted_address":null,"place_id":null,"datatype":null},{"latitude":"40.92961","longitude":"-72.68243","name":"AutoZone","address":"USA-(NY) Riverhead","street_number":null,"street_name":null,"zip":null,"city":null,"area":null,"county":null,"state":null,"country":null,"formatted_address":null,"place_id":null,"datatype":null},{"latitude":"37.03320","longitude":"-95.62920","name":"AutoZone","address":"USA-(KS) Coffeyville","street_number":null,"street_name":null,"zip":null,"city":null,"area":null,"county":null,"state":null,"country":null,"formatted_address":null,"place_id":null,"datatype":null},{"latitude":"28.83994","longitude":"-81.68527","name":"AutoZone","address":"USA-(FL) Eustis","street_number":null,"street_name":null,"zip":null,"city":null,"area":null,"county":null,"state":null,"country":null,"formatted_address":null,"place_id":null,"datatype":null},{"latitude":"41.10372","longitude":"-85.13850","name":"AutoZone","address":"USA-(IN) Ft Wayne","street_number":null,"street_name":null,"zip":null,"city":null,"area":null,"county":null,"state":null,"country":null,"formatted_address":null,"place_id":null,"datatype":null},{"latitude":"42.26169","longitude":"-84.75654","name":"AutoZone","address":"USA-(MI) Albion","street_number":null,"street_name":null,"zip":null,"city":null,"area":null,"county":null,"state":null,"country":null,"formatted_address":null,"place_id":null,"datatype":null},{"latitude":"33.79325","longitude":"-84.22802","name":"AutoZone","address":"USA-(GA) Stone Mountain","street_number":null,"street_name":null,"zip":null,"city":null,"area":null,"county":null,"state":null,"country":null,"formatted_address":null,"place_id":null,"datatype":null},{"latitude":"32.73892","longitude":"-97.09895","name":"AutoZone","address":"USA-(TX) Arlington","street_number":null,"street_name":null,"zip":null,"city":null,"area":null,"county":null,"state":null,"country":null,"formatted_address":null,"place_id":null,"datatype":null},{"latitude":"29.79964","longitude":"-95.31677","name":"AutoZone","address":"USA-(TX) Houston","street_number":null,"street_name":null,"zip":null,"city":null,"area":null,"county":null,"state":null,"country":null,"formatted_address":null,"place_id":null,"datatype":null},{"latitude":"36.87397","longitude":"-76.13767","name":"AutoZone","address":"USA-(VA) Virginia Beach","street_number":null,"street_name":null,"zip":null,"city":null,"area":null,"county":null,"state":null,"country":null,"formatted_address":null,"place_id":null,"datatype":null},{"latitude":"34.78452","longitude":"-82.31285","name":"AutoZone","address":"USA-(SC) Mauldin","street_number":null,"street_name":null,"zip":null,"city":null,"area":null,"county":null,"state":null,"country":null,"formatted_address":null,"place_id":null,"datatype":null},{"latitude":"35.04036","longitude":"-85.27015","name":"AutoZone","address":"USA-(TN) Chattanooga","street_number":null,"street_name":null,"zip":null,"city":null,"area":null,"county":null,"state":null,"country":null,"formatted_address":null,"place_id":null,"datatype":null},{"latitude":"42.04828","longitude":"-87.96183","name":"AutoZone","address":"USA-(IL) Mt Prospect","street_number":null,"street_name":null,"zip":null,"city":null,"area":null,"county":null,"state":null,"country":null,"formatted_address":null,"place_id":null,"datatype":null},{"latitude":"36.10006","longitude":"-115.06270","name":"AutoZone","address":"USA-(NV) Las Vegas","street_number":null,"street_name":null,"zip":null,"city":null,"area":null,"county":null,"state":null,"country":null,"formatted_address":null,"place_id":null,"datatype":null},{"latitude":"33.05306","longitude":"-84.14978","name":"AutoZone","address":"USA-(GA) Barnesville","street_number":null,"street_name":null,"zip":null,"city":null,"area":null,"county":null,"state":null,"country":null,"formatted_address":null,"place_id":null,"datatype":null},{"latitude":"26.61834","longitude":"-80.11612","name":"AutoZone","address":"USA-(FL) Greenacres","street_number":null,"street_name":null,"zip":null,"city":null,"area":null,"county":null,"state":null,"country":null,"formatted_address":null,"place_id":null,"datatype":null},{"latitude":"29.65182","longitude":"-82.30818","name":"AutoZone","address":"USA-(FL) Gainesville","street_number":null,"street_name":null,"zip":null,"city":null,"area":null,"county":null,"state":null,"country":null,"formatted_address":null,"place_id":null,"datatype":null},{"latitude":"41.99718","longitude":"-87.71488","name":"AutoZone","address":"USA-(IL) Chicago","street_number":null,"street_name":null,"zip":null,"city":null,"area":null,"county":null,"state":null,"country":null,"formatted_address":null,"place_id":null,"datatype":null},{"latitude":"39.82516","longitude":"-84.92336","name":"AutoZone","address":"USA-(IN) Richmond","street_number":null,"street_name":null,"zip":null,"city":null,"area":null,"county":null,"state":null,"country":null,"formatted_address":null,"place_id":null,"datatype":null},{"latitude":"43.65354","longitude":"-93.34050","name":"AutoZone","address":"USA-(MN) Albert Lea","street_number":null,"street_name":null,"zip":null,"city":null,"area":null,"county":null,"state":null,"country":null,"formatted_address":null,"place_id":null,"datatype":null},{"latitude":"44.26217","longitude":"-85.40542","name":"AutoZone","address":"USA-(MI) Cadillac","street_number":null,"street_name":null,"zip":null,"city":null,"area":null,"county":null,"state":null,"country":null,"formatted_address":null,"place_id":null,"datatype":null},{"latitude":"41.81830","longitude":"-71.44507","name":"AutoZone","address":"USA-(RI) Providence","street_number":null,"street_name":null,"zip":null,"city":null,"area":null,"county":null,"state":null,"country":null,"formatted_address":null,"place_id":null,"datatype":null},{"latitude":"46.54164","longitude":"-88.53638","name":"AutoZone","address":"USA-(GA) Lithonia","street_number":null,"street_name":null,"zip":null,"city":null,"area":null,"county":null,"state":null,"country":null,"formatted_address":null,"place_id":null,"datatype":null},{"latitude":"39.76025","longitude":"-86.51578","name":"AutoZone","address":"USA-(IN) Danville","street_number":null,"street_name":null,"zip":null,"city":null,"area":null,"county":null,"state":null,"country":null,"formatted_address":null,"place_id":null,"datatype":null},{"latitude":"35.23024","longitude":"-96.67125","name":"AutoZone","address":"USA-(OK) Seminole","street_number":null,"street_name":null,"zip":null,"city":null,"area":null,"county":null,"state":null,"country":null,"formatted_address":null,"place_id":null,"datatype":null},{"latitude":"34.10668","longitude":"-117.64803","name":"AutoZone","address":"USA-(CA) Upland","street_number":null,"street_name":null,"zip":null,"city":null,"area":null,"county":null,"state":null,"country":null,"formatted_address":null,"place_id":null,"datatype":null},{"latitude":"37.95067","longitude":"-122.33232","name":"AutoZone","address":"USA-(CA) Richmond","street_number":null,"street_name":null,"zip":null,"city":null,"area":null,"county":null,"state":null,"country":null,"formatted_address":null,"place_id":null,"datatype":null},{"latitude":"42.34337","longitude":"-83.22961","name":"AutoZone","address":"USA-(MI) Detroit","street_number":null,"street_name":null,"zip":null,"city":null,"area":null,"county":null,"state":null,"country":null,"formatted_address":null,"place_id":null,"datatype":null},{"latitude":"38.88346","longitude":"-94.77372","name":"AutoZone","address":"USA-(KS) Olathe","street_number":null,"street_name":null,"zip":null,"city":null,"area":null,"county":null,"state":null,"country":null,"formatted_address":null,"place_id":null,"datatype":null},{"latitude":"41.66233","longitude":"-86.13531","name":"AutoZone","address":"USA-(IN) Mishawaka","street_number":null,"street_name":null,"zip":null,"city":null,"area":null,"county":null,"state":null,"country":null,"formatted_address":null,"place_id":null,"datatype":null},{"latitude":"42.99115","longitude":"-83.65362","name":"AutoZone","address":"USA-(MI) Flint","street_number":null,"street_name":null,"zip":null,"city":null,"area":null,"county":null,"state":null,"country":null,"formatted_address":null,"place_id":null,"datatype":null},{"latitude":"41.19953","longitude":"-73.19226","name":"AutoZone","address":"USA-(CT) Bridgeport","street_number":null,"street_name":null,"zip":null,"city":null,"area":null,"county":null,"state":null,"country":null,"formatted_address":null,"place_id":null,"datatype":null},{"latitude":"32.84196","longitude":"-96.69175","name":"AutoZone","address":"USA-(TX) Dallas","street_number":null,"street_name":null,"zip":null,"city":null,"area":null,"county":null,"state":null,"country":null,"formatted_address":null,"place_id":null,"datatype":null},{"latitude":"39.30186","longitude":"-75.61231","name":"AutoZone","address":"USA-(DE) Smyrna","street_number":null,"street_name":null,"zip":null,"city":null,"area":null,"county":null,"state":null,"country":null,"formatted_address":null,"place_id":null,"datatype":null},{"latitude":"38.47597","longitude":"-77.41909","name":"AutoZone","address":"USA-(VA) Stafford","street_number":null,"street_name":null,"zip":null,"city":null,"area":null,"county":null,"state":null,"country":null,"formatted_address":null,"place_id":null,"datatype":null},{"latitude":"43.19352","longitude":"-112.35600","name":"AutoZone","address":"USA-(ID) Blackfoot","street_number":null,"street_name":null,"zip":null,"city":null,"area":null,"county":null,"state":null,"country":null,"formatted_address":null,"place_id":null,"datatype":null},{"latitude":"41.68057","longitude":"-86.17915","name":"AutoZone","address":"USA-(IN) Mishawaka","street_number":null,"street_name":null,"zip":null,"city":null,"area":null,"county":null,"state":null,"country":null,"formatted_address":null,"place_id":null,"datatype":null},{"latitude":"33.57002","longitude":"-86.89995","name":"AutoZone","address":"USA-(AL) Forestdale","street_number":null,"street_name":null,"zip":null,"city":null,"area":null,"county":null,"state":null,"country":null,"formatted_address":null,"place_id":null,"datatype":null},{"latitude":"34.62334","longitude":"-98.47614","name":"AutoZone","address":"USA-(OK) Lawton","street_number":null,"street_name":null,"zip":null,"city":null,"area":null,"county":null,"state":null,"country":null,"formatted_address":null,"place_id":null,"datatype":null},{"latitude":"32.23883","longitude":"-92.71089","name":"AutoZone","address":"USA-(LA) Jonesboro","street_number":null,"street_name":null,"zip":null,"city":null,"area":null,"county":null,"state":null,"country":null,"formatted_address":null,"place_id":null,"datatype":null},{"latitude":"43.32743","longitude":"-73.66777","name":"AutoZone","address":"USA-(NY) Queensbury","street_number":null,"street_name":null,"zip":null,"city":null,"area":null,"county":null,"state":null,"country":null,"formatted_address":null,"place_id":null,"datatype":null},{"latitude":"41.33998","longitude":"-72.93454","name":"AutoZone","address":"USA-(CT) Hamden","street_number":null,"street_name":null,"zip":null,"city":null,"area":null,"county":null,"state":null,"country":null,"formatted_address":null,"place_id":null,"datatype":null},{"latitude":"36.09043","longitude":"-79.37966","name":"AutoZone","address":"USA-(NC) Haw River","street_number":null,"street_name":null,"zip":null,"city":null,"area":null,"county":null,"state":null,"country":null,"formatted_address":null,"place_id":null,"datatype":null},{"latitude":"41.23788","longitude":"-77.01430","name":"AutoZone","address":"USA-(PA) Williamsport","street_number":null,"street_name":null,"zip":null,"city":null,"area":null,"county":null,"state":null,"country":null,"formatted_address":null,"place_id":null,"datatype":null},{"latitude":"40.54885","longitude":"-84.56592","name":"AutoZone","address":"USA-(OH) Celina","street_number":null,"street_name":null,"zip":null,"city":null,"area":null,"county":null,"state":null,"country":null,"formatted_address":null,"place_id":null,"datatype":null},{"latitude":"42.67753","longitude":"-82.83116","name":"AutoZone","address":"USA-(MI) Chesterfield Twp","street_number":null,"street_name":null,"zip":null,"city":null,"area":null,"county":null,"state":null,"country":null,"formatted_address":null,"place_id":null,"datatype":null},{"latitude":"36.88017","longitude":"-104.43987","name":"AutoZone","address":"USA-(NM) Raton","street_number":null,"street_name":null,"zip":null,"city":null,"area":null,"county":null,"state":null,"country":null,"formatted_address":null,"place_id":null,"datatype":null},{"latitude":"36.97273","longitude":"-86.47523","name":"AutoZone","address":"USA-(KY) Bowling Green","street_number":null,"street_name":null,"zip":null,"city":null,"area":null,"county":null,"state":null,"country":null,"formatted_address":null,"place_id":null,"datatype":null},{"latitude":"33.94133","longitude":"-118.04635","name":"AutoZone","address":"USA-(CA) Santa Fe Springs","street_number":null,"street_name":null,"zip":null,"city":null,"area":null,"county":null,"state":null,"country":null,"formatted_address":null,"place_id":null,"datatype":null},{"latitude":"38.80670","longitude":"-89.95154","name":"AutoZone","address":"USA-(IL) Edwardsville","street_number":null,"street_name":null,"zip":null,"city":null,"area":null,"county":null,"state":null,"country":null,"formatted_address":null,"place_id":null,"datatype":null},{"latitude":"28.02109","longitude":"-82.18752","name":"AutoZone","address":"USA-(FL) Plant City","street_number":null,"street_name":null,"zip":null,"city":null,"area":null,"county":null,"state":null,"country":null,"formatted_address":null,"place_id":null,"datatype":null},{"latitude":"42.72848","longitude":"-78.83646","name":"AutoZone","address":"USA-(NY) Hamburg","street_number":null,"street_name":null,"zip":null,"city":null,"area":null,"county":null,"state":null,"country":null,"formatted_address":null,"place_id":null,"datatype":null},{"latitude":"37.50510","longitude":"-77.50336","name":"AutoZone","address":"USA-(VA) Richmond","street_number":null,"street_name":null,"zip":null,"city":null,"area":null,"county":null,"state":null,"country":null,"formatted_address":null,"place_id":null,"datatype":null},{"latitude":"35.16915","longitude":"-84.88028","name":"AutoZone","address":"USA-(TN) Cleveland","street_number":null,"street_name":null,"zip":null,"city":null,"area":null,"county":null,"state":null,"country":null,"formatted_address":null,"place_id":null,"datatype":null},{"latitude":"42.13845","longitude":"-72.58285","name":"AutoZone","address":"USA-(MA) Springfield","street_number":null,"street_name":null,"zip":null,"city":null,"area":null,"county":null,"state":null,"country":null,"formatted_address":null,"place_id":null,"datatype":null},{"latitude":"29.64549","longitude":"-95.23347","name":"AutoZone","address":"USA-(TX) Houston","street_number":null,"street_name":null,"zip":null,"city":null,"area":null,"county":null,"state":null,"country":null,"formatted_address":null,"place_id":null,"datatype":null},{"latitude":"31.54827","longitude":"-97.14848","name":"AutoZone","address":"USA-(TX) Waco","street_number":null,"street_name":null,"zip":null,"city":null,"area":null,"county":null,"state":null,"country":null,"formatted_address":null,"place_id":null,"datatype":null},{"latitude":"33.86414","longitude":"-84.67902","name":"AutoZone","address":"USA-(GA) Powder Springs","street_number":null,"street_name":null,"zip":null,"city":null,"area":null,"county":null,"state":null,"country":null,"formatted_address":null,"place_id":null,"datatype":null},{"latitude":"41.69209","longitude":"-83.61467","name":"AutoZone","address":"USA-(OH) Toledo","street_number":null,"street_name":null,"zip":null,"city":null,"area":null,"county":null,"state":null,"country":null,"formatted_address":null,"place_id":null,"datatype":null},{"latitude":"33.48508","longitude":"-86.89045","name":"AutoZone","address":"USA-(AL) Birmingham","street_number":null,"street_name":null,"zip":null,"city":null,"area":null,"county":null,"state":null,"country":null,"formatted_address":null,"place_id":null,"datatype":null},{"latitude":"47.51346","longitude":"-122.35499","name":"AutoZone","address":"USA-(WA) Seattle","street_number":null,"street_name":null,"zip":null,"city":null,"area":null,"county":null,"state":null,"country":null,"formatted_address":null,"place_id":null,"datatype":null},{"latitude":"30.54178","longitude":"-97.55413","name":"AutoZone","address":"USA-(TX) Hutto","street_number":null,"street_name":null,"zip":null,"city":null,"area":null,"county":null,"state":null,"country":null,"formatted_address":null,"place_id":null,"datatype":null},{"latitude":"30.39307","longitude":"-87.27803","name":"AutoZone","address":"USA-(FL) Pensacola","street_number":null,"street_name":null,"zip":null,"city":null,"area":null,"county":null,"state":null,"country":null,"formatted_address":null,"place_id":null,"datatype":null},{"latitude":"26.17854","longitude":"-81.70926","name":"AutoZone","address":"USA-(FL) Naples","street_number":null,"street_name":null,"zip":null,"city":null,"area":null,"county":null,"state":null,"country":null,"formatted_address":null,"place_id":null,"datatype":null},{"latitude":"47.93855","longitude":"-122.21865","name":"AutoZone","address":"USA-(WA) Everett","street_number":null,"street_name":null,"zip":null,"city":null,"area":null,"county":null,"state":null,"country":null,"formatted_address":null,"place_id":null,"datatype":null},{"latitude":"31.75590","longitude":"-106.27450","name":"AutoZone","address":"USA-(TX) El Paso","street_number":null,"street_name":null,"zip":null,"city":null,"area":null,"county":null,"state":null,"country":null,"formatted_address":null,"place_id":null,"datatype":null},{"latitude":"41.51906","longitude":"-71.29342","name":"AutoZone","address":"USA-(RI) Middletown","street_number":null,"street_name":null,"zip":null,"city":null,"area":null,"county":null,"state":null,"country":null,"formatted_address":null,"place_id":null,"datatype":null},{"latitude":"31.14605","longitude":"-89.40310","name":"AutoZone","address":"USA-(MS) Purvis","street_number":null,"street_name":null,"zip":null,"city":null,"area":null,"county":null,"state":null,"country":null,"formatted_address":null,"place_id":null,"datatype":null},{"latitude":"35.14924","longitude":"-89.95524","name":"AutoZone","address":"USA-(TN) Memphis","street_number":null,"street_name":null,"zip":null,"city":null,"area":null,"county":null,"state":null,"country":null,"formatted_address":null,"place_id":null,"datatype":null},{"latitude":"31.86744","longitude":"-89.73961","name":"AutoZone","address":"USA-(MS) Magee","street_number":null,"street_name":null,"zip":null,"city":null,"area":null,"county":null,"state":null,"country":null,"formatted_address":null,"place_id":null,"datatype":null},{"latitude":"41.10948","longitude":"-74.04764","name":"AutoZone","address":"USA-(NY) Spring Valley","street_number":null,"street_name":null,"zip":null,"city":null,"area":null,"county":null,"state":null,"country":null,"formatted_address":null,"place_id":null,"datatype":null},{"latitude":"30.41340","longitude":"-97.69140","name":"AutoZone","address":"USA-(TX) Austin","street_number":null,"street_name":null,"zip":null,"city":null,"area":null,"county":null,"state":null,"country":null,"formatted_address":null,"place_id":null,"datatype":null},{"latitude":"38.01109","longitude":"-121.88594","name":"AutoZone","address":"USA-(CA) Pittsburg","street_number":null,"street_name":null,"zip":null,"city":null,"area":null,"county":null,"state":null,"country":null,"formatted_address":null,"place_id":null,"datatype":null},{"latitude":"39.55017","longitude":"-83.42367","name":"AutoZone","address":"USA-(OH) Wash Court House","street_number":null,"street_name":null,"zip":null,"city":null,"area":null,"county":null,"state":null,"country":null,"formatted_address":null,"place_id":null,"datatype":null},{"latitude":"34.82070","longitude":"-87.65466","name":"AutoZone","address":"USA-(AL) Florence","street_number":null,"street_name":null,"zip":null,"city":null,"area":null,"county":null,"state":null,"country":null,"formatted_address":null,"place_id":null,"datatype":null},{"latitude":"35.20035","longitude":"-80.79697","name":"AutoZone","address":"USA-(NC) Charlotte","street_number":null,"street_name":null,"zip":null,"city":null,"area":null,"county":null,"state":null,"country":null,"formatted_address":null,"place_id":null,"datatype":null},{"latitude":"30.84377","longitude":"-83.28007","name":"AutoZone","address":"USA-(GA) Valdosta","street_number":null,"street_name":null,"zip":null,"city":null,"area":null,"county":null,"state":null,"country":null,"formatted_address":null,"place_id":null,"datatype":null},{"latitude":"35.07614","longitude":"-106.74336","name":"AutoZone","address":"USA-(NM) Albuquerque","street_number":null,"street_name":null,"zip":null,"city":null,"area":null,"county":null,"state":null,"country":null,"formatted_address":null,"place_id":null,"datatype":null},{"latitude":"34.30275","longitude":"-83.81379","name":"AutoZone","address":"USA-(GA) Gainesville","street_number":null,"street_name":null,"zip":null,"city":null,"area":null,"county":null,"state":null,"country":null,"formatted_address":null,"place_id":null,"datatype":null},{"latitude":"33.43273","longitude":"-94.08054","name":"AutoZone","address":"USA-(TX) Texarkana","street_number":null,"street_name":null,"zip":null,"city":null,"area":null,"county":null,"state":null,"country":null,"formatted_address":null,"place_id":null,"datatype":null},{"latitude":"40.89384","longitude":"-81.40622","name":"AutoZone","address":"USA-(OH) North Canton","street_number":null,"street_name":null,"zip":null,"city":null,"area":null,"county":null,"state":null,"country":null,"formatted_address":null,"place_id":null,"datatype":null},{"latitude":"30.05634","longitude":"-94.10032","name":"AutoZone","address":"USA-(TX) Beaumont","street_number":null,"street_name":null,"zip":null,"city":null,"area":null,"county":null,"state":null,"country":null,"formatted_address":null,"place_id":null,"datatype":null},{"latitude":"36.95813","longitude":"-93.71810","name":"AutoZone","address":"USA-(MO) Aurora","street_number":null,"street_name":null,"zip":null,"city":null,"area":null,"county":null,"state":null,"country":null,"formatted_address":null,"place_id":null,"datatype":null},{"latitude":"32.46064","longitude":"-86.42512","name":"AutoZone","address":"USA-(AL) Prattville","street_number":null,"street_name":null,"zip":null,"city":null,"area":null,"county":null,"state":null,"country":null,"formatted_address":null,"place_id":null,"datatype":null},{"latitude":"40.77599","longitude":"-87.71880","name":"AutoZone","address":"USA-(IL) Watseka","street_number":null,"street_name":null,"zip":null,"city":null,"area":null,"county":null,"state":null,"country":null,"formatted_address":null,"place_id":null,"datatype":null},{"latitude":"40.34373","longitude":"-83.76138","name":"AutoZone","address":"USA-(OH) Bellefontaine","street_number":null,"street_name":null,"zip":null,"city":null,"area":null,"county":null,"state":null,"country":null,"formatted_address":null,"place_id":null,"datatype":null},{"latitude":"40.13615","longitude":"-87.62993","name":"AutoZone","address":"USA-(IL) Danville","street_number":null,"street_name":null,"zip":null,"city":null,"area":null,"county":null,"state":null,"country":null,"formatted_address":null,"place_id":null,"datatype":null},{"latitude":"44.98467","longitude":"-123.02639","name":"AutoZone","address":"USA-(OR) Keizer","street_number":null,"street_name":null,"zip":null,"city":null,"area":null,"county":null,"state":null,"country":null,"formatted_address":null,"place_id":null,"datatype":null},{"latitude":"30.34124","longitude":"-95.07409","name":"AutoZone","address":"USA-(TX) Cleveland","street_number":null,"street_name":null,"zip":null,"city":null,"area":null,"county":null,"state":null,"country":null,"formatted_address":null,"place_id":null,"datatype":null},{"latitude":"33.76244","longitude":"-96.57922","name":"AutoZone","address":"USA-(TX) Denison","street_number":null,"street_name":null,"zip":null,"city":null,"area":null,"county":null,"state":null,"country":null,"formatted_address":null,"place_id":null,"datatype":null},{"latitude":"33.78788","longitude":"-117.80637","name":"AutoZone","address":"USA-(CA) Orange","street_number":null,"street_name":null,"zip":null,"city":null,"area":null,"county":null,"state":null,"country":null,"formatted_address":null,"place_id":null,"datatype":null},{"latitude":"47.81478","longitude":"-122.32039","name":"AutoZone","address":"USA-(WA) Lynnwood","street_number":null,"street_name":null,"zip":null,"city":null,"area":null,"county":null,"state":null,"country":null,"formatted_address":null,"place_id":null,"datatype":null},{"latitude":"40.03467","longitude":"-83.01684","name":"AutoZone","address":"USA-(OH) Columbus","street_number":null,"street_name":null,"zip":null,"city":null,"area":null,"county":null,"state":null,"country":null,"formatted_address":null,"place_id":null,"datatype":null},{"latitude":"28.37133","longitude":"-82.18895","name":"AutoZone","address":"USA-(FL) Dade City","street_number":null,"street_name":null,"zip":null,"city":null,"area":null,"county":null,"state":null,"country":null,"formatted_address":null,"place_id":null,"datatype":null},{"latitude":"31.60721","longitude":"-89.19958","name":"AutoZone","address":"USA-(MS) Ellisville","street_number":null,"street_name":null,"zip":null,"city":null,"area":null,"county":null,"state":null,"country":null,"formatted_address":null,"place_id":null,"datatype":null},{"latitude":"33.02092","longitude":"-96.73347","name":"AutoZone","address":"USA-(TX) Plano","street_number":null,"street_name":null,"zip":null,"city":null,"area":null,"county":null,"state":null,"country":null,"formatted_address":null,"place_id":null,"datatype":null},{"latitude":"34.12122","longitude":"-117.37342","name":"AutoZone","address":"USA-(CA) Rialto","street_number":null,"street_name":null,"zip":null,"city":null,"area":null,"county":null,"state":null,"country":null,"formatted_address":null,"place_id":null,"datatype":null},{"latitude":"34.41595","longitude":"-118.47280","name":"AutoZone","address":"USA-(CA) Santa Clarita","street_number":null,"street_name":null,"zip":null,"city":null,"area":null,"county":null,"state":null,"country":null,"formatted_address":null,"place_id":null,"datatype":null},{"latitude":"41.23166","longitude":"-80.51000","name":"AutoZone","address":"USA-(PA) Sharon","street_number":null,"street_name":null,"zip":null,"city":null,"area":null,"county":null,"state":null,"country":null,"formatted_address":null,"place_id":null,"datatype":null},{"latitude":"39.03922","longitude":"-84.23346","name":"AutoZone","address":"USA-(OH) Amelia","street_number":null,"street_name":null,"zip":null,"city":null,"area":null,"county":null,"state":null,"country":null,"formatted_address":null,"place_id":null,"datatype":null},{"latitude":"40.23607","longitude":"-83.35904","name":"AutoZone","address":"USA-(OH) Marysville","street_number":null,"street_name":null,"zip":null,"city":null,"area":null,"county":null,"state":null,"country":null,"formatted_address":null,"place_id":null,"datatype":null},{"latitude":"40.24457","longitude":"-79.96858","name":"AutoZone","address":"USA-(PA) Coal Township","street_number":null,"street_name":null,"zip":null,"city":null,"area":null,"county":null,"state":null,"country":null,"formatted_address":null,"place_id":null,"datatype":null},{"latitude":"35.60343","longitude":"-77.39651","name":"AutoZone","address":"USA-(NC) Greenville","street_number":null,"street_name":null,"zip":null,"city":null,"area":null,"county":null,"state":null,"country":null,"formatted_address":null,"place_id":null,"datatype":null},{"latitude":"39.16104","longitude":"-123.20919","name":"AutoZone","address":"USA-(CA) Ukiah","street_number":null,"street_name":null,"zip":null,"city":null,"area":null,"county":null,"state":null,"country":null,"formatted_address":null,"place_id":null,"datatype":null},{"latitude":"39.09497","longitude":"-94.44546","name":"AutoZone","address":"USA-(MO) Independence","street_number":null,"street_name":null,"zip":null,"city":null,"area":null,"county":null,"state":null,"country":null,"formatted_address":null,"place_id":null,"datatype":null},{"latitude":"35.62357","longitude":"-95.96056","name":"AutoZone","address":"USA-(OK) Okmulgee","street_number":null,"street_name":null,"zip":null,"city":null,"area":null,"county":null,"state":null,"country":null,"formatted_address":null,"place_id":null,"datatype":null},{"latitude":"31.09096","longitude":"-97.36131","name":"AutoZone","address":"USA-(TX) Temple","street_number":null,"street_name":null,"zip":null,"city":null,"area":null,"county":null,"state":null,"country":null,"formatted_address":null,"place_id":null,"datatype":null},{"latitude":"35.65790","longitude":"-88.82769","name":"AutoZone","address":"USA-(TN) Jackson","street_number":null,"street_name":null,"zip":null,"city":null,"area":null,"county":null,"state":null,"country":null,"formatted_address":null,"place_id":null,"datatype":null},{"latitude":"35.90188","longitude":"-80.57140","name":"AutoZone","address":"USA-(NC) Mocksville","street_number":null,"street_name":null,"zip":null,"city":null,"area":null,"county":null,"state":null,"country":null,"formatted_address":null,"place_id":null,"datatype":null},{"latitude":"38.41471","longitude":"-90.38797","name":"AutoZone","address":"USA-(MO) Arnold","street_number":null,"street_name":null,"zip":null,"city":null,"area":null,"county":null,"state":null,"country":null,"formatted_address":null,"place_id":null,"datatype":null},{"latitude":"43.12229","longitude":"-76.15494","name":"AutoZone","address":"USA-(NY) North Syracuse","street_number":null,"street_name":null,"zip":null,"city":null,"area":null,"county":null,"state":null,"country":null,"formatted_address":null,"place_id":null,"datatype":null},{"latitude":"36.00636","longitude":"-84.25493","name":"AutoZone","address":"USA-(TN) Oak Ridge","street_number":null,"street_name":null,"zip":null,"city":null,"area":null,"county":null,"state":null,"country":null,"formatted_address":null,"place_id":null,"datatype":null},{"latitude":"35.77439","longitude":"-119.24807","name":"AutoZone","address":"USA-(CA) Delano","street_number":null,"street_name":null,"zip":null,"city":null,"area":null,"county":null,"state":null,"country":null,"formatted_address":null,"place_id":null,"datatype":null},{"latitude":"32.82007","longitude":"-117.17645","name":"AutoZone","address":"USA-(CA) San Diego","street_number":null,"street_name":null,"zip":null,"city":null,"area":null,"county":null,"state":null,"country":null,"formatted_address":null,"place_id":null,"datatype":null},{"latitude":"30.88149","longitude":"-83.27428","name":"AutoZone","address":"USA-(GA) Valdosta","street_number":null,"street_name":null,"zip":null,"city":null,"area":null,"county":null,"state":null,"country":null,"formatted_address":null,"place_id":null,"datatype":null},{"latitude":"32.22061","longitude":"-90.15590","name":"AutoZone","address":"USA-(MS) Richland","street_number":null,"street_name":null,"zip":null,"city":null,"area":null,"county":null,"state":null,"country":null,"formatted_address":null,"place_id":null,"datatype":null},{"latitude":"29.13086","longitude":"-81.00711","name":"AutoZone","address":"USA-(FL) Port Orange","street_number":null,"street_name":null,"zip":null,"city":null,"area":null,"county":null,"state":null,"country":null,"formatted_address":null,"place_id":null,"datatype":null},{"latitude":"33.61340","longitude":"-84.34644","name":"AutoZone","address":"USA-(GA) Lake City","street_number":null,"street_name":null,"zip":null,"city":null,"area":null,"county":null,"state":null,"country":null,"formatted_address":null,"place_id":null,"datatype":null},{"latitude":"32.41589","longitude":"-97.22149","name":"AutoZone","address":"USA-(TX) Alvarado","street_number":null,"street_name":null,"zip":null,"city":null,"area":null,"county":null,"state":null,"country":null,"formatted_address":null,"place_id":null,"datatype":null},{"latitude":"26.24792","longitude":"-98.47923","name":"AutoZone","address":"USA-(TX) La Joya","street_number":null,"street_name":null,"zip":null,"city":null,"area":null,"county":null,"state":null,"country":null,"formatted_address":null,"place_id":null,"datatype":null},{"latitude":"29.96177","longitude":"-90.11621","name":"AutoZone","address":"USA-(LA) New Orleans","street_number":null,"street_name":null,"zip":null,"city":null,"area":null,"county":null,"state":null,"country":null,"formatted_address":null,"place_id":null,"datatype":null},{"latitude":"33.01302","longitude":"-97.22095","name":"AutoZone","address":"USA-(TX) Roanoke","street_number":null,"street_name":null,"zip":null,"city":null,"area":null,"county":null,"state":null,"country":null,"formatted_address":null,"place_id":null,"datatype":null},{"latitude":"32.70961","longitude":"-97.11500","name":"AutoZone","address":"USA-(TX) Arlington","street_number":null,"street_name":null,"zip":null,"city":null,"area":null,"county":null,"state":null,"country":null,"formatted_address":null,"place_id":null,"datatype":null},{"latitude":"36.52161","longitude":"-84.50055","name":"AutoZone","address":"USA-(TN) Oneida","street_number":null,"street_name":null,"zip":null,"city":null,"area":null,"county":null,"state":null,"country":null,"formatted_address":null,"place_id":null,"datatype":null},{"latitude":"39.95143","longitude":"-83.14436","name":"AutoZone","address":"USA-(OH) Columbus","street_number":null,"street_name":null,"zip":null,"city":null,"area":null,"county":null,"state":null,"country":null,"formatted_address":null,"place_id":null,"datatype":null},{"latitude":"47.25541","longitude":"-122.48685","name":"AutoZone","address":"USA-(WA) Tacoma","street_number":null,"street_name":null,"zip":null,"city":null,"area":null,"county":null,"state":null,"country":null,"formatted_address":null,"place_id":null,"datatype":null},{"latitude":"33.99863","longitude":"-118.07821","name":"AutoZone","address":"USA-(CA) Pico Rivera","street_number":null,"street_name":null,"zip":null,"city":null,"area":null,"county":null,"state":null,"country":null,"formatted_address":null,"place_id":null,"datatype":null},{"latitude":"41.15416","longitude":"-81.33425","name":"AutoZone","address":"USA-(OH) Kent","street_number":null,"street_name":null,"zip":null,"city":null,"area":null,"county":null,"state":null,"country":null,"formatted_address":null,"place_id":null,"datatype":null},{"latitude":"41.78624","longitude":"-88.07398","name":"AutoZone","address":"USA-(IL) Lisle","street_number":null,"street_name":null,"zip":null,"city":null,"area":null,"county":null,"state":null,"country":null,"formatted_address":null,"place_id":null,"datatype":null},{"latitude":"35.49964","longitude":"-82.98769","name":"AutoZone","address":"USA-(NC) Waynesville","street_number":null,"street_name":null,"zip":null,"city":null,"area":null,"county":null,"state":null,"country":null,"formatted_address":null,"place_id":null,"datatype":null},{"latitude":"41.73696","longitude":"-80.76927","name":"AutoZone","address":"USA-(OH) Jefferson","street_number":null,"street_name":null,"zip":null,"city":null,"area":null,"county":null,"state":null,"country":null,"formatted_address":null,"place_id":null,"datatype":null},{"latitude":"31.68250","longitude":"-92.12749","name":"AutoZone","address":"USA-(LA) Jena","street_number":null,"street_name":null,"zip":null,"city":null,"area":null,"county":null,"state":null,"country":null,"formatted_address":null,"place_id":null,"datatype":null},{"latitude":"38.62508","longitude":"-88.96736","name":"AutoZone","address":"USA-(IL) Salem","street_number":null,"street_name":null,"zip":null,"city":null,"area":null,"county":null,"state":null,"country":null,"formatted_address":null,"place_id":null,"datatype":null},{"latitude":"38.28452","longitude":"-85.58123","name":"AutoZone","address":"USA-(KY) Louisville","street_number":null,"street_name":null,"zip":null,"city":null,"area":null,"county":null,"state":null,"country":null,"formatted_address":null,"place_id":null,"datatype":null},{"latitude":"36.75971","longitude":"-95.93516","name":"AutoZone","address":"USA-(OK) Bartlesville","street_number":null,"street_name":null,"zip":null,"city":null,"area":null,"county":null,"state":null,"country":null,"formatted_address":null,"place_id":null,"datatype":null},{"latitude":"42.40016","longitude":"-83.27847","name":"AutoZone","address":"USA-(MI) Redford","street_number":null,"street_name":null,"zip":null,"city":null,"area":null,"county":null,"state":null,"country":null,"formatted_address":null,"place_id":null,"datatype":null},{"latitude":"41.26174","longitude":"-95.88940","name":"AutoZone","address":"USA-(IA) Council Bluffs","street_number":null,"street_name":null,"zip":null,"city":null,"area":null,"county":null,"state":null,"country":null,"formatted_address":null,"place_id":null,"datatype":null},{"latitude":"33.49484","longitude":"-112.21695","name":"AutoZone","address":"USA-(AZ) Phoenix","street_number":null,"street_name":null,"zip":null,"city":null,"area":null,"county":null,"state":null,"country":null,"formatted_address":null,"place_id":null,"datatype":null},{"latitude":"47.35685","longitude":"-122.30980","name":"AutoZone","address":"USA-(WA) Federal Way","street_number":null,"street_name":null,"zip":null,"city":null,"area":null,"county":null,"state":null,"country":null,"formatted_address":null,"place_id":null,"datatype":null},{"latitude":"32.38447","longitude":"-86.26212","name":"AutoZone","address":"USA-(AL) Montgomery","street_number":null,"street_name":null,"zip":null,"city":null,"area":null,"county":null,"state":null,"country":null,"formatted_address":null,"place_id":null,"datatype":null},{"latitude":"36.74119","longitude":"-76.58319","name":"AutoZone","address":"USA-(VA) Suffolk","street_number":null,"street_name":null,"zip":null,"city":null,"area":null,"county":null,"state":null,"country":null,"formatted_address":null,"place_id":null,"datatype":null},{"latitude":"35.35848","longitude":"-79.79590","name":"AutoZone","address":"USA-(NC) Biscoe","street_number":null,"street_name":null,"zip":null,"city":null,"area":null,"county":null,"state":null,"country":null,"formatted_address":null,"place_id":null,"datatype":null},{"latitude":"36.75973","longitude":"-90.40835","name":"AutoZone","address":"USA-(MO) Poplar Bluff","street_number":null,"street_name":null,"zip":null,"city":null,"area":null,"county":null,"state":null,"country":null,"formatted_address":null,"place_id":null,"datatype":null},{"latitude":"39.37971","longitude":"-76.53745","name":"AutoZone","address":"USA-(MD) Parkville","street_number":null,"street_name":null,"zip":null,"city":null,"area":null,"county":null,"state":null,"country":null,"formatted_address":null,"place_id":null,"datatype":null},{"latitude":"41.93386","longitude":"-87.88501","name":"AutoZone","address":"USA-(IL) Franklin Park","street_number":null,"street_name":null,"zip":null,"city":null,"area":null,"county":null,"state":null,"country":null,"formatted_address":null,"place_id":null,"datatype":null},{"latitude":"41.74383","longitude":"-87.70204","name":"AutoZone","address":"USA-(IL) Chicago","street_number":null,"street_name":null,"zip":null,"city":null,"area":null,"county":null,"state":null,"country":null,"formatted_address":null,"place_id":null,"datatype":null},{"latitude":"34.07255","longitude":"-118.03222","name":"AutoZone","address":"USA-(CA) El Monte","street_number":null,"street_name":null,"zip":null,"city":null,"area":null,"county":null,"state":null,"country":null,"formatted_address":null,"place_id":null,"datatype":null},{"latitude":"41.57097","longitude":"-87.69444","name":"AutoZone","address":"USA-(IL) Hazel Crest","street_number":null,"street_name":null,"zip":null,"city":null,"area":null,"county":null,"state":null,"country":null,"formatted_address":null,"place_id":null,"datatype":null},{"latitude":"29.51936","longitude":"-98.59648","name":"AutoZone","address":"USA-(TX) San Antonio","street_number":null,"street_name":null,"zip":null,"city":null,"area":null,"county":null,"state":null,"country":null,"formatted_address":null,"place_id":null,"datatype":null},{"latitude":"42.78456","longitude":"-83.24122","name":"AutoZone","address":"USA-(MI) Lake Orion","street_number":null,"street_name":null,"zip":null,"city":null,"area":null,"county":null,"state":null,"country":null,"formatted_address":null,"place_id":null,"datatype":null},{"latitude":"42.50465","longitude":"-82.96131","name":"AutoZone","address":"USA-(MI) Roseville","street_number":null,"street_name":null,"zip":null,"city":null,"area":null,"county":null,"state":null,"country":null,"formatted_address":null,"place_id":null,"datatype":null},{"latitude":"40.72074","longitude":"-73.80716","name":"AutoZone","address":"USA-(NY) Fresh Meadows","street_number":null,"street_name":null,"zip":null,"city":null,"area":null,"county":null,"state":null,"country":null,"formatted_address":null,"place_id":null,"datatype":null},{"latitude":"35.79874","longitude":"-78.56250","name":"AutoZone","address":"USA-(NC) Raleigh","street_number":null,"street_name":null,"zip":null,"city":null,"area":null,"county":null,"state":null,"country":null,"formatted_address":null,"place_id":null,"datatype":null},{"latitude":"40.90208","longitude":"-73.79109","name":"AutoZone","address":"USA-(NY) New Rochelle","street_number":null,"street_name":null,"zip":null,"city":null,"area":null,"county":null,"state":null,"country":null,"formatted_address":null,"place_id":null,"datatype":null},{"latitude":"39.34275","longitude":"-76.54536","name":"AutoZone","address":"USA-(MD) Baltimore","street_number":null,"street_name":null,"zip":null,"city":null,"area":null,"county":null,"state":null,"country":null,"formatted_address":null,"place_id":null,"datatype":null},{"latitude":"29.48763","longitude":"-98.50778","name":"AutoZone","address":"USA-(TX) San Antonio","street_number":null,"street_name":null,"zip":null,"city":null,"area":null,"county":null,"state":null,"country":null,"formatted_address":null,"place_id":null,"datatype":null},{"latitude":"39.89817","longitude":"-75.29074","name":"AutoZone","address":"USA-(PA) Glenolden","street_number":null,"street_name":null,"zip":null,"city":null,"area":null,"county":null,"state":null,"country":null,"formatted_address":null,"place_id":null,"datatype":null},{"latitude":"36.82282","longitude":"-76.41535","name":"AutoZone","address":"USA-(VA) Chesapeake","street_number":null,"street_name":null,"zip":null,"city":null,"area":null,"county":null,"state":null,"country":null,"formatted_address":null,"place_id":null,"datatype":null},{"latitude":"36.17414","longitude":"-86.79173","name":"AutoZone","address":"USA-(TN) Nashville","street_number":null,"street_name":null,"zip":null,"city":null,"area":null,"county":null,"state":null,"country":null,"formatted_address":null,"place_id":null,"datatype":null},{"latitude":"41.53625","longitude":"-81.57597","name":"AutoZone","address":"USA-(OH) East Cleveland","street_number":null,"street_name":null,"zip":null,"city":null,"area":null,"county":null,"state":null,"country":null,"formatted_address":null,"place_id":null,"datatype":null},{"latitude":"33.67607","longitude":"-78.99903","name":"AutoZone","address":"USA-(SC) Myrtle Beach","street_number":null,"street_name":null,"zip":null,"city":null,"area":null,"county":null,"state":null,"country":null,"formatted_address":null,"place_id":null,"datatype":null},{"latitude":"32.61272","longitude":"-90.04424","name":"AutoZone","address":"USA-(MS) Canton","street_number":null,"street_name":null,"zip":null,"city":null,"area":null,"county":null,"state":null,"country":null,"formatted_address":null,"place_id":null,"datatype":null},{"latitude":"32.72112","longitude":"-96.82269","name":"AutoZone","address":"USA-(TX) Dallas","street_number":null,"street_name":null,"zip":null,"city":null,"area":null,"county":null,"state":null,"country":null,"formatted_address":null,"place_id":null,"datatype":null},{"latitude":"35.03402","longitude":"-89.83159","name":"AutoZone","address":"USA-(TN) Memphis","street_number":null,"street_name":null,"zip":null,"city":null,"area":null,"county":null,"state":null,"country":null,"formatted_address":null,"place_id":null,"datatype":null},{"latitude":"38.77397","longitude":"-76.06882","name":"AutoZone","address":"USA-(MD) Easton","street_number":null,"street_name":null,"zip":null,"city":null,"area":null,"county":null,"state":null,"country":null,"formatted_address":null,"place_id":null,"datatype":null},{"latitude":"41.00516","longitude":"-80.36884","name":"AutoZone","address":"USA-(PA) New Castle","street_number":null,"street_name":null,"zip":null,"city":null,"area":null,"county":null,"state":null,"country":null,"formatted_address":null,"place_id":null,"datatype":null},{"latitude":"42.19810","longitude":"-83.19343","name":"AutoZone","address":"USA-(MI) Southgate","street_number":null,"street_name":null,"zip":null,"city":null,"area":null,"county":null,"state":null,"country":null,"formatted_address":null,"place_id":null,"datatype":null},{"latitude":"35.20551","longitude":"-89.83766","name":"AutoZone","address":"USA-(TN) Bartlett","street_number":null,"street_name":null,"zip":null,"city":null,"area":null,"county":null,"state":null,"country":null,"formatted_address":null,"place_id":null,"datatype":null},{"latitude":"40.80873","longitude":"-81.35041","name":"AutoZone","address":"USA-(OH) Canton","street_number":null,"street_name":null,"zip":null,"city":null,"area":null,"county":null,"state":null,"country":null,"formatted_address":null,"place_id":null,"datatype":null},{"latitude":"28.55961","longitude":"-81.12799","name":"AutoZone","address":"USA-(FL) Orlando","street_number":null,"street_name":null,"zip":null,"city":null,"area":null,"county":null,"state":null,"country":null,"formatted_address":null,"place_id":null,"datatype":null},{"latitude":"37.27620","longitude":"-87.14061","name":"AutoZone","address":"USA-(KY) Central City","street_number":null,"street_name":null,"zip":null,"city":null,"area":null,"county":null,"state":null,"country":null,"formatted_address":null,"place_id":null,"datatype":null},{"latitude":"36.22586","longitude":"-95.97569","name":"AutoZone","address":"USA-(OK) Tulsa","street_number":null,"street_name":null,"zip":null,"city":null,"area":null,"county":null,"state":null,"country":null,"formatted_address":null,"place_id":null,"datatype":null},{"latitude":"37.94014","longitude":"-121.28246","name":"AutoZone","address":"USA-(CA) Stockton","street_number":null,"street_name":null,"zip":null,"city":null,"area":null,"county":null,"state":null,"country":null,"formatted_address":null,"place_id":null,"datatype":null},{"latitude":"35.97514","longitude":"-114.84712","name":"AutoZone","address":"USA-(NV) Boulder City","street_number":null,"street_name":null,"zip":null,"city":null,"area":null,"county":null,"state":null,"country":null,"formatted_address":null,"place_id":null,"datatype":null},{"latitude":"39.63822","longitude":"-84.26481","name":"AutoZone","address":"USA-(OH) Miamisburg","street_number":null,"street_name":null,"zip":null,"city":null,"area":null,"county":null,"state":null,"country":null,"formatted_address":null,"place_id":null,"datatype":null},{"latitude":"34.62900","longitude":"-89.96842","name":"AutoZone","address":"USA-(MS) Senatobia","street_number":null,"street_name":null,"zip":null,"city":null,"area":null,"county":null,"state":null,"country":null,"formatted_address":null,"place_id":null,"datatype":null},{"latitude":"29.91679","longitude":"-93.91185","name":"AutoZone","address":"USA-(TX) Port Arthur","street_number":null,"street_name":null,"zip":null,"city":null,"area":null,"county":null,"state":null,"country":null,"formatted_address":null,"place_id":null,"datatype":null},{"latitude":"36.80869","longitude":"-119.71671","name":"AutoZone","address":"USA-(CA) Clovis","street_number":null,"street_name":null,"zip":null,"city":null,"area":null,"county":null,"state":null,"country":null,"formatted_address":null,"place_id":null,"datatype":null},{"latitude":"35.31553","longitude":"-81.19322","name":"AutoZone","address":"USA-(NC) Dallas","street_number":null,"street_name":null,"zip":null,"city":null,"area":null,"county":null,"state":null,"country":null,"formatted_address":null,"place_id":null,"datatype":null},{"latitude":"43.20701","longitude":"-78.39014","name":"AutoZone","address":"USA-(NY) Medina","street_number":null,"street_name":null,"zip":null,"city":null,"area":null,"county":null,"state":null,"country":null,"formatted_address":null,"place_id":null,"datatype":null},{"latitude":"33.56843","longitude":"-79.03555","name":"AutoZone","address":"USA-(SC) Murrells Inlet","street_number":null,"street_name":null,"zip":null,"city":null,"area":null,"county":null,"state":null,"country":null,"formatted_address":null,"place_id":null,"datatype":null},{"latitude":"41.05062","longitude":"-76.24571","name":"AutoZone","address":"USA-(PA) Berwick","street_number":null,"street_name":null,"zip":null,"city":null,"area":null,"county":null,"state":null,"country":null,"formatted_address":null,"place_id":null,"datatype":null},{"latitude":"34.26620","longitude":"-118.42109","name":"AutoZone","address":"USA-(CA) Pacoima","street_number":null,"street_name":null,"zip":null,"city":null,"area":null,"county":null,"state":null,"country":null,"formatted_address":null,"place_id":null,"datatype":null},{"latitude":"42.10370","longitude":"-76.26076","name":"AutoZone","address":"USA-(NY) Owego","street_number":null,"street_name":null,"zip":null,"city":null,"area":null,"county":null,"state":null,"country":null,"formatted_address":null,"place_id":null,"datatype":null},{"latitude":"43.16206","longitude":"-77.58171","name":"AutoZone","address":"USA-(NY) Rochester","street_number":null,"street_name":null,"zip":null,"city":null,"area":null,"county":null,"state":null,"country":null,"formatted_address":null,"place_id":null,"datatype":null},{"latitude":"38.59412","longitude":"-90.27153","name":"AutoZone","address":"USA-(MO) St Louis","street_number":null,"street_name":null,"zip":null,"city":null,"area":null,"county":null,"state":null,"country":null,"formatted_address":null,"place_id":null,"datatype":null},{"latitude":"41.75686","longitude":"-87.58616","name":"AutoZone","address":"USA-(IL) Chicago","street_number":null,"street_name":null,"zip":null,"city":null,"area":null,"county":null,"state":null,"country":null,"formatted_address":null,"place_id":null,"datatype":null},{"latitude":"41.77823","longitude":"-87.61540","name":"AutoZone","address":"USA-(IL) Chicago","street_number":null,"street_name":null,"zip":null,"city":null,"area":null,"county":null,"state":null,"country":null,"formatted_address":null,"place_id":null,"datatype":null},{"latitude":"35.42090","longitude":"-97.44067","name":"AutoZone","address":"USA-(OK) Del City","street_number":null,"street_name":null,"zip":null,"city":null,"area":null,"county":null,"state":null,"country":null,"formatted_address":null,"place_id":null,"datatype":null},{"latitude":"39.56400","longitude":"-84.28516","name":"AutoZone","address":"USA-(OH) Franklin","street_number":null,"street_name":null,"zip":null,"city":null,"area":null,"county":null,"state":null,"country":null,"formatted_address":null,"place_id":null,"datatype":null},{"latitude":"36.31983","longitude":"-119.31415","name":"AutoZone","address":"USA-(CA) Visalia","street_number":null,"street_name":null,"zip":null,"city":null,"area":null,"county":null,"state":null,"country":null,"formatted_address":null,"place_id":null,"datatype":null},{"latitude":"31.50740","longitude":"-87.31895","name":"AutoZone","address":"USA-(AL) Monroeville","street_number":null,"street_name":null,"zip":null,"city":null,"area":null,"county":null,"state":null,"country":null,"formatted_address":null,"place_id":null,"datatype":null},{"latitude":"33.69410","longitude":"-78.88877","name":"AutoZone","address":"USA-(SC) Myrtle Beach","street_number":null,"street_name":null,"zip":null,"city":null,"area":null,"county":null,"state":null,"country":null,"formatted_address":null,"place_id":null,"datatype":null},{"latitude":"34.08109","longitude":"-118.05789","name":"AutoZone","address":"USA-(CA) Rosemead","street_number":null,"street_name":null,"zip":null,"city":null,"area":null,"county":null,"state":null,"country":null,"formatted_address":null,"place_id":null,"datatype":null},{"latitude":"38.62261","longitude":"-76.90442","name":"AutoZone","address":"USA-(MD) Waldorf","street_number":null,"street_name":null,"zip":null,"city":null,"area":null,"county":null,"state":null,"country":null,"formatted_address":null,"place_id":null,"datatype":null},{"latitude":"33.89729","longitude":"-117.47135","name":"AutoZone","address":"USA-(CA) Riverside","street_number":null,"street_name":null,"zip":null,"city":null,"area":null,"county":null,"state":null,"country":null,"formatted_address":null,"place_id":null,"datatype":null},{"latitude":"36.15877","longitude":"-115.06822","name":"AutoZone","address":"USA-(NV) Las Vegas","street_number":null,"street_name":null,"zip":null,"city":null,"area":null,"county":null,"state":null,"country":null,"formatted_address":null,"place_id":null,"datatype":null},{"latitude":"46.98797","longitude":"-120.54808","name":"AutoZone","address":"USA-(WA) Ellensburg","street_number":null,"street_name":null,"zip":null,"city":null,"area":null,"county":null,"state":null,"country":null,"formatted_address":null,"place_id":null,"datatype":null},{"latitude":"35.45946","longitude":"-94.77097","name":"AutoZone","address":"USA-(OK) Sallisaw","street_number":null,"street_name":null,"zip":null,"city":null,"area":null,"county":null,"state":null,"country":null,"formatted_address":null,"place_id":null,"datatype":null},{"latitude":"44.42476","longitude":"-69.01299","name":"AutoZone","address":"USA-(ME) Belfast","street_number":null,"street_name":null,"zip":null,"city":null,"area":null,"county":null,"state":null,"country":null,"formatted_address":null,"place_id":null,"datatype":null},{"latitude":"35.26469","longitude":"-87.32296","name":"AutoZone","address":"USA-(TN) Lawrenceburg","street_number":null,"street_name":null,"zip":null,"city":null,"area":null,"county":null,"state":null,"country":null,"formatted_address":null,"place_id":null,"datatype":null},{"latitude":"34.23546","longitude":"-78.00265","name":"AutoZone","address":"USA-(NC) Leland","street_number":null,"street_name":null,"zip":null,"city":null,"area":null,"county":null,"state":null,"country":null,"formatted_address":null,"place_id":null,"datatype":null},{"latitude":"26.37259","longitude":"-98.80032","name":"AutoZone","address":"USA-(TX) Rio Grande City","street_number":null,"street_name":null,"zip":null,"city":null,"area":null,"county":null,"state":null,"country":null,"formatted_address":null,"place_id":null,"datatype":null},{"latitude":"38.21347","longitude":"-91.16961","name":"AutoZone","address":"USA-(MO) Sullivan","street_number":null,"street_name":null,"zip":null,"city":null,"area":null,"county":null,"state":null,"country":null,"formatted_address":null,"place_id":null,"datatype":null},{"latitude":"40.92335","longitude":"-73.89551","name":"AutoZone","address":"USA-(NY) Yonkers","street_number":null,"street_name":null,"zip":null,"city":null,"area":null,"county":null,"state":null,"country":null,"formatted_address":null,"place_id":null,"datatype":null},{"latitude":"35.16533","longitude":"-88.58590","name":"AutoZone","address":"USA-(TN) Selmer","street_number":null,"street_name":null,"zip":null,"city":null,"area":null,"county":null,"state":null,"country":null,"formatted_address":null,"place_id":null,"datatype":null},{"latitude":"41.85078","longitude":"-87.68542","name":"AutoZone","address":"USA-(IL) Chicago","street_number":null,"street_name":null,"zip":null,"city":null,"area":null,"county":null,"state":null,"country":null,"formatted_address":null,"place_id":null,"datatype":null},{"latitude":"36.56810","longitude":"-119.61594","name":"AutoZone","address":"USA-(CA) Selma","street_number":null,"street_name":null,"zip":null,"city":null,"area":null,"county":null,"state":null,"country":null,"formatted_address":null,"place_id":null,"datatype":null},{"latitude":"37.80051","longitude":"-81.18510","name":"AutoZone","address":"USA-(WV) Beckley","street_number":null,"street_name":null,"zip":null,"city":null,"area":null,"county":null,"state":null,"country":null,"formatted_address":null,"place_id":null,"datatype":null},{"latitude":"45.52673","longitude":"-122.53765","name":"AutoZone","address":"USA-(OR) Portland","street_number":null,"street_name":null,"zip":null,"city":null,"area":null,"county":null,"state":null,"country":null,"formatted_address":null,"place_id":null,"datatype":null},{"latitude":"39.91528","longitude":"-83.77023","name":"AutoZone","address":"USA-(OH) Springfield","street_number":null,"street_name":null,"zip":null,"city":null,"area":null,"county":null,"state":null,"country":null,"formatted_address":null,"place_id":null,"datatype":null},{"latitude":"29.68920","longitude":"-98.12763","name":"AutoZone","address":"USA-(TX) New Braunfels","street_number":null,"street_name":null,"zip":null,"city":null,"area":null,"county":null,"state":null,"country":null,"formatted_address":null,"place_id":null,"datatype":null},{"latitude":"32.73050","longitude":"-89.53521","name":"AutoZone","address":"USA-(MS) Carthage","street_number":null,"street_name":null,"zip":null,"city":null,"area":null,"county":null,"state":null,"country":null,"formatted_address":null,"place_id":null,"datatype":null},{"latitude":"34.92923","longitude":"-95.21357","name":"AutoZone","address":"USA-(GA) Ellenwood","street_number":null,"street_name":null,"zip":null,"city":null,"area":null,"county":null,"state":null,"country":null,"formatted_address":null,"place_id":null,"datatype":null},{"latitude":"31.49514","longitude":"-82.85074","name":"AutoZone","address":"USA-(GA) Douglas","street_number":null,"street_name":null,"zip":null,"city":null,"area":null,"county":null,"state":null,"country":null,"formatted_address":null,"place_id":null,"datatype":null},{"latitude":"36.77230","longitude":"-119.75386","name":"AutoZone","address":"USA-(CA) Fresno","street_number":null,"street_name":null,"zip":null,"city":null,"area":null,"county":null,"state":null,"country":null,"formatted_address":null,"place_id":null,"datatype":null},{"latitude":"42.25911","longitude":"-84.42363","name":"AutoZone","address":"USA-(MI) Jackson","street_number":null,"street_name":null,"zip":null,"city":null,"area":null,"county":null,"state":null,"country":null,"formatted_address":null,"place_id":null,"datatype":null},{"latitude":"40.46994","longitude":"-77.98893","name":"AutoZone","address":"USA-(PA) Huntingdon","street_number":null,"street_name":null,"zip":null,"city":null,"area":null,"county":null,"state":null,"country":null,"formatted_address":null,"place_id":null,"datatype":null},{"latitude":"34.48113","longitude":"-84.93849","name":"AutoZone","address":"USA-(GA) Calhoun","street_number":null,"street_name":null,"zip":null,"city":null,"area":null,"county":null,"state":null,"country":null,"formatted_address":null,"place_id":null,"datatype":null},{"latitude":"40.17224","longitude":"-84.96269","name":"AutoZone","address":"USA-(IN) Winchester","street_number":null,"street_name":null,"zip":null,"city":null,"area":null,"county":null,"state":null,"country":null,"formatted_address":null,"place_id":null,"datatype":null},{"latitude":"43.09529","longitude":"-79.02765","name":"AutoZone","address":"USA-(NY) Niagara Falls","street_number":null,"street_name":null,"zip":null,"city":null,"area":null,"county":null,"state":null,"country":null,"formatted_address":null,"place_id":null,"datatype":null},{"latitude":"33.80959","longitude":"-117.85317","name":"AutoZone","address":"USA-(CA) Orange","street_number":null,"street_name":null,"zip":null,"city":null,"area":null,"county":null,"state":null,"country":null,"formatted_address":null,"place_id":null,"datatype":null},{"latitude":"30.68345","longitude":"-88.22402","name":"AutoZone","address":"USA-(AL) Mobile","street_number":null,"street_name":null,"zip":null,"city":null,"area":null,"county":null,"state":null,"country":null,"formatted_address":null,"place_id":null,"datatype":null},{"latitude":"37.14041","longitude":"-84.09961","name":"AutoZone","address":"USA-(KY) London","street_number":null,"street_name":null,"zip":null,"city":null,"area":null,"county":null,"state":null,"country":null,"formatted_address":null,"place_id":null,"datatype":null},{"latitude":"41.41814","longitude":"-88.28946","name":"AutoZone","address":"USA-(IL) Minooka","street_number":null,"street_name":null,"zip":null,"city":null,"area":null,"county":null,"state":null,"country":null,"formatted_address":null,"place_id":null,"datatype":null},{"latitude":"38.31038","longitude":"-122.28475","name":"AutoZone","address":"USA-(CA) Napa","street_number":null,"street_name":null,"zip":null,"city":null,"area":null,"county":null,"state":null,"country":null,"formatted_address":null,"place_id":null,"datatype":null},{"latitude":"29.74235","longitude":"-95.32424","name":"AutoZone","address":"USA-(TX) Houston","street_number":null,"street_name":null,"zip":null,"city":null,"area":null,"county":null,"state":null,"country":null,"formatted_address":null,"place_id":null,"datatype":null},{"latitude":"36.09125","longitude":"-95.88633","name":"AutoZone","address":"USA-(OK) Tulsa","street_number":null,"street_name":null,"zip":null,"city":null,"area":null,"county":null,"state":null,"country":null,"formatted_address":null,"place_id":null,"datatype":null},{"latitude":"30.02295","longitude":"-95.38059","name":"AutoZone","address":"USA-(TX) Humble","street_number":null,"street_name":null,"zip":null,"city":null,"area":null,"county":null,"state":null,"country":null,"formatted_address":null,"place_id":null,"datatype":null},{"latitude":"32.04534","longitude":"-81.07572","name":"AutoZone","address":"USA-(GA) Savannah","street_number":null,"street_name":null,"zip":null,"city":null,"area":null,"county":null,"state":null,"country":null,"formatted_address":null,"place_id":null,"datatype":null},{"latitude":"27.93752","longitude":"-82.28746","name":"AutoZone","address":"USA-(FL) Brandon","street_number":null,"street_name":null,"zip":null,"city":null,"area":null,"county":null,"state":null,"country":null,"formatted_address":null,"place_id":null,"datatype":null},{"latitude":"30.58823","longitude":"-84.58786","name":"AutoZone","address":"USA-(FL) Quincy","street_number":null,"street_name":null,"zip":null,"city":null,"area":null,"county":null,"state":null,"country":null,"formatted_address":null,"place_id":null,"datatype":null},{"latitude":"35.46121","longitude":"-79.14735","name":"AutoZone","address":"USA-(NC) Sanford","street_number":null,"street_name":null,"zip":null,"city":null,"area":null,"county":null,"state":null,"country":null,"formatted_address":null,"place_id":null,"datatype":null},{"latitude":"30.75752","longitude":"-88.12079","name":"AutoZone","address":"USA-(AL) Prichard","street_number":null,"street_name":null,"zip":null,"city":null,"area":null,"county":null,"state":null,"country":null,"formatted_address":null,"place_id":null,"datatype":null},{"latitude":"30.17423","longitude":"-93.24940","name":"AutoZone","address":"USA-(LA) Lake Charles","street_number":null,"street_name":null,"zip":null,"city":null,"area":null,"county":null,"state":null,"country":null,"formatted_address":null,"place_id":null,"datatype":null},{"latitude":"34.17817","longitude":"-86.84549","name":"AutoZone","address":"USA-(AL) Cullman","street_number":null,"street_name":null,"zip":null,"city":null,"area":null,"county":null,"state":null,"country":null,"formatted_address":null,"place_id":null,"datatype":null},{"latitude":"37.54916","longitude":"-77.39255","name":"AutoZone","address":"USA-(VA) Richmond","street_number":null,"street_name":null,"zip":null,"city":null,"area":null,"county":null,"state":null,"country":null,"formatted_address":null,"place_id":null,"datatype":null},{"latitude":"37.73805","longitude":"-84.28044","name":"AutoZone","address":"USA-(KY) Richmond","street_number":null,"street_name":null,"zip":null,"city":null,"area":null,"county":null,"state":null,"country":null,"formatted_address":null,"place_id":null,"datatype":null},{"latitude":"42.53118","longitude":"-78.45046","name":"AutoZone","address":"USA-(NY) Arcade","street_number":null,"street_name":null,"zip":null,"city":null,"area":null,"county":null,"state":null,"country":null,"formatted_address":null,"place_id":null,"datatype":null},{"latitude":"29.40923","longitude":"-98.52923","name":"AutoZone","address":"USA-(TX) San Antonio","street_number":null,"street_name":null,"zip":null,"city":null,"area":null,"county":null,"state":null,"country":null,"formatted_address":null,"place_id":null,"datatype":null},{"latitude":"41.67923","longitude":"-71.16294","name":"AutoZone","address":"USA-(MA) Fall River","street_number":null,"street_name":null,"zip":null,"city":null,"area":null,"county":null,"state":null,"country":null,"formatted_address":null,"place_id":null,"datatype":null},{"latitude":"30.84422","longitude":"-90.15722","name":"AutoZone","address":"USA-(LA) Franklinton","street_number":null,"street_name":null,"zip":null,"city":null,"area":null,"county":null,"state":null,"country":null,"formatted_address":null,"place_id":null,"datatype":null},{"latitude":"42.26653","longitude":"-83.38532","name":"AutoZone","address":"USA-(MI) Romulus","street_number":null,"street_name":null,"zip":null,"city":null,"area":null,"county":null,"state":null,"country":null,"formatted_address":null,"place_id":null,"datatype":null},{"latitude":"33.92631","longitude":"-117.45123","name":"AutoZone","address":"USA-(CA) Riverside","street_number":null,"street_name":null,"zip":null,"city":null,"area":null,"county":null,"state":null,"country":null,"formatted_address":null,"place_id":null,"datatype":null},{"latitude":"39.15895","longitude":"-84.42138","name":"AutoZone","address":"USA-(OH) Cincinnati","street_number":null,"street_name":null,"zip":null,"city":null,"area":null,"county":null,"state":null,"country":null,"formatted_address":null,"place_id":null,"datatype":null},{"latitude":"44.08976","longitude":"-93.23639","name":"AutoZone","address":"USA-(MN) Owatonna","street_number":null,"street_name":null,"zip":null,"city":null,"area":null,"county":null,"state":null,"country":null,"formatted_address":null,"place_id":null,"datatype":null},{"latitude":"31.44959","longitude":"-83.51173","name":"AutoZone","address":"USA-(GA) Tifton","street_number":null,"street_name":null,"zip":null,"city":null,"area":null,"county":null,"state":null,"country":null,"formatted_address":null,"place_id":null,"datatype":null},{"latitude":"29.83765","longitude":"-95.41098","name":"AutoZone","address":"USA-(TX) Houston","street_number":null,"street_name":null,"zip":null,"city":null,"area":null,"county":null,"state":null,"country":null,"formatted_address":null,"place_id":null,"datatype":null},{"latitude":"38.78851","longitude":"-90.62914","name":"AutoZone","address":"USA-(MO) St Peters","street_number":null,"street_name":null,"zip":null,"city":null,"area":null,"county":null,"state":null,"country":null,"formatted_address":null,"place_id":null,"datatype":null},{"latitude":"29.88209","longitude":"-97.91903","name":"AutoZone","address":"USA-(TX) San Marcos","street_number":null,"street_name":null,"zip":null,"city":null,"area":null,"county":null,"state":null,"country":null,"formatted_address":null,"place_id":null,"datatype":null},{"latitude":"35.99323","longitude":"-80.26927","name":"AutoZone","address":"USA-(NC) Winston-Salem","street_number":null,"street_name":null,"zip":null,"city":null,"area":null,"county":null,"state":null,"country":null,"formatted_address":null,"place_id":null,"datatype":null},{"latitude":"31.86084","longitude":"-102.34697","name":"AutoZone","address":"USA-(TX) Odessa","street_number":null,"street_name":null,"zip":null,"city":null,"area":null,"county":null,"state":null,"country":null,"formatted_address":null,"place_id":null,"datatype":null},{"latitude":"26.93479","longitude":"-82.31472","name":"AutoZone","address":"USA-(FL) Englewood","street_number":null,"street_name":null,"zip":null,"city":null,"area":null,"county":null,"state":null,"country":null,"formatted_address":null,"place_id":null,"datatype":null},{"latitude":"38.65839","longitude":"-85.13648","name":"AutoZone","address":"USA-(KY) Carrollton","street_number":null,"street_name":null,"zip":null,"city":null,"area":null,"county":null,"state":null,"country":null,"formatted_address":null,"place_id":null,"datatype":null},{"latitude":"41.34959","longitude":"-72.05421","name":"AutoZone","address":"USA-(CT) Groton","street_number":null,"street_name":null,"zip":null,"city":null,"area":null,"county":null,"state":null,"country":null,"formatted_address":null,"place_id":null,"datatype":null},{"latitude":"37.74188","longitude":"-122.16884","name":"AutoZone","address":"USA-(CA) Oakland","street_number":null,"street_name":null,"zip":null,"city":null,"area":null,"county":null,"state":null,"country":null,"formatted_address":null,"place_id":null,"datatype":null},{"latitude":"34.07775","longitude":"-117.61149","name":"AutoZone","address":"USA-(CA) Ontario","street_number":null,"street_name":null,"zip":null,"city":null,"area":null,"county":null,"state":null,"country":null,"formatted_address":null,"place_id":null,"datatype":null},{"latitude":"37.55604","longitude":"-97.27364","name":"AutoZone","address":"USA-(KS) Derby","street_number":null,"street_name":null,"zip":null,"city":null,"area":null,"county":null,"state":null,"country":null,"formatted_address":null,"place_id":null,"datatype":null},{"latitude":"40.60963","longitude":"-112.00425","name":"AutoZone","address":"USA-(UT) West Jordan","street_number":null,"street_name":null,"zip":null,"city":null,"area":null,"county":null,"state":null,"country":null,"formatted_address":null,"place_id":null,"datatype":null},{"latitude":"40.80211","longitude":"-81.93427","name":"AutoZone","address":"USA-(OH) Wooster","street_number":null,"street_name":null,"zip":null,"city":null,"area":null,"county":null,"state":null,"country":null,"formatted_address":null,"place_id":null,"datatype":null},{"latitude":"29.65654","longitude":"-95.53508","name":"AutoZone","address":"USA-(TX) Houston","street_number":null,"street_name":null,"zip":null,"city":null,"area":null,"county":null,"state":null,"country":null,"formatted_address":null,"place_id":null,"datatype":null},{"latitude":"39.49949","longitude":"-84.34797","name":"AutoZone","address":"USA-(OH) Middletown","street_number":null,"street_name":null,"zip":null,"city":null,"area":null,"county":null,"state":null,"country":null,"formatted_address":null,"place_id":null,"datatype":null},{"latitude":"41.75522","longitude":"-71.40436","name":"AutoZone","address":"USA-(RI) Warwick","street_number":null,"street_name":null,"zip":null,"city":null,"area":null,"county":null,"state":null,"country":null,"formatted_address":null,"place_id":null,"datatype":null},{"latitude":"33.39335","longitude":"-112.02961","name":"AutoZone","address":"USA-(AZ) Phoenix","street_number":null,"street_name":null,"zip":null,"city":null,"area":null,"county":null,"state":null,"country":null,"formatted_address":null,"place_id":null,"datatype":null},{"latitude":"45.21850","longitude":"-123.19856","name":"AutoZone","address":"USA-(OR) Mcminnville","street_number":null,"street_name":null,"zip":null,"city":null,"area":null,"county":null,"state":null,"country":null,"formatted_address":null,"place_id":null,"datatype":null},{"latitude":"33.78221","longitude":"-117.22144","name":"AutoZone","address":"USA-(CA) Perris","street_number":null,"street_name":null,"zip":null,"city":null,"area":null,"county":null,"state":null,"country":null,"formatted_address":null,"place_id":null,"datatype":null},{"latitude":"35.39047","longitude":"-119.00266","name":"AutoZone","address":"USA-(CA) Bakersfield","street_number":null,"street_name":null,"zip":null,"city":null,"area":null,"county":null,"state":null,"country":null,"formatted_address":null,"place_id":null,"datatype":null},{"latitude":"39.97147","longitude":"-82.01089","name":"AutoZone","address":"USA-(OH) Zanesville","street_number":null,"street_name":null,"zip":null,"city":null,"area":null,"county":null,"state":null,"country":null,"formatted_address":null,"place_id":null,"datatype":null},{"latitude":"29.78027","longitude":"-95.12431","name":"AutoZone","address":"USA-(TX) Channelview","street_number":null,"street_name":null,"zip":null,"city":null,"area":null,"county":null,"state":null,"country":null,"formatted_address":null,"place_id":null,"datatype":null},{"latitude":"42.40358","longitude":"-71.09955","name":"AutoZone","address":"USA-(MA) Medford","street_number":null,"street_name":null,"zip":null,"city":null,"area":null,"county":null,"state":null,"country":null,"formatted_address":null,"place_id":null,"datatype":null},{"latitude":"32.72129","longitude":"-117.08616","name":"AutoZone","address":"USA-(CA) San Diego","street_number":null,"street_name":null,"zip":null,"city":null,"area":null,"county":null,"state":null,"country":null,"formatted_address":null,"place_id":null,"datatype":null},{"latitude":"46.37486","longitude":"-120.31982","name":"AutoZone","address":"USA-(WA) Toppenish","street_number":null,"street_name":null,"zip":null,"city":null,"area":null,"county":null,"state":null,"country":null,"formatted_address":null,"place_id":null,"datatype":null},{"latitude":"38.31454","longitude":"-88.92925","name":"AutoZone","address":"USA-(IL) Mt Vernon","street_number":null,"street_name":null,"zip":null,"city":null,"area":null,"county":null,"state":null,"country":null,"formatted_address":null,"place_id":null,"datatype":null},{"latitude":"29.76380","longitude":"-95.75187","name":"AutoZone","address":"USA-(TX) Katy","street_number":null,"street_name":null,"zip":null,"city":null,"area":null,"county":null,"state":null,"country":null,"formatted_address":null,"place_id":null,"datatype":null},{"latitude":"31.61348","longitude":"-81.87801","name":"AutoZone","address":"USA-(GA) Jesup","street_number":null,"street_name":null,"zip":null,"city":null,"area":null,"county":null,"state":null,"country":null,"formatted_address":null,"place_id":null,"datatype":null},{"latitude":"42.91186","longitude":"-78.69633","name":"AutoZone","address":"USA-(NY) Depew","street_number":null,"street_name":null,"zip":null,"city":null,"area":null,"county":null,"state":null,"country":null,"formatted_address":null,"place_id":null,"datatype":null},{"latitude":"41.66678","longitude":"-74.67514","name":"AutoZone","address":"USA-(NY) Monticello","street_number":null,"street_name":null,"zip":null,"city":null,"area":null,"county":null,"state":null,"country":null,"formatted_address":null,"place_id":null,"datatype":null},{"latitude":"27.99595","longitude":"-82.41793","name":"AutoZone","address":"USA-(FL) Tampa","street_number":null,"street_name":null,"zip":null,"city":null,"area":null,"county":null,"state":null,"country":null,"formatted_address":null,"place_id":null,"datatype":null},{"latitude":"43.11530","longitude":"-89.32660","name":"AutoZone","address":"USA-(WI) Madison","street_number":null,"street_name":null,"zip":null,"city":null,"area":null,"county":null,"state":null,"country":null,"formatted_address":null,"place_id":null,"datatype":null},{"latitude":"39.36870","longitude":"-84.54620","name":"AutoZone","address":"USA-(OH) Hamilton","street_number":null,"street_name":null,"zip":null,"city":null,"area":null,"county":null,"state":null,"country":null,"formatted_address":null,"place_id":null,"datatype":null},{"latitude":"33.98417","longitude":"-81.25212","name":"AutoZone","address":"USA-(SC) Lexington","street_number":null,"street_name":null,"zip":null,"city":null,"area":null,"county":null,"state":null,"country":null,"formatted_address":null,"place_id":null,"datatype":null},{"latitude":"33.73685","longitude":"-117.92023","name":"AutoZone","address":"USA-(CA) Santa Ana","street_number":null,"street_name":null,"zip":null,"city":null,"area":null,"county":null,"state":null,"country":null,"formatted_address":null,"place_id":null,"datatype":null},{"latitude":"41.52660","longitude":"-93.62961","name":"AutoZone","address":"USA-(IA) Des Moines","street_number":null,"street_name":null,"zip":null,"city":null,"area":null,"county":null,"state":null,"country":null,"formatted_address":null,"place_id":null,"datatype":null},{"latitude":"40.70517","longitude":"-73.63253","name":"AutoZone","address":"USA-(NY) Hempstead","street_number":null,"street_name":null,"zip":null,"city":null,"area":null,"county":null,"state":null,"country":null,"formatted_address":null,"place_id":null,"datatype":null},{"latitude":"32.43016","longitude":"-90.12811","name":"AutoZone","address":"USA-(MS) Ridgeland","street_number":null,"street_name":null,"zip":null,"city":null,"area":null,"county":null,"state":null,"country":null,"formatted_address":null,"place_id":null,"datatype":null},{"latitude":"38.11523","longitude":"-121.28864","name":"AutoZone","address":"USA-(CA) Lodi","street_number":null,"street_name":null,"zip":null,"city":null,"area":null,"county":null,"state":null,"country":null,"formatted_address":null,"place_id":null,"datatype":null},{"latitude":"35.68437","longitude":"-81.22857","name":"AutoZone","address":"USA-(NC) Newton","street_number":null,"street_name":null,"zip":null,"city":null,"area":null,"county":null,"state":null,"country":null,"formatted_address":null,"place_id":null,"datatype":null},{"latitude":"41.58072","longitude":"-81.21579","name":"AutoZone","address":"USA-(OH) Chardon","street_number":null,"street_name":null,"zip":null,"city":null,"area":null,"county":null,"state":null,"country":null,"formatted_address":null,"place_id":null,"datatype":null},{"latitude":"35.26010","longitude":"-89.00753","name":"AutoZone","address":"USA-(TN) Bolivar","street_number":null,"street_name":null,"zip":null,"city":null,"area":null,"county":null,"state":null,"country":null,"formatted_address":null,"place_id":null,"datatype":null},{"latitude":"32.86462","longitude":"-79.98834","name":"AutoZone","address":"USA-(SC) N Charleston","street_number":null,"street_name":null,"zip":null,"city":null,"area":null,"county":null,"state":null,"country":null,"formatted_address":null,"place_id":null,"datatype":null},{"latitude":"29.66522","longitude":"-95.18894","name":"AutoZone","address":"USA-(TX) Pasadena","street_number":null,"street_name":null,"zip":null,"city":null,"area":null,"county":null,"state":null,"country":null,"formatted_address":null,"place_id":null,"datatype":null},{"latitude":"34.97434","longitude":"-120.43540","name":"AutoZone","address":"USA-(CA) Santa Maria","street_number":null,"street_name":null,"zip":null,"city":null,"area":null,"county":null,"state":null,"country":null,"formatted_address":null,"place_id":null,"datatype":null},{"latitude":"35.97927","longitude":"-84.01447","name":"AutoZone","address":"USA-(TN) Knoxville","street_number":null,"street_name":null,"zip":null,"city":null,"area":null,"county":null,"state":null,"country":null,"formatted_address":null,"place_id":null,"datatype":null},{"latitude":"38.14090","longitude":"-90.57575","name":"AutoZone","address":"USA-(MO) DE Soto","street_number":null,"street_name":null,"zip":null,"city":null,"area":null,"county":null,"state":null,"country":null,"formatted_address":null,"place_id":null,"datatype":null},{"latitude":"41.73129","longitude":"-86.25045","name":"AutoZone","address":"USA-(IN) South Bend","street_number":null,"street_name":null,"zip":null,"city":null,"area":null,"county":null,"state":null,"country":null,"formatted_address":null,"place_id":null,"datatype":null},{"latitude":"41.56331","longitude":"-87.55856","name":"AutoZone","address":"USA-(IL) Lansing","street_number":null,"street_name":null,"zip":null,"city":null,"area":null,"county":null,"state":null,"country":null,"formatted_address":null,"place_id":null,"datatype":null},{"latitude":"42.32016","longitude":"-83.38883","name":"AutoZone","address":"USA-(MI) Westland","street_number":null,"street_name":null,"zip":null,"city":null,"area":null,"county":null,"state":null,"country":null,"formatted_address":null,"place_id":null,"datatype":null},{"latitude":"40.16963","longitude":"-80.25068","name":"AutoZone","address":"USA-(PA) Washington","street_number":null,"street_name":null,"zip":null,"city":null,"area":null,"county":null,"state":null,"country":null,"formatted_address":null,"place_id":null,"datatype":null},{"latitude":"33.10448","longitude":"-83.25057","name":"AutoZone","address":"USA-(GA) Milledgeville","street_number":null,"street_name":null,"zip":null,"city":null,"area":null,"county":null,"state":null,"country":null,"formatted_address":null,"place_id":null,"datatype":null},{"latitude":"28.53378","longitude":"-82.51797","name":"AutoZone","address":"USA-(FL) Brooksville","street_number":null,"street_name":null,"zip":null,"city":null,"area":null,"county":null,"state":null,"country":null,"formatted_address":null,"place_id":null,"datatype":null},{"latitude":"32.93513","longitude":"-97.25375","name":"AutoZone","address":"USA-(TX) Keller","street_number":null,"street_name":null,"zip":null,"city":null,"area":null,"county":null,"state":null,"country":null,"formatted_address":null,"place_id":null,"datatype":null},{"latitude":"41.39604","longitude":"-81.71024","name":"AutoZone","address":"USA-(OH) Parma","street_number":null,"street_name":null,"zip":null,"city":null,"area":null,"county":null,"state":null,"country":null,"formatted_address":null,"place_id":null,"datatype":null},