[{"name":"Bahama Breeze","code":null,"latitude":26.15688,"longitude":-80.3191,"address":"2750 Sawgrass Mills Circle, Fort Lauderdale FL","chain_name":null,"distance":0},{"name":"Bahama Breeze","code":null,"latitude":28.43709,"longitude":-81.472,"address":"8849 International Drive, Orlando FL","chain_name":null,"distance":0},{"name":"Bahama Breeze","code":null,"latitude":26.00774,"longitude":-80.2934,"address":"11000 Pines Boulevard, Hollywood FL","chain_name":null,"distance":0},{"name":"Bahamas Breeze","code":null,"latitude":42.0498,"longitude":-88.0696,"address":"406 E Golf Rd, Schaumburg IL","chain_name":null,"distance":0},{"name":"Bahama Breeze","code":null,"latitude":27.97051,"longitude":-82.564,"address":"3045 N Rocky Point Drive East, Tampa FL","chain_name":null,"distance":0},{"name":"Bahama Breeze","code":null,"latitude":28.66392,"longitude":-81.3741,"address":"499 E Altamonte Drive, Altamonte Springs FL","chain_name":null,"distance":0},{"name":"Bahama Breeze","code":null,"latitude":28.37813,"longitude":-81.5009,"address":"8615 Vineland Avenue, Orlando FL","chain_name":null,"distance":0},{"name":"Bahama Breeze","code":null,"latitude":28.3752,"longitude":-81.5013,"address":"8735 Vineland Avenue, Orlando FL","chain_name":null,"distance":0},{"name":"Bahama Breeze","code":null,"latitude":26.52923,"longitude":-81.8711,"address":"14701 S Tamiami Trail, Fort Myers FL","chain_name":null,"distance":0},{"name":"Bahama Breeze","code":null,"latitude":28.47097,"longitude":-81.4034,"address":"5900 Lake Ellenor Drive, Orlando FL","chain_name":null,"distance":0},{"name":"Bahama Breeze","code":null,"latitude":25.68622,"longitude":-80.3925,"address":"12395 SW 88th Street, Miami FL","chain_name":null,"distance":0},{"name":"Bahama Breeze","code":null,"latitude":39.93889,"longitude":-75.025,"address":"2000 Route 38 # 1160, Cherry Hill NJ","chain_name":null,"distance":0},{"name":"Bahama Breeze","code":null,"latitude":32.88882,"longitude":-96.959,"address":"857 West John Carpenter Freeway, Irving TX","chain_name":null,"distance":0},{"name":"Bahama Breeze","code":null,"latitude":42.04981,"longitude":-88.07,"address":"406 E Golf Road, Schaumburg IL","chain_name":null,"distance":0},{"name":"Bahama Breeze","code":null,"latitude":33.10124,"longitude":-96.8052,"address":"2750 Preston Road, Frisco TX","chain_name":null,"distance":0},{"name":"Bahama Breeze","code":null,"latitude":38.6494,"longitude":-90.5651,"address":"291 Chesterfield Mall, Chesterfield MO","chain_name":null,"distance":0},{"name":"Bahama Breeze","code":null,"latitude":40.45077,"longitude":-80.1618,"address":"6100 Robinson Center Drive, Pittsburgh PA","chain_name":null,"distance":0},{"name":"Bahama Breeze","code":null,"latitude":38.65469,"longitude":-90.5663,"address":"550 Chesterfield Centre, Chesterfield MO","chain_name":null,"distance":0},{"name":"Bahama Breeze","code":null,"latitude":37.26345,"longitude":-76.0143,"address":"3 Marina Circle # 3, Cape Charles VA","chain_name":null,"distance":0},{"name":"Bahama Breeze","code":null,"latitude":40.0912,"longitude":-75.3967,"address":"320 Goddard Boulevard, King Of Prussia PA","chain_name":null,"distance":0},{"name":"Bahama Breeze","code":null,"latitude":36.06421,"longitude":-79.6055,"address":"952 Golf House Road W # D, Whitsett NC","chain_name":null,"distance":0},{"name":"Bahama Breeze","code":null,"latitude":41.45774,"longitude":-81.4197,"address":"3900 Orange Place, Chagrin Falls OH","chain_name":null,"distance":0},{"name":"Bahama Breeze","code":null,"latitude":35.07221,"longitude":-89.8123,"address":"2830 N Germantown Parkway, Memphis TN","chain_name":null,"distance":0},{"name":"Bahama Breeze","code":null,"latitude":35.82745,"longitude":-78.6202,"address":"3309 Wake Forest Road, Raleigh NC","chain_name":null,"distance":0},{"name":"Bahama Breeze","code":null,"latitude":39.29754,"longitude":-84.4803,"address":"325 Pictoria Drive, Cincinnati OH","chain_name":null,"distance":0},{"name":"Bahama Breeze","code":null,"latitude":36.54534,"longitude":-82.5187,"address":"111 Jack White Drive # 5, Kingsport TN","chain_name":null,"distance":0},{"name":"Bahama Breeze","code":null,"latitude":41.4552,"longitude":-81.4889,"address":"3900 Orange Place, Beachwood OH","chain_name":null,"distance":0},{"name":"Bahama Breeze","code":null,"latitude":35.56325,"longitude":-97.5751,"address":"9219 Lake Hefner Parkway, Oklahoma City OK","chain_name":null,"distance":0},{"name":"Bahama Breeze","code":null,"latitude":42.42925,"longitude":-83.4332,"address":"19600 Haggerty Road, Livonia MI","chain_name":null,"distance":0},{"name":"Bahama Breeze","code":null,"latitude":33.67682,"longitude":-111.9773,"address":"21001 North Tatum Boulevard, Phoenix AZ","chain_name":null,"distance":0},{"name":"Bahama Breeze","code":null,"latitude":42.45992,"longitude":-84.0831,"address":"132 East M-36, Gregory MI","chain_name":null,"distance":0},{"name":"Bahama Breeze","code":null,"latitude":33.95,"longitude":-84.1275,"address":"3590 Breckinridge Boulevard, Duluth GA","chain_name":null,"distance":0},{"name":"Bahama Breeze","code":null,"latitude":36.11552,"longitude":-115.1552,"address":"375 Hughes Center Drive, Las Vegas NV","chain_name":null,"distance":0},{"name":"Bahama Breeze","code":null,"latitude":39.92688,"longitude":-86.1057,"address":"3815 E 96th Street, Indianapolis IN","chain_name":null,"distance":0},{"name":"Bahama Breeze","code":null,"latitude":42.56288,"longitude":-83.137,"address":"539 E Big Beaver Road, Troy MI","chain_name":null,"distance":0},{"name":"Bahama Breeze","code":null,"latitude":34.04834,"longitude":-84.2863,"address":"10845 Haynes Bridge Road, Alpharetta GA","chain_name":null,"distance":0},{"name":"Bahama Breeze","code":null,"latitude":34.00643,"longitude":-84.5734,"address":"755 Ernest W Barrett Parkway Northwest, Kennesaw GA","chain_name":null,"distance":0},{"name":"Bahama Breeze","code":null,"latitude":39.40196,"longitude":-76.6007,"address":"100 E Joppa Road, Towson MD","chain_name":null,"distance":0},{"name":"Bahama Breeze","code":null,"latitude":33.4263,"longitude":-86.7052,"address":"101 Resource Center Parkway, Birmingham AL","chain_name":null,"distance":0},{"name":"Bahama Breeze","code":null,"latitude":36.91809,"longitude":-88.339,"address":"2698 Us Highway 641 North, Benton KY","chain_name":null,"distance":0},{"name":"Bahama Breeze","code":null,"latitude":47.46189,"longitude":-122.2605,"address":"15700 Southcenter Parkway, Seattle WA","chain_name":null,"distance":0}]