[{"name":"Bath & Body Works","code":null,"latitude":37.6761089,"longitude":-97.397573,"address":"4600 West Kellogg, Wichita KS","chain_name":null,"distance":0},{"name":"Bath & Body Works","code":null,"latitude":42.0822318,"longitude":-87.981716,"address":"41 S Evergreen Ave, Arlington Heights IL","chain_name":null,"distance":0},{"name":"Bath & Body Works","code":null,"latitude":25.95796,"longitude":-80.14192,"address":"19575 Biscayne Blvd, Aventura FL","chain_name":null,"distance":0},{"name":"Bath & Body Works","code":null,"latitude":41.8701287,"longitude":-71.5384357,"address":"500 Putnam Pike, Smithfield RI","chain_name":null,"distance":0},{"name":"Bath & Body Works","code":null,"latitude":41.4514993,"longitude":-96.4849429,"address":"940 E 23rd St, Fremont NE","chain_name":null,"distance":0},{"name":"Bath & Body Works","code":null,"latitude":33.987673,"longitude":-118.4412,"address":"13455 Maxella Ave, Marina Del Rey CA","chain_name":null,"distance":0},{"name":"Bath & Body Works","code":null,"latitude":40.601223,"longitude":-73.959405,"address":"139 Flatbush Aves, Brooklyn NY","chain_name":null,"distance":0},{"name":"Bath & Body Works","code":null,"latitude":36.1040087,"longitude":-95.9221714,"address":"4107 S Yale Ave, Tulsa OK","chain_name":null,"distance":0},{"name":"Bath & Body Works","code":null,"latitude":42.1602365,"longitude":-88.0537986,"address":"20530 N Rand Rd, Deer Park IL","chain_name":null,"distance":0},{"name":"Bath & Body Works","code":null,"latitude":41.498607,"longitude":-81.494226,"address":"26300 Cedar Rd, Beachwood OH","chain_name":null,"distance":0},{"name":"Bath & Body Works","code":null,"latitude":40.764182,"longitude":-73.3064547,"address":"455 Commack Rd, Deer Park NY","chain_name":null,"distance":0},{"name":"Bath & Body Works","code":null,"latitude":34.064225,"longitude":-83.984145,"address":"3333 Buford Dr, Buford GA","chain_name":null,"distance":0},{"name":"Bath & Body Works","code":null,"latitude":42.4638414,"longitude":-92.3172324,"address":"252 Crossrds Center, Waterloo IA","chain_name":null,"distance":0},{"name":"Bath & Body Works","code":null,"latitude":34.1540943,"longitude":-84.1781259,"address":"410 Peachtree Pkwy, Cumming GA","chain_name":null,"distance":0},{"name":"Bath & Body Works","code":null,"latitude":33.5196262,"longitude":-112.0950943,"address":"1644 W Montebello, Phoenix AZ","chain_name":null,"distance":0},{"name":"Bath & Body Works","code":null,"latitude":39.7636171,"longitude":-86.3396914,"address":"10343 E US Hwy 36, Avon IN","chain_name":null,"distance":0},{"name":"Bath & Body Works","code":null,"latitude":40.7709869,"longitude":-76.2367707,"address":"Schuylkill Mall, Frackville PA","chain_name":null,"distance":0},{"name":"Bath & Body Works","code":null,"latitude":39.4062013,"longitude":-119.748465,"address":"13945 S Virginia, Reno NV","chain_name":null,"distance":0},{"name":"Bath & Body Works","code":null,"latitude":42.367492,"longitude":-88.293615,"address":"2340 Richmond Rd, Mchenry IL","chain_name":null,"distance":0},{"name":"Bath & Body Works","code":null,"latitude":42.2212584,"longitude":-85.5894039,"address":"6650 S Wnedge Ave, Portage MI","chain_name":null,"distance":0},{"name":"Bath & Body Works","code":null,"latitude":30.475857,"longitude":-84.290141,"address":"2415 N Monroe St, Tallahassee FL","chain_name":null,"distance":0},{"name":"Bath & Body Works","code":null,"latitude":36.2410517,"longitude":-115.2337712,"address":"4454 North Rancho Dr, Las Vegas NV","chain_name":null,"distance":0},{"name":"Bath & Body Works","code":null,"latitude":42.8271404,"longitude":-78.7534139,"address":"990 Union Rd, West Seneca NY","chain_name":null,"distance":0},{"name":"Bath & Body Works","code":null,"latitude":33.7486598,"longitude":-118.0104533,"address":"2021 Wminster Mall, Westminster CA","chain_name":null,"distance":0},{"name":"Bath & Body Works","code":null,"latitude":30.43723,"longitude":-84.255908,"address":"1500 Apalachee Pkwy, Tallahassee FL","chain_name":null,"distance":0},{"name":"Bath & Body Works","code":null,"latitude":40.095995,"longitude":-85.655952,"address":"2109 S Scatterfield Rd, Anderson IN","chain_name":null,"distance":0},{"name":"Bath & Body Works","code":null,"latitude":33.003298,"longitude":-96.968603,"address":"2401 S Stemmons Freeway, Lewisville TX","chain_name":null,"distance":0},{"name":"Bath & Body Works","code":null,"latitude":33.7047247,"longitude":-111.9880199,"address":"21011 Tatum Blvd Ste70, Phoenix AZ","chain_name":null,"distance":0},{"name":"Bath & Body Works","code":null,"latitude":43.4583915,"longitude":-71.5619911,"address":"120 Laconia Rd, Tilton NH","chain_name":null,"distance":0},{"name":"Bath & Body Works","code":null,"latitude":30.1802248,"longitude":-82.6870971,"address":"4297 West US 90, Lake City FL","chain_name":null,"distance":0},{"name":"Bath & Body Works","code":null,"latitude":39.1417493,"longitude":-121.6331033,"address":"1185A Colusa Ave, Yuba City CA","chain_name":null,"distance":0},{"name":"Bath & Body Works","code":null,"latitude":31.0955521,"longitude":-97.7207244,"address":"2100 S W S Young Dr, Killeen TX","chain_name":null,"distance":0},{"name":"Bath & Body Works","code":null,"latitude":37.8960021,"longitude":-122.0582647,"address":"1255 Brdway Plaza, Walnut Creek CA","chain_name":null,"distance":0},{"name":"Bath & Body Works","code":null,"latitude":38.5043919,"longitude":-90.3285905,"address":"85 S County Center Way, St Louis MO","chain_name":null,"distance":0},{"name":"Bath & Body Works","code":null,"latitude":28.042303,"longitude":-82.739984,"address":"27001 US Route 9 N, Clearwater FL","chain_name":null,"distance":0},{"name":"Bath & Body Works","code":null,"latitude":39.3030052,"longitude":-84.4654137,"address":"11700 Princeton Rd, Cincinnati OH","chain_name":null,"distance":0},{"name":"Bath & Body Works","code":null,"latitude":30.0052794,"longitude":-90.1829743,"address":"4490 Veterans Blvd, Metairie LA","chain_name":null,"distance":0},{"name":"Bath & Body Works","code":null,"latitude":36.3297913,"longitude":-78.4467454,"address":"340 N Cooper Dr, Henderson NC","chain_name":null,"distance":0},{"name":"Bath & Body Works","code":null,"latitude":40.0542765,"longitude":-74.1577363,"address":"644 State Route 70, Bricktown NJ","chain_name":null,"distance":0},{"name":"Bath & Body Works","code":null,"latitude":32.891216,"longitude":-97.256175,"address":"8028 Denton Hwy, Watauga TX","chain_name":null,"distance":0},{"name":"Bath & Body Works","code":null,"latitude":45.0148517,"longitude":-93.1731153,"address":"192 Rosedale Center, Roseville MN","chain_name":null,"distance":0},{"name":"Bath & Body Works","code":null,"latitude":42.7964126,"longitude":-83.7365513,"address":"17265 Silver Pkwy, Fenton MI","chain_name":null,"distance":0},{"name":"Bath & Body Works","code":null,"latitude":52.2449586,"longitude":-113.8135427,"address":"4900 Molly Banister Drive, Red Deer AB","chain_name":null,"distance":0},{"name":"Bath & Body Works","code":null,"latitude":39.8216961,"longitude":-75.5465645,"address":"4737 Concord Pike, Wilmington DE","chain_name":null,"distance":0},{"name":"Bath & Body Works","code":null,"latitude":36.645142,"longitude":-93.264405,"address":"300 Tanger Blvd, Branson MO","chain_name":null,"distance":0},{"name":"Bath & Body Works","code":null,"latitude":35.723884,"longitude":-77.937286,"address":"1501 Ward Blvd, Wilson NC","chain_name":null,"distance":0},{"name":"Bath & Body Works","code":null,"latitude":36.7153953,"longitude":-95.9348408,"address":"2350 SE Washington Blvd, Bartlesville OK","chain_name":null,"distance":0},{"name":"Bath & Body Works","code":null,"latitude":37.7478572,"longitude":-84.2946539,"address":"830 Eern By-Pass, Richmond KY","chain_name":null,"distance":0},{"name":"Bath & Body Works","code":null,"latitude":42.622597,"longitude":-82.985693,"address":"14600 Lakeside Circle, Sterling Heights MI","chain_name":null,"distance":0},{"name":"Bath & Body Works","code":null,"latitude":36.718126,"longitude":-121.658487,"address":"1246 Northridge Mall, Salinas CA","chain_name":null,"distance":0},{"name":"Bath & Body Works","code":null,"latitude":35.117305,"longitude":-89.913378,"address":"4465 Poplar Ave, Memphis TN","chain_name":null,"distance":0},{"name":"Bath & Body Works","code":null,"latitude":34.108763,"longitude":-117.570979,"address":"10730 Foothill Blvd, Rancho Cucamonga CA","chain_name":null,"distance":0},{"name":"Bath & Body Works","code":null,"latitude":30.392229,"longitude":-88.6534085,"address":"2800 US Hwy 90, Gautier MS","chain_name":null,"distance":0},{"name":"Bath & Body Works","code":null,"latitude":42.3621703,"longitude":-71.1570854,"address":"485 Arsenal St, Watertown MA","chain_name":null,"distance":0},{"name":"Bath & Body Works","code":null,"latitude":34.9408808,"longitude":-80.9644675,"address":"2301 Dave Lyle Blvd, Rock Hill SC","chain_name":null,"distance":0},{"name":"Bath & Body Works","code":null,"latitude":39.941035,"longitude":-75.025012,"address":"2000 Route 38, Cherry Hill NJ","chain_name":null,"distance":0},{"name":"Bath & Body Works","code":null,"latitude":32.8967028,"longitude":-96.4608251,"address":"2885 Market Center Dr, Rockwall TX","chain_name":null,"distance":0},{"name":"Bath & Body Works","code":null,"latitude":42.570147,"longitude":-87.8868882,"address":"7240 Greenbay Rd, Kenosha WI","chain_name":null,"distance":0},{"name":"Bath & Body Works","code":null,"latitude":44.8458631,"longitude":-93.2860161,"address":"234 S Ave, Bloomington MN","chain_name":null,"distance":0},{"name":"Bath & Body Works","code":null,"latitude":33.1034719,"longitude":-96.811722,"address":"8300 Gaylord Pkwy, Frisco TX","chain_name":null,"distance":0},{"name":"Bath & Body Works","code":null,"latitude":27.6413169,"longitude":-80.4575536,"address":"6200 20th St, Vero Beach FL","chain_name":null,"distance":0},{"name":"Bath & Body Works","code":null,"latitude":40.580915,"longitude":-74.16911,"address":"2655 Richmond Ave, Staten Island NY","chain_name":null,"distance":0},{"name":"Bath & Body Works","code":null,"latitude":41.021169,"longitude":-80.659529,"address":"7401 Market St, Youngstown OH","chain_name":null,"distance":0},{"name":"Bath & Body Works","code":null,"latitude":39.2927038,"longitude":-84.3052213,"address":"9857 Waterstone Blvd, Cincinnati OH","chain_name":null,"distance":0},{"name":"Bath & Body Works","code":null,"latitude":37.987282,"longitude":-84.529726,"address":"3615 Nicholasville Rd, Lexington KY","chain_name":null,"distance":0},{"name":"Bath & Body Works","code":null,"latitude":30.011527,"longitude":-95.268579,"address":"20131 Hwy 59 N, Humble TX","chain_name":null,"distance":0},{"name":"Bath & Body Works","code":null,"latitude":33.9407948,"longitude":-83.4651475,"address":"3700 Atlanta Hwy, Athens GA","chain_name":null,"distance":0},{"name":"Bath & Body Works","code":null,"latitude":35.3695006,"longitude":-80.7152165,"address":"8111 Concord Mills Blvd, Concord NC","chain_name":null,"distance":0},{"name":"Bath & Body Works","code":null,"latitude":41.248682,"longitude":-96.0744057,"address":"10327 Pacific St, Omaha NE","chain_name":null,"distance":0},{"name":"Bath & Body Works","code":null,"latitude":39.5850229,"longitude":-105.0263589,"address":"7301 S Santa Fe Dr, Littleton CO","chain_name":null,"distance":0},{"name":"Bath & Body Works","code":null,"latitude":30.186051,"longitude":-81.554019,"address":"10300 Southside Blvd, Jacksonville FL","chain_name":null,"distance":0},{"name":"Bath & Body Works","code":null,"latitude":34.1609503,"longitude":-91.8903882,"address":"2901 Pines Mall Dr, Pines Bluff AR","chain_name":null,"distance":0},{"name":"Bath & Body Works","code":null,"latitude":28.9380792,"longitude":-81.9462512,"address":"1030 Bichara Blvd, Lady Lake FL","chain_name":null,"distance":0},{"name":"Bath & Body Works","code":null,"latitude":42.513928,"longitude":-87.948872,"address":"11211 120th Ave, Pleasant Prairie WI","chain_name":null,"distance":0},{"name":"Bath & Body Works","code":null,"latitude":33.4765,"longitude":-112.224647,"address":"7611 W Thomas Rd, Phoenix AZ","chain_name":null,"distance":0},{"name":"Bath & Body Works","code":null,"latitude":42.8535031,"longitude":-78.8219236,"address":"812 Mckinley Pkwy, Buffalo NY","chain_name":null,"distance":0},{"name":"Bath & Body Works","code":null,"latitude":33.9813509,"longitude":-84.078528,"address":"5900-229 Sugarloaf Pkwy, Lawrenceville GA","chain_name":null,"distance":0},{"name":"Bath & Body Works","code":null,"latitude":41.7986816,"longitude":-88.3628503,"address":"1630 Orchard Gateway Blvd, North Aurora IL","chain_name":null,"distance":0},{"name":"Bath & Body Works","code":null,"latitude":43.3252856,"longitude":-79.817947,"address":"900 Maple Avenue, Burlington ON","chain_name":null,"distance":0},{"name":"Bath & Body Works","code":null,"latitude":41.9555703,"longitude":-87.8072794,"address":"4190-A N Harlem Ave, Norridge IL","chain_name":null,"distance":0},{"name":"Bath & Body Works","code":null,"latitude":42.9315409,"longitude":-81.2214781,"address":"1105 Wellington Road, London ON","chain_name":null,"distance":0},{"name":"Bath & Body Works","code":null,"latitude":42.6203331,"longitude":-83.9934299,"address":"1475 N Burkhart Rd, Howell MI","chain_name":null,"distance":0},{"name":"Bath & Body Works","code":null,"latitude":35.724784,"longitude":-78.6520633,"address":"1453 Garner Station Blvd, Raleigh NC","chain_name":null,"distance":0},{"name":"Bath & Body Works","code":null,"latitude":41.839834,"longitude":-88.0013139,"address":"203 Yorktown Center, Lombard IL","chain_name":null,"distance":0},{"name":"Bath & Body Works","code":null,"latitude":32.9529,"longitude":-117.233723,"address":"3435 Del Mar Heights Rd, San Diego CA","chain_name":null,"distance":0},{"name":"Bath & Body Works","code":null,"latitude":40.8760235,"longitude":-74.6501262,"address":"461 State Route 10, Ledgewood NJ","chain_name":null,"distance":0},{"name":"Bath & Body Works","code":null,"latitude":32.3116,"longitude":-106.745,"address":"700 South Telshore, Las Cruces NM","chain_name":null,"distance":0},{"name":"Bath & Body Works","code":null,"latitude":33.808849,"longitude":-84.2737,"address":"2050 Lawrenceville Hwy, Decatur GA","chain_name":null,"distance":0},{"name":"Bath & Body Works","code":null,"latitude":33.7154072,"longitude":-112.2710109,"address":"25546 N Lake Pleasant Pkwy, Peoria AZ","chain_name":null,"distance":0},{"name":"Bath & Body Works","code":null,"latitude":42.481244,"longitude":-71.216834,"address":"75 Middlesex Turnpike, Burlington MA","chain_name":null,"distance":0},{"name":"Bath & Body Works","code":null,"latitude":35.598031,"longitude":-87.055151,"address":"800 S James Campbell Blvd, Columbia TN","chain_name":null,"distance":0},{"name":"Bath & Body Works","code":null,"latitude":33.8118602,"longitude":-117.5068516,"address":"2790 Cabot Dr, Corona CA","chain_name":null,"distance":0},{"name":"Bath & Body Works","code":null,"latitude":41.395518,"longitude":-81.44677,"address":"6025 Kruse Dr, Solon OH","chain_name":null,"distance":0},{"name":"Bath & Body Works","code":null,"latitude":35.8661767,"longitude":-78.5757457,"address":"5959 Triangle Towne Blvd, Raleigh NC","chain_name":null,"distance":0},{"name":"Bath & Body Works","code":null,"latitude":40.0528849,"longitude":-82.915365,"address":"4075 The Strand West, Columbus OH","chain_name":null,"distance":0},{"name":"Bath & Body Works","code":null,"latitude":39.523055,"longitude":-76.3579578,"address":"674 Bel Air Rd, Bel Air MD","chain_name":null,"distance":0},{"name":"Bath & Body Works","code":null,"latitude":42.090922,"longitude":-71.2643945,"address":"One Patriot Place, Foxborough MA","chain_name":null,"distance":0},{"name":"Bath & Body Works","code":null,"latitude":41.7509534,"longitude":-88.0158005,"address":"1001 W 75th St, Woodridge IL","chain_name":null,"distance":0},{"name":"Bath & Body Works","code":null,"latitude":37.5282994,"longitude":-122.0013247,"address":"2109 NEw Park Mall, Newark CA","chain_name":null,"distance":0},{"name":"Bath & Body Works","code":null,"latitude":26.848806,"longitude":-80.086026,"address":"3101 Pga Blvd, Palm Beach FL","chain_name":null,"distance":0},{"name":"Bath & Body Works","code":null,"latitude":45.5735585,"longitude":-122.5598324,"address":"9967 NE Cascades Pkwy, Portland OR","chain_name":null,"distance":0},{"name":"Bath & Body Works","code":null,"latitude":34.1120742,"longitude":-117.532897,"address":"12473 N Main St, Rancho Cucamonga CA","chain_name":null,"distance":0},{"name":"Bath & Body Works","code":null,"latitude":33.470141,"longitude":-86.7720839,"address":"623 Brookwood Village, Birmingham AL","chain_name":null,"distance":0},{"name":"Bath & Body Works","code":null,"latitude":50.9505402,"longitude":-114.0665841,"address":"100 Anderson Road SE, Calgary AB","chain_name":null,"distance":0},{"name":"Bath & Body Works","code":null,"latitude":38.7970384,"longitude":-90.6158044,"address":"2444 Mid Rivers Mall, St. Peters MO","chain_name":null,"distance":0},{"name":"Bath & Body Works","code":null,"latitude":33.8295085,"longitude":-118.3521644,"address":"21880 Hawthorne Blvd, Torrance CA","chain_name":null,"distance":0},{"name":"Bath & Body Works","code":null,"latitude":41.454528,"longitude":-74.370071,"address":"1 Galleria Dr, Middletown NY","chain_name":null,"distance":0},{"name":"Bath & Body Works","code":null,"latitude":39.9134657,"longitude":-75.350704,"address":"1250 Baltimore Pike, Springfield PA","chain_name":null,"distance":0},{"name":"Bath & Body Works","code":null,"latitude":39.5306734,"longitude":-119.7201457,"address":"1330 Scheels Dr Ste F-120, Sparks NV","chain_name":null,"distance":0},{"name":"Bath & Body Works","code":null,"latitude":42.0167789,"longitude":-92.9122817,"address":"2500 S Center St, Marshalltown IA","chain_name":null,"distance":0},{"name":"Bath & Body Works","code":null,"latitude":40.7817731,"longitude":-73.502898,"address":"407B South Oyster Bay Rd, Plainview NY","chain_name":null,"distance":0},{"name":"Bath & Body Works","code":null,"latitude":36.2930505,"longitude":-95.8384934,"address":"12321 E 96th St N, Owasso OK","chain_name":null,"distance":0},{"name":"Bath & Body Works","code":null,"latitude":41.623342,"longitude":-85.9067905,"address":"3842 Midway Rd, Goshen IN","chain_name":null,"distance":0},{"name":"Bath & Body Works","code":null,"latitude":28.0911629,"longitude":-81.9739228,"address":"3800 US Highway 98 N, Lakeland FL","chain_name":null,"distance":0},{"name":"Bath & Body Works","code":null,"latitude":38.9829753,"longitude":-76.159662,"address":"441 Outlet Center Dr, Queenstown MD","chain_name":null,"distance":0},{"name":"Bath & Body Works","code":null,"latitude":44.366753,"longitude":-69.802494,"address":"419 King Street West, Oshawa ON","chain_name":null,"distance":0},{"name":"Bath & Body Works","code":null,"latitude":41.758421,"longitude":-88.212695,"address":"1390 Fox Valley Center, Aurora IL","chain_name":null,"distance":0},{"name":"Bath & Body Works","code":null,"latitude":30.3211856,"longitude":-81.5513923,"address":"9501 Arlington Expressway, Jacksonville FL","chain_name":null,"distance":0},{"name":"Bath & Body Works","code":null,"latitude":26.1377871,"longitude":-80.1153378,"address":"2366 E Sunrise Blvd, Fort Lauderdale FL","chain_name":null,"distance":0},{"name":"Bath & Body Works","code":null,"latitude":32.7687798,"longitude":-117.1675776,"address":"7007 Friars Rd, San Diego CA","chain_name":null,"distance":0},{"name":"Bath & Body Works","code":null,"latitude":34.071378,"longitude":-118.360396,"address":"6333 W 3rd St, Los Angeles CA","chain_name":null,"distance":0},{"name":"Bath & Body Works","code":null,"latitude":36.1722752,"longitude":-115.1966896,"address":"4300 Meadows Ln, Las Vegas NV","chain_name":null,"distance":0},{"name":"Bath & Body Works","code":null,"latitude":41.6891308,"longitude":-92.0037258,"address":"449 Tanger Dr., Williamsburg IA","chain_name":null,"distance":0},{"name":"Bath & Body Works","code":null,"latitude":32.6070117,"longitude":-96.9673437,"address":"305 West Fm 1382, Cedar Hill TX","chain_name":null,"distance":0},{"name":"Bath & Body Works","code":null,"latitude":26.010504,"longitude":-80.30081,"address":"11401 Pines Blvd, Pembroke Pines FL","chain_name":null,"distance":0},{"name":"Bath & Body Works","code":null,"latitude":30.1841522,"longitude":-81.7002239,"address":"1910 Wells Rd, Orange Park FL","chain_name":null,"distance":0},{"name":"Bath & Body Works","code":null,"latitude":34.0883451,"longitude":-117.6930037,"address":"5147 Montclair Plaza Ln, Montclair CA","chain_name":null,"distance":0},{"name":"Bath & Body Works","code":null,"latitude":40.2164404,"longitude":-80.2112921,"address":"2200 Tanger Blvd, Washington PA","chain_name":null,"distance":0},{"name":"Bath & Body Works","code":null,"latitude":43.7341498,"longitude":-79.3448261,"address":"45 Clock Tower Road, Toronto ON","chain_name":null,"distance":0},{"name":"Bath & Body Works","code":null,"latitude":33.0986411,"longitude":-96.8110811,"address":"2601 Preston Rd, Frisco TX","chain_name":null,"distance":0},{"name":"Bath & Body Works","code":null,"latitude":45.4205093,"longitude":-75.6413009,"address":"1200 St. Laurent Blvd, Ottawa ON","chain_name":null,"distance":0},{"name":"Bath & Body Works","code":null,"latitude":33.383123,"longitude":-111.964485,"address":"5000 Arizona Mills Circle, Tempe AZ","chain_name":null,"distance":0},{"name":"Bath & Body Works","code":null,"latitude":41.426265,"longitude":-81.73693,"address":"4778 Ridge Rd, Brooklyn OH","chain_name":null,"distance":0},{"name":"Bath & Body Works","code":null,"latitude":41.945199,"longitude":-83.384676,"address":"2121 Monroe St, Monroe MI","chain_name":null,"distance":0},{"name":"Bath & Body Works","code":null,"latitude":33.568412,"longitude":-117.713606,"address":"27150 Alicia Pkwy, Laguna Niguel CA","chain_name":null,"distance":0},{"name":"Bath & Body Works","code":null,"latitude":28.5519067,"longitude":-81.515062,"address":"9401 W Colonial Dr, Ocoee FL","chain_name":null,"distance":0},{"name":"Bath & Body Works","code":null,"latitude":39.930523,"longitude":-105.135122,"address":"1 W Flatiron Crossing, Broomfield CO","chain_name":null,"distance":0},{"name":"Bath & Body Works","code":null,"latitude":38.965252,"longitude":-76.955988,"address":"Prince George's Plaza, Hyattsville MD","chain_name":null,"distance":0},{"name":"Bath & Body Works","code":null,"latitude":40.052644,"longitude":-80.600546,"address":"560 Cabela Dr., Tridelphia WV","chain_name":null,"distance":0},{"name":"Bath & Body Works","code":null,"latitude":44.2582224,"longitude":-76.5688546,"address":"945 Gardiners Rd., Kingston ON","chain_name":null,"distance":0},{"name":"Bath & Body Works","code":null,"latitude":37.320996,"longitude":-120.482968,"address":"713 Merced Mall, Merced CA","chain_name":null,"distance":0},{"name":"Bath & Body Works","code":null,"latitude":42.3857871,"longitude":-87.9750803,"address":"6951 Grande Ave, Gurnee IL","chain_name":null,"distance":0},{"name":"Bath & Body Works","code":null,"latitude":42.6830179,"longitude":-83.1941166,"address":"200 N Adams Rd, Rochester Hills MI","chain_name":null,"distance":0},{"name":"Bath & Body Works","code":null,"latitude":30.2986843,"longitude":-97.7202373,"address":"1000 E 41St St, Austin TX","chain_name":null,"distance":0},{"name":"Bath & Body Works","code":null,"latitude":41.2642572,"longitude":-96.0683296,"address":"10000 California St, Omaha NE","chain_name":null,"distance":0},{"name":"Bath & Body Works","code":null,"latitude":40.9814015,"longitude":-75.191137,"address":"264 Route 611, Stroudsburg PA","chain_name":null,"distance":0},{"name":"Bath & Body Works","code":null,"latitude":36.0638229,"longitude":-115.0402332,"address":"1300 W Sunset Rd, Henderson NV","chain_name":null,"distance":0},{"name":"Bath & Body Works","code":null,"latitude":35.85922,"longitude":-86.44462,"address":"2615 Medical Center Pkwy, Murfreesboro TN","chain_name":null,"distance":0},{"name":"Bath & Body Works","code":null,"latitude":34.416061,"longitude":-118.557666,"address":"24201 W Valencia Blvd, Valencia CA","chain_name":null,"distance":0},{"name":"Bath & Body Works","code":null,"latitude":33.7152763,"longitude":-112.1125165,"address":"2470 West Happy Valley Rd, Phoenix AZ","chain_name":null,"distance":0},{"name":"Bath & Body Works","code":null,"latitude":34.07638,"longitude":-117.5553084,"address":"One Mills Circle, Ontario CA","chain_name":null,"distance":0},{"name":"Bath & Body Works","code":null,"latitude":41.598846,"longitude":-87.5580283,"address":"141 River Oaks Center, Calumet City IL","chain_name":null,"distance":0},{"name":"Bath & Body Works","code":null,"latitude":33.8642353,"longitude":-118.0945842,"address":"454 Los Cerritos Center, Cerritos CA","chain_name":null,"distance":0},{"name":"Bath & Body Works","code":null,"latitude":42.2692,"longitude":-84.4337069,"address":"1118 Jackson Crossing, Jackson MI","chain_name":null,"distance":0},{"name":"Bath & Body Works","code":null,"latitude":34.6018735,"longitude":-118.1534344,"address":"1233 W Ave P, Palmdale CA","chain_name":null,"distance":0},{"name":"Bath & Body Works","code":null,"latitude":40.2330767,"longitude":-75.1353098,"address":"1581 Main St Ste 204, Warrington PA","chain_name":null,"distance":0},{"name":"Bath & Body Works","code":null,"latitude":41.778705,"longitude":-70.742533,"address":"2421 Cranberry Hwy, Wareham MA","chain_name":null,"distance":0},{"name":"Bath & Body Works","code":null,"latitude":42.2610558,"longitude":-85.182696,"address":"5775 Beckley Rd, Battle Creek MI","chain_name":null,"distance":0},{"name":"Bath & Body Works","code":null,"latitude":41.117674,"longitude":-85.136425,"address":"4201 Coldwater Rd, Fort Wayne IN","chain_name":null,"distance":0},{"name":"Bath & Body Works","code":null,"latitude":32.7071188,"longitude":-97.3878007,"address":"3000 Hulen St, Fort Worth TX","chain_name":null,"distance":0},{"name":"Bath & Body Works","code":null,"latitude":40.9518505,"longitude":-74.0668939,"address":"216 Paramus Park, Paramus NJ","chain_name":null,"distance":0},{"name":"Bath & Body Works","code":null,"latitude":40.3346598,"longitude":-75.9008844,"address":"1665 Bern Hill Rd, Reading PA","chain_name":null,"distance":0},{"name":"Bath & Body Works","code":null,"latitude":40.5505131,"longitude":-74.3352031,"address":"100 Parsonage Rd, Edison NJ","chain_name":null,"distance":0},{"name":"Bath & Body Works","code":null,"latitude":30.2596741,"longitude":-81.5250367,"address":"4742 River City Dr, Jacksonville FL","chain_name":null,"distance":0},{"name":"Bath & Body Works","code":null,"latitude":26.1207185,"longitude":-80.2540711,"address":"8000 W Broward Blvd, Plantation FL","chain_name":null,"distance":0},{"name":"Bath & Body Works","code":null,"latitude":36.1360016,"longitude":-86.8852049,"address":"6722 Charlotte Pike, Nashville TN","chain_name":null,"distance":0},{"name":"Bath & Body Works","code":null,"latitude":41.9524693,"longitude":-88.7252651,"address":"2365 Sycamore Rd, Dekalb IL","chain_name":null,"distance":0},{"name":"Bath & Body Works","code":null,"latitude":32.7497381,"longitude":-97.0767365,"address":"412 Lincoln Square Mall, Arlington TX","chain_name":null,"distance":0},{"name":"Bath & Body Works","code":null,"latitude":30.1639393,"longitude":-95.4612193,"address":"9595 Six Pines Dr, Spring TX","chain_name":null,"distance":0},{"name":"Bath & Body Works","code":null,"latitude":36.594159,"longitude":-79.421636,"address":"325 Piedmont Dr, Danville VA","chain_name":null,"distance":0},{"name":"Bath & Body Works","code":null,"latitude":35.269515,"longitude":-81.482746,"address":"2001 E Dixon Rd, Shelby NC","chain_name":null,"distance":0},{"name":"Bath & Body Works","code":null,"latitude":42.167072,"longitude":-72.640056,"address":"50 Holyoke St, Holyoke MA","chain_name":null,"distance":0},{"name":"Bath & Body Works","code":null,"latitude":41.8336794,"longitude":-88.0997604,"address":"111 Town Square, Wheaton IL","chain_name":null,"distance":0},{"name":"Bath & Body Works","code":null,"latitude":40.0739666,"longitude":-83.131485,"address":"5043 Tuttle Crossing Blvd, Dublin OH","chain_name":null,"distance":0},{"name":"Bath & Body Works","code":null,"latitude":33.1017849,"longitude":-96.6794276,"address":"849 Market St, Allen TX","chain_name":null,"distance":0},{"name":"Bath & Body Works","code":null,"latitude":38.5691513,"longitude":-90.6091336,"address":"20 Meadows Cir Dr, Lake St Louis MO","chain_name":null,"distance":0},{"name":"Bath & Body Works","code":null,"latitude":40.1153335,"longitude":-75.2837336,"address":"500 West Germantown Pike, Plymouth Meeting PA","chain_name":null,"distance":0},{"name":"Bath & Body Works","code":null,"latitude":37.7114788,"longitude":-122.1639471,"address":"1267 Marina Blvd, San Leandro CA","chain_name":null,"distance":0},{"name":"Bath & Body Works","code":null,"latitude":31.514039,"longitude":-97.187333,"address":"6001 W Waco Dr, Waco TX","chain_name":null,"distance":0},{"name":"Bath & Body Works","code":null,"latitude":26.255767,"longitude":-80.100347,"address":"1955-201 N Federal Hwy, Pompano Beach FL","chain_name":null,"distance":0},{"name":"Bath & Body Works","code":null,"latitude":26.7073876,"longitude":-80.0571694,"address":"700 South Rosemary Ave, West Palm Beach FL","chain_name":null,"distance":0},{"name":"Bath & Body Works","code":null,"latitude":32.807549,"longitude":-116.970081,"address":"601 Fletcher Pkwy, El Cajon CA","chain_name":null,"distance":0},{"name":"Bath & Body Works","code":null,"latitude":36.1319631,"longitude":-95.9652046,"address":"1838 Utica Square, Tulsa OK","chain_name":null,"distance":0},{"name":"Bath & Body Works","code":null,"latitude":45.5176016,"longitude":-122.6778424,"address":"700 SW Fifth Ave, Portland OR","chain_name":null,"distance":0},{"name":"Bath & Body Works","code":null,"latitude":34.4490334,"longitude":-93.0801464,"address":"4501 Central Ave, Hot Springs AR","chain_name":null,"distance":0},{"name":"Bath & Body Works","code":null,"latitude":39.2230476,"longitude":-85.8996812,"address":"2260 25th St, Columbus IN","chain_name":null,"distance":0},{"name":"Bath & Body Works","code":null,"latitude":33.6937065,"longitude":-84.0961947,"address":"2929 Mall Pkwy, Lithonia GA","chain_name":null,"distance":0},{"name":"Bath & Body Works","code":null,"latitude":41.5571653,"longitude":-83.5988407,"address":"9862 Olde US 20, Rossford OH","chain_name":null,"distance":0},{"name":"Bath & Body Works","code":null,"latitude":37.8276489,"longitude":-87.5553611,"address":"2606 Zion Rd, Henderson KY","chain_name":null,"distance":0},{"name":"Bath & Body Works","code":null,"latitude":39.452233,"longitude":-74.630925,"address":"2300 Wrangleboro Rd, Mays Landing NJ","chain_name":null,"distance":0},{"name":"Bath & Body Works","code":null,"latitude":46.140195,"longitude":-122.903027,"address":"351 Three Rivers Dr, Kelso WA","chain_name":null,"distance":0},{"name":"Bath & Body Works","code":null,"latitude":32.7902897,"longitude":-79.8524512,"address":"1724 Town Centre Way, Mt Pleasant SC","chain_name":null,"distance":0},{"name":"Bath & Body Works","code":null,"latitude":41.2299084,"longitude":-73.2254979,"address":"5065 Main St, Trumbull CT","chain_name":null,"distance":0},{"name":"Bath & Body Works","code":null,"latitude":53.4425499,"longitude":-113.4824468,"address":"1403 - 99 Street NW, Edmonton AB","chain_name":null,"distance":0},{"name":"Bath & Body Works","code":null,"latitude":41.1334824,"longitude":-96.0266532,"address":"7474 Towne Cntr Pkwy, Papillion NE","chain_name":null,"distance":0},{"name":"Bath & Body Works","code":null,"latitude":39.7091961,"longitude":-105.0767976,"address":"400 South Teller St, Lakewood CO","chain_name":null,"distance":0},{"name":"Bath & Body Works","code":null,"latitude":37.9436154,"longitude":-121.7317886,"address":"2505 Sand Creek Rd, Brentwood CA","chain_name":null,"distance":0},{"name":"Bath & Body Works","code":null,"latitude":43.2172508,"longitude":-79.8645298,"address":"999 Upper Wentworth Street, Hamilton ON","chain_name":null,"distance":0},{"name":"Bath & Body Works","code":null,"latitude":42.7101013,"longitude":-83.3072847,"address":"4808 S Baldwin Ave, Orion Township MI","chain_name":null,"distance":0},{"name":"Bath & Body Works","code":null,"latitude":36.062966,"longitude":-95.881062,"address":"7021 S Memorial Dr, Tulsa OK","chain_name":null,"distance":0},{"name":"Bath & Body Works","code":null,"latitude":33.8740033,"longitude":-112.150162,"address":"4250 West Anthem Way, Anthem AZ","chain_name":null,"distance":0},{"name":"Bath & Body Works","code":null,"latitude":32.9165543,"longitude":-117.1204569,"address":"10757 Wview Pkwy, San Diego CA","chain_name":null,"distance":0},{"name":"Bath & Body Works","code":null,"latitude":36.3299201,"longitude":-86.5894379,"address":"300 Indian Lake Blvd Ste 120 Bldg C, Hendersonville TN","chain_name":null,"distance":0},{"name":"Bath & Body Works","code":null,"latitude":28.080137,"longitude":-80.6509899,"address":"1700 W NEw Haven Ave, Melbourne FL","chain_name":null,"distance":0},{"name":"Bath & Body Works","code":null,"latitude":36.1615534,"longitude":-115.0623261,"address":"105 North NEllis Blvd, Las Vegas NV","chain_name":null,"distance":0},{"name":"Bath & Body Works","code":null,"latitude":33.1925354,"longitude":-87.5258835,"address":"1701 Mcfarland East, Tuscaloosa AL","chain_name":null,"distance":0},{"name":"Bath & Body Works","code":null,"latitude":40.746444,"longitude":-73.595481,"address":"1504 Old Country Rd, Westbury NY","chain_name":null,"distance":0},{"name":"Bath & Body Works","code":null,"latitude":41.029684,"longitude":-73.761352,"address":"125 Wchester Ave, White Plains NY","chain_name":null,"distance":0},{"name":"Bath & Body Works","code":null,"latitude":39.4136398,"longitude":-104.8724847,"address":"5050 Factory Shops Blvd, Castle Rock CO","chain_name":null,"distance":0},{"name":"Bath & Body Works","code":null,"latitude":29.9263687,"longitude":-81.4123697,"address":"500 Prime Outlet Blvd, St Augustine FL","chain_name":null,"distance":0},{"name":"Bath & Body Works","code":null,"latitude":35.9265084,"longitude":-79.0280732,"address":"201 S Estes Dr, Chapel Hill NC","chain_name":null,"distance":0},{"name":"Bath & Body Works","code":null,"latitude":34.1907465,"longitude":-118.623394,"address":"6633 Fallbrook Ave, West Hills CA","chain_name":null,"distance":0},{"name":"Bath & Body Works","code":null,"latitude":36.1404654,"longitude":-86.6510329,"address":"448 Opry Mills Mall, Nashville TN","chain_name":null,"distance":0},{"name":"Bath & Body Works","code":null,"latitude":40.752686,"longitude":-73.974853,"address":"441 Lexington Ave, New York NY","chain_name":null,"distance":0},{"name":"Bath & Body Works","code":null,"latitude":37.998803,"longitude":-121.313686,"address":"5308 Pacific Ave, Stockton CA","chain_name":null,"distance":0},{"name":"Bath & Body Works","code":null,"latitude":41.577948,"longitude":-88.16428,"address":"3340 Mall Loop Dr, Joliet IL","chain_name":null,"distance":0},{"name":"Bath & Body Works","code":null,"latitude":42.761765,"longitude":-84.5132363,"address":"3021 Preyde Rd, East Lansing MI","chain_name":null,"distance":0},{"name":"Bath & Body Works","code":null,"latitude":39.911224,"longitude":-86.216888,"address":"3269-F W 86th St, Indianapolis IN","chain_name":null,"distance":0},{"name":"Bath & Body Works","code":null,"latitude":35.7458233,"longitude":-78.8882698,"address":"1551 Beaver Creek Commons Pl, Apex NC","chain_name":null,"distance":0},{"name":"Bath & Body Works","code":null,"latitude":33.845473,"longitude":-117.9872688,"address":"8280 On The Mall, Buena Park CA","chain_name":null,"distance":0},{"name":"Bath & Body Works","code":null,"latitude":42.9537912,"longitude":-71.4331262,"address":"1500 S Willow St, Manchester NH","chain_name":null,"distance":0},{"name":"Bath & Body Works","code":null,"latitude":32.8387198,"longitude":-116.9805092,"address":"9926 Mission Gorge Rd, Santee CA","chain_name":null,"distance":0},{"name":"Bath & Body Works","code":null,"latitude":31.81324,"longitude":-106.544611,"address":"750 Sunland Park Dr, El Paso TX","chain_name":null,"distance":0},{"name":"Bath & Body Works","code":null,"latitude":33.6685892,"longitude":-112.1246646,"address":"2819 W Agua Fria Freeway, Phoenix AZ","chain_name":null,"distance":0},{"name":"Bath & Body Works","code":null,"latitude":44.0693797,"longitude":-123.1081189,"address":"237 Valley River Center, Eugene OR","chain_name":null,"distance":0},{"name":"Bath & Body Works","code":null,"latitude":33.4803761,"longitude":-84.4493779,"address":"265 Pavilion Pkwy, Fayette GA","chain_name":null,"distance":0},{"name":"Bath & Body Works","code":null,"latitude":32.999072,"longitude":-96.793885,"address":"18208 Preston Rd, Dallas TX","chain_name":null,"distance":0},{"name":"Bath & Body Works","code":null,"latitude":43.0236331,"longitude":-85.6891645,"address":"3378 Alpine Ave Nw, Grand Rapids MI","chain_name":null,"distance":0},{"name":"Bath & Body Works","code":null,"latitude":32.1578456,"longitude":-110.9906628,"address":"5121 South Calle Santa Cruz, Tucson AZ","chain_name":null,"distance":0},{"name":"Bath & Body Works","code":null,"latitude":35.3499557,"longitude":-80.8545848,"address":"6801 Nlake Mall, Charlotte NC","chain_name":null,"distance":0},{"name":"Bath & Body Works","code":null,"latitude":40.0161526,"longitude":-105.2561184,"address":"1820 29th St, Boulder CO","chain_name":null,"distance":0},{"name":"Bath & Body Works","code":null,"latitude":39.7667042,"longitude":-89.7065985,"address":"2827 Veterans Pkwy, Springfield IL","chain_name":null,"distance":0},{"name":"Bath & Body Works","code":null,"latitude":39.978964,"longitude":-74.1826388,"address":"1201 Hooper Ave, Toms River NJ","chain_name":null,"distance":0},{"name":"Bath & Body Works","code":null,"latitude":45.030366,"longitude":-93.44748,"address":"4190 Vinewood Ln, Plymouth MN","chain_name":null,"distance":0},{"name":"Bath & Body Works","code":null,"latitude":29.7849471,"longitude":-95.7252556,"address":"19971 Katy Freeway, Houston TX","chain_name":null,"distance":0},{"name":"Bath & Body Works","code":null,"latitude":40.4276541,"longitude":-74.3827182,"address":"755 Route 18, East Brunswick NJ","chain_name":null,"distance":0},{"name":"Bath & Body Works","code":null,"latitude":41.7524068,"longitude":-87.9139925,"address":"570 Village Center Dr, Burr Ridge IL","chain_name":null,"distance":0},{"name":"Bath & Body Works","code":null,"latitude":42.003615,"longitude":-88.0058093,"address":"72 Biesterfield Rd, Elk Grove Village IL","chain_name":null,"distance":0},{"name":"Bath & Body Works","code":null,"latitude":41.2597534,"longitude":-96.0269226,"address":"7400 Dodge St, Omaha NE","chain_name":null,"distance":0},{"name":"Bath & Body Works","code":null,"latitude":33.3889307,"longitude":-84.762671,"address":"364 NEwnan Crossing Bypass Bldg 100, Newnan GA","chain_name":null,"distance":0},{"name":"Bath & Body Works","code":null,"latitude":35.6085034,"longitude":-97.5500999,"address":"2150 W Memorial Rd, Oklahoma City OK","chain_name":null,"distance":0},{"name":"Bath & Body Works","code":null,"latitude":35.1093816,"longitude":-106.5719403,"address":"6600 Menual Rd, Albuquerque NM","chain_name":null,"distance":0},{"name":"Bath & Body Works","code":null,"latitude":36.2702166,"longitude":-115.2696252,"address":"7961 W Tropical Pkwy, Las Vegas NV","chain_name":null,"distance":0},{"name":"Bath & Body Works","code":null,"latitude":33.5211141,"longitude":-80.8824205,"address":"2390 Chestnut St NE, Orangeburg SC","chain_name":null,"distance":0},{"name":"Bath & Body Works","code":null,"latitude":33.8330572,"longitude":-118.3480631,"address":"3525 Carson St, Torrance CA","chain_name":null,"distance":0},{"name":"Bath & Body Works","code":null,"latitude":36.3150401,"longitude":-95.6220785,"address":"1009 West Will Rogers Blvd, Claremore OK","chain_name":null,"distance":0},{"name":"Bath & Body Works","code":null,"latitude":30.3256469,"longitude":-97.7138366,"address":"6001 Airport Blvd, Austin TX","chain_name":null,"distance":0},{"name":"Bath & Body Works","code":null,"latitude":36.071571,"longitude":-79.504957,"address":"3330 Garden Rd, Burlington NC","chain_name":null,"distance":0},{"name":"Bath & Body Works","code":null,"latitude":35.702905,"longitude":-79.785333,"address":"1437 E Dixie Dr, Asheboro NC","chain_name":null,"distance":0},{"name":"Bath & Body Works","code":null,"latitude":42.049725,"longitude":-93.622474,"address":"2801 Grand Ave, Ames IA","chain_name":null,"distance":0},{"name":"Bath & Body Works","code":null,"latitude":42.4128485,"longitude":-83.3273903,"address":"37700 W Six Mile Rd, Livonia MI","chain_name":null,"distance":0},{"name":"Bath & Body Works","code":null,"latitude":29.7728463,"longitude":-95.56082,"address":"12850 Memorial Dr, Houston TX","chain_name":null,"distance":0},{"name":"Bath & Body Works","code":null,"latitude":42.189067,"longitude":-71.8911846,"address":"385 Sbridge St, Auburn MA","chain_name":null,"distance":0},{"name":"Bath & Body Works","code":null,"latitude":37.9663257,"longitude":-122.0577264,"address":"315 Sunvalley Rd, Concord CA","chain_name":null,"distance":0},{"name":"Bath & Body Works","code":null,"latitude":26.6462313,"longitude":-80.2083492,"address":"10300 W Forest Hill Blvd, Wellington FL","chain_name":null,"distance":0},{"name":"Bath & Body Works","code":null,"latitude":40.5206011,"longitude":-88.9527264,"address":"303 Veterans Pkwy, Normal IL","chain_name":null,"distance":0},{"name":"Bath & Body Works","code":null,"latitude":35.1016187,"longitude":-80.9882517,"address":"14135 Steele Creek Rd Bldg N Ste 30, Charlotte NC","chain_name":null,"distance":0},{"name":"Bath & Body Works","code":null,"latitude":26.4039274,"longitude":-81.80707,"address":"23161 Fashion Dr Ste 111, Estero FL","chain_name":null,"distance":0},{"name":"Bath & Body Works","code":null,"latitude":40.734137,"longitude":-73.871856,"address":"90-15 Queens Blvd, Elmhurst NY","chain_name":null,"distance":0},{"name":"Bath & Body Works","code":null,"latitude":35.4875285,"longitude":-79.1991728,"address":"1027 Spring Ln, Sanford NC","chain_name":null,"distance":0},{"name":"Bath & Body Works","code":null,"latitude":36.1591261,"longitude":-115.2865664,"address":"8800 W Charleston Blvd, Las Vegas NV","chain_name":null,"distance":0},{"name":"Bath & Body Works","code":null,"latitude":32.9883107,"longitude":-96.890301,"address":"2630 N Josey Ln, Carrollton TX","chain_name":null,"distance":0},{"name":"Bath & Body Works","code":null,"latitude":39.708946,"longitude":-104.824794,"address":"14200 East Alameda Ave, Aurora CO","chain_name":null,"distance":0},{"name":"Bath & Body Works","code":null,"latitude":40.235017,"longitude":-75.662477,"address":"351 W Schuylkill Rd, Pottstown PA","chain_name":null,"distance":0},{"name":"Bath & Body Works","code":null,"latitude":33.8773383,"longitude":-117.9625787,"address":"1897 West Malvern Ave, Fullerton CA","chain_name":null,"distance":0},{"name":"Bath & Body Works","code":null,"latitude":36.0850864,"longitude":-79.8306231,"address":"705-A Friendly Center Ave, Greensboro NC","chain_name":null,"distance":0},{"name":"Bath & Body Works","code":null,"latitude":34.0908408,"longitude":-117.2953957,"address":"432 Inland Center Dr, San Bernardino CA","chain_name":null,"distance":0},{"name":"Bath & Body Works","code":null,"latitude":39.6942042,"longitude":-84.1025844,"address":"4434 Cedar Park Dr, Beaver Creek OH","chain_name":null,"distance":0},{"name":"Bath & Body Works","code":null,"latitude":40.0721944,"longitude":-75.1548263,"address":"2385 Cheltenham Ave, Philadelphia PA","chain_name":null,"distance":0},{"name":"Bath & Body Works","code":null,"latitude":29.842294,"longitude":-95.644869,"address":"6879 Hwy 6 N, Houston TX","chain_name":null,"distance":0},{"name":"Bath & Body Works","code":null,"latitude":39.2516103,"longitude":-94.5848524,"address":"162 Metro North Mall, Kansas City MO","chain_name":null,"distance":0},{"name":"Bath & Body Works","code":null,"latitude":40.0446961,"longitude":-82.9064627,"address":"180 Easton Town Center, Columbus OH","chain_name":null,"distance":0},{"name":"Bath & Body Works","code":null,"latitude":33.5023352,"longitude":-111.9276266,"address":"7000 East Camelback Rd, Scottsdale AZ","chain_name":null,"distance":0},{"name":"Bath & Body Works","code":null,"latitude":44.0014135,"longitude":-92.4799595,"address":"668 Apache Mall, Rochester MN","chain_name":null,"distance":0},{"name":"Bath & Body Works","code":null,"latitude":35.2508529,"longitude":-91.6916937,"address":"203 N Poplar St, Searcy AR","chain_name":null,"distance":0},{"name":"Bath & Body Works","code":null,"latitude":26.486659,"longitude":-81.789157,"address":"9908 Gulf Coast Main St, Ft Myers FL","chain_name":null,"distance":0},{"name":"Bath & Body Works","code":null,"latitude":42.7428918,"longitude":-71.1542671,"address":"90 Pleasant Valley St, Methuen MA","chain_name":null,"distance":0},{"name":"Bath & Body Works","code":null,"latitude":39.716579,"longitude":-104.9574566,"address":"3000 E First Ave, Denver CO","chain_name":null,"distance":0},{"name":"Bath & Body Works","code":null,"latitude":38.9258326,"longitude":-95.2605236,"address":"3140 S Iowa St, Lawrence KS","chain_name":null,"distance":0},{"name":"Bath & Body Works","code":null,"latitude":42.2185246,"longitude":-71.0255463,"address":"250 Granite St, Braintree MA","chain_name":null,"distance":0},{"name":"Bath & Body Works","code":null,"latitude":41.362719,"longitude":-86.32788,"address":"1372 Pilgrim Ln, Plymouth IN","chain_name":null,"distance":0},{"name":"Bath & Body Works","code":null,"latitude":32.9533398,"longitude":-96.6119085,"address":"355 Cedar Sage Dr, Garland TX","chain_name":null,"distance":0},{"name":"Bath & Body Works","code":null,"latitude":33.6307793,"longitude":-117.6141457,"address":"30606 Santa Margarita Pkwy, Rancho Sta Marg CA","chain_name":null,"distance":0},{"name":"Bath & Body Works","code":null,"latitude":39.562756,"longitude":-105.107663,"address":"8440 South Kipling Pkwy, Littleton CO","chain_name":null,"distance":0},{"name":"Bath & Body Works","code":null,"latitude":42.7010104,"longitude":-83.3065234,"address":"4192 Baldwin Rd, Auburn Hills MI","chain_name":null,"distance":0},{"name":"Bath & Body Works","code":null,"latitude":43.1335283,"longitude":-79.2235937,"address":"221 Glendale Ave, St. Catharines ON","chain_name":null,"distance":0},{"name":"Bath & Body Works","code":null,"latitude":40.0330086,"longitude":-75.6259598,"address":"260 Exton Square, Exton PA","chain_name":null,"distance":0},{"name":"Bath & Body Works","code":null,"latitude":43.1509909,"longitude":-86.2057281,"address":"5600 Harvey St, Muskegon MI","chain_name":null,"distance":0},{"name":"Bath & Body Works","code":null,"latitude":38.928353,"longitude":-94.408734,"address":"1700 Nw Chipman Rd, Lee's Summit MO","chain_name":null,"distance":0},{"name":"Bath & Body Works","code":null,"latitude":41.946467,"longitude":-71.3499439,"address":"999 S Washington St, North Attleboro MA","chain_name":null,"distance":0},{"name":"Bath & Body Works","code":null,"latitude":34.0723572,"longitude":-81.2188355,"address":"100 Columbiana Center, Columbia SC","chain_name":null,"distance":0},{"name":"Bath & Body Works","code":null,"latitude":39.6894946,"longitude":-84.1681497,"address":"172 E Stroop Rd, Kettering OH","chain_name":null,"distance":0},{"name":"Bath & Body Works","code":null,"latitude":42.1019549,"longitude":-88.292569,"address":"1242 Spring Hill Mall, West Dundee IL","chain_name":null,"distance":0},{"name":"Bath & Body Works","code":null,"latitude":44.2835644,"longitude":-78.3308736,"address":"645 Lansdowne St. W., Peterborough ON","chain_name":null,"distance":0},{"name":"Bath & Body Works","code":null,"latitude":25.6886484,"longitude":-80.3161976,"address":"7535 N Kendall Dr, Miami FL","chain_name":null,"distance":0},{"name":"Bath & Body Works","code":null,"latitude":42.7410583,"longitude":-84.6321383,"address":"5794 W Saginaw Hwy, Lansing MI","chain_name":null,"distance":0},{"name":"Bath & Body Works","code":null,"latitude":28.0693545,"longitude":-82.5752684,"address":"8073 Citrus Park Town Center, Tampa FL","chain_name":null,"distance":0},{"name":"Bath & Body Works","code":null,"latitude":40.593935,"longitude":-79.8067204,"address":"2012A Butler Logan Rd, Tarentum PA","chain_name":null,"distance":0},{"name":"Bath & Body Works","code":null,"latitude":35.992055,"longitude":-80.008094,"address":"921 Echester Dr, High Point NC","chain_name":null,"distance":0},{"name":"Bath & Body Works","code":null,"latitude":35.0810188,"longitude":-81.7114445,"address":"525 Factory Shops Blvd, Gaffney SC","chain_name":null,"distance":0},{"name":"Bath & Body Works","code":null,"latitude":38.6745672,"longitude":-121.2716451,"address":"6101 Sunrise Blvd, Citrus Heights CA","chain_name":null,"distance":0},{"name":"Bath & Body Works","code":null,"latitude":39.1434298,"longitude":-84.6208694,"address":"6132 Glenway Ave, Cincinnati OH","chain_name":null,"distance":0},{"name":"Bath & Body Works","code":null,"latitude":40.125407,"longitude":-79.5508,"address":"741 Summit Ridge Plaza, Mt Pleasant PA","chain_name":null,"distance":0},{"name":"Bath & Body Works","code":null,"latitude":32.3605978,"longitude":-86.1649075,"address":"7060 Eastchase Pkwy, Montgomery AL","chain_name":null,"distance":0},{"name":"Bath & Body Works","code":null,"latitude":42.2427662,"longitude":-83.7493173,"address":"406 Briarwood Circle, Ann Arbor MI","chain_name":null,"distance":0},{"name":"Bath & Body Works","code":null,"latitude":33.9372871,"longitude":-118.1230952,"address":"305 Stonewood St, Downey CA","chain_name":null,"distance":0},{"name":"Bath & Body Works","code":null,"latitude":42.9151879,"longitude":-78.7629766,"address":"One Galleria Dr, Buffalo NY","chain_name":null,"distance":0},{"name":"Bath & Body Works","code":null,"latitude":34.473356,"longitude":-117.348231,"address":"14400 Bear Valley Rd, Victorville CA","chain_name":null,"distance":0},{"name":"Bath & Body Works","code":null,"latitude":33.5990146,"longitude":-111.9811214,"address":"4568 E Cactus Rd, Phoenix AZ","chain_name":null,"distance":0},{"name":"Bath & Body Works","code":null,"latitude":41.3981189,"longitude":-82.1131311,"address":"3343 Midway Mall Blvd, Elyria OH","chain_name":null,"distance":0},{"name":"Bath & Body Works","code":null,"latitude":40.340002,"longitude":-79.938583,"address":"3075 Clairton Rd, West Mifflin PA","chain_name":null,"distance":0},{"name":"Bath & Body Works","code":null,"latitude":42.200604,"longitude":-83.254713,"address":"23000 Eureka Rd, Taylor MI","chain_name":null,"distance":0},{"name":"Bath & Body Works","code":null,"latitude":34.24389,"longitude":-77.8312354,"address":"6835 Conservation Way, Wilmington NC","chain_name":null,"distance":0},{"name":"Bath & Body Works","code":null,"latitude":26.2394835,"longitude":-80.2503943,"address":"9349 Atlantic Blvd, Coral Springs FL","chain_name":null,"distance":0},{"name":"Bath & Body Works","code":null,"latitude":43.7739159,"longitude":-79.2609308,"address":"300 Borough Drive, Suite 26, Scarborough ON","chain_name":null,"distance":0},{"name":"Bath & Body Works","code":null,"latitude":26.1492648,"longitude":-80.3230083,"address":"12801 W Sunrise Blvd, Sunrise FL","chain_name":null,"distance":0},{"name":"Bath & Body Works","code":null,"latitude":39.913723,"longitude":-75.010103,"address":"Route 70 And Route 41, Cherry Hill NJ","chain_name":null,"distance":0},{"name":"Bath & Body Works","code":null,"latitude":32.385524,"longitude":-86.2092239,"address":"1088 Eastdale Mall, Montgomery AL","chain_name":null,"distance":0},{"name":"Bath & Body Works","code":null,"latitude":41.469634,"longitude":-87.311903,"address":"2265 Southlake Mall, Merrillville IN","chain_name":null,"distance":0},{"name":"Bath & Body Works","code":null,"latitude":45.436607,"longitude":-122.576092,"address":"12000 SE 82nd Ave, Happy Valley OR","chain_name":null,"distance":0},{"name":"Bath & Body Works","code":null,"latitude":41.0992029,"longitude":-73.9556435,"address":"3641 Palisades Center Dr, West Nyack NY","chain_name":null,"distance":0},{"name":"Bath & Body Works","code":null,"latitude":39.9950453,"longitude":-83.0254729,"address":"1755 Olentangy River Rd, Columbus OH","chain_name":null,"distance":0},{"name":"Bath & Body Works","code":null,"latitude":40.6086078,"longitude":-73.9589953,"address":"5100 Kings Plaza Shopping Center, Brooklyn NY","chain_name":null,"distance":0},{"name":"Bath & Body Works","code":null,"latitude":42.3568397,"longitude":-72.5525915,"address":"341 Russell St, Hadley MA","chain_name":null,"distance":0},{"name":"Bath & Body Works","code":null,"latitude":35.9059306,"longitude":-78.9374422,"address":"6702 Fayetteville Rd, Durham NC","chain_name":null,"distance":0},{"name":"Bath & Body Works","code":null,"latitude":42.912529,"longitude":-85.588474,"address":"3195 28th St SE, Grand Rapids MI","chain_name":null,"distance":0},{"name":"Bath & Body Works","code":null,"latitude":35.974927,"longitude":-77.80707,"address":"1100 N Wesleyan Blvd, Rocky Mount NC","chain_name":null,"distance":0},{"name":"Bath & Body Works","code":null,"latitude":33.0686961,"longitude":-117.066956,"address":"200 E Via Rancho Pkwy, Escondido CA","chain_name":null,"distance":0},{"name":"Bath & Body Works","code":null,"latitude":34.040124,"longitude":-118.427503,"address":"10800 Pico Blvd, Los Angeles CA","chain_name":null,"distance":0},{"name":"Bath & Body Works","code":null,"latitude":30.3072395,"longitude":-97.9412767,"address":"12800 Hwy 71 W Bldg 32, Bee Cave TX","chain_name":null,"distance":0},{"name":"Bath & Body Works","code":null,"latitude":31.8215132,"longitude":-81.5997998,"address":"755 W Oglethorpe Hwy, Hinesville GA","chain_name":null,"distance":0},{"name":"Bath & Body Works","code":null,"latitude":35.1295468,"longitude":-85.2372692,"address":"311 Northgate Mall, Chattanooga TN","chain_name":null,"distance":0},{"name":"Bath & Body Works","code":null,"latitude":39.0473456,"longitude":-94.3576402,"address":"2036 Independence Center, Independence MO","chain_name":null,"distance":0},{"name":"Bath & Body Works","code":null,"latitude":40.7161474,"longitude":-74.0954919,"address":"701 State Hwy 440, Jersey City NJ","chain_name":null,"distance":0},{"name":"Bath & Body Works","code":null,"latitude":32.001945,"longitude":-81.116935,"address":"7804 Abercorn St, Savannah GA","chain_name":null,"distance":0},{"name":"Bath & Body Works","code":null,"latitude":32.477468,"longitude":-93.752939,"address":"1133 St Vincent Ave, Shreveport LA","chain_name":null,"distance":0},{"name":"Bath & Body Works","code":null,"latitude":33.8313157,"longitude":-118.0908158,"address":"7362 E Carson Blvd, Long Beach CA","chain_name":null,"distance":0},{"name":"Bath & Body Works","code":null,"latitude":28.8150654,"longitude":-81.3656451,"address":"239 Town Center Circle, Sanford FL","chain_name":null,"distance":0},{"name":"Bath & Body Works","code":null,"latitude":30.75667,"longitude":-81.59372,"address":"6586 Hwy 40 E, St Marys GA","chain_name":null,"distance":0},{"name":"Bath & Body Works","code":null,"latitude":40.673629,"longitude":-75.344831,"address":"3926 Linden St, Bethlehem PA","chain_name":null,"distance":0},{"name":"Bath & Body Works","code":null,"latitude":28.474916,"longitude":-81.449997,"address":"4953 Intl Dr, Orlando FL","chain_name":null,"distance":0},{"name":"Bath & Body Works","code":null,"latitude":42.023665,"longitude":-91.626698,"address":"4444 First Ave NE, Cedar Rapids IA","chain_name":null,"distance":0},{"name":"Bath & Body Works","code":null,"latitude":35.8463635,"longitude":-86.4175733,"address":"1720 Old Fort Pkwy, Murfreesboro TN","chain_name":null,"distance":0},{"name":"Bath & Body Works","code":null,"latitude":41.4594734,"longitude":-81.9521632,"address":"189 Crocker Park Blvd., Westlake OH","chain_name":null,"distance":0},{"name":"Bath & Body Works","code":null,"latitude":42.910654,"longitude":-85.563765,"address":"4150 28th St SE, Kentwood MI","chain_name":null,"distance":0},{"name":"Bath & Body Works","code":null,"latitude":35.4451398,"longitude":-80.8812851,"address":"16805-B Birkdale Commons Pkwy, Huntersville NC","chain_name":null,"distance":0},{"name":"Bath & Body Works","code":null,"latitude":40.1433727,"longitude":-75.1205858,"address":"2500 Moreland Rd, Willow Grove PA","chain_name":null,"distance":0},{"name":"Bath & Body Works","code":null,"latitude":41.4194471,"longitude":-82.6718616,"address":"4314 Milan Rd, Sandusky OH","chain_name":null,"distance":0},{"name":"Bath & Body Works","code":null,"latitude":35.1514877,"longitude":-80.8279881,"address":"4400 Sharon Rd, Charlotte NC","chain_name":null,"distance":0},{"name":"Bath & Body Works","code":null,"latitude":41.8930275,"longitude":-88.3416613,"address":"430 Commons Dr, Geneva IL","chain_name":null,"distance":0},{"name":"Bath & Body Works","code":null,"latitude":42.2429878,"longitude":-87.9463942,"address":"122 Hawthorne Center, Vernon Hills IL","chain_name":null,"distance":0},{"name":"Bath & Body Works","code":null,"latitude":35.8390476,"longitude":-78.675152,"address":"4324 Glenwood Ave, Raleigh NC","chain_name":null,"distance":0},{"name":"Bath & Body Works","code":null,"latitude":39.472642,"longitude":-119.7798284,"address":"5522 Meadowood Mall Circle, Reno NV","chain_name":null,"distance":0},{"name":"Bath & Body Works","code":null,"latitude":45.4522393,"longitude":-122.7829948,"address":"9585 SW Washington Square Rd, Tigard OR","chain_name":null,"distance":0},{"name":"Bath & Body Works","code":null,"latitude":31.070235,"longitude":-97.366818,"address":"3111 S 31St St, Temple TX","chain_name":null,"distance":0},{"name":"Bath & Body Works","code":null,"latitude":34.0374778,"longitude":-118.0836613,"address":"2128 Montebello Town Center, Montebello CA","chain_name":null,"distance":0},{"name":"Bath & Body Works","code":null,"latitude":29.542823,"longitude":-95.1530763,"address":"1322 Baybrook Mall, Friendswood TX","chain_name":null,"distance":0},{"name":"Bath & Body Works","code":null,"latitude":43.4773417,"longitude":-83.9745126,"address":"4839 Fashion Square Mall, Saginaw MI","chain_name":null,"distance":0},{"name":"Bath & Body Works","code":null,"latitude":39.9615042,"longitude":-104.993652,"address":"14584 Orchard Pkwy Ste 250, Westminster CO","chain_name":null,"distance":0},{"name":"Bath & Body Works","code":null,"latitude":29.6211025,"longitude":-95.2632201,"address":"414 Almeda Mall, Houston TX","chain_name":null,"distance":0},{"name":"Bath & Body Works","code":null,"latitude":28.431591,"longitude":-81.470468,"address":"9101 International Dr, Orlando FL","chain_name":null,"distance":0},{"name":"Bath & Body Works","code":null,"latitude":26.187544,"longitude":-98.2358239,"address":"2200 S 10th St, Mcallen TX","chain_name":null,"distance":0},{"name":"Bath & Body Works","code":null,"latitude":29.552516,"longitude":-95.3909369,"address":"11200 Broadway St, Pearland TX","chain_name":null,"distance":0},{"name":"Bath & Body Works","code":null,"latitude":41.722523,"longitude":-72.7620098,"address":"419 Westfarms Mall, Farmington CT","chain_name":null,"distance":0},{"name":"Bath & Body Works","code":null,"latitude":33.5185389,"longitude":-101.90455,"address":"8201 Quaker Ave, Lubbock TX","chain_name":null,"distance":0},{"name":"Bath & Body Works","code":null,"latitude":40.0250218,"longitude":-75.6262915,"address":"293 Main St, Exton PA","chain_name":null,"distance":0},{"name":"Bath & Body Works","code":null,"latitude":34.1312202,"longitude":-80.8800818,"address":"471-12 Town Center Ct, Columbia SC","chain_name":null,"distance":0},{"name":"Bath & Body Works","code":null,"latitude":41.9390146,"longitude":-88.1056288,"address":"318-110 W Army Trail Rd, Bloomingdale IL","chain_name":null,"distance":0},{"name":"Bath & Body Works","code":null,"latitude":39.5998462,"longitude":-104.8047775,"address":"6422 S Parker Rd, Aurora CO","chain_name":null,"distance":0},{"name":"Bath & Body Works","code":null,"latitude":26.435945,"longitude":-81.775835,"address":"10801 Corkscrew Rd, Estero FL","chain_name":null,"distance":0},{"name":"Bath & Body Works","code":null,"latitude":39.849314,"longitude":-75.004093,"address":"2370 Voorhees Town Center, Voorhees NJ","chain_name":null,"distance":0},{"name":"Bath & Body Works","code":null,"latitude":38.9872609,"longitude":-76.546109,"address":"2202 Annapolis Mall, Annapolis MD","chain_name":null,"distance":0},{"name":"Bath & Body Works","code":null,"latitude":33.9012364,"longitude":-87.5550228,"address":"300 Hwy 78 E, Jasper AL","chain_name":null,"distance":0},{"name":"Bath & Body Works","code":null,"latitude":42.2011017,"longitude":-87.9331705,"address":"970 Milwaukee Ave Ste B, Lincolnshire IL","chain_name":null,"distance":0},{"name":"Bath & Body Works","code":null,"latitude":41.2443594,"longitude":-95.8272808,"address":"1751 Madison Ave, Council Bluffs IA","chain_name":null,"distance":0},{"name":"Bath & Body Works","code":null,"latitude":40.0512882,"longitude":-82.9210249,"address":"3680 Easton Market, Columbus OH","chain_name":null,"distance":0},{"name":"Bath & Body Works","code":null,"latitude":41.7244848,"longitude":-71.476804,"address":"400 Bald Hill Rd, Warwick RI","chain_name":null,"distance":0},{"name":"Bath & Body Works","code":null,"latitude":32.873641,"longitude":-117.209621,"address":"4485 Lajolla Village Dr, San Diego CA","chain_name":null,"distance":0},{"name":"Bath & Body Works","code":null,"latitude":32.3507702,"longitude":-88.7434533,"address":"Hwy 80 E, Statesboro GA","chain_name":null,"distance":0},{"name":"Bath & Body Works","code":null,"latitude":41.5463019,"longitude":-73.026299,"address":"495 Union St, Waterbury CT","chain_name":null,"distance":0},{"name":"Bath & Body Works","code":null,"latitude":39.609986,"longitude":-105.098627,"address":"8501 W Bowles Ave, Littleton CO","chain_name":null,"distance":0},{"name":"Bath & Body Works","code":null,"latitude":41.8821509,"longitude":-87.6399565,"address":"500 West Madison St, Chicago IL","chain_name":null,"distance":0},{"name":"Bath & Body Works","code":null,"latitude":41.5870688,"longitude":-71.9918158,"address":"160 River Rd, Lisbon CT","chain_name":null,"distance":0},{"name":"Bath & Body Works","code":null,"latitude":27.962664,"longitude":-82.520483,"address":"2223 North Westshore Blvd, Tampa FL","chain_name":null,"distance":0},{"name":"Bath & Body Works","code":null,"latitude":34.0502723,"longitude":-84.2966722,"address":"2040 N Point Circle, Alpharetta GA","chain_name":null,"distance":0},{"name":"Bath & Body Works","code":null,"latitude":37.6768955,"longitude":-122.46812,"address":"59 Colma Blvd, Colma CA","chain_name":null,"distance":0},{"name":"Bath & Body Works","code":null,"latitude":35.771769,"longitude":-78.760042,"address":"1105 Walnut St, Cary NC","chain_name":null,"distance":0},{"name":"Bath & Body Works","code":null,"latitude":34.275481,"longitude":-118.5701135,"address":"19803 Rinaldi St, Northridge CA","chain_name":null,"distance":0},{"name":"Bath & Body Works","code":null,"latitude":35.596068,"longitude":-80.8771964,"address":"629 River Hgwy Space C, Mooresville NC","chain_name":null,"distance":0},{"name":"Bath & Body Works","code":null,"latitude":34.212311,"longitude":-77.906441,"address":"3500 Olender Dr, Wilmington NC","chain_name":null,"distance":0},{"name":"Bath & Body Works","code":null,"latitude":37.8364601,"longitude":-122.2925486,"address":"5687 Bay St, Emeryville CA","chain_name":null,"distance":0},{"name":"Bath & Body Works","code":null,"latitude":40.553986,"longitude":-74.3001774,"address":"250 Woodbridge Center Dr, Woodbridge NJ","chain_name":null,"distance":0},{"name":"Bath & Body Works","code":null,"latitude":41.9022259,"longitude":-87.96469,"address":"171 Route 83, Elmhurst IL","chain_name":null,"distance":0},{"name":"Bath & Body Works","code":null,"latitude":34.0838882,"longitude":-84.5439848,"address":"134 Woodstock Square Ave, Woodstock GA","chain_name":null,"distance":0},{"name":"Bath & Body Works","code":null,"latitude":45.033496,"longitude":-93.020177,"address":"3001 White Bear Ave N, Maplewood MN","chain_name":null,"distance":0},{"name":"Bath & Body Works","code":null,"latitude":45.7646574,"longitude":-108.57643,"address":"300 S - 24th St W, Billings MT","chain_name":null,"distance":0},{"name":"Bath & Body Works","code":null,"latitude":40.4327359,"longitude":-79.7897035,"address":"200 Mall Blvd, Monroeville PA","chain_name":null,"distance":0},{"name":"Bath & Body Works","code":null,"latitude":36.1784225,"longitude":-86.3022375,"address":"320 Outlet Village Blvd., Lebanon TN","chain_name":null,"distance":0},{"name":"Bath & Body Works","code":null,"latitude":42.7018586,"longitude":-71.4405267,"address":"310 Daniel Webster Hwy, Nashua NH","chain_name":null,"distance":0},{"name":"Bath & Body Works","code":null,"latitude":40.0931284,"longitude":-74.9575935,"address":"1818 Franklin Mills Circle, Philadelphia PA","chain_name":null,"distance":0},{"name":"Bath & Body Works","code":null,"latitude":42.1648031,"longitude":-87.844374,"address":"720 Waukegan Rd, Deerfield IL","chain_name":null,"distance":0},{"name":"Bath & Body Works","code":null,"latitude":37.9998259,"longitude":-121.8421445,"address":"2550 Somersville Rd, Antioch CA","chain_name":null,"distance":0},{"name":"Bath & Body Works","code":null,"latitude":39.9237059,"longitude":-75.1430349,"address":"1851 S Christopher Columbus Blvd, Philadelphia PA","chain_name":null,"distance":0},{"name":"Bath & Body Works","code":null,"latitude":40.6298197,"longitude":-75.4828332,"address":"250 Lehigh Valley Mall, Whitehall PA","chain_name":null,"distance":0},{"name":"Bath & Body Works","code":null,"latitude":33.1774791,"longitude":-86.2937046,"address":"41211 US Hwy 280, Sylacauga AL","chain_name":null,"distance":0},{"name":"Bath & Body Works","code":null,"latitude":41.3092494,"longitude":-97.6780576,"address":"Route 30 East, Greensburg PA","chain_name":null,"distance":0},{"name":"Bath & Body Works","code":null,"latitude":27.234525,"longitude":-82.496032,"address":"8201 S Tamiami Trail, Sarasota FL","chain_name":null,"distance":0},{"name":"Bath & Body Works","code":null,"latitude":45.508337,"longitude":-73.381339,"address":"1 Promenades Boul, St-Bruno QC","chain_name":null,"distance":0},{"name":"Bath & Body Works","code":null,"latitude":41.6920301,"longitude":-91.6083711,"address":"1451 Coral Ridge Ave, Coralville IA","chain_name":null,"distance":0},{"name":"Bath & Body Works","code":null,"latitude":40.1835399,"longitude":-74.8809366,"address":"2300 E Lincoln Hwy, Langhorne PA","chain_name":null,"distance":0},{"name":"Bath & Body Works","code":null,"latitude":34.15674,"longitude":-118.4382284,"address":"14006 Riverside Dr, Sherman Oaks CA","chain_name":null,"distance":0},{"name":"Bath & Body Works","code":null,"latitude":40.7538419,"longitude":-73.6947706,"address":"1512 Union Turnpike, New Hyde Park NY","chain_name":null,"distance":0},{"name":"Bath & Body Works","code":null,"latitude":38.6502986,"longitude":-121.327588,"address":"4736 Manzanita Ave, Carmichael CA","chain_name":null,"distance":0},{"name":"Bath & Body Works","code":null,"latitude":42.300627,"longitude":-71.380534,"address":"1245 Worcester St, Natick MA","chain_name":null,"distance":0},{"name":"Bath & Body Works","code":null,"latitude":33.9810337,"longitude":-117.8897468,"address":"540 Puente Hills Mall, City Of Industry CA","chain_name":null,"distance":0},{"name":"Bath & Body Works","code":null,"latitude":40.776561,"longitude":-74.353565,"address":"112 Eisenhower Pkwy, Livingston NJ","chain_name":null,"distance":0},{"name":"Bath & Body Works","code":null,"latitude":37.7213009,"longitude":-87.124943,"address":"5000 Frederica St, Owensboro KY","chain_name":null,"distance":0},{"name":"Bath & Body Works","code":null,"latitude":40.1617509,"longitude":-83.016939,"address":"90 - 92 Meadowpark Ave, Lewis Center OH","chain_name":null,"distance":0},{"name":"Bath & Body Works","code":null,"latitude":33.84595,"longitude":-84.363649,"address":"3393 Peachtree Rd NE, Atlanta GA","chain_name":null,"distance":0},{"name":"Bath & Body Works","code":null,"latitude":39.0327399,"longitude":-95.766381,"address":"1801 Southwest Wanamaker, Topeka KS","chain_name":null,"distance":0},{"name":"Bath & Body Works","code":null,"latitude":26.599288,"longitude":-81.868501,"address":"4125 Cleveland Ave, Fort Myers FL","chain_name":null,"distance":0},{"name":"Bath & Body Works","code":null,"latitude":41.327133,"longitude":-73.808738,"address":"650 Lee Blvd, Yorktown Heights NY","chain_name":null,"distance":0},{"name":"Bath & Body Works","code":null,"latitude":32.779644,"longitude":-117.010081,"address":"5500 Grossmont Center Dr, La Mesa CA","chain_name":null,"distance":0},{"name":"Bath & Body Works","code":null,"latitude":25.867763,"longitude":-80.3187839,"address":"1675 W 49th St, Hialeah FL","chain_name":null,"distance":0},{"name":"Bath & Body Works","code":null,"latitude":33.0163889,"longitude":-96.713679,"address":"811 North Central Expressway, Plano TX","chain_name":null,"distance":0},{"name":"Bath & Body Works","code":null,"latitude":39.5424738,"longitude":-104.9437666,"address":"9579 South University Blvd, Highlands Ranch CO","chain_name":null,"distance":0},{"name":"Bath & Body Works","code":null,"latitude":42.3556254,"longitude":-71.0603495,"address":"425 Washington St, Boston MA","chain_name":null,"distance":0},{"name":"Bath & Body Works","code":null,"latitude":43.0186869,"longitude":-83.6282693,"address":"4190 E Court St, Burton MI","chain_name":null,"distance":0},{"name":"Bath & Body Works","code":null,"latitude":34.992022,"longitude":-78.351753,"address":"1407-C Sunset Ave, Clinton NC","chain_name":null,"distance":0},{"name":"Bath & Body Works","code":null,"latitude":41.5153214,"longitude":-81.4514177,"address":"1566 Golden Gate Plaza, Mayfield Heights OH","chain_name":null,"distance":0},{"name":"Bath & Body Works","code":null,"latitude":45.5060083,"longitude":-122.4409163,"address":"783 Nw 12th St, Gresham OR","chain_name":null,"distance":0},{"name":"Bath & Body Works","code":null,"latitude":42.0454357,"longitude":-88.0368575,"address":"5 Woodfield Shopping Center, Schaumburg IL","chain_name":null,"distance":0},{"name":"Bath & Body Works","code":null,"latitude":38.6674238,"longitude":-90.5967251,"address":"126 Thf Blvd, Chesterfield MO","chain_name":null,"distance":0},{"name":"Bath & Body Works","code":null,"latitude":39.73213,"longitude":-82.628202,"address":"1635 River Valley Circle S, Lancaster OH","chain_name":null,"distance":0},{"name":"Bath & Body Works","code":null,"latitude":43.822352,"longitude":-79.536269,"address":"1 Bass Pro Mills Dr, Vaughan ON","chain_name":null,"distance":0},{"name":"Bath & Body Works","code":null,"latitude":33.3951613,"longitude":-111.7018452,"address":"6555-2528 E Sern Ave, Mesa AZ","chain_name":null,"distance":0},{"name":"Bath & Body Works","code":null,"latitude":34.7943006,"longitude":-77.355413,"address":"320 Jacksonville Mall, Jacksonville NC","chain_name":null,"distance":0},{"name":"Bath & Body Works","code":null,"latitude":39.7232049,"longitude":-90.2452169,"address":"1229 W Morton Ave, Jacksonville IL","chain_name":null,"distance":0},{"name":"Bath & Body Works","code":null,"latitude":28.5535178,"longitude":-81.2055861,"address":"389 N Alafaya Trail, Orlando FL","chain_name":null,"distance":0},{"name":"Bath & Body Works","code":null,"latitude":35.702292,"longitude":-81.296469,"address":"1960 Highway US 70 SE, Hickory NC","chain_name":null,"distance":0},{"name":"Bath & Body Works","code":null,"latitude":29.7316732,"longitude":-95.649815,"address":"1000 W Oaks Mall - 2700 S Hwy 6, Houston TX","chain_name":null,"distance":0},{"name":"Bath & Body Works","code":null,"latitude":33.5586955,"longitude":-117.6706781,"address":"650 The Shops At Mission Viejo, Mission Viejo CA","chain_name":null,"distance":0},{"name":"Bath & Body Works","code":null,"latitude":39.562368,"longitude":-104.874786,"address":"8505 Park Meadows Cntr Dr, Littleton CO","chain_name":null,"distance":0},{"name":"Bath & Body Works","code":null,"latitude":43.8672261,"longitude":-79.284598,"address":"5000 7 Hwy E, Markham ON","chain_name":null,"distance":0},{"name":"Bath & Body Works","code":null,"latitude":36.0385792,"longitude":-79.8379474,"address":"123 Four SEasons\/Town Ctr, Greensboro NC","chain_name":null,"distance":0},{"name":"Bath & Body Works","code":null,"latitude":41.7651619,"longitude":-88.20183,"address":"304 South Route 59, Naperville IL","chain_name":null,"distance":0},{"name":"Bath & Body Works","code":null,"latitude":46.8305007,"longitude":-71.2994242,"address":"5401, boulevard des Galeries, Quebec QC","chain_name":null,"distance":0},{"name":"Bath & Body Works","code":null,"latitude":40.9273419,"longitude":-73.8525912,"address":"5190 Xavier Dr Bldg G, Yonkers NY","chain_name":null,"distance":0},{"name":"Bath & Body Works","code":null,"latitude":38.634455,"longitude":-90.347636,"address":"1155 St Louis Galleria, Richmond Heights MO","chain_name":null,"distance":0},{"name":"Bath & Body Works","code":null,"latitude":34.001227,"longitude":-117.7299639,"address":"13925 City Center Dr, Chino Hills CA","chain_name":null,"distance":0},{"name":"Bath & Body Works","code":null,"latitude":33.8770272,"longitude":-84.0147523,"address":"1905 Scenic Hwy, Snellville GA","chain_name":null,"distance":0},{"name":"Bath & Body Works","code":null,"latitude":49.8817916,"longitude":-119.4381194,"address":"2271 Harvey Avenue, Kelowna BC","chain_name":null,"distance":0},{"name":"Bath & Body Works","code":null,"latitude":41.7958671,"longitude":-71.3224976,"address":"11 Commerce Way, Seekonk MA","chain_name":null,"distance":0},{"name":"Bath & Body Works","code":null,"latitude":29.7405552,"longitude":-95.4629509,"address":"5085 Westheimer St, Houston TX","chain_name":null,"distance":0},{"name":"Bath & Body Works","code":null,"latitude":40.0856392,"longitude":-75.3916632,"address":"160 N Gulph Rd, King Of Prussia PA","chain_name":null,"distance":0},{"name":"Bath & Body Works","code":null,"latitude":49.2358556,"longitude":-124.0480833,"address":"102-6631 Island Hwy N, Nanaimo BC","chain_name":null,"distance":0},{"name":"Bath & Body Works","code":null,"latitude":38.0241193,"longitude":-84.4182711,"address":"1976 Pavillion Way, Lexington KY","chain_name":null,"distance":0},{"name":"Bath & Body Works","code":null,"latitude":33.465479,"longitude":-82.0806,"address":"3450 Wrightsboro Rd, Augusta GA","chain_name":null,"distance":0},{"name":"Bath & Body Works","code":null,"latitude":40.7437351,"longitude":-89.6289412,"address":"4501 War Memorial Dr, Peoria IL","chain_name":null,"distance":0},{"name":"Bath & Body Works","code":null,"latitude":43.7251083,"longitude":-79.4528087,"address":"1 Yorkdale Road #500, Toronto ON","chain_name":null,"distance":0},{"name":"Bath & Body Works","code":null,"latitude":37.6210696,"longitude":-122.4297369,"address":"1140 El Camino Real, San Bruno CA","chain_name":null,"distance":0},{"name":"Bath & Body Works","code":null,"latitude":33.9217462,"longitude":-84.3409321,"address":"4400 Ashford Dunnwoody Rd, Atlanta GA","chain_name":null,"distance":0},{"name":"Bath & Body Works","code":null,"latitude":38.923498,"longitude":-90.1772317,"address":"131 Alton Square, Alton IL","chain_name":null,"distance":0},{"name":"Bath & Body Works","code":null,"latitude":32.7398231,"longitude":-97.4338624,"address":"1926 Green Oaks Rd, Fort Worth TX","chain_name":null,"distance":0},{"name":"Bath & Body Works","code":null,"latitude":38.601358,"longitude":-90.446492,"address":"116 West County Center, Des Peres MO","chain_name":null,"distance":0},{"name":"Bath & Body Works","code":null,"latitude":41.2357439,"longitude":-85.816276,"address":"2864 Frontage Rd, Warsaw IN","chain_name":null,"distance":0},{"name":"Bath & Body Works","code":null,"latitude":34.761206,"longitude":-84.9533683,"address":"816 Walnut Street Ste 24, Dalton GA","chain_name":null,"distance":0},{"name":"Bath & Body Works","code":null,"latitude":33.8258676,"longitude":-117.8373599,"address":"1500 East Village Way, Orange CA","chain_name":null,"distance":0},{"name":"Bath & Body Works","code":null,"latitude":34.1165409,"longitude":-117.8367214,"address":"1335 E Gladstone St, Glendora CA","chain_name":null,"distance":0},{"name":"Bath & Body Works","code":null,"latitude":25.7785027,"longitude":-80.1881781,"address":"401 Biscayne Blvd, Miami FL","chain_name":null,"distance":0},{"name":"Bath & Body Works","code":null,"latitude":33.914389,"longitude":-117.884799,"address":"2054 Brea Mall, Brea CA","chain_name":null,"distance":0},{"name":"Bath & Body Works","code":null,"latitude":42.3474838,"longitude":-71.0786272,"address":"100 Huntington Ave, Boston MA","chain_name":null,"distance":0},{"name":"Bath & Body Works","code":null,"latitude":33.3068503,"longitude":-111.7524467,"address":"2212 East Williams Field, Gilbert AZ","chain_name":null,"distance":0},{"name":"Bath & Body Works","code":null,"latitude":38.9126694,"longitude":-94.6188035,"address":"5012 W 119th St, Leawood KS","chain_name":null,"distance":0},{"name":"Bath & Body Works","code":null,"latitude":41.541678,"longitude":-81.493377,"address":"691 Richmond Rd, Richmond Heights OH","chain_name":null,"distance":0},{"name":"Bath & Body Works","code":null,"latitude":33.8695788,"longitude":-118.0606131,"address":"12751 Town Center Dr, Cerritos CA","chain_name":null,"distance":0},{"name":"Bath & Body Works","code":null,"latitude":38.5949009,"longitude":-89.9826726,"address":"180 St Clair Square, Fairview Heights IL","chain_name":null,"distance":0},{"name":"Bath & Body Works","code":null,"latitude":33.7735144,"longitude":-117.229555,"address":"1299 Galleria At Tyler, Riverside CA","chain_name":null,"distance":0},{"name":"Bath & Body Works","code":null,"latitude":42.879866,"longitude":-85.75631,"address":"3700 Rivertown Pkwy SW, Grandville MI","chain_name":null,"distance":0},{"name":"Bath & Body Works","code":null,"latitude":38.0649416,"longitude":-97.9032616,"address":"1500 E 11th St, Hutchinson KS","chain_name":null,"distance":0},{"name":"Bath & Body Works","code":null,"latitude":35.004524,"longitude":-80.559498,"address":"2115 W Roosevelt Blvd, Monroe NC","chain_name":null,"distance":0},{"name":"Bath & Body Works","code":null,"latitude":42.367101,"longitude":-71.076376,"address":"100 Cambridgeside Place, Cambridge MA","chain_name":null,"distance":0},{"name":"Bath & Body Works","code":null,"latitude":29.805307,"longitude":-98.0126219,"address":"3939 Ih-35 S 502, San Marcos TX","chain_name":null,"distance":0},{"name":"Bath & Body Works","code":null,"latitude":25.6436593,"longitude":-80.3362122,"address":"8888 SW 136th St, Miami FL","chain_name":null,"distance":0},{"name":"Bath & Body Works","code":null,"latitude":41.4968927,"longitude":-81.6936309,"address":"230 W Huron Rd, Cleveland OH","chain_name":null,"distance":0},{"name":"Bath & Body Works","code":null,"latitude":34.57045,"longitude":-87.018942,"address":"1801 Beltline Rd SW, Decatur AL","chain_name":null,"distance":0},{"name":"Bath & Body Works","code":null,"latitude":41.8068845,"longitude":-72.5536065,"address":"I-84 Buckland Hills Dr, Manchester CT","chain_name":null,"distance":0},{"name":"Bath & Body Works","code":null,"latitude":40.8904301,"longitude":-74.2606361,"address":"2432 Willowbrook Mall, Wayne NJ","chain_name":null,"distance":0},{"name":"Bath & Body Works","code":null,"latitude":30.390827,"longitude":-90.086451,"address":"3450 Hwy 190, Mandeville LA","chain_name":null,"distance":0},{"name":"Bath & Body Works","code":null,"latitude":33.1864345,"longitude":-97.109475,"address":"2201 1-35 E S, Denton TX","chain_name":null,"distance":0},{"name":"Bath & Body Works","code":null,"latitude":41.1570457,"longitude":-81.4081387,"address":"4252 Kent Rd, Stow OH","chain_name":null,"distance":0},{"name":"Bath & Body Works","code":null,"latitude":43.6238239,"longitude":-83.8943164,"address":"4101 Wilder Rd, Bay City MI","chain_name":null,"distance":0},{"name":"Bath & Body Works","code":null,"latitude":30.1743701,"longitude":-81.6274407,"address":"11111 San Jose Blvd, Jacksonville FL","chain_name":null,"distance":0},{"name":"Bath & Body Works","code":null,"latitude":42.5354155,"longitude":-82.9121033,"address":"32363 Gratiot Ave, Roseville MI","chain_name":null,"distance":0},{"name":"Bath & Body Works","code":null,"latitude":49.1888251,"longitude":-122.8043422,"address":"2695 Guildford Town Centre, Surrey BC","chain_name":null,"distance":0},{"name":"Bath & Body Works","code":null,"latitude":38.0909348,"longitude":-122.5562805,"address":"208 Vintage Way, Novato CA","chain_name":null,"distance":0},{"name":"Bath & Body Works","code":null,"latitude":44.9713708,"longitude":-93.4415729,"address":"12774 Wayzata Blvd, Minnetonka MN","chain_name":null,"distance":0},{"name":"Bath & Body Works","code":null,"latitude":32.944248,"longitude":-80.04393,"address":"2150 Northwoods Blvd, North Charleston SC","chain_name":null,"distance":0},{"name":"Bath & Body Works","code":null,"latitude":30.6700608,"longitude":-88.1222761,"address":"3498 Bel Air Mall, Mobile AL","chain_name":null,"distance":0},{"name":"Bath & Body Works","code":null,"latitude":37.1464554,"longitude":-121.6625264,"address":"124 Cochrane, Morgan Hill CA","chain_name":null,"distance":0},{"name":"Bath & Body Works","code":null,"latitude":34.238952,"longitude":-118.557074,"address":"9301 Tampa Ave, Northridge CA","chain_name":null,"distance":0},{"name":"Bath & Body Works","code":null,"latitude":26.5462016,"longitude":-81.8714072,"address":"13499 US 41 SE, Ft. Myers FL","chain_name":null,"distance":0},{"name":"Bath & Body Works","code":null,"latitude":42.2728646,"longitude":-83.004455,"address":"3100 Howard Avenue, Windsor ON","chain_name":null,"distance":0},{"name":"Bath & Body Works","code":null,"latitude":40.9736363,"longitude":-74.4877306,"address":"Rte 80 Mt Hope Ave, Rockaway NJ","chain_name":null,"distance":0},{"name":"Bath & Body Works","code":null,"latitude":40.454458,"longitude":-80.157709,"address":"100 Robinson Center Dr, Pittsburgh PA","chain_name":null,"distance":0},{"name":"Bath & Body Works","code":null,"latitude":33.3930128,"longitude":-111.8605887,"address":"1445 W Southern Ave, Mesa AZ","chain_name":null,"distance":0},{"name":"Bath & Body Works","code":null,"latitude":34.5784641,"longitude":-118.0453843,"address":"38111 47th E, Palmdale CA","chain_name":null,"distance":0},{"name":"Bath & Body Works","code":null,"latitude":40.740242,"longitude":-73.245969,"address":"1701 Sunrise Highway, Bay Shore NY","chain_name":null,"distance":0},{"name":"Bath & Body Works","code":null,"latitude":42.0116705,"longitude":-87.7116924,"address":"3333 W Touhy Ave, Lincolnwood IL","chain_name":null,"distance":0},{"name":"Bath & Body Works","code":null,"latitude":37.3034999,"longitude":-121.861211,"address":"2151 Monteray Hwy And Curtner Ave, San Jose CA","chain_name":null,"distance":0},{"name":"Bath & Body Works","code":null,"latitude":33.6928314,"longitude":-117.9906907,"address":"18579 Main St, Huntington Beach CA","chain_name":null,"distance":0},{"name":"Bath & Body Works","code":null,"latitude":34.4187,"longitude":-119.699,"address":"619 Paseo Nuevo, Santa Barbara CA","chain_name":null,"distance":0},{"name":"Bath & Body Works","code":null,"latitude":38.6539778,"longitude":-121.1222016,"address":"2787 E Bidwell St, Folsom CA","chain_name":null,"distance":0},{"name":"Bath & Body Works","code":null,"latitude":30.0149685,"longitude":-90.2488977,"address":"1401 W Esplanade Ave, Kenner LA","chain_name":null,"distance":0},{"name":"Bath & Body Works","code":null,"latitude":33.6416599,"longitude":-86.6268054,"address":"5915 Trussville Crossings Pkwy, Birmingham AL","chain_name":null,"distance":0},{"name":"Bath & Body Works","code":null,"latitude":30.21338,"longitude":-90.952346,"address":"2200 Tanger Blvd, Gonzales LA","chain_name":null,"distance":0},{"name":"Bath & Body Works","code":null,"latitude":41.878794,"longitude":-84.043173,"address":"1357 S Main St, Adrian MI","chain_name":null,"distance":0},{"name":"Bath & Body Works","code":null,"latitude":42.4179772,"longitude":-82.9124091,"address":"22329 Moross Rd, Detroit MI","chain_name":null,"distance":0},{"name":"Bath & Body Works","code":null,"latitude":41.9252119,"longitude":-87.6726898,"address":"1730 W Fullerton Ave, Chicago IL","chain_name":null,"distance":0},{"name":"Bath & Body Works","code":null,"latitude":34.018145,"longitude":-84.5618963,"address":"400 Ernest W Barret Pkwy, Kennesaw GA","chain_name":null,"distance":0},{"name":"Bath & Body Works","code":null,"latitude":33.6142086,"longitude":-117.8779585,"address":"1079 NEwport Center Dr, Newport Beach CA","chain_name":null,"distance":0},{"name":"Bath & Body Works","code":null,"latitude":33.9772907,"longitude":-118.3726113,"address":"5315 W Centinella, Los Angeles CA","chain_name":null,"distance":0},{"name":"Bath & Body Works","code":null,"latitude":34.357571,"longitude":-84.0474295,"address":"800 Hwy 400 S, Dawsonville GA","chain_name":null,"distance":0},{"name":"Bath & Body Works","code":null,"latitude":40.294829,"longitude":-74.0531,"address":"Rt 35 Wyckoff Rd, Eatontown NJ","chain_name":null,"distance":0},{"name":"Bath & Body Works","code":null,"latitude":39.6329459,"longitude":-86.120429,"address":"1251 US 31 North, Greenwood IN","chain_name":null,"distance":0},{"name":"Bath & Body Works","code":null,"latitude":32.828845,"longitude":-97.19965,"address":"1101 Melbourne Rd, Hurst TX","chain_name":null,"distance":0},{"name":"Bath & Body Works","code":null,"latitude":41.5704053,"longitude":-93.8074259,"address":"101 74th St, West Des Moines IA","chain_name":null,"distance":0},{"name":"Bath & Body Works","code":null,"latitude":42.0725522,"longitude":-71.0378909,"address":"200 Wgate Dr, Brockton MA","chain_name":null,"distance":0},{"name":"Bath & Body Works","code":null,"latitude":39.829865,"longitude":-84.844699,"address":"3801 National Rd E, Richmond IN","chain_name":null,"distance":0},{"name":"Bath & Body Works","code":null,"latitude":34.0000068,"longitude":-117.7206337,"address":"3860 Grand Ave, Chino CA","chain_name":null,"distance":0},{"name":"Bath & Body Works","code":null,"latitude":40.0959556,"longitude":-83.0895685,"address":"3666 W Dublin-Granville Rd, Columbus OH","chain_name":null,"distance":0},{"name":"Bath & Body Works","code":null,"latitude":46.7703512,"longitude":-71.2828474,"address":"2700, Boulevard Laurier, Quebec QC","chain_name":null,"distance":0},{"name":"Bath & Body Works","code":null,"latitude":39.2454608,"longitude":-84.5956893,"address":"9557 Colerain Ave, Cincinnati OH","chain_name":null,"distance":0},{"name":"Bath & Body Works","code":null,"latitude":40.5498369,"longitude":-84.4029516,"address":"1186 Indiana Ave, Saint Marys OH","chain_name":null,"distance":0},{"name":"Bath & Body Works","code":null,"latitude":36.1276222,"longitude":-115.1680528,"address":"3200 Las Vegas Blvd, Las Vegas NV","chain_name":null,"distance":0},{"name":"Bath & Body Works","code":null,"latitude":40.485889,"longitude":-88.956401,"address":"1615 E Empire St, Bloomington IL","chain_name":null,"distance":0},{"name":"Bath & Body Works","code":null,"latitude":40.8473779,"longitude":-81.9449868,"address":"3923 Burbank Rd, Wooster OH","chain_name":null,"distance":0},{"name":"Bath & Body Works","code":null,"latitude":29.9630879,"longitude":-95.5447293,"address":"7720 Fm 1960 West, Houston TX","chain_name":null,"distance":0},{"name":"Bath & Body Works","code":null,"latitude":29.963012,"longitude":-95.540166,"address":"7925 Fm 1960 Rd W, Houston TX","chain_name":null,"distance":0},{"name":"Bath & Body Works","code":null,"latitude":43.4800982,"longitude":-83.9824017,"address":"3371 Tittabawassee Rd, Saginaw MI","chain_name":null,"distance":0},{"name":"Bath & Body Works","code":null,"latitude":42.0860636,"longitude":-86.41972,"address":"1800 Pipestone Rd, Benton Harbor MI","chain_name":null,"distance":0},{"name":"Bath & Body Works","code":null,"latitude":41.1358768,"longitude":-81.639099,"address":"3893 A Medina Rd, Akron OH","chain_name":null,"distance":0},{"name":"Bath & Body Works","code":null,"latitude":33.9808514,"longitude":-84.2156271,"address":"5145 Peachtree Pkwy Nw, Norcross GA","chain_name":null,"distance":0},{"name":"Bath & Body Works","code":null,"latitude":26.0043528,"longitude":-80.3369369,"address":"407 SW 145th Terrace, Pembroke Pines FL","chain_name":null,"distance":0},{"name":"Bath & Body Works","code":null,"latitude":41.302895,"longitude":-84.362799,"address":"1500 N Clinton St, Defiance OH","chain_name":null,"distance":0},{"name":"Bath & Body Works","code":null,"latitude":33.9764719,"longitude":-78.3736694,"address":"130 Shallotte Crossing Pkwy, Shallotte NC","chain_name":null,"distance":0},{"name":"Bath & Body Works","code":null,"latitude":40.8637099,"longitude":-73.1298062,"address":"313 Smith Haven Mall, Lake Grove NY","chain_name":null,"distance":0},{"name":"Bath & Body Works","code":null,"latitude":33.3951613,"longitude":-111.7018452,"address":"6555 E Sern Ave, Mesa AZ","chain_name":null,"distance":0},{"name":"Bath & Body Works","code":null,"latitude":42.6684182,"longitude":-82.8295448,"address":"50685 Waterside Dr, Chesterfield Twp MI","chain_name":null,"distance":0},{"name":"Bath & Body Works","code":null,"latitude":49.881546,"longitude":-97.195168,"address":"66Q - 1485 Portage Avenue, Winnipeg MB","chain_name":null,"distance":0},{"name":"Bath & Body Works","code":null,"latitude":43.0670909,"longitude":-76.1707522,"address":"9747 Carousel Center Dr, Syracuse NY","chain_name":null,"distance":0},{"name":"Bath & Body Works","code":null,"latitude":40.9236232,"longitude":-73.9066273,"address":"89 South St Pier 17, New York NY","chain_name":null,"distance":0},{"name":"Bath & Body Works","code":null,"latitude":40.7403215,"longitude":-73.9871028,"address":"304 Park Ave South, New York NY","chain_name":null,"distance":0},{"name":"Bath & Body Works","code":null,"latitude":41.8277057,"longitude":-71.4187636,"address":"136 Providence Place, Providence RI","chain_name":null,"distance":0},{"name":"Bath & Body Works","code":null,"latitude":32.9318284,"longitude":-96.8072825,"address":"2274 Valley View Center, Dallas TX","chain_name":null,"distance":0},{"name":"Bath & Body Works","code":null,"latitude":42.815548,"longitude":-86.08754,"address":"12331 James St, Holland MI","chain_name":null,"distance":0},{"name":"Bath & Body Works","code":null,"latitude":45.570257,"longitude":-73.7460496,"address":"3003 Boulevard le Carrefour, Laval QC","chain_name":null,"distance":0},{"name":"Bath & Body Works","code":null,"latitude":40.7761873,"longitude":-89.6544697,"address":"4100 W Willow Knolls Dr, Peoria IL","chain_name":null,"distance":0},{"name":"Bath & Body Works","code":null,"latitude":42.0737067,"longitude":-88.1839264,"address":"100 W Higgins Rd, South Barrington IL","chain_name":null,"distance":0},{"name":"Bath & Body Works","code":null,"latitude":41.5087205,"longitude":-72.8081748,"address":"533 S Brd St, Meriden CT","chain_name":null,"distance":0},{"name":"Bath & Body Works","code":null,"latitude":40.556479,"longitude":-75.4909519,"address":"3300 Lehigh St, Allentown PA","chain_name":null,"distance":0},{"name":"Bath & Body Works","code":null,"latitude":38.963839,"longitude":-92.375518,"address":"2300 Bernadette Dr, Columbia MO","chain_name":null,"distance":0},{"name":"Bath & Body Works","code":null,"latitude":33.5515055,"longitude":-112.2698024,"address":"9828 W Northern Ave, Peoria AZ","chain_name":null,"distance":0},{"name":"Bath & Body Works","code":null,"latitude":33.700156,"longitude":-117.350892,"address":"17600 Collier Ave, Lake Elsinore CA","chain_name":null,"distance":0},{"name":"Bath & Body Works","code":null,"latitude":41.1744602,"longitude":-87.8511052,"address":"1600 North State Route 50, Bourbonnais IL","chain_name":null,"distance":0},{"name":"Bath & Body Works","code":null,"latitude":33.38469,"longitude":-111.757178,"address":"1660 South Val Vista Dr, Mesa AZ","chain_name":null,"distance":0},{"name":"Bath & Body Works","code":null,"latitude":53.5675101,"longitude":-113.5226512,"address":"11810 Kingsway Edmonton, Edmonton AB","chain_name":null,"distance":0},{"name":"Bath & Body Works","code":null,"latitude":33.0731595,"longitude":-97.0851402,"address":"4151 Waller Creek, Highland Village TX","chain_name":null,"distance":0},{"name":"Bath & Body Works","code":null,"latitude":32.565428,"longitude":-97.321657,"address":"855 N E Alsbury Blvd, Burleson TX","chain_name":null,"distance":0},{"name":"Bath & Body Works","code":null,"latitude":32.6785373,"longitude":-97.398213,"address":"4800 S Hulen St, Fort Worth TX","chain_name":null,"distance":0},{"name":"Bath & Body Works","code":null,"latitude":42.4909859,"longitude":-83.4760386,"address":"27490 Novi Rd, Novi MI","chain_name":null,"distance":0},{"name":"Bath & Body Works","code":null,"latitude":35.4528281,"longitude":-84.6266611,"address":"1806 Decatur Pike, Athens TN","chain_name":null,"distance":0},{"name":"Bath & Body Works","code":null,"latitude":35.4389513,"longitude":-80.6057321,"address":"1480 US Hwy 29 N, Concord NC","chain_name":null,"distance":0},{"name":"Bath & Body Works","code":null,"latitude":34.063015,"longitude":-80.961819,"address":"7201 Two Notch Rd, Columbia SC","chain_name":null,"distance":0},{"name":"Bath & Body Works","code":null,"latitude":40.6961727,"longitude":-75.2602663,"address":"135 Palmer Park Mall, Easton PA","chain_name":null,"distance":0},{"name":"Bath & Body Works","code":null,"latitude":35.7908332,"longitude":-80.85825,"address":"1617 E Brd St, Statesville NC","chain_name":null,"distance":0},{"name":"Bath & Body Works","code":null,"latitude":41.8674721,"longitude":-71.0508142,"address":"2 Galleria Mall Dr, Taunton MA","chain_name":null,"distance":0},{"name":"Bath & Body Works","code":null,"latitude":43.7266864,"longitude":-79.2932667,"address":"1900 Eglinton Ave. E, Scarborough ON","chain_name":null,"distance":0},{"name":"Bath & Body Works","code":null,"latitude":35.7602645,"longitude":-78.7361015,"address":"400 Crossroads Plaza, Cary NC","chain_name":null,"distance":0},{"name":"Bath & Body Works","code":null,"latitude":42.6575129,"longitude":-83.4648382,"address":"9070 Highland Rd, White Lake MI","chain_name":null,"distance":0},{"name":"Bath & Body Works","code":null,"latitude":39.60102,"longitude":-75.8267539,"address":"115 B Big Elk Mall, Elkton MD","chain_name":null,"distance":0},{"name":"Bath & Body Works","code":null,"latitude":27.9314217,"longitude":-82.3232217,"address":"447 Brandon Town Center, Brandon FL","chain_name":null,"distance":0},{"name":"Bath & Body Works","code":null,"latitude":41.762701,"longitude":-71.4588,"address":"69 Hillside Rd, Cranston RI","chain_name":null,"distance":0},{"name":"Bath & Body Works","code":null,"latitude":37.784219,"longitude":-122.406176,"address":"845 Market St, San Francisco CA","chain_name":null,"distance":0},{"name":"Bath & Body Works","code":null,"latitude":42.2808361,"longitude":-83.2067956,"address":"3360 Fairln Dr, Allen Park MI","chain_name":null,"distance":0},{"name":"Bath & Body Works","code":null,"latitude":42.1402884,"longitude":-71.1484317,"address":"95 Washington St, Canton MA","chain_name":null,"distance":0},{"name":"Bath & Body Works","code":null,"latitude":45.66031,"longitude":-122.581833,"address":"8700 NE Vancouver Mall Dr, Vancouver WA","chain_name":null,"distance":0},{"name":"Bath & Body Works","code":null,"latitude":41.7549769,"longitude":-71.218828,"address":"262 SWansea Mall Dr, Swansea MA","chain_name":null,"distance":0},{"name":"Bath & Body Works","code":null,"latitude":40.6244548,"longitude":-73.639544,"address":"3559 Long Beach Rd, Oceanside NY","chain_name":null,"distance":0},{"name":"Bath & Body Works","code":null,"latitude":41.7176931,"longitude":-86.1876233,"address":"6501 N Grape Rd, Mishawaka IN","chain_name":null,"distance":0},{"name":"Bath & Body Works","code":null,"latitude":44.915423,"longitude":-92.9475662,"address":"8390 Tamarack Village Mall, Woodbury MN","chain_name":null,"distance":0},{"name":"Bath & Body Works","code":null,"latitude":38.9967246,"longitude":-84.6499595,"address":"2028 Florence Mall, Florence KY","chain_name":null,"distance":0},{"name":"Bath & Body Works","code":null,"latitude":34.756496,"longitude":-79.484055,"address":"1341 Scotland Crossing Dr, Laurinburg NC","chain_name":null,"distance":0},{"name":"Bath & Body Works","code":null,"latitude":33.5731575,"longitude":-84.35085,"address":"104 Nlake Mall, Atlanta GA","chain_name":null,"distance":0},{"name":"Bath & Body Works","code":null,"latitude":40.0252089,"longitude":-76.220963,"address":"1130 Stanley K Tanger Blvd, Lancaster PA","chain_name":null,"distance":0},{"name":"Bath & Body Works","code":null,"latitude":40.6296204,"longitude":-75.4826814,"address":"115 Lehigh Valley Mall, Whitehall PA","chain_name":null,"distance":0},{"name":"Bath & Body Works","code":null,"latitude":32.6231317,"longitude":-116.9675537,"address":"2015 Birch Rd #913, Chula Vista CA","chain_name":null,"distance":0},{"name":"Bath & Body Works","code":null,"latitude":36.1093598,"longitude":-115.1726999,"address":"3663 Las Vegas Blvd S, Las Vegas NV","chain_name":null,"distance":0},{"name":"Bath & Body Works","code":null,"latitude":32.026254,"longitude":-97.120513,"address":"104 I 35 Hwy NE, Hillsboro TX","chain_name":null,"distance":0},{"name":"Bath & Body Works","code":null,"latitude":40.3886548,"longitude":-104.7092749,"address":"2016 Greeley Mall, Greeley CO","chain_name":null,"distance":0},{"name":"Bath & Body Works","code":null,"latitude":34.1845792,"longitude":-118.8855217,"address":"334 West Hillcrest, Thousand Oaks CA","chain_name":null,"distance":0},{"name":"Bath & Body Works","code":null,"latitude":33.0260499,"longitude":-96.7918799,"address":"1900 Preston Rd, Plano TX","chain_name":null,"distance":0},{"name":"Bath & Body Works","code":null,"latitude":29.7150922,"longitude":-95.4151727,"address":"2414 University Dr, Houston TX","chain_name":null,"distance":0},{"name":"Bath & Body Works","code":null,"latitude":32.8309169,"longitude":-117.2057835,"address":"4727A Clairemont Dr, San Diego CA","chain_name":null,"distance":0},{"name":"Bath & Body Works","code":null,"latitude":41.945633,"longitude":-88.1087368,"address":"730 Stratford Square, Bloomingdale IL","chain_name":null,"distance":0},{"name":"Bath & Body Works","code":null,"latitude":38.261323,"longitude":-122.052949,"address":"1350 Travis Blvd, Fairfield CA","chain_name":null,"distance":0},{"name":"Bath & Body Works","code":null,"latitude":40.145059,"longitude":-82.981907,"address":"1500 Polaris Pkwy, Columbus OH","chain_name":null,"distance":0},{"name":"Bath & Body Works","code":null,"latitude":37.1625355,"longitude":-93.2627649,"address":"2825 South Glenstone Ave, Springfield MO","chain_name":null,"distance":0},{"name":"Bath & Body Works","code":null,"latitude":27.243352,"longitude":-80.2716431,"address":"3172 Nw Federal Hwy, Jensen Beach FL","chain_name":null,"distance":0},{"name":"Bath & Body Works","code":null,"latitude":34.0759301,"longitude":-118.3779297,"address":"8522 Beverly Blvd, Los Angeles CA","chain_name":null,"distance":0},{"name":"Bath & Body Works","code":null,"latitude":33.044027,"longitude":-84.981441,"address":"1501 Lafayette Pkwy, La Grange GA","chain_name":null,"distance":0},{"name":"Bath & Body Works","code":null,"latitude":44.366753,"longitude":-69.802494,"address":"5100 Erin Mills Pkwy, Mississauga ON","chain_name":null,"distance":0},{"name":"Bath & Body Works","code":null,"latitude":41.3067631,"longitude":-81.8168951,"address":"1008 Southpark Center, Strongsville OH","chain_name":null,"distance":0},{"name":"Bath & Body Works","code":null,"latitude":33.6514006,"longitude":-84.0002903,"address":"1564 C Dogwood Dr, Conyers GA","chain_name":null,"distance":0},{"name":"Bath & Body Works","code":null,"latitude":36.977125,"longitude":-121.966517,"address":"1855 41St Ave, Capitola CA","chain_name":null,"distance":0},{"name":"Bath & Body Works","code":null,"latitude":33.5736184,"longitude":-112.1244498,"address":"9617 N Metro Pkwy W, Phoenix AZ","chain_name":null,"distance":0},{"name":"Bath & Body Works","code":null,"latitude":41.0535064,"longitude":-73.5360774,"address":"100 Greyrock Place, Stamford CT","chain_name":null,"distance":0},{"name":"Bath & Body Works","code":null,"latitude":36.0628847,"longitude":-115.0364313,"address":"530 Marks St, Henderson NV","chain_name":null,"distance":0},{"name":"Bath & Body Works","code":null,"latitude":36.1252618,"longitude":-115.13717,"address":"3680 S Maryland Pkwy, Las Vegas NV","chain_name":null,"distance":0},{"name":"Bath & Body Works","code":null,"latitude":35.0255657,"longitude":-89.7161878,"address":"4610 Merchants Park Circle, Collierville TN","chain_name":null,"distance":0},{"name":"Bath & Body Works","code":null,"latitude":35.1124508,"longitude":-92.429723,"address":"201 Hwy 65 N, Conway AR","chain_name":null,"distance":0},{"name":"Bath & Body Works","code":null,"latitude":37.6898783,"longitude":-121.0503507,"address":"3401 Dale Rd, Modesto CA","chain_name":null,"distance":0},{"name":"Bath & Body Works","code":null,"latitude":30.6740789,"longitude":-87.8521687,"address":"30500 State Hwy 181, Spanish Fort AL","chain_name":null,"distance":0},{"name":"Bath & Body Works","code":null,"latitude":41.8475944,"longitude":-87.9544171,"address":"74 Oakbrook Center, Oakbrook IL","chain_name":null,"distance":0},{"name":"Bath & Body Works","code":null,"latitude":33.178106,"longitude":-117.330319,"address":"2525 El Camino Real, Carlsbad CA","chain_name":null,"distance":0},{"name":"Bath & Body Works","code":null,"latitude":35.035319,"longitude":-80.806121,"address":"9816 Ste 8 Rea Rd, Charlotte NC","chain_name":null,"distance":0},{"name":"Bath & Body Works","code":null,"latitude":43.246305,"longitude":-83.7817604,"address":"8825 Marketplace Dr, Birch Run MI","chain_name":null,"distance":0},{"name":"Bath & Body Works","code":null,"latitude":42.14077,"longitude":-72.486442,"address":"1655 Boston Rd, Springfield MA","chain_name":null,"distance":0},{"name":"Bath & Body Works","code":null,"latitude":39.3716831,"longitude":-76.466963,"address":"8123 Honeygo Blvd, Baltimore MD","chain_name":null,"distance":0},{"name":"Bath & Body Works","code":null,"latitude":42.249801,"longitude":-84.436424,"address":"1850 W Michigan Ave, Jackson MI","chain_name":null,"distance":0},{"name":"Bath & Body Works","code":null,"latitude":41.62949,"longitude":-93.6978657,"address":"3800 Merle Hay, Des Moines IA","chain_name":null,"distance":0},{"name":"Bath & Body Works","code":null,"latitude":41.952174,"longitude":-91.7193209,"address":"2600 Edgewood Rd SW, Cedar Rapids IA","chain_name":null,"distance":0},{"name":"Bath & Body Works","code":null,"latitude":41.7150684,"longitude":-86.9050759,"address":"107 Lighthouse Place, Michigan City IN","chain_name":null,"distance":0},{"name":"Bath & Body Works","code":null,"latitude":36.6412244,"longitude":-93.2140786,"address":"901 Branson Landing Blvd, Branson MO","chain_name":null,"distance":0},{"name":"Bath & Body Works","code":null,"latitude":36.5852786,"longitude":-121.8946882,"address":"1410 Del Monte Center, Monterey CA","chain_name":null,"distance":0},{"name":"Bath & Body Works","code":null,"latitude":35.692057,"longitude":-80.515117,"address":"1935 Jake Alexander Blvd W, Salisbury NC","chain_name":null,"distance":0},{"name":"Bath & Body Works","code":null,"latitude":28.5534021,"longitude":-81.3447199,"address":"3481 East Colonial Dr, Orlando FL","chain_name":null,"distance":0},{"name":"Bath & Body Works","code":null,"latitude":37.683196,"longitude":-97.2488879,"address":"7700 East Kellogg Dr, Wichita KS","chain_name":null,"distance":0},{"name":"Bath & Body Works","code":null,"latitude":41.2103759,"longitude":-80.7506337,"address":"5555 Youngstown Warren Rd, Niles OH","chain_name":null,"distance":0},{"name":"Bath & Body Works","code":null,"latitude":40.0527538,"longitude":-82.9164428,"address":"3976 Regent St, Columbus OH","chain_name":null,"distance":0},{"name":"Bath & Body Works","code":null,"latitude":42.989155,"longitude":-78.817223,"address":"Space 649 730 Alberta Drive, Amherst NY","chain_name":null,"distance":0},{"name":"Bath & Body Works","code":null,"latitude":37.4162896,"longitude":-121.8946565,"address":"570 Great Mall Dr, Milpitas CA","chain_name":null,"distance":0},{"name":"Bath & Body Works","code":null,"latitude":41.662092,"longitude":-81.359116,"address":"7850 Mentor Ave, Mentor OH","chain_name":null,"distance":0},{"name":"Bath & Body Works","code":null,"latitude":36.3234995,"longitude":-86.7116955,"address":"100 Two Mile Pkwy, Goodlettsville TN","chain_name":null,"distance":0},{"name":"Bath & Body Works","code":null,"latitude":33.7541894,"longitude":-116.4313662,"address":"71-800 Hwy 111, Rancho Mirage CA","chain_name":null,"distance":0},{"name":"Bath & Body Works","code":null,"latitude":42.5257024,"longitude":-71.7378831,"address":"100 Commercial Rd, Leominster MA","chain_name":null,"distance":0},{"name":"Bath & Body Works","code":null,"latitude":44.942616,"longitude":-123.036906,"address":"480 Center St NE, Salem OR","chain_name":null,"distance":0},{"name":"Bath & Body Works","code":null,"latitude":38.9564142,"longitude":-94.7175223,"address":"11133 W 95th St, Overland Park KS","chain_name":null,"distance":0},{"name":"Bath & Body Works","code":null,"latitude":41.4189288,"longitude":-81.909624,"address":"530 Great Northern Mall, North Olmsted OH","chain_name":null,"distance":0},{"name":"Bath & Body Works","code":null,"latitude":25.786696,"longitude":-80.377607,"address":"11401 Nw 12th St, Miami FL","chain_name":null,"distance":0},{"name":"Bath & Body Works","code":null,"latitude":28.1893731,"longitude":-82.3491835,"address":"28250 Paseo Dr, Wesley Chapel FL","chain_name":null,"distance":0},{"name":"Bath & Body Works","code":null,"latitude":33.7236964,"longitude":-116.3935429,"address":"72840 Highway 111, Palm Desert CA","chain_name":null,"distance":0},{"name":"Bath & Body Works","code":null,"latitude":43.518705,"longitude":-80.2374383,"address":"435 Stone Road West, Guelph ON","chain_name":null,"distance":0},{"name":"Bath & Body Works","code":null,"latitude":44.0014124,"longitude":-92.4799406,"address":"418 Apache Mall, Rochester MN","chain_name":null,"distance":0},{"name":"Bath & Body Works","code":null,"latitude":32.8088565,"longitude":-96.6269194,"address":"1044 Town E Mall, Mesquite TX","chain_name":null,"distance":0},{"name":"Bath & Body Works","code":null,"latitude":41.6430402,"longitude":-70.9929287,"address":"104 N Dartmouth Mall, North Dartmouth MA","chain_name":null,"distance":0},{"name":"Bath & Body Works","code":null,"latitude":35.6090696,"longitude":-115.3897547,"address":"32100 Las Vegas Blvd, Primm NV","chain_name":null,"distance":0},{"name":"Bath & Body Works","code":null,"latitude":39.952006,"longitude":-75.157237,"address":"1001 Market, Philadelphia PA","chain_name":null,"distance":0},{"name":"Bath & Body Works","code":null,"latitude":35.5111774,"longitude":-97.5301397,"address":"1925 Penn Square Mall, Oklahoma City OK","chain_name":null,"distance":0},{"name":"Bath & Body Works","code":null,"latitude":42.6406389,"longitude":-83.1319424,"address":"2693 S Rochester Rd, Rochester Hills MI","chain_name":null,"distance":0},{"name":"Bath & Body Works","code":null,"latitude":37.539363,"longitude":-122.300519,"address":"412 Hillsdale Mall, San Mateo CA","chain_name":null,"distance":0},{"name":"Bath & Body Works","code":null,"latitude":42.483327,"longitude":-76.490933,"address":"40 Catherwood Dr, Ithaca NY","chain_name":null,"distance":0},{"name":"Bath & Body Works","code":null,"latitude":46.0967593,"longitude":-64.7608415,"address":"477 Paul Street, Dieppe NB","chain_name":null,"distance":0},{"name":"Bath & Body Works","code":null,"latitude":28.5337703,"longitude":-82.5084158,"address":"13123 Cortez Blvd, Brooksville FL","chain_name":null,"distance":0},{"name":"Bath & Body Works","code":null,"latitude":43.42944,"longitude":-80.439263,"address":"2960 Kingsway Drive, Kitchener ON","chain_name":null,"distance":0},{"name":"Bath & Body Works","code":null,"latitude":39.9056729,"longitude":-86.0666158,"address":"6020 E 82nd St, Castleton IN","chain_name":null,"distance":0},{"name":"Bath & Body Works","code":null,"latitude":35.9557243,"longitude":-86.8163882,"address":"1800 Galleria Blvd, Franklin TN","chain_name":null,"distance":0},{"name":"Bath & Body Works","code":null,"latitude":40.586458,"longitude":-74.618213,"address":"400 Commons Way, Bridgewater NJ","chain_name":null,"distance":0},{"name":"Bath & Body Works","code":null,"latitude":34.1019642,"longitude":-84.2703972,"address":"13085 Hwy 9 North, Milton GA","chain_name":null,"distance":0},{"name":"Bath & Body Works","code":null,"latitude":33.2150782,"longitude":-96.6372772,"address":"1751 N Central Expressway, Mckinney TX","chain_name":null,"distance":0},{"name":"Bath & Body Works","code":null,"latitude":39.766304,"longitude":-86.159322,"address":"49 W Maryland St, Indianapolis IN","chain_name":null,"distance":0},{"name":"Bath & Body Works","code":null,"latitude":43.3706241,"longitude":-80.9447903,"address":"1067 Ontario St, Stratford ON","chain_name":null,"distance":0},{"name":"Bath & Body Works","code":null,"latitude":39.7769065,"longitude":-94.8031428,"address":"3702 Fredrick Blvd, St. Joseph MO","chain_name":null,"distance":0},{"name":"Bath & Body Works","code":null,"latitude":33.6112478,"longitude":-86.8521486,"address":"Walker Chapel Hill Rd, Fultondale AL","chain_name":null,"distance":0},{"name":"Bath & Body Works","code":null,"latitude":43.2228997,"longitude":-71.486497,"address":"270 Loudon Rd, Concord NH","chain_name":null,"distance":0},{"name":"Bath & Body Works","code":null,"latitude":33.610481,"longitude":-117.7077792,"address":"24155 Laguna Hills Mall, Laguna Hills CA","chain_name":null,"distance":0},{"name":"Bath & Body Works","code":null,"latitude":42.4873658,"longitude":-83.0064269,"address":"26297 Hoover Rd, Warren MI","chain_name":null,"distance":0},{"name":"Bath & Body Works","code":null,"latitude":44.8618913,"longitude":-93.4852431,"address":"2020 Eden Prairie Court, Eden Prairie MN","chain_name":null,"distance":0},{"name":"Bath & Body Works","code":null,"latitude":33.1008116,"longitude":-96.6903459,"address":"816 W Mcdermott Dr, Allen TX","chain_name":null,"distance":0},{"name":"Bath & Body Works","code":null,"latitude":42.508483,"longitude":-83.7551091,"address":"9670 Village Place Blvd Space #E-10, Brighton MI","chain_name":null,"distance":0},{"name":"Bath & Body Works","code":null,"latitude":40.9741237,"longitude":-90.3910641,"address":"1150 W Carl Sandburg Rd, Galesburg IL","chain_name":null,"distance":0},{"name":"Bath & Body Works","code":null,"latitude":41.6837416,"longitude":-86.9023626,"address":"450 St John Rd, Michigan City IN","chain_name":null,"distance":0},{"name":"Bath & Body Works","code":null,"latitude":29.9815649,"longitude":-95.5097883,"address":"5307 Fm 1960 W, Houston TX","chain_name":null,"distance":0},{"name":"Bath & Body Works","code":null,"latitude":40.1394013,"longitude":-74.0619021,"address":"2150 State Hwy 35, Sea Girt NJ","chain_name":null,"distance":0},{"name":"Bath & Body Works","code":null,"latitude":49.2823058,"longitude":-123.1180283,"address":"6551 No. 3 Road, Vancouver BC","chain_name":null,"distance":0},{"name":"Bath & Body Works","code":null,"latitude":41.4599769,"longitude":-81.6906822,"address":"3425 Steelyard Dr, Cleveland OH","chain_name":null,"distance":0},{"name":"Bath & Body Works","code":null,"latitude":39.7346151,"longitude":-105.1594609,"address":"14500 W Colfax Ave, Lakewood CO","chain_name":null,"distance":0},{"name":"Bath & Body Works","code":null,"latitude":39.9184504,"longitude":-88.9622984,"address":"1360 Hickory Point Mall, Forsyth IL","chain_name":null,"distance":0},{"name":"Bath & Body Works","code":null,"latitude":39.10263,"longitude":-84.277526,"address":"4601 Egate Blvd, Cincinnati OH","chain_name":null,"distance":0},{"name":"Bath & Body Works","code":null,"latitude":40.6738217,"longitude":-80.3129329,"address":"250 Beaver Valley Mall, Monaca PA","chain_name":null,"distance":0},{"name":"Bath & Body Works","code":null,"latitude":41.0318165,"longitude":-73.7708169,"address":"100 Main St, White Plains NY","chain_name":null,"distance":0},{"name":"Bath & Body Works","code":null,"latitude":43.2046835,"longitude":-77.6955492,"address":"456 Greece Ridge Center Dr, Rochester NY","chain_name":null,"distance":0},{"name":"Bath & Body Works","code":null,"latitude":41.642658,"longitude":-85.933565,"address":"3701 S Main St, Elkhart IN","chain_name":null,"distance":0},{"name":"Bath & Body Works","code":null,"latitude":28.5531703,"longitude":-81.3481729,"address":"2774 E Colonial Dr, Orlando FL","chain_name":null,"distance":0},{"name":"Bath & Body Works","code":null,"latitude":37.531429,"longitude":-122.2702105,"address":"401 Sland, Hayward CA","chain_name":null,"distance":0},{"name":"Bath & Body Works","code":null,"latitude":39.0752276,"longitude":-94.5838878,"address":"2450 Grand Ave, Kansas City MO","chain_name":null,"distance":0},{"name":"Bath & Body Works","code":null,"latitude":35.6956025,"longitude":-85.7470811,"address":"1410 Sparta Rd, Mc Minnville TN","chain_name":null,"distance":0},{"name":"Bath & Body Works","code":null,"latitude":40.7280345,"longitude":-74.0383309,"address":"30 Mall Dr W, Jersey City NJ","chain_name":null,"distance":0},{"name":"Bath & Body Works","code":null,"latitude":43.6176464,"longitude":-116.3544873,"address":"1400 N Eagle, Meridian ID","chain_name":null,"distance":0},{"name":"Bath & Body Works","code":null,"latitude":42.2439121,"longitude":-88.3195299,"address":"6126 A Nw Hwy, Crystal Lake IL","chain_name":null,"distance":0},{"name":"Bath & Body Works","code":null,"latitude":34.0720279,"longitude":-117.934644,"address":"2040 Plaza Dr, West Covina CA","chain_name":null,"distance":0},{"name":"Bath & Body Works","code":null,"latitude":32.508624,"longitude":-84.943628,"address":"3131 Manchester Expressway, Columbus GA","chain_name":null,"distance":0},{"name":"Bath & Body Works","code":null,"latitude":42.3834495,"longitude":-87.9551772,"address":"6170 W Grand Ave, Gurnee IL","chain_name":null,"distance":0},{"name":"Bath & Body Works","code":null,"latitude":41.1339391,"longitude":-81.6180811,"address":"3265 W Market St, Akron OH","chain_name":null,"distance":0},{"name":"Bath & Body Works","code":null,"latitude":34.637776,"longitude":-79.006765,"address":"2800 N Elm St, Lumberton NC","chain_name":null,"distance":0},{"name":"Bath & Body Works","code":null,"latitude":26.494706,"longitude":-81.973876,"address":"20350 Summerlin Rd, Fort Myers FL","chain_name":null,"distance":0},{"name":"Bath & Body Works","code":null,"latitude":33.7254791,"longitude":-117.7948406,"address":"2785 El Camino Real, Tustin CA","chain_name":null,"distance":0},{"name":"Bath & Body Works","code":null,"latitude":43.5930411,"longitude":-79.642797,"address":"100 City Centre Drive, Mississauga ON","chain_name":null,"distance":0},{"name":"Bath & Body Works","code":null,"latitude":43.8370348,"longitude":-79.0886747,"address":"1355 Kingston Road, Pickering ON","chain_name":null,"distance":0},{"name":"Bath & Body Works","code":null,"latitude":34.544936,"longitude":-83.543619,"address":"2160 Hwy 441 N, Cornelia GA","chain_name":null,"distance":0},{"name":"Bath & Body Works","code":null,"latitude":39.07588,"longitude":-76.542753,"address":"575 Ritchie Hwy, Severna Park MD","chain_name":null,"distance":0},{"name":"Bath & Body Works","code":null,"latitude":51.291203,"longitude":-113.980255,"address":"261055 CrossIron Blvd, Calgary AB","chain_name":null,"distance":0},{"name":"Bath & Body Works","code":null,"latitude":39.619479,"longitude":-83.602633,"address":"8155 Factory Shops Blvd Nw, Jeffersonville OH","chain_name":null,"distance":0},{"name":"Bath & Body Works","code":null,"latitude":38.9564142,"longitude":-94.7176237,"address":"11715 W 95th St, Overland Park KS","chain_name":null,"distance":0},{"name":"Bath & Body Works","code":null,"latitude":41.996918,"longitude":-72.5823813,"address":"90 Elm St, Enfield CT","chain_name":null,"distance":0},{"name":"Bath & Body Works","code":null,"latitude":35.338236,"longitude":-119.034423,"address":"2701 Ming Ave, Bakersfield CA","chain_name":null,"distance":0},{"name":"Bath & Body Works","code":null,"latitude":39.7368936,"longitude":-75.6260817,"address":"3220-A Kirkwood Hwy, Wilmington DE","chain_name":null,"distance":0},{"name":"Bath & Body Works","code":null,"latitude":32.6294881,"longitude":-117.0877137,"address":"555 Brdway, Chula Vista CA","chain_name":null,"distance":0},{"name":"Bath & Body Works","code":null,"latitude":41.114916,"longitude":-81.46867,"address":"2000 Brittain Rd, Akron OH","chain_name":null,"distance":0},{"name":"Bath & Body Works","code":null,"latitude":33.5597871,"longitude":-85.0763333,"address":"1109 S Park St, Carrollton GA","chain_name":null,"distance":0},{"name":"Bath & Body Works","code":null,"latitude":33.9933257,"longitude":-118.3987842,"address":"147 Fox Hills Mall, Culver City CA","chain_name":null,"distance":0},{"name":"Bath & Body Works","code":null,"latitude":36.8085085,"longitude":-119.8047195,"address":"734 B Shaw Ave, Fresno CA","chain_name":null,"distance":0},{"name":"Bath & Body Works","code":null,"latitude":39.8773217,"longitude":-83.0395179,"address":"4160 Buckeye Parkway, Grove City OH","chain_name":null,"distance":0},{"name":"Bath & Body Works","code":null,"latitude":40.9816099,"longitude":-76.0164197,"address":"267 Laurel Mall, Hazleton PA","chain_name":null,"distance":0},{"name":"Bath & Body Works","code":null,"latitude":36.3090641,"longitude":-119.313903,"address":"2201 South Mooney, Visalia CA","chain_name":null,"distance":0},{"name":"Bath & Body Works","code":null,"latitude":38.6014025,"longitude":-121.4277649,"address":"1689 Arden Way, Sacramento CA","chain_name":null,"distance":0},{"name":"Bath & Body Works","code":null,"latitude":32.9419661,"longitude":-97.1307217,"address":"185 Grand Ave, Southlake TX","chain_name":null,"distance":0},{"name":"Bath & Body Works","code":null,"latitude":41.5506339,"longitude":-72.8036082,"address":"470 Lewis Ave, Meriden CT","chain_name":null,"distance":0},{"name":"Bath & Body Works","code":null,"latitude":44.9419844,"longitude":-122.985087,"address":"831 Lancaster Dr NE, Salem OR","chain_name":null,"distance":0},{"name":"Bath & Body Works","code":null,"latitude":42.4018059,"longitude":-71.0698799,"address":"14 Mistic View Rd 14, Everett MA","chain_name":null,"distance":0},{"name":"Bath & Body Works","code":null,"latitude":34.129702,"longitude":-118.64739,"address":"6600 Topanga Plaza Canyon Blvd, Canoga Park CA","chain_name":null,"distance":0},{"name":"Bath & Body Works","code":null,"latitude":39.829273,"longitude":-75.0979739,"address":"1750 Deptford Center Dr, Deptford NJ","chain_name":null,"distance":0},{"name":"Bath & Body Works","code":null,"latitude":39.7751492,"longitude":-85.9867322,"address":"10202 E Washington St, Indianapolis IN","chain_name":null,"distance":0},{"name":"Bath & Body Works","code":null,"latitude":41.4656296,"longitude":-74.4502459,"address":"470 State Rt 211 E, Middletown NY","chain_name":null,"distance":0},{"name":"Bath & Body Works","code":null,"latitude":32.6804745,"longitude":-97.1095015,"address":"3900 Arlington Highlands Blvd, Arlington TX","chain_name":null,"distance":0},{"name":"Bath & Body Works","code":null,"latitude":29.7757458,"longitude":-95.8093698,"address":"5000 Katy Mills Circle, Katy TX","chain_name":null,"distance":0},{"name":"Bath & Body Works","code":null,"latitude":33.3946182,"longitude":-84.5913456,"address":"212 City Circle, Peachtree City GA","chain_name":null,"distance":0},{"name":"Bath & Body Works","code":null,"latitude":41.4588267,"longitude":-82.0169264,"address":"35876 Detroit Rd, Avon OH","chain_name":null,"distance":0},{"name":"Bath & Body Works","code":null,"latitude":41.0992875,"longitude":-73.9557622,"address":"1652 Palisades Center Dr, West Nyack NY","chain_name":null,"distance":0},{"name":"Bath & Body Works","code":null,"latitude":42.2449483,"longitude":-88.9756038,"address":"7200 Harrison Ave, Rockford IL","chain_name":null,"distance":0},{"name":"Bath & Body Works","code":null,"latitude":34.7433381,"longitude":-86.6590661,"address":"5901 University Square, Huntsville AL","chain_name":null,"distance":0},{"name":"Bath & Body Works","code":null,"latitude":40.9608399,"longitude":-74.243337,"address":"1210 Paterson Hamburg Turnpike, Wayne NJ","chain_name":null,"distance":0},{"name":"Bath & Body Works","code":null,"latitude":34.2503,"longitude":-83.4728,"address":"800 Steven B Tanger Blvd, Commerce GA","chain_name":null,"distance":0},{"name":"Bath & Body Works","code":null,"latitude":45.4772448,"longitude":-75.6987066,"address":"1100, boul Maloney O, Gatineau QC","chain_name":null,"distance":0},{"name":"Bath & Body Works","code":null,"latitude":27.7218102,"longitude":-97.3894772,"address":"1154 La Palmera Mall, Corpus Christi TX","chain_name":null,"distance":0},{"name":"Bath & Body Works","code":null,"latitude":40.410497,"longitude":-104.9878024,"address":"5879 Sky Pond Dr, Loveland CO","chain_name":null,"distance":0},{"name":"Bath & Body Works","code":null,"latitude":32.9662936,"longitude":-97.0425705,"address":"3000 Grapevine Mills Pkwy, Grapevine TX","chain_name":null,"distance":0},{"name":"Bath & Body Works","code":null,"latitude":40.7606416,"longitude":-73.9174904,"address":"31-21 Steinway St, Astoria NY","chain_name":null,"distance":0},{"name":"Bath & Body Works","code":null,"latitude":41.9213551,"longitude":-88.267504,"address":"3802 E Main St, St. Charles IL","chain_name":null,"distance":0},{"name":"Bath & Body Works","code":null,"latitude":33.9695921,"longitude":-84.020147,"address":"875 Lawrenceville-Suwanee Rd, Lawrenceville GA","chain_name":null,"distance":0},{"name":"Bath & Body Works","code":null,"latitude":26.163286,"longitude":-97.8881509,"address":"5001 East Expressway 83, Mercedes TX","chain_name":null,"distance":0},{"name":"Bath & Body Works","code":null,"latitude":36.805234,"longitude":-119.695742,"address":"1050 Shaw Ave, Clovis CA","chain_name":null,"distance":0},{"name":"Bath & Body Works","code":null,"latitude":39.454204,"longitude":-74.643297,"address":"4403 Black Horse Pike, Mays Landing NJ","chain_name":null,"distance":0},{"name":"Bath & Body Works","code":null,"latitude":41.9540673,"longitude":-70.7173761,"address":"164 Colony Place, Plymouth MA","chain_name":null,"distance":0},{"name":"Bath & Body Works","code":null,"latitude":42.5770791,"longitude":-70.8905989,"address":"57 Dodge St, Beverly MA","chain_name":null,"distance":0},{"name":"Bath & Body Works","code":null,"latitude":33.100567,"longitude":-96.111225,"address":"6834 Wesley St, Greenville TX","chain_name":null,"distance":0},{"name":"Bath & Body Works","code":null,"latitude":43.18703,"longitude":-76.223929,"address":"4155 Rt 31, Clay NY","chain_name":null,"distance":0},{"name":"Bath & Body Works","code":null,"latitude":42.3532442,"longitude":-71.6156977,"address":"601 Donald-Lynch Blvd, Marlborough MA","chain_name":null,"distance":0},{"name":"Bath & Body Works","code":null,"latitude":40.7780564,"longitude":-73.7781146,"address":"211-53 26th Ave, Bayside NY","chain_name":null,"distance":0},{"name":"Bath & Body Works","code":null,"latitude":39.917402,"longitude":-82.886214,"address":"2747 Eastland Mall, Columbus OH","chain_name":null,"distance":0},{"name":"Bath & Body Works","code":null,"latitude":39.9265415,"longitude":-82.8311784,"address":"2688 Brice Rd, Reynoldsburg OH","chain_name":null,"distance":0},{"name":"Bath & Body Works","code":null,"latitude":40.0416285,"longitude":-74.8258209,"address":"2501 Burlington-Mt Holly Rd, Burlington NJ","chain_name":null,"distance":0},{"name":"Bath & Body Works","code":null,"latitude":28.2949008,"longitude":-80.6659842,"address":"183 Merritt Square Mall, Merritt Island FL","chain_name":null,"distance":0},{"name":"Bath & Body Works","code":null,"latitude":36.1663346,"longitude":-86.511644,"address":"401 S Mount Juliet Rd. Ste 540, Mount Juliet TN","chain_name":null,"distance":0},{"name":"Bath & Body Works","code":null,"latitude":43.809292,"longitude":-79.453082,"address":"1 Promenade Circle, Thornhill ON","chain_name":null,"distance":0},{"name":"Bath & Body Works","code":null,"latitude":29.159777,"longitude":-82.174012,"address":"3100 College Rd, Ocala FL","chain_name":null,"distance":0},{"name":"Bath & Body Works","code":null,"latitude":37.021743,"longitude":-121.561108,"address":"8300-110 Arroyo Circle, Gilroy CA","chain_name":null,"distance":0},{"name":"Bath & Body Works","code":null,"latitude":43.0971282,"longitude":-78.9751791,"address":"1900 Military Rd, Niagara Falls NY","chain_name":null,"distance":0},{"name":"Bath & Body Works","code":null,"latitude":40.0315638,"longitude":-82.4432458,"address":"771 S 30th St, Heath OH","chain_name":null,"distance":0},{"name":"Bath & Body Works","code":null,"latitude":37.2536598,"longitude":-121.8609038,"address":"152 Oakridge Mall, San Jose CA","chain_name":null,"distance":0},{"name":"Bath & Body Works","code":null,"latitude":28.2945458,"longitude":-82.7114273,"address":"9409 US Hwy 19, Port Richey FL","chain_name":null,"distance":0},{"name":"Bath & Body Works","code":null,"latitude":40.8140059,"longitude":-96.6422017,"address":"290 Gateway Mall, Lincoln NE","chain_name":null,"distance":0},{"name":"Bath & Body Works","code":null,"latitude":39.3535947,"longitude":-84.3615254,"address":"7608 Voice Of America Centre Dr, West Chester OH","chain_name":null,"distance":0},{"name":"Bath & Body Works","code":null,"latitude":33.508156,"longitude":-81.7142779,"address":"2441 Whiskey Rd S, Aiken SC","chain_name":null,"distance":0},{"name":"Bath & Body Works","code":null,"latitude":40.15013,"longitude":-84.224974,"address":"987 E Ash St, Piqua OH","chain_name":null,"distance":0},{"name":"Bath & Body Works","code":null,"latitude":42.0119878,"longitude":-87.7721833,"address":"5768 Touhy Ave, Niles IL","chain_name":null,"distance":0},{"name":"Bath & Body Works","code":null,"latitude":36.1126992,"longitude":-79.8790097,"address":"1604 Highwoods Blvd, Greensboro NC","chain_name":null,"distance":0},{"name":"Bath & Body Works","code":null,"latitude":30.256213,"longitude":-97.810013,"address":"2901 Capitol Of Texas Hwy, Austin TX","chain_name":null,"distance":0},{"name":"Bath & Body Works","code":null,"latitude":33.4329724,"longitude":-111.9043028,"address":"2000 E Rio Salado Pkwy, Tempe AZ","chain_name":null,"distance":0},{"name":"Bath & Body Works","code":null,"latitude":33.5752694,"longitude":-84.348268,"address":"2417 Southlake Mall, Morrow GA","chain_name":null,"distance":0},{"name":"Bath & Body Works","code":null,"latitude":44.9372625,"longitude":-93.3841695,"address":"8332 Hwy 7, St. Louis Park MN","chain_name":null,"distance":0},{"name":"Bath & Body Works","code":null,"latitude":40.160574,"longitude":-80.2754909,"address":"1500 W Chestnut St, Washington PA","chain_name":null,"distance":0},{"name":"Bath & Body Works","code":null,"latitude":36.588383,"longitude":-87.287718,"address":"2801 Wilma Rudolph Blvd, Clarksville TN","chain_name":null,"distance":0},{"name":"Bath & Body Works","code":null,"latitude":40.3802405,"longitude":-75.9274281,"address":"3050 N 5th St Hwy, Reading PA","chain_name":null,"distance":0},{"name":"Bath & Body Works","code":null,"latitude":28.666783,"longitude":-81.3773525,"address":"451 Altamonte Ave, Altamonte Springs FL","chain_name":null,"distance":0},{"name":"Bath & Body Works","code":null,"latitude":41.5997335,"longitude":-87.7939271,"address":"16035 S Harlem Ave, Tinley Park IL","chain_name":null,"distance":0},{"name":"Bath & Body Works","code":null,"latitude":34.0631329,"longitude":-117.4318749,"address":"17030 Slover Ave, Fontana CA","chain_name":null,"distance":0},{"name":"Bath & Body Works","code":null,"latitude":32.8667664,"longitude":-96.7709193,"address":"924 N park Center, Dallas TX","chain_name":null,"distance":0},{"name":"Bath & Body Works","code":null,"latitude":33.8984165,"longitude":-118.3959107,"address":"3200 SEpulveda Blvd, Manhattan Beach CA","chain_name":null,"distance":0},{"name":"Bath & Body Works","code":null,"latitude":38.634814,"longitude":-121.505927,"address":"3651 Truxel Rd, Sacramento CA","chain_name":null,"distance":0},{"name":"Bath & Body Works","code":null,"latitude":40.2553757,"longitude":-74.3000984,"address":"3710 Route 9, Freehold NJ","chain_name":null,"distance":0},{"name":"Bath & Body Works","code":null,"latitude":43.103125,"longitude":-77.540954,"address":"3349 Monroe Ave, Rochester NY","chain_name":null,"distance":0},{"name":"Bath & Body Works","code":null,"latitude":40.6698094,"longitude":-74.4798789,"address":"977 Valley Rd, Gillette NJ","chain_name":null,"distance":0},{"name":"Bath & Body Works","code":null,"latitude":39.8719429,"longitude":-84.1374963,"address":"8289 Old Troy Pike, Huber Heights OH","chain_name":null,"distance":0},{"name":"Bath & Body Works","code":null,"latitude":35.1783543,"longitude":-79.4300567,"address":"22 Pine Crest Plaza, Southern Pines NC","chain_name":null,"distance":0},{"name":"Bath & Body Works","code":null,"latitude":35.096302,"longitude":-80.785181,"address":"3339 Pineville Matthews Rd, Charlotte NC","chain_name":null,"distance":0},{"name":"Bath & Body Works","code":null,"latitude":35.0981296,"longitude":-106.7078532,"address":"1000 Coors Blvd, Albuquerque NM","chain_name":null,"distance":0},{"name":"Bath & Body Works","code":null,"latitude":41.597501,"longitude":-93.749512,"address":"1551 Valley W Dr, West Des Moines IA","chain_name":null,"distance":0},{"name":"Bath & Body Works","code":null,"latitude":41.3823999,"longitude":-81.740015,"address":"7797 W Ridgewood Dr, Parma OH","chain_name":null,"distance":0},{"name":"Bath & Body Works","code":null,"latitude":39.636909,"longitude":-84.220129,"address":"2700 Miamisburg-Centerville Rd, Dayton OH","chain_name":null,"distance":0},{"name":"Bath & Body Works","code":null,"latitude":38.85694,"longitude":-94.82665,"address":"20700 W 151St St, Olathe KS","chain_name":null,"distance":0},{"name":"Bath & Body Works","code":null,"latitude":39.9109352,"longitude":-79.7456654,"address":"1368 W Main St, Uniontown PA","chain_name":null,"distance":0},{"name":"Bath & Body Works","code":null,"latitude":36.8084467,"longitude":-119.7763334,"address":"645 E Shaw Ave, Fresno CA","chain_name":null,"distance":0},{"name":"Bath & Body Works","code":null,"latitude":41.6537175,"longitude":-87.7393067,"address":"4841 W Cal-Sag Rd, Crestwood IL","chain_name":null,"distance":0},{"name":"Bath & Body Works","code":null,"latitude":46.859647,"longitude":-96.843706,"address":"3902 13th Ave S, Fargo ND","chain_name":null,"distance":0},{"name":"Bath & Body Works","code":null,"latitude":40.7429327,"longitude":-96.6788399,"address":"2940 Pine Lake Rd, Lincoln NE","chain_name":null,"distance":0},{"name":"Bath & Body Works","code":null,"latitude":44.879867,"longitude":-93.326358,"address":"2800 Southdale Center, Edina MN","chain_name":null,"distance":0},{"name":"Bath & Body Works","code":null,"latitude":35.2064693,"longitude":-84.8479408,"address":"200 Paul Huff Pkwy, Cleveland TN","chain_name":null,"distance":0},{"name":"Bath & Body Works","code":null,"latitude":37.720287,"longitude":-97.242613,"address":"2000 N Rock Rd, Wichita KS","chain_name":null,"distance":0},{"name":"Bath & Body Works","code":null,"latitude":32.526673,"longitude":-93.703178,"address":"2950 E Texas St, Bossier City LA","chain_name":null,"distance":0},{"name":"Bath & Body Works","code":null,"latitude":38.967384,"longitude":-94.606619,"address":"8600 Ward Pkwy, Kansas City MO","chain_name":null,"distance":0},{"name":"Bath & Body Works","code":null,"latitude":42.3042536,"longitude":-73.2481616,"address":"50 Water St Rte 20 E, Lee MA","chain_name":null,"distance":0},{"name":"Bath & Body Works","code":null,"latitude":34.2824026,"longitude":-118.7976408,"address":"1555 Simi Valley Town Center, Simi Valley CA","chain_name":null,"distance":0},{"name":"Bath & Body Works","code":null,"latitude":44.9593105,"longitude":-124.012401,"address":"1500 SE E Devils Lake Rd, Lincoln City OR","chain_name":null,"distance":0},{"name":"Bath & Body Works","code":null,"latitude":39.1674005,"longitude":-75.4577775,"address":"3045 Dover Mall, Dover DE","chain_name":null,"distance":0},{"name":"Bath & Body Works","code":null,"latitude":32.5467369,"longitude":-84.9441259,"address":"5555 Whittlesey Blvd, Columbus GA","chain_name":null,"distance":0},{"name":"Bath & Body Works","code":null,"latitude":42.7126958,"longitude":-89.0013416,"address":"2500 Milton Ave, Janesville WI","chain_name":null,"distance":0},{"name":"Bath & Body Works","code":null,"latitude":39.95435,"longitude":-83.0953633,"address":"3658 Soldano Blvd, Columbus OH","chain_name":null,"distance":0},{"name":"Bath & Body Works","code":null,"latitude":41.819528,"longitude":-80.893321,"address":"3315 Northridge East, Ashtabula OH","chain_name":null,"distance":0},{"name":"Bath & Body Works","code":null,"latitude":32.290562,"longitude":-110.973005,"address":"4500 N Oracle, Tucson AZ","chain_name":null,"distance":0},{"name":"Bath & Body Works","code":null,"latitude":39.968181,"longitude":-82.7705445,"address":"2829 Taylor Rd SW, Reynoldsburg OH","chain_name":null,"distance":0},{"name":"Bath & Body Works","code":null,"latitude":37.9884708,"longitude":-84.5250693,"address":"3493 Nicholasville Rd, Lexington KY","chain_name":null,"distance":0},{"name":"Bath & Body Works","code":null,"latitude":34.706094,"longitude":-86.586381,"address":"2801 Memorial Pkwy S, Huntsville AL","chain_name":null,"distance":0},{"name":"Bath & Body Works","code":null,"latitude":28.485565,"longitude":-81.4315497,"address":"4200 Conroy Rd, Orlando FL","chain_name":null,"distance":0},{"name":"Bath & Body Works","code":null,"latitude":33.8717412,"longitude":-118.3545789,"address":"1815 Hawthorn Blvd, Redondo Beach CA","chain_name":null,"distance":0},{"name":"Bath & Body Works","code":null,"latitude":42.4611316,"longitude":-71.0245585,"address":"1277 Brdway, Saugus MA","chain_name":null,"distance":0},{"name":"Bath & Body Works","code":null,"latitude":42.1992865,"longitude":-83.1909845,"address":"13697 E Eureka Rd, Southgate MI","chain_name":null,"distance":0},{"name":"Bath & Body Works","code":null,"latitude":36.230859,"longitude":-119.33545,"address":"1459 Retherford St, Tulare CA","chain_name":null,"distance":0},{"name":"Bath & Body Works","code":null,"latitude":40.3030556,"longitude":-74.7369444,"address":"113 Quakerbridge Mall, Lawrenceville NJ","chain_name":null,"distance":0},{"name":"Bath & Body Works","code":null,"latitude":43.0363994,"longitude":-82.45368,"address":"4350 24th Ave, Port Huron MI","chain_name":null,"distance":0},{"name":"Bath & Body Works","code":null,"latitude":43.5140951,"longitude":-96.7744446,"address":"570 Empire Mall, Sioux Falls SD","chain_name":null,"distance":0},{"name":"Bath & Body Works","code":null,"latitude":36.3279757,"longitude":-119.6714769,"address":"1675 West Lacey Blvd, Hanford CA","chain_name":null,"distance":0},{"name":"Bath & Body Works","code":null,"latitude":34.2313732,"longitude":-119.1753576,"address":"171 Esplanade Shopping Center, Oxnard CA","chain_name":null,"distance":0},{"name":"Bath & Body Works","code":null,"latitude":39.951286,"longitude":-83.851728,"address":"1475 Upper Valley Pike, Springfield OH","chain_name":null,"distance":0},{"name":"Bath & Body Works","code":null,"latitude":43.1317845,"longitude":-77.6873258,"address":"2028 Chili Ave, Rochester NY","chain_name":null,"distance":0},{"name":"Bath & Body Works","code":null,"latitude":29.787108,"longitude":-95.7870655,"address":"303 Memorial City Mall, Houston TX","chain_name":null,"distance":0},{"name":"Bath & Body Works","code":null,"latitude":39.766882,"longitude":-84.0578911,"address":"2727 Fairfield Commons Rd, Beavercreek OH","chain_name":null,"distance":0},{"name":"Bath & Body Works","code":null,"latitude":41.3801485,"longitude":-73.4755107,"address":"7 Backus Ave, Danbury CT","chain_name":null,"distance":0},{"name":"Bath & Body Works","code":null,"latitude":33.0309514,"longitude":-96.8329963,"address":"6121 West Park Blvd, Plano TX","chain_name":null,"distance":0},{"name":"Bath & Body Works","code":null,"latitude":32.679345,"longitude":-97.129586,"address":"3811 S Cooper St, Arlington TX","chain_name":null,"distance":0},{"name":"Bath & Body Works","code":null,"latitude":33.7923113,"longitude":-84.3952475,"address":"230 18th St, Atlanta GA","chain_name":null,"distance":0},{"name":"Bath & Body Works","code":null,"latitude":30.186051,"longitude":-81.554019,"address":"10300 Sside Blvd, Jacksonville FL","chain_name":null,"distance":0},{"name":"Bath & Body Works","code":null,"latitude":39.9139914,"longitude":-75.4333635,"address":"1067 W Baltimore Pike, Media PA","chain_name":null,"distance":0},{"name":"Bath & Body Works","code":null,"latitude":32.185147,"longitude":-80.721831,"address":"24 Shelter Cove Ln, Hilton Head Island SC","chain_name":null,"distance":0},{"name":"Bath & Body Works","code":null,"latitude":34.087243,"longitude":-117.6902891,"address":"2050 Montclair Plaza, Montclair CA","chain_name":null,"distance":0},{"name":"Bath & Body Works","code":null,"latitude":26.1674484,"longitude":-81.7989605,"address":"1770 Tamiami Trail, Naples FL","chain_name":null,"distance":0},{"name":"Bath & Body Works","code":null,"latitude":30.3892503,"longitude":-91.0878111,"address":"6401 Bluebonnet Blvd, Baton Rouge LA","chain_name":null,"distance":0},{"name":"Bath & Body Works","code":null,"latitude":32.7279625,"longitude":-97.3612417,"address":"1604 S University Dr, Fort Worth TX","chain_name":null,"distance":0},{"name":"Bath & Body Works","code":null,"latitude":30.2308541,"longitude":-97.7990699,"address":"4477 S Lamar Blvd, Austin TX","chain_name":null,"distance":0},{"name":"Bath & Body Works","code":null,"latitude":41.0025767,"longitude":-81.9961965,"address":"9911 Avon Lake Rd, Burbank OH","chain_name":null,"distance":0},{"name":"Bath & Body Works","code":null,"latitude":32.4604814,"longitude":-86.4178424,"address":"1929 Cobbs Ford Rd, Prattville AL","chain_name":null,"distance":0},{"name":"Bath & Body Works","code":null,"latitude":39.8853322,"longitude":-104.9903794,"address":"361 W 104th Ave, Northglenn CO","chain_name":null,"distance":0},{"name":"Bath & Body Works","code":null,"latitude":38.7735899,"longitude":-121.2694671,"address":"1151 Galleria Blvd, Roseville CA","chain_name":null,"distance":0},{"name":"Bath & Body Works","code":null,"latitude":30.0036428,"longitude":-90.156143,"address":"3301 Veterans Memorial Blvd, Metairie LA","chain_name":null,"distance":0},{"name":"Bath & Body Works","code":null,"latitude":42.4974072,"longitude":-73.2038168,"address":"Old State Route 8, Lanesborough MA","chain_name":null,"distance":0},{"name":"Bath & Body Works","code":null,"latitude":40.4783,"longitude":-81.437819,"address":"400 Mill Ave SE, New Philadelphia OH","chain_name":null,"distance":0},{"name":"Bath & Body Works","code":null,"latitude":43.0773079,"longitude":-75.3090017,"address":"Route 5 - 5A, New Hartford NY","chain_name":null,"distance":0},{"name":"Bath & Body Works","code":null,"latitude":39.8050953,"longitude":-85.769618,"address":"1521 N State St, Greenfield IN","chain_name":null,"distance":0},{"name":"Bath & Body Works","code":null,"latitude":33.6396372,"longitude":-112.2257386,"address":"7700 W Arrowhead Towne Center, Glendale AZ","chain_name":null,"distance":0},{"name":"Bath & Body Works","code":null,"latitude":33.8792629,"longitude":-84.4715069,"address":"1145 Cumberland Mall, Atlanta GA","chain_name":null,"distance":0},{"name":"Bath & Body Works","code":null,"latitude":38.5852928,"longitude":-92.2542104,"address":"3600 Country Club Dr, Jefferson City MO","chain_name":null,"distance":0},{"name":"Bath & Body Works","code":null,"latitude":31.9124715,"longitude":-106.583285,"address":"7051 Sdesert Blvd, El Paso TX","chain_name":null,"distance":0},{"name":"Bath & Body Works","code":null,"latitude":37.3270518,"longitude":-87.4806901,"address":"455 Madison Square Dr, Madisonville KY","chain_name":null,"distance":0},{"name":"Bath & Body Works","code":null,"latitude":33.4471695,"longitude":-86.7312635,"address":"209 Summit Blvd, Birmingham AL","chain_name":null,"distance":0},{"name":"Bath & Body Works","code":null,"latitude":39.9907408,"longitude":-83.1517952,"address":"1910 Hilliard-Rome Rd, Columbus OH","chain_name":null,"distance":0},{"name":"Bath & Body Works","code":null,"latitude":40.7732833,"longitude":-73.5312334,"address":"535 Brdway Mall, Hicksville NY","chain_name":null,"distance":0},{"name":"Bath & Body Works","code":null,"latitude":34.146654,"longitude":-118.259196,"address":"1105 Glendale Galleria, Glendale CA","chain_name":null,"distance":0},{"name":"Bath & Body Works","code":null,"latitude":50.996067,"longitude":-114.073148,"address":"6455 Macleod Trail South, Calgary AB","chain_name":null,"distance":0},{"name":"Bath & Body Works","code":null,"latitude":42.069859,"longitude":-80.096677,"address":"5800 Peach St, Erie PA","chain_name":null,"distance":0},{"name":"Bath & Body Works","code":null,"latitude":33.7802567,"longitude":-111.9257475,"address":"32421 N Scottsdale Rd, Scottsdale AZ","chain_name":null,"distance":0},{"name":"Bath & Body Works","code":null,"latitude":39.6194935,"longitude":-84.159788,"address":"1041 S Main St, Centerville OH","chain_name":null,"distance":0},{"name":"Bath & Body Works","code":null,"latitude":42.299748,"longitude":-71.8022863,"address":"7 NEponset St, Worcester MA","chain_name":null,"distance":0},{"name":"Bath & Body Works","code":null,"latitude":41.973631,"longitude":-70.712214,"address":"Independence Mall Way, Kingston MA","chain_name":null,"distance":0},{"name":"Bath & Body Works","code":null,"latitude":30.6316985,"longitude":-97.6943167,"address":"1019 W University Ave, Georgetown TX","chain_name":null,"distance":0},{"name":"Bath & Body Works","code":null,"latitude":34.8030992,"longitude":-92.2482705,"address":"3929 Mc Cain Blvd, N. Little Rock AR","chain_name":null,"distance":0},{"name":"Bath & Body Works","code":null,"latitude":33.852585,"longitude":-118.140517,"address":"301 Lakewood Center, Lakewood CA","chain_name":null,"distance":0},{"name":"Bath & Body Works","code":null,"latitude":34.183478,"longitude":-118.312247,"address":"201 East Magnolia, Burbank CA","chain_name":null,"distance":0},{"name":"Bath & Body Works","code":null,"latitude":38.7744711,"longitude":-121.2656019,"address":"1240 Galleria Blvd, Roseville CA","chain_name":null,"distance":0},{"name":"Bath & Body Works","code":null,"latitude":31.9822737,"longitude":-81.1743649,"address":"14045 Abercorn Expressway, Savannah GA","chain_name":null,"distance":0},{"name":"Bath & Body Works","code":null,"latitude":41.2307065,"longitude":-96.1384401,"address":"3001 S 144th St, Omaha NE","chain_name":null,"distance":0},{"name":"Bath & Body Works","code":null,"latitude":38.5743589,"longitude":-121.4031491,"address":"2523 Fairoaks Blvd, Sacramento CA","chain_name":null,"distance":0},{"name":"Bath & Body Works","code":null,"latitude":42.8813303,"longitude":-70.8673377,"address":"270 Lafayette Rd, Seabrook NH","chain_name":null,"distance":0},{"name":"Bath & Body Works","code":null,"latitude":35.612151,"longitude":-97.561189,"address":"2501 W Memorial Dr, Oklahoma City OK","chain_name":null,"distance":0},{"name":"Bath & Body Works","code":null,"latitude":43.600821,"longitude":-116.599782,"address":"1509 Caldwell Blvd, Nampa ID","chain_name":null,"distance":0},{"name":"Bath & Body Works","code":null,"latitude":41.517576,"longitude":-74.071397,"address":"1401 Route 300, Newburgh NY","chain_name":null,"distance":0},{"name":"Bath & Body Works","code":null,"latitude":39.7065416,"longitude":-86.3592518,"address":"351 Metropolis Mile, Plainfield IN","chain_name":null,"distance":0},{"name":"Bath & Body Works","code":null,"latitude":42.0908135,"longitude":-71.4224715,"address":"70 Franklin Village Dr, Franklin MA","chain_name":null,"distance":0},{"name":"Bath & Body Works","code":null,"latitude":43.5140935,"longitude":-96.7745568,"address":"1210 Empire Mall, Sioux Falls SD","chain_name":null,"distance":0},{"name":"Bath & Body Works","code":null,"latitude":35.20115,"longitude":-89.791342,"address":"2760 N Germantown Pkwy, Memphis TN","chain_name":null,"distance":0},{"name":"Bath & Body Works","code":null,"latitude":40.4140073,"longitude":-79.9040916,"address":"131 East Waterfront Dr, Homestead PA","chain_name":null,"distance":0},{"name":"Bath & Body Works","code":null,"latitude":38.9860236,"longitude":-84.4032516,"address":"6827 Alexandria Pike, Alexandria KY","chain_name":null,"distance":0},{"name":"Bath & Body Works","code":null,"latitude":39.743816,"longitude":-104.991331,"address":"500 16th St, Denver CO","chain_name":null,"distance":0},{"name":"Bath & Body Works","code":null,"latitude":30.1802151,"longitude":-95.4557726,"address":"19075 Hwy I-45 S, Shenandoah TX","chain_name":null,"distance":0},{"name":"Bath & Body Works","code":null,"latitude":32.8370139,"longitude":-96.7765028,"address":"5331 E Mockingbird Ln, Dallas TX","chain_name":null,"distance":0},{"name":"Bath & Body Works","code":null,"latitude":33.3779402,"longitude":-86.8108286,"address":"2000-230 Riverchase Galleria, Hoover AL","chain_name":null,"distance":0},{"name":"Bath & Body Works","code":null,"latitude":42.097937,"longitude":-79.302269,"address":"318 E Fairmont Ave, Lakewood NY","chain_name":null,"distance":0},{"name":"Bath & Body Works","code":null,"latitude":37.981338,"longitude":-87.495694,"address":"800 N Green River Rd, Evansville IN","chain_name":null,"distance":0},{"name":"Bath & Body Works","code":null,"latitude":33.3057148,"longitude":-111.8962557,"address":"3111 W Chandler Blvd, Chandler AZ","chain_name":null,"distance":0},{"name":"Bath & Body Works","code":null,"latitude":42.7136722,"longitude":-83.033331,"address":"8570 - 26 Mile Rd, Shelby Township MI","chain_name":null,"distance":0},{"name":"Bath & Body Works","code":null,"latitude":40.560133,"longitude":-83.120906,"address":"1425-F Marion Waldo Rd, Marion OH","chain_name":null,"distance":0},{"name":"Bath & Body Works","code":null,"latitude":41.697339,"longitude":-83.641339,"address":"5001 Monroe St, Toledo OH","chain_name":null,"distance":0},{"name":"Bath & Body Works","code":null,"latitude":28.8227141,"longitude":-81.7848619,"address":"10401 US Hwy 441, Leesburg FL","chain_name":null,"distance":0},{"name":"Bath & Body Works","code":null,"latitude":41.0711411,"longitude":-85.1935491,"address":"4120 W Jefferson Blvd, Fort Wayne IN","chain_name":null,"distance":0},{"name":"Bath & Body Works","code":null,"latitude":43.4617715,"longitude":-79.6871404,"address":"240 Leighland Avenue, Oakville ON","chain_name":null,"distance":0},{"name":"Bath & Body Works","code":null,"latitude":43.0997063,"longitude":-70.8063015,"address":"50 Fox Run Rd, Newington NH","chain_name":null,"distance":0},{"name":"Bath & Body Works","code":null,"latitude":28.521713,"longitude":-81.58763,"address":"3251 Daniels Rd, Winter Garden FL","chain_name":null,"distance":0},{"name":"Bath & Body Works","code":null,"latitude":38.541101,"longitude":-121.741016,"address":"500 First St, Davis CA","chain_name":null,"distance":0},{"name":"Bath & Body Works","code":null,"latitude":38.3691111,"longitude":-121.957277,"address":"111 Nut Tree Rd, Vacaville CA","chain_name":null,"distance":0},{"name":"Bath & Body Works","code":null,"latitude":35.841844,"longitude":-78.681851,"address":"4325 Glenwood Ave, Raleigh NC","chain_name":null,"distance":0},{"name":"Bath & Body Works","code":null,"latitude":43.0814018,"longitude":-77.6314088,"address":"500 Mirace Mile Dr, Rochester NY","chain_name":null,"distance":0},{"name":"Bath & Body Works","code":null,"latitude":45.3525152,"longitude":-75.7604934,"address":"1980 Baseline Road, Ottawa ON","chain_name":null,"distance":0},{"name":"Bath & Body Works","code":null,"latitude":29.8529384,"longitude":-95.5119013,"address":"13740 Nw Freeway, Houston TX","chain_name":null,"distance":0},{"name":"Bath & Body Works","code":null,"latitude":38.456554,"longitude":-122.7271351,"address":"420 Coddingtown Center, Santa Rosa CA","chain_name":null,"distance":0},{"name":"Bath & Body Works","code":null,"latitude":27.551125,"longitude":-99.501392,"address":"5300 San Dario, Laredo TX","chain_name":null,"distance":0},{"name":"Bath & Body Works","code":null,"latitude":42.5627737,"longitude":-83.1313761,"address":"838 E Big Beaver Rd, Troy MI","chain_name":null,"distance":0},{"name":"Bath & Body Works","code":null,"latitude":32.713668,"longitude":-117.162423,"address":"332 Horton Plaza, San Diego CA","chain_name":null,"distance":0},{"name":"Bath & Body Works","code":null,"latitude":35.0223537,"longitude":-97.9319144,"address":"2409 Ponderosa Dr, Chickasha OK","chain_name":null,"distance":0},{"name":"Bath & Body Works","code":null,"latitude":41.5205705,"longitude":-87.4713261,"address":"116 US Highway 41, Schererville IN","chain_name":null,"distance":0},{"name":"Bath & Body Works","code":null,"latitude":38.339208,"longitude":-75.109648,"address":"12641-228 Ocean Gateway, Ocean City MD","chain_name":null,"distance":0},{"name":"Bath & Body Works","code":null,"latitude":36.119059,"longitude":-115.176234,"address":"3500 Las Vegas Blvd South, Las Vegas NV","chain_name":null,"distance":0},{"name":"Bath & Body Works","code":null,"latitude":40.6845474,"longitude":-73.3510225,"address":"1023 W Montauk Hwy, West Babylon NY","chain_name":null,"distance":0},{"name":"Bath & Body Works","code":null,"latitude":28.6599176,"longitude":-81.2366912,"address":"1660 Oviedo Marketplace Blvd, Oviedo FL","chain_name":null,"distance":0},{"name":"Bath & Body Works","code":null,"latitude":40.6834064,"longitude":-73.4364791,"address":"479 Sunrise Mall (Flr 2), Massapequa NY","chain_name":null,"distance":0},{"name":"Bath & Body Works","code":null,"latitude":35.264769,"longitude":-81.148258,"address":"E226\/246 N New Hope Rd, Gastonia NC","chain_name":null,"distance":0},{"name":"Bath & Body Works","code":null,"latitude":43.605914,"longitude":-116.278263,"address":"350 N Milwaukee, Boise ID","chain_name":null,"distance":0},{"name":"Bath & Body Works","code":null,"latitude":33.6630087,"longitude":-84.7524482,"address":"2440 Arbor Place Mall, Douglasville GA","chain_name":null,"distance":0},{"name":"Bath & Body Works","code":null,"latitude":33.540743,"longitude":-101.9257049,"address":"6002 Slide Rd, Lubbock TX","chain_name":null,"distance":0},{"name":"Bath & Body Works","code":null,"latitude":33.98752,"longitude":-84.42189,"address":"4475 Roswell Rd, Marietta GA","chain_name":null,"distance":0},{"name":"Bath & Body Works","code":null,"latitude":34.0385197,"longitude":-84.4653213,"address":"3605 Sandy Plains Rd, Marietta GA","chain_name":null,"distance":0},{"name":"Bath & Body Works","code":null,"latitude":40.474411,"longitude":-86.1108382,"address":"1148 S 17th St, Kokomo IN","chain_name":null,"distance":0},{"name":"Bath & Body Works","code":null,"latitude":28.443489,"longitude":-81.399096,"address":"8001 South Blossom Trail, Orlando FL","chain_name":null,"distance":0},{"name":"Bath & Body Works","code":null,"latitude":35.9073034,"longitude":-78.7855622,"address":"8399 Brier Creek Pkwy, Raleigh NC","chain_name":null,"distance":0},{"name":"Bath & Body Works","code":null,"latitude":33.4904219,"longitude":-82.0794249,"address":"224 Robert C Daniel Jr Pkwy, Augusta GA","chain_name":null,"distance":0},{"name":"Bath & Body Works","code":null,"latitude":38.5803093,"longitude":-121.501535,"address":"545 Downtown Plaza, Sacramento CA","chain_name":null,"distance":0},{"name":"Bath & Body Works","code":null,"latitude":40.221701,"longitude":-85.375442,"address":"3501 N Granville Ave, Muncie IN","chain_name":null,"distance":0},{"name":"Bath & Body Works","code":null,"latitude":35.0821998,"longitude":-80.8772249,"address":"11025 Carolina Place Pkwy, Pineville NC","chain_name":null,"distance":0},{"name":"Bath & Body Works","code":null,"latitude":26.0973159,"longitude":-80.2508881,"address":"2024 South University Dr, Davie FL","chain_name":null,"distance":0},{"name":"Bath & Body Works","code":null,"latitude":42.0495555,"longitude":-87.838279,"address":"239 Golf Mill Shopping Center, Niles IL","chain_name":null,"distance":0},{"name":"Bath & Body Works","code":null,"latitude":42.5342276,"longitude":-83.1121542,"address":"412 W 14 Mile Rd, Troy MI","chain_name":null,"distance":0},{"name":"Bath & Body Works","code":null,"latitude":39.2513211,"longitude":-94.6640617,"address":"7250 Northwest 86th Place, Kansas City MO","chain_name":null,"distance":0},{"name":"Bath & Body Works","code":null,"latitude":42.9562887,"longitude":-78.8783285,"address":"2141 Elmwood Ave, Buffalo NY","chain_name":null,"distance":0},{"name":"Bath & Body Works","code":null,"latitude":35.509693,"longitude":-78.315299,"address":"1025 Industrial Park Dr, Smithfield NC","chain_name":null,"distance":0},{"name":"Bath & Body Works","code":null,"latitude":48.5548421,"longitude":-88.87385,"address":"6801, Transcanada Highway, Pointe-Claire QC","chain_name":null,"distance":0},{"name":"Bath & Body Works","code":null,"latitude":40.2757013,"longitude":-74.5436139,"address":"72 Princeton Hightstown Rd, East Windsor NJ","chain_name":null,"distance":0},{"name":"Bath & Body Works","code":null,"latitude":36.2794187,"longitude":-115.2066909,"address":"6578 North Decatur Blvd, Las Vegas NV","chain_name":null,"distance":0},{"name":"Bath & Body Works","code":null,"latitude":25.970525,"longitude":-97.512694,"address":"2370 N Expressway, Brownsville TX","chain_name":null,"distance":0},{"name":"Bath & Body Works","code":null,"latitude":40.0871437,"longitude":-75.3869407,"address":"403 Mall Blvd, King Of Prussia PA","chain_name":null,"distance":0},{"name":"Bath & Body Works","code":null,"latitude":39.6043686,"longitude":-104.7088374,"address":"6200 S Main St, Aurora CO","chain_name":null,"distance":0},{"name":"Bath & Body Works","code":null,"latitude":37.6968161,"longitude":-121.9259779,"address":"2611 Stoneridge Mall, Pleasanton CA","chain_name":null,"distance":0},{"name":"Bath & Body Works","code":null,"latitude":39.9386057,"longitude":-75.3562324,"address":"400 S State Rd, Springfield PA","chain_name":null,"distance":0},{"name":"Bath & Body Works","code":null,"latitude":34.1458135,"longitude":-118.1434253,"address":"340 E Colorado Blvd, Pasadena CA","chain_name":null,"distance":0},{"name":"Bath & Body Works","code":null,"latitude":32.5453999,"longitude":-117.0416678,"address":"4265 Camino De La Plaza, San Ysidro CA","chain_name":null,"distance":0},{"name":"Bath & Body Works","code":null,"latitude":40.0674861,"longitude":-76.3346462,"address":"636 Park City Center, Lancaster PA","chain_name":null,"distance":0},{"name":"Bath & Body Works","code":null,"latitude":40.2369174,"longitude":-75.572269,"address":"18 West Lightcap Rd, Pottstown PA","chain_name":null,"distance":0},{"name":"Bath & Body Works","code":null,"latitude":37.72722,"longitude":-97.465053,"address":"2441 N Maize Rd, Wichita KS","chain_name":null,"distance":0},{"name":"Bath & Body Works","code":null,"latitude":41.7200029,"longitude":-88.0420942,"address":"639 E Boughton Rd, Bolingbrook IL","chain_name":null,"distance":0},{"name":"Bath & Body Works","code":null,"latitude":41.933628,"longitude":-87.645514,"address":"2828 N Clark St, Chicago IL","chain_name":null,"distance":0},{"name":"Bath & Body Works","code":null,"latitude":33.3827281,"longitude":-111.8056879,"address":"1803 S Stapley Dr, Mesa AZ","chain_name":null,"distance":0},{"name":"Bath & Body Works","code":null,"latitude":29.886774,"longitude":-97.920327,"address":"200 Springtowne Way, San Marcos TX","chain_name":null,"distance":0},{"name":"Bath & Body Works","code":null,"latitude":40.8904301,"longitude":-74.2606361,"address":"2626 Willowbrook Mall, Wayne NJ","chain_name":null,"distance":0},{"name":"Bath & Body Works","code":null,"latitude":36.0688913,"longitude":-115.1722403,"address":"6611 Las Vegas Blvd South, Las Vegas NV","chain_name":null,"distance":0},{"name":"Bath & Body Works","code":null,"latitude":39.04119,"longitude":-94.5930212,"address":"429 Nichols Rd, Kansas City MO","chain_name":null,"distance":0},{"name":"Bath & Body Works","code":null,"latitude":29.9603807,"longitude":-90.1840536,"address":"1200 S Clearview Pkwy, New Orleans LA","chain_name":null,"distance":0},{"name":"Bath & Body Works","code":null,"latitude":37.995775,"longitude":-121.313927,"address":"4950 Pacific Ave, Stockton CA","chain_name":null,"distance":0},{"name":"Bath & Body Works","code":null,"latitude":35.17596,"longitude":-80.802426,"address":"308 S Sharon Amity Rd, Charlotte NC","chain_name":null,"distance":0},{"name":"Bath & Body Works","code":null,"latitude":40.7668298,"longitude":-81.5210266,"address":"5 Massillon Marketplace Dr SW, Massillon OH","chain_name":null,"distance":0},{"name":"Bath & Body Works","code":null,"latitude":35.3860599,"longitude":-96.9277917,"address":"4901 North Kickapoo, Shawnee OK","chain_name":null,"distance":0},{"name":"Bath & Body Works","code":null,"latitude":41.7542975,"longitude":-87.7413834,"address":"7601 S Cicero St, Chicago IL","chain_name":null,"distance":0},{"name":"Bath & Body Works","code":null,"latitude":30.4832366,"longitude":-97.6788667,"address":"2701 Parker Rd, Round Rock TX","chain_name":null,"distance":0},{"name":"Bath & Body Works","code":null,"latitude":45.162413,"longitude":-93.1634444,"address":"4255 Pheasant Ridge Dr, Blaine MN","chain_name":null,"distance":0},{"name":"Bath & Body Works","code":null,"latitude":42.341412,"longitude":-83.390354,"address":"35000 Warren Center, Westland MI","chain_name":null,"distance":0},{"name":"Bath & Body Works","code":null,"latitude":39.7970797,"longitude":-86.2623441,"address":"5820 Crawfordsville Rd, Speedway IN","chain_name":null,"distance":0},{"name":"Bath & Body Works","code":null,"latitude":38.4407282,"longitude":-122.7178633,"address":"1071 Santa Rosa Plaza, Santa Rosa CA","chain_name":null,"distance":0},{"name":"Bath & Body Works","code":null,"latitude":41.7192202,"longitude":-87.782525,"address":"350 Chicago Ridge, Chicago Ridge IL","chain_name":null,"distance":0},{"name":"Bath & Body Works","code":null,"latitude":38.6761763,"longitude":-90.4640053,"address":"12583 Olive Blvd, Creve Coeur MO","chain_name":null,"distance":0},{"name":"Bath & Body Works","code":null,"latitude":30.171204,"longitude":-92.075602,"address":"5725 Johnston St, Lafayette LA","chain_name":null,"distance":0},{"name":"Bath & Body Works","code":null,"latitude":43.7776632,"longitude":-79.3444633,"address":"1800 Sheppard Ave. E., Willowdale ON","chain_name":null,"distance":0},{"name":"Bath & Body Works","code":null,"latitude":34.048037,"longitude":-118.2584667,"address":"750 W 7th St, Los Angeles CA","chain_name":null,"distance":0},{"name":"Bath & Body Works","code":null,"latitude":40.8658092,"longitude":-73.0527721,"address":"345 Independence Plaza, Selden NY","chain_name":null,"distance":0},{"name":"Bath & Body Works","code":null,"latitude":33.9495116,"longitude":-80.3754298,"address":"1057 Brd St, Sumter SC","chain_name":null,"distance":0},{"name":"Bath & Body Works","code":null,"latitude":40.7422742,"longitude":-73.615576,"address":"630 Old Country Rd, Garden City NY","chain_name":null,"distance":0},{"name":"Bath & Body Works","code":null,"latitude":32.881106,"longitude":-111.684791,"address":"1005 N Promenade Pkwy, Case Grande AZ","chain_name":null,"distance":0},{"name":"Bath & Body Works","code":null,"latitude":33.3332608,"longitude":-86.9871723,"address":"4897 Promenade Pkwy, Bessemer AL","chain_name":null,"distance":0},{"name":"Bath & Body Works","code":null,"latitude":42.9820904,"longitude":-83.7721411,"address":"3243 S Linden Rd, Flint MI","chain_name":null,"distance":0},{"name":"Bath & Body Works","code":null,"latitude":29.6495873,"longitude":-95.1521982,"address":"5800 Fairmont Pkwy, Pasadena TX","chain_name":null,"distance":0},{"name":"Bath & Body Works","code":null,"latitude":34.132837,"longitude":-118.051614,"address":"400 South Baldwin, Arcadia CA","chain_name":null,"distance":0},{"name":"Bath & Body Works","code":null,"latitude":31.776365,"longitude":-106.379239,"address":"8401 Gateway Blvd West, El Paso TX","chain_name":null,"distance":0},{"name":"Bath & Body Works","code":null,"latitude":40.660587,"longitude":-74.169796,"address":"651 Kapkowski Rd, Elizabeth NJ","chain_name":null,"distance":0},{"name":"Bath & Body Works","code":null,"latitude":41.4681249,"longitude":-87.0314948,"address":"2410 Laporte Ave, Valparaiso IN","chain_name":null,"distance":0},{"name":"Bath & Body Works","code":null,"latitude":38.7863492,"longitude":-90.4167379,"address":"5555 St Louis Mills Blvd, Hazelwood MO","chain_name":null,"distance":0},{"name":"Bath & Body Works","code":null,"latitude":25.575631,"longitude":-80.371084,"address":"20505 South Dixie Hwy, Miami FL","chain_name":null,"distance":0},{"name":"Bath & Body Works","code":null,"latitude":42.1485029,"longitude":-88.335828,"address":"1926 Randall Rd, Algonquin IL","chain_name":null,"distance":0},{"name":"Bath & Body Works","code":null,"latitude":39.200932,"longitude":-84.376009,"address":"7875 Montgomery Rd, Cincinnati OH","chain_name":null,"distance":0},{"name":"Bath & Body Works","code":null,"latitude":45.5330095,"longitude":-122.6527625,"address":"957 Lloyd Center, Portland OR","chain_name":null,"distance":0},{"name":"Bath & Body Works","code":null,"latitude":33.782893,"longitude":-117.892764,"address":"20 City Blvd West, Orange CA","chain_name":null,"distance":0},{"name":"Bath & Body Works","code":null,"latitude":32.593595,"longitude":-96.9384271,"address":"374 East Farm Market 1382, Cedar Hill TX","chain_name":null,"distance":0},{"name":"Bath & Body Works","code":null,"latitude":36.0105839,"longitude":-115.1182716,"address":"9827 S Eastern Ave, Las Vegas NV","chain_name":null,"distance":0},{"name":"Bath & Body Works","code":null,"latitude":33.6159612,"longitude":-86.619874,"address":"1628 Gadsden Hwy, Trussville AL","chain_name":null,"distance":0},{"name":"Bath & Body Works","code":null,"latitude":41.2499503,"longitude":-75.8425552,"address":"49 Wyoming Valley Mall, Wilkes Barre PA","chain_name":null,"distance":0},{"name":"Bath & Body Works","code":null,"latitude":42.4836492,"longitude":-83.4747774,"address":"43215 Crescent Blvd, Novi MI","chain_name":null,"distance":0},{"name":"Bath & Body Works","code":null,"latitude":41.5042615,"longitude":-87.7242764,"address":"122 Lincoln Mall, Matteson IL","chain_name":null,"distance":0},{"name":"Bath & Body Works","code":null,"latitude":43.7152636,"longitude":-79.7237811,"address":"25 Peel Centre Dr, Brampton ON","chain_name":null,"distance":0},{"name":"Bath & Body Works","code":null,"latitude":26.17087,"longitude":-80.115019,"address":"3200 North Federal Highway, Ft Lauderdale FL","chain_name":null,"distance":0},{"name":"Bath & Body Works","code":null,"latitude":39.9950467,"longitude":-85.9308961,"address":"13976 Town Cntr Blvd, Noblesville IN","chain_name":null,"distance":0},{"name":"Bath & Body Works","code":null,"latitude":53.5241571,"longitude":-113.6155142,"address":"8882 170 Street Unit 2131, Edmonton AB","chain_name":null,"distance":0},{"name":"Bath & Body Works","code":null,"latitude":32.5184797,"longitude":-93.7402143,"address":"335 Boardwalk Blvd, Bossier City LA","chain_name":null,"distance":0},{"name":"Bath & Body Works","code":null,"latitude":30.3511231,"longitude":-95.4838071,"address":"2812 Interstate 45 N, Conroe TX","chain_name":null,"distance":0},{"name":"Bath & Body Works","code":null,"latitude":35.396018,"longitude":-97.487172,"address":"7000 Crossrds Blvd, Oklahoma City OK","chain_name":null,"distance":0},{"name":"Bath & Body Works","code":null,"latitude":35.0722832,"longitude":-78.9607357,"address":"417 Cross Creek Mall, Fayetteville NC","chain_name":null,"distance":0},{"name":"Bath & Body Works","code":null,"latitude":32.6590889,"longitude":-117.0674078,"address":"3030 Plaza Bonita Rd, National City CA","chain_name":null,"distance":0},{"name":"Bath & Body Works","code":null,"latitude":40.662853,"longitude":-73.721829,"address":"1075 Green Acres Mall, Valley Stream NY","chain_name":null,"distance":0},{"name":"Bath & Body Works","code":null,"latitude":30.4698334,"longitude":-97.8080177,"address":"11200 Lakeline Mall Dr, Cedar Park TX","chain_name":null,"distance":0},{"name":"Bath & Body Works","code":null,"latitude":41.0242916,"longitude":-80.6477614,"address":"379 Boardman-Poland Rd, Youngstown OH","chain_name":null,"distance":0},{"name":"Bath & Body Works","code":null,"latitude":29.687101,"longitude":-95.461982,"address":"660 Meyerland Plaza, Houston TX","chain_name":null,"distance":0},{"name":"Bath & Body Works","code":null,"latitude":40.4530924,"longitude":-80.1685463,"address":"1710 Park Manor Blvd, Robinson Township PA","chain_name":null,"distance":0},{"name":"Bath & Body Works","code":null,"latitude":41.8494617,"longitude":-87.8506077,"address":"7501 W Cermak Rd, North Riverside IL","chain_name":null,"distance":0},{"name":"Bath & Body Works","code":null,"latitude":44.8565724,"longitude":-93.2398994,"address":"172 N Garden, Bloomington MN","chain_name":null,"distance":0},{"name":"Bath & Body Works","code":null,"latitude":44.7464065,"longitude":-93.2909963,"address":"915 W County Rd 42, Burnsville MN","chain_name":null,"distance":0},{"name":"Bath & Body Works","code":null,"latitude":41.2612331,"longitude":-96.1854896,"address":"17305 Davenport St, Omaha NE","chain_name":null,"distance":0},{"name":"Bath & Body Works","code":null,"latitude":40.5392027,"longitude":-80.0073857,"address":"1000 Ross Park Mall Dr, Pittsburgh PA","chain_name":null,"distance":0},{"name":"Bath & Body Works","code":null,"latitude":39.941396,"longitude":-74.963665,"address":"400 Route 38, Moorestown NJ","chain_name":null,"distance":0},{"name":"Bath & Body Works","code":null,"latitude":32.2198629,"longitude":-110.865997,"address":"5870 E Brdway Blvd, Tucson AZ","chain_name":null,"distance":0},{"name":"Bath & Body Works","code":null,"latitude":33.5364584,"longitude":-111.8883276,"address":"8969 E Indian Bend Rd, Scottsdale AZ","chain_name":null,"distance":0},{"name":"Bath & Body Works","code":null,"latitude":30.4610924,"longitude":-91.091375,"address":"9355 Cortana Place, Baton Rouge LA","chain_name":null,"distance":0},{"name":"Bath & Body Works","code":null,"latitude":34.0104309,"longitude":-118.336668,"address":"3650 Martin Luther King Jr Blvd, Los Angeles CA","chain_name":null,"distance":0},{"name":"Bath & Body Works","code":null,"latitude":45.5064964,"longitude":-92.9940074,"address":"38500 Tanger Dr, North Branch MN","chain_name":null,"distance":0},{"name":"Bath & Body Works","code":null,"latitude":29.634501,"longitude":-90.755997,"address":"5953 W Park Ave, Houma LA","chain_name":null,"distance":0},{"name":"Bath & Body Works","code":null,"latitude":43.2204559,"longitude":-79.8625705,"address":"883 Upper Wentworth Street, Hamilton ON","chain_name":null,"distance":0},{"name":"Bath & Body Works","code":null,"latitude":27.783388,"longitude":-82.718989,"address":"6780 Tyrone Square, St. Petersburg FL","chain_name":null,"distance":0},{"name":"Bath & Body Works","code":null,"latitude":43.6890392,"longitude":-79.6200412,"address":"6205 Airport Road, Mississauga ON","chain_name":null,"distance":0},{"name":"Bath & Body Works","code":null,"latitude":34.268503,"longitude":-119.248689,"address":"3301 E Main St, Ventura CA","chain_name":null,"distance":0},{"name":"Bath & Body Works","code":null,"latitude":37.5220072,"longitude":-120.8813102,"address":"3011 Countryside Dr, Turlock CA","chain_name":null,"distance":0},{"name":"Bath & Body Works","code":null,"latitude":33.6935307,"longitude":-117.8871417,"address":"3333 Bristol St, Costa Mesa CA","chain_name":null,"distance":0},{"name":"Bath & Body Works","code":null,"latitude":37.6698515,"longitude":-122.4689911,"address":"106 SErramonte Center, Daly City CA","chain_name":null,"distance":0},{"name":"Bath & Body Works","code":null,"latitude":39.495855,"longitude":-84.331287,"address":"3461 Towne Blvd, Franklin OH","chain_name":null,"distance":0},{"name":"Bath & Body Works","code":null,"latitude":29.5447835,"longitude":-95.7573409,"address":"24840 Commercial Dr, Rosenberg TX","chain_name":null,"distance":0},{"name":"Bath & Body Works","code":null,"latitude":42.1331601,"longitude":-71.2238417,"address":"90 Providence Hwy, Walpole MA","chain_name":null,"distance":0},{"name":"Bath & Body Works","code":null,"latitude":29.5922762,"longitude":-95.6290805,"address":"16535 SW Freeway, Sugarland TX","chain_name":null,"distance":0},{"name":"Bath & Body Works","code":null,"latitude":39.355962,"longitude":-85.4834717,"address":"706 Greensburg Commons, Greensburg IN","chain_name":null,"distance":0},{"name":"Bath & Body Works","code":null,"latitude":27.5342101,"longitude":-82.5042791,"address":"5461 Factory Shops Blvd, Ellenton FL","chain_name":null,"distance":0},{"name":"Bath & Body Works","code":null,"latitude":30.3507705,"longitude":-97.7362384,"address":"1910 Domain Dr Ste 116 Sp W03, Austin TX","chain_name":null,"distance":0},{"name":"Bath & Body Works","code":null,"latitude":35.3780547,"longitude":-86.2262863,"address":"1600 N Jackson St, Tullahoma TN","chain_name":null,"distance":0},{"name":"Bath & Body Works","code":null,"latitude":29.92243,"longitude":-90.0403939,"address":"197 Wbank Expressway, Gretna LA","chain_name":null,"distance":0},{"name":"Bath & Body Works","code":null,"latitude":42.4951954,"longitude":-71.1007088,"address":"91 Main St, Stoneham MA","chain_name":null,"distance":0},{"name":"Bath & Body Works","code":null,"latitude":32.873221,"longitude":-80.018178,"address":"4840 Tanger Outlet Blvd, North Charleston SC","chain_name":null,"distance":0},{"name":"Bath & Body Works","code":null,"latitude":28.0007001,"longitude":-81.9776739,"address":"1441 Towncenter Dr, Lakeland FL","chain_name":null,"distance":0},{"name":"Bath & Body Works","code":null,"latitude":36.062966,"longitude":-95.881062,"address":"7021 South Memorial Dr, Tulsa OK","chain_name":null,"distance":0},{"name":"Bath & Body Works","code":null,"latitude":41.0440968,"longitude":-74.07225,"address":"419 Chestnut Ridge Rd, Woodcliff Lake NJ","chain_name":null,"distance":0},{"name":"Bath & Body Works","code":null,"latitude":36.192941,"longitude":-115.305604,"address":"1946 Village Center Cir, Las Vegas NV","chain_name":null,"distance":0},{"name":"Bath & Body Works","code":null,"latitude":36.0718419,"longitude":-80.2993674,"address":"3320 Silas Creek Pkwy, Winston - Salem NC","chain_name":null,"distance":0},{"name":"Bath & Body Works","code":null,"latitude":39.9140394,"longitude":-105.0489294,"address":"4880 W 120th St, Westminster CO","chain_name":null,"distance":0},{"name":"Bath & Body Works","code":null,"latitude":32.625185,"longitude":-85.446315,"address":"1627 Opelika Rd, Auburn AL","chain_name":null,"distance":0},{"name":"Bath & Body Works","code":null,"latitude":32.929958,"longitude":-96.8195915,"address":"13350 Dallas Pkwy, Dallas TX","chain_name":null,"distance":0},{"name":"Bath & Body Works","code":null,"latitude":29.1969416,"longitude":-81.0555301,"address":"17700 W International Speedway, Daytona Beach FL","chain_name":null,"distance":0},{"name":"Bath & Body Works","code":null,"latitude":33.7494889,"longitude":-116.995008,"address":"2200 W Florida Ave, Hemet CA","chain_name":null,"distance":0},{"name":"Bath & Body Works","code":null,"latitude":42.7251289,"longitude":-84.4195247,"address":"1982 Grand River Ave, Okemos MI","chain_name":null,"distance":0},{"name":"Bath & Body Works","code":null,"latitude":31.783497,"longitude":-106.410297,"address":"6101 Gateway West, El Paso TX","chain_name":null,"distance":0},{"name":"Bath & Body Works","code":null,"latitude":33.9188059,"longitude":-117.901198,"address":"260 W Birch St, Brea CA","chain_name":null,"distance":0},{"name":"Bath & Body Works","code":null,"latitude":40.5489918,"longitude":-74.4300148,"address":"4967 Stelton Rd, South Plainfield NJ","chain_name":null,"distance":0},{"name":"Bath & Body Works","code":null,"latitude":42.5094013,"longitude":-83.2228874,"address":"29844 Sfield Rd, Southfield MI","chain_name":null,"distance":0},{"name":"Bath & Body Works","code":null,"latitude":32.7677499,"longitude":-117.1466784,"address":"1640 Camino Del Rio, San Diego CA","chain_name":null,"distance":0},{"name":"Bath & Body Works","code":null,"latitude":41.1554172,"longitude":-81.8626739,"address":"1171 N Court St, Medina OH","chain_name":null,"distance":0},{"name":"Bath & Body Works","code":null,"latitude":38.4264129,"longitude":-121.392215,"address":"9163 E Stockton Blvd, Elk Grove CA","chain_name":null,"distance":0},{"name":"Bath & Body Works","code":null,"latitude":40.8954504,"longitude":-79.9051619,"address":"101 Clearview Circle, Butler PA","chain_name":null,"distance":0},{"name":"Bath & Body Works","code":null,"latitude":49.828997,"longitude":-97.114606,"address":"86-1225 St, Winnipeg MB","chain_name":null,"distance":0},{"name":"Bath & Body Works","code":null,"latitude":40.137775,"longitude":-74.95055,"address":"223 NEshaminy Mall, Bensalem PA","chain_name":null,"distance":0},{"name":"Bath & Body Works","code":null,"latitude":41.312212,"longitude":-81.5183629,"address":"8210 Macedonia Blvd, Macedonia OH","chain_name":null,"distance":0},{"name":"Bath & Body Works","code":null,"latitude":35.2184918,"longitude":-97.4917579,"address":"3413 W Main St, Norman OK","chain_name":null,"distance":0},{"name":"Bath & Body Works","code":null,"latitude":32.3996045,"longitude":-90.1339643,"address":"1200 E County Line Rd, Ridgeland MS","chain_name":null,"distance":0},{"name":"Bath & Body Works","code":null,"latitude":26.182743,"longitude":-97.7193039,"address":"2020 South Expressway 83, Harlingen TX","chain_name":null,"distance":0},{"name":"Bath & Body Works","code":null,"latitude":39.3749563,"longitude":-76.4691568,"address":"8200 Perry Hall Blvd, Baltimore MD","chain_name":null,"distance":0},{"name":"Bath & Body Works","code":null,"latitude":26.1946952,"longitude":-98.260365,"address":"3300 Expressway 83 Bldg 100, Mcallen TX","chain_name":null,"distance":0},{"name":"Bath & Body Works","code":null,"latitude":43.4980824,"longitude":-80.5274971,"address":"550 King Street North, Waterloo ON","chain_name":null,"distance":0},{"name":"Bath & Body Works","code":null,"latitude":33.317906,"longitude":-111.964138,"address":"7131 W Ray Rd, Chandler AZ","chain_name":null,"distance":0},{"name":"Bath & Body Works","code":null,"latitude":42.2674152,"longitude":-83.5045029,"address":"47186 Michigan Ave, Canton Twp MI","chain_name":null,"distance":0},{"name":"Bath & Body Works","code":null,"latitude":41.054932,"longitude":-83.614605,"address":"1800 Tiffin Ave, Findlay OH","chain_name":null,"distance":0},{"name":"Bath & Body Works","code":null,"latitude":28.6589556,"longitude":-81.4193924,"address":"280 State Route 434, Altamonte Springs FL","chain_name":null,"distance":0},{"name":"Bath & Body Works","code":null,"latitude":45.1282701,"longitude":-93.2594256,"address":"339 Northtown Dr NE, Blaine MN","chain_name":null,"distance":0},{"name":"Bath & Body Works","code":null,"latitude":33.5267538,"longitude":-117.1571033,"address":"40820 Winchester Rd, Temecula CA","chain_name":null,"distance":0},{"name":"Bath & Body Works","code":null,"latitude":29.7922556,"longitude":-95.1062296,"address":"1201 Lake Woodland Dr, Woodlands TX","chain_name":null,"distance":0},{"name":"Bath & Body Works","code":null,"latitude":44.1817018,"longitude":-93.3867629,"address":"6750 W Frontage Rd #315, Medford MN","chain_name":null,"distance":0},{"name":"Bath & Body Works","code":null,"latitude":33.9385561,"longitude":-117.2713343,"address":"22500 Towngate Circle, Moreno Valley CA","chain_name":null,"distance":0},{"name":"Bath & Body Works","code":null,"latitude":35.0334543,"longitude":-85.1576823,"address":"2100 Hamilton Place Blvd, Chattanooga TN","chain_name":null,"distance":0},{"name":"Bath & Body Works","code":null,"latitude":39.8786325,"longitude":-83.0610881,"address":"2185-2187 Stringtown Rd, Grove City OH","chain_name":null,"distance":0},{"name":"Bath & Body Works","code":null,"latitude":39.765764,"longitude":-89.703734,"address":"2501 W Wabash Ave, Springfield IL","chain_name":null,"distance":0},{"name":"Bath & Body Works","code":null,"latitude":26.5455556,"longitude":-80.0926944,"address":"801 N Congress Ave, Boynton Beach FL","chain_name":null,"distance":0},{"name":"Bath & Body Works","code":null,"latitude":33.945019,"longitude":-83.4091403,"address":"196 Alps Rd, Athens GA","chain_name":null,"distance":0},{"name":"Bath & Body Works","code":null,"latitude":33.3479013,"longitude":-84.1220665,"address":"1000 Tanger Dr, Locust Grove GA","chain_name":null,"distance":0},{"name":"Bath & Body Works","code":null,"latitude":42.0615038,"longitude":-87.7473788,"address":"153 Old Orchard Shopping Center, Skokie IL","chain_name":null,"distance":0},{"name":"Bath & Body Works","code":null,"latitude":37.323596,"longitude":-121.945882,"address":"2855 Stevens Creek Blvd, Santa Clara CA","chain_name":null,"distance":0},{"name":"Bath & Body Works","code":null,"latitude":43.6483064,"longitude":-79.3822395,"address":"130 King Street West, Toronto ON","chain_name":null,"distance":0},{"name":"Bath & Body Works","code":null,"latitude":34.0161293,"longitude":-80.9898321,"address":"3400 Forest Dr, Columbia SC","chain_name":null,"distance":0},{"name":"Bath & Body Works","code":null,"latitude":27.008957,"longitude":-82.147863,"address":"1441 Tamiami Trail, Port Charlotte FL","chain_name":null,"distance":0},{"name":"Bath & Body Works","code":null,"latitude":40.9181161,"longitude":-74.0763632,"address":"1103 Garden State Plaza, Paramus NJ","chain_name":null,"distance":0},{"name":"Bath & Body Works","code":null,"latitude":28.0552711,"longitude":-82.4322142,"address":"2208 University Sq Mall, Tampa FL","chain_name":null,"distance":0},{"name":"Bath & Body Works","code":null,"latitude":32.3407193,"longitude":-111.0149001,"address":"7401 N La Cholla Blvd, Tucson AZ","chain_name":null,"distance":0},{"name":"Bath & Body Works","code":null,"latitude":45.0939826,"longitude":-93.4370235,"address":"12253 Elm Creek Blvd, Maple Grove MN","chain_name":null,"distance":0},{"name":"Bath & Body Works","code":null,"latitude":39.1642026,"longitude":-86.4952774,"address":"2856 E Third Ave, Bloomington IN","chain_name":null,"distance":0},{"name":"Bath & Body Works","code":null,"latitude":40.6414554,"longitude":-79.1136712,"address":"2090 Route 286 South, Indiana PA","chain_name":null,"distance":0},{"name":"Bath & Body Works","code":null,"latitude":42.9121964,"longitude":-78.7631592,"address":"1 Walden Galleria Dr, Buffalo NY","chain_name":null,"distance":0},{"name":"Bath & Body Works","code":null,"latitude":39.6745468,"longitude":-75.6500753,"address":"435 Christiana Mall Rd, Newark DE","chain_name":null,"distance":0},{"name":"Bath & Body Works","code":null,"latitude":34.753108,"longitude":-92.342877,"address":"6000 W Markham St, Little Rock AR","chain_name":null,"distance":0},{"name":"Bath & Body Works","code":null,"latitude":39.0247538,"longitude":-84.5793316,"address":"2862 Town Center Blvd, Crestview Hills KY","chain_name":null,"distance":0},{"name":"Bath & Body Works","code":null,"latitude":38.651655,"longitude":-90.565647,"address":"40 Chesterfield Mall, Chesterfield MO","chain_name":null,"distance":0},{"name":"Bath & Body Works","code":null,"latitude":39.7854048,"longitude":-104.8906289,"address":"8370 E 49th Ave, Denver CO","chain_name":null,"distance":0},{"name":"Bath & Body Works","code":null,"latitude":45.3476665,"longitude":-75.8063936,"address":"100 Bayshore Drive, Ottawa ON","chain_name":null,"distance":0},{"name":"Bath & Body Works","code":null,"latitude":29.7491813,"longitude":-95.5009966,"address":"1745 S Voss, Houston TX","chain_name":null,"distance":0},{"name":"Bath & Body Works","code":null,"latitude":42.9731063,"longitude":-78.6967308,"address":"4545 Transit Rd, Williamsville NY","chain_name":null,"distance":0},{"name":"Bath & Body Works","code":null,"latitude":38.6780398,"longitude":-121.2706798,"address":"6036 Sunrise Mall, Citrus Heights CA","chain_name":null,"distance":0},{"name":"Bath & Body Works","code":null,"latitude":40.856734,"longitude":-81.431308,"address":"4156 Belden Village Mall, Canton OH","chain_name":null,"distance":0},{"name":"Bath & Body Works","code":null,"latitude":26.368129,"longitude":-80.134717,"address":"6000 W Glades Rd, Boca Raton FL","chain_name":null,"distance":0},{"name":"Bath & Body Works","code":null,"latitude":32.8017595,"longitude":-79.9975916,"address":"D568 Citadel Mall 2070 Sam Rittenb, Charleston SC","chain_name":null,"distance":0},{"name":"Bath & Body Works","code":null,"latitude":27.464616,"longitude":-82.5610837,"address":"303 US 301 Blvd, Bradenton FL","chain_name":null,"distance":0},{"name":"Bath & Body Works","code":null,"latitude":40.3425963,"longitude":-80.0537072,"address":"2340 South Hills Village, Pittsburgh PA","chain_name":null,"distance":0},{"name":"Bath & Body Works","code":null,"latitude":42.146876,"longitude":-70.840638,"address":"1775 Washington St, Hanover MA","chain_name":null,"distance":0},{"name":"Bath & Body Works","code":null,"latitude":41.6190327,"longitude":-87.8516526,"address":"638 Orland Square, Orland Park IL","chain_name":null,"distance":0},{"name":"Bath & Body Works","code":null,"latitude":49.2827259,"longitude":-123.118246,"address":"700 West George St, Vancouver BC","chain_name":null,"distance":0},{"name":"Bath & Body Works","code":null,"latitude":37.760179,"longitude":-121.461637,"address":"3200 N Naglee Rd, Tracy CA","chain_name":null,"distance":0},{"name":"Bath & Body Works","code":null,"latitude":29.8034676,"longitude":-94.984345,"address":"1174 San Jacinto Mall, Baytown TX","chain_name":null,"distance":0},{"name":"Bath & Body Works","code":null,"latitude":44.4126929,"longitude":-79.7081709,"address":"509 Bayfield Street, Barrie ON","chain_name":null,"distance":0},{"name":"Bath & Body Works","code":null,"latitude":44.366753,"longitude":-69.802494,"address":"401, boulevard Labelle, Unit H-05, Rosemere QC","chain_name":null,"distance":0},{"name":"Bath & Body Works","code":null,"latitude":35.751696,"longitude":-95.3673037,"address":"501 N Main St, Muskogee OK","chain_name":null,"distance":0},{"name":"Bath & Body Works","code":null,"latitude":45.244769,"longitude":-93.6664045,"address":"6415 Labeaux Ave, Albertville MN","chain_name":null,"distance":0},{"name":"Bath & Body Works","code":null,"latitude":39.7066234,"longitude":-105.0816331,"address":"437-A S Wadsworth Blvd, Lakewood CO","chain_name":null,"distance":0},{"name":"Bath & Body Works","code":null,"latitude":26.032684,"longitude":-80.1953548,"address":"5091 Sheridan St, Hollywood FL","chain_name":null,"distance":0},{"name":"Bath & Body Works","code":null,"latitude":37.729133,"longitude":-122.476728,"address":"3251 20th Ave, San Francisco CA","chain_name":null,"distance":0},{"name":"Bath & Body Works","code":null,"latitude":39.996187,"longitude":-86.130208,"address":"14300 Clay Terrace Blvd, Carmel IN","chain_name":null,"distance":0},{"name":"Bath & Body Works","code":null,"latitude":41.5161162,"longitude":-82.9965425,"address":"1458 Spring Meadow Dr, Holland OH","chain_name":null,"distance":0},{"name":"Bath & Body Works","code":null,"latitude":40.4599038,"longitude":-74.4564479,"address":"525 Shoppes Boulevard, North Brunswick NJ","chain_name":null,"distance":0},{"name":"Bath & Body Works","code":null,"latitude":40.686251,"longitude":-75.155351,"address":"1200 Hwy 22 E, Phillipsburg NJ","chain_name":null,"distance":0},{"name":"Bath & Body Works","code":null,"latitude":32.8146238,"longitude":-97.4157004,"address":"6034 Azle Ave, Fort Worth TX","chain_name":null,"distance":0},{"name":"Bath & Body Works","code":null,"latitude":36.286278,"longitude":-80.855748,"address":"2157 N Bridge St, Elkin NC","chain_name":null,"distance":0},{"name":"Bath & Body Works","code":null,"latitude":41.7909343,"longitude":-89.8218428,"address":"2900 E Lincoln Way, Sterling IL","chain_name":null,"distance":0},{"name":"Bath & Body Works","code":null,"latitude":27.9455254,"longitude":-82.527336,"address":"222 Westshore Plaza, Tampa FL","chain_name":null,"distance":0},{"name":"Bath & Body Works","code":null,"latitude":32.435799,"longitude":-93.7140235,"address":"7533 Youree Dr, Shreveport LA","chain_name":null,"distance":0},{"name":"Bath & Body Works","code":null,"latitude":27.893445,"longitude":-82.7861999,"address":"10500 Ulmerton Rd, Largo FL","chain_name":null,"distance":0},{"name":"Bath & Body Works","code":null,"latitude":35.0334543,"longitude":-85.1576823,"address":"2100 Hamilton Blvd, Chattanooga TN","chain_name":null,"distance":0},{"name":"Bath & Body Works","code":null,"latitude":25.787121,"longitude":-80.36763,"address":"1455 Nw 107th Ave, Miami FL","chain_name":null,"distance":0},{"name":"Bath & Body Works","code":null,"latitude":42.7672897,"longitude":-71.2254151,"address":"99 Rockingham Park Blvd, Salem NH","chain_name":null,"distance":0},{"name":"Bath & Body Works","code":null,"latitude":40.148307,"longitude":-105.127401,"address":"1250 S Hover Rd, Longmont CO","chain_name":null,"distance":0},{"name":"Bath & Body Works","code":null,"latitude":39.8900999,"longitude":-74.9241,"address":"300 Route 73 South, Marlton NJ","chain_name":null,"distance":0},{"name":"Bath & Body Works","code":null,"latitude":41.3614401,"longitude":-81.812912,"address":"6861 Sland Dr, Middleburg Heights OH","chain_name":null,"distance":0},{"name":"Bath & Body Works","code":null,"latitude":34.7150398,"longitude":-86.6730537,"address":"315 Bridge St, Huntsville AL","chain_name":null,"distance":0},{"name":"Bath & Body Works","code":null,"latitude":42.562521,"longitude":-83.1840302,"address":"2800 W Big Beaver Rd, Troy MI","chain_name":null,"distance":0},{"name":"Bath & Body Works","code":null,"latitude":41.5473489,"longitude":-83.704717,"address":"6832 Russell Rd, Maumee OH","chain_name":null,"distance":0},{"name":"Bath & Body Works","code":null,"latitude":34.4491769,"longitude":-84.9142939,"address":"455 Belwood Rd SE #14, Calhoun GA","chain_name":null,"distance":0},{"name":"Bath & Body Works","code":null,"latitude":39.2928506,"longitude":-76.5133377,"address":"7752 Eastpoint Mall, Baltimore MD","chain_name":null,"distance":0},{"name":"Bath & Body Works","code":null,"latitude":36.505913,"longitude":-80.621604,"address":"88 Mayberry Mall, Mount Airy NC","chain_name":null,"distance":0},{"name":"Bath & Body Works","code":null,"latitude":40.8066553,"longitude":-73.9873204,"address":"58 The Promenade, Edgewater NJ","chain_name":null,"distance":0},{"name":"Bath & Body Works","code":null,"latitude":40.89844,"longitude":-81.155707,"address":"2500 West State St, Alliance OH","chain_name":null,"distance":0},{"name":"Bath & Body Works","code":null,"latitude":32.3419297,"longitude":-90.0546008,"address":"142 Dogwood Blvd, Flowood MS","chain_name":null,"distance":0},{"name":"Bath & Body Works","code":null,"latitude":42.9825633,"longitude":-77.4088794,"address":"213 Eview Mall, Victor NY","chain_name":null,"distance":0},{"name":"Bath & Body Works","code":null,"latitude":41.2349544,"longitude":-73.0379175,"address":"1201 Boston Post Rd, Milford CT","chain_name":null,"distance":0},{"name":"Bath & Body Works","code":null,"latitude":50.6532707,"longitude":-120.3718204,"address":"1320 West Trans Canada Highway, Kamloops BC","chain_name":null,"distance":0},{"name":"Bath & Body Works","code":null,"latitude":43.6126603,"longitude":-79.5559283,"address":"25 The West Mall, Etobicoke ON","chain_name":null,"distance":0},{"name":"Bath & Body Works","code":null,"latitude":40.512572,"longitude":-79.8524614,"address":"958 Freeport Rd, Pittsburgh PA","chain_name":null,"distance":0},{"name":"Bath & Body Works","code":null,"latitude":42.928246,"longitude":-76.610932,"address":"1579 Clarke St Rd, Auburn NY","chain_name":null,"distance":0},{"name":"Bath & Body Works","code":null,"latitude":26.011794,"longitude":-80.2483308,"address":"508 N University Dr, Pembroke Pines FL","chain_name":null,"distance":0},{"name":"Bath & Body Works","code":null,"latitude":40.2356129,"longitude":-75.2418103,"address":"279 Montgomery Mall, North Wales PA","chain_name":null,"distance":0},{"name":"Bath & Body Works","code":null,"latitude":40.1033345,"longitude":-83.1597021,"address":"7090 Perimeter Loop Dr, Dublin OH","chain_name":null,"distance":0},{"name":"Bath & Body Works","code":null,"latitude":40.572803,"longitude":-85.678429,"address":"1129 N Baldwin Ave, Marion IN","chain_name":null,"distance":0},{"name":"Bath & Body Works","code":null,"latitude":34.2947913,"longitude":-83.8434886,"address":"150 Pearl Nix Pkwy, Gainesville GA","chain_name":null,"distance":0},{"name":"Bath & Body Works","code":null,"latitude":39.43157,"longitude":-75.040603,"address":"100 Cumberland Mall, Vineland NJ","chain_name":null,"distance":0},{"name":"Bath & Body Works","code":null,"latitude":38.5052207,"longitude":-90.3298679,"address":"314 S County Center, St. Louis MO","chain_name":null,"distance":0},{"name":"Bath & Body Works","code":null,"latitude":37.3256982,"longitude":-121.8186098,"address":"145 Eastridge Mall, San Jose CA","chain_name":null,"distance":0},{"name":"Bath & Body Works","code":null,"latitude":33.686974,"longitude":-96.5818947,"address":"4800 N Texoma Pkwy, Sherman TX","chain_name":null,"distance":0},{"name":"Bath & Body Works","code":null,"latitude":43.040767,"longitude":-76.06631,"address":"3649 Erie Blvd E, Dewitt NY","chain_name":null,"distance":0},{"name":"Bath & Body Works","code":null,"latitude":44.6287922,"longitude":-123.079567,"address":"2125 14th Ave SE, Albany OR","chain_name":null,"distance":0},{"name":"Bath & Body Works","code":null,"latitude":30.3065972,"longitude":-89.8257184,"address":"150 N Shore Blvd, Slidell LA","chain_name":null,"distance":0},{"name":"Bath & Body Works","code":null,"latitude":39.9514233,"longitude":-75.168288,"address":"1625 Chestnut St, Philadelphia PA","chain_name":null,"distance":0},{"name":"Bath & Body Works","code":null,"latitude":36.8498329,"longitude":-119.788791,"address":"7820 Via Del Rio, Fresno CA","chain_name":null,"distance":0},{"name":"Bath & Body Works","code":null,"latitude":27.8445923,"longitude":-82.6468955,"address":"8031 9th St N, St Petersburg FL","chain_name":null,"distance":0},{"name":"Bath & Body Works","code":null,"latitude":42.2417653,"longitude":-71.166164,"address":"950 Providence Highway Sp 204, Dedham MA","chain_name":null,"distance":0},{"name":"Bath & Body Works","code":null,"latitude":30.168207,"longitude":-97.8177601,"address":"9600 South Ih-35 Service Rd Sb, Austin TX","chain_name":null,"distance":0},{"name":"Bath & Body Works","code":null,"latitude":42.542868,"longitude":-70.941982,"address":"210 Andover St, Peabody MA","chain_name":null,"distance":0},{"name":"Bath & Body Works","code":null,"latitude":29.6595664,"longitude":-82.4137078,"address":"6611 NEwberry Rd, Gainesville FL","chain_name":null,"distance":0},{"name":"Bath & Body Works","code":null,"latitude":44.366753,"longitude":-69.802494,"address":"21 Micmac Boulevard, Dartmouth NS","chain_name":null,"distance":0},{"name":"Bath & Body Works","code":null,"latitude":33.4645001,"longitude":-84.2212972,"address":"1890 Jonesboro Rd, Mcdonough GA","chain_name":null,"distance":0},{"name":"Bath & Body Works","code":null,"latitude":51.083319,"longitude":-114.158136,"address":"3625 Shagnappi Trail North West, Calgary AB","chain_name":null,"distance":0},{"name":"Bath & Body Works","code":null,"latitude":36.7134017,"longitude":-79.8520818,"address":"240 Common Wealth Blvd, Martinsville VA","chain_name":null,"distance":0},{"name":"Bath & Body Works","code":null,"latitude":42.3096563,"longitude":-83.2223432,"address":"18990 Michigan Ave, Dearborn MI","chain_name":null,"distance":0},{"name":"Bath & Body Works","code":null,"latitude":41.753498,"longitude":-84.998203,"address":"6245 N Old 27, Fremont IN","chain_name":null,"distance":0},{"name":"Bath & Body Works","code":null,"latitude":39.6679869,"longitude":-86.0843606,"address":"4850 E Southport Rd, Indianapolis IN","chain_name":null,"distance":0},{"name":"Bath & Body Works","code":null,"latitude":40.7203688,"longitude":-73.8453835,"address":"70-46 Austin St, Forest Hills NY","chain_name":null,"distance":0},{"name":"Bath & Body Works","code":null,"latitude":42.6276675,"longitude":-82.9479056,"address":"17420 Hall Rd, Clinton Twp MI","chain_name":null,"distance":0},{"name":"Bath & Body Works","code":null,"latitude":33.7763203,"longitude":-117.8692674,"address":"2800 North Main, Santa Ana CA","chain_name":null,"distance":0},{"name":"Bath & Body Works","code":null,"latitude":32.9092331,"longitude":-96.9588078,"address":"7555 N Macarthur Blvd, Irving TX","chain_name":null,"distance":0},{"name":"Bath & Body Works","code":null,"latitude":33.9572493,"longitude":-84.133313,"address":"2100 Pleasanthill Rd, Duluth GA","chain_name":null,"distance":0},{"name":"Bath & Body Works","code":null,"latitude":38.3993524,"longitude":-75.5673896,"address":"2300 N Salisbury, Salisbury MD","chain_name":null,"distance":0},{"name":"Bath & Body Works","code":null,"latitude":25.7043957,"longitude":-80.2864618,"address":"5701 Sunset Dr, South Miami FL","chain_name":null,"distance":0},{"name":"Bath & Body Works","code":null,"latitude":42.0229286,"longitude":-88.1433229,"address":"2437 W Schaumburg Rd, Schaumburg IL","chain_name":null,"distance":0},{"name":"Bath & Body Works","code":null,"latitude":36.017623,"longitude":-78.911263,"address":"1058 W Club Blvd, Durham NC","chain_name":null,"distance":0},{"name":"Bath & Body Works","code":null,"latitude":40.366395,"longitude":-80.670955,"address":"100 Mall Dr, Steubenville OH","chain_name":null,"distance":0},{"name":"Bath & Body Works","code":null,"latitude":30.5041381,"longitude":-97.6602365,"address":"4401 North Ih35 Space 463, Round Rock TX","chain_name":null,"distance":0}]