[{"name":"Bruegger's Bagel Bakery","code":null,"latitude":44.98763,"longitude":-93.2574,"address":"228 E Hennepin Avenue, Minneapolis MN","chain_name":null,"distance":0},{"name":"Bruegger's Bagel Bakery","code":null,"latitude":44.97366,"longitude":-93.2283,"address":"720 Washington Avenue Southeast, Minneapolis MN","chain_name":null,"distance":0},{"name":"Bruegger's Bagel Bakery","code":null,"latitude":43.25302,"longitude":-77.6996,"address":"3177 Latta Road, Rochester NY","chain_name":null,"distance":0},{"name":"Bruegger's Bagel Bakery","code":null,"latitude":41.38066,"longitude":-81.4692,"address":"6573 Cochran Road # Op, Solon OH","chain_name":null,"distance":0},{"name":"Bruegger's Bagel Bakery","code":null,"latitude":36.1316,"longitude":-79.7965,"address":"431 Pisgah Church Road, Greensboro NC","chain_name":null,"distance":0},{"name":"Bruegger's Bagels","code":null,"latitude":40.28389,"longitude":-80.121,"address":"3527 Washington Road, Canonsburg PA","chain_name":null,"distance":0},{"name":"Brueggers Bagel Bakery","code":null,"latitude":35.2043,"longitude":-81.3716,"address":"105 McCarter Drive, Kings Mountain NC","chain_name":null,"distance":0},{"name":"Bruegger's Bagel Bakery","code":null,"latitude":41.9264,"longitude":-91.7007,"address":"Cedar Rapids IA","chain_name":null,"distance":0},{"name":"Bruegger's Bagel Bakery","code":null,"latitude":44.8368,"longitude":-93.401,"address":"9641 Anderson Lakes Parkway, Eden Prairie MN","chain_name":null,"distance":0},{"name":"Bruegger's Bagel Bakery","code":null,"latitude":43.17674,"longitude":-87.9124,"address":"383 W Brown Deer Road # 20, Milwaukee WI","chain_name":null,"distance":0},{"name":"Bruegger's Bagel Bakery","code":null,"latitude":36.09249,"longitude":-80.2805,"address":"205 S Stratford Road # 88-0665, Winston Salem NC","chain_name":null,"distance":0},{"name":"Bruegger's Bagel Bakery","code":null,"latitude":41.0312,"longitude":-73.767,"address":"167 Martine Avenue, White Plains NY","chain_name":null,"distance":0},{"name":"Bruegger's Bagel Bakery","code":null,"latitude":35.85712,"longitude":-78.7037,"address":"6274 Glenwood Avenue # 100, Raleigh NC","chain_name":null,"distance":0},{"name":"Bruegger's Bagel Bakery","code":null,"latitude":32.23522,"longitude":-110.9438,"address":"1064 N Campbell Avenue, Tucson AZ","chain_name":null,"distance":0},{"name":"Bruegger's Bagel Bakery","code":null,"latitude":44.73193,"longitude":-93.2226,"address":"7745 150th Street West, Saint Paul MN","chain_name":null,"distance":0},{"name":"Bruegger's Bagel Bakery","code":null,"latitude":43.08659,"longitude":-77.637,"address":"3333 W Henrietta Road, Rochester NY","chain_name":null,"distance":0},{"name":"Bruegger's Bagel Bakery","code":null,"latitude":35.9131,"longitude":-79.0558,"address":"104 W Franklin Street, Chapel Hill NC","chain_name":null,"distance":0},{"name":"Bruegger's Bagels","code":null,"latitude":40.50479,"longitude":-80.2084,"address":"1134 Thorn Run Road, Coraopolis PA","chain_name":null,"distance":0},{"name":"Brueggers Bagel Bakery","code":null,"latitude":39.67995,"longitude":-104.9593,"address":"2000 S University Boulevard, Denver CO","chain_name":null,"distance":0},{"name":"Bruegger's Bagel Bakery","code":null,"latitude":41.5015,"longitude":-81.5196,"address":"14483 Cedar Road, Cleveland OH","chain_name":null,"distance":0},{"name":"Bruegger's Bagels","code":null,"latitude":40.42875,"longitude":-79.9803,"address":"1801 East Carson Street, Pittsburgh PA","chain_name":null,"distance":0},{"name":"Bruegger's Bagel Bakery","code":null,"latitude":41.46446,"longitude":-81.5077,"address":"24215 Chagrin Boulevard, Beachwood OH","chain_name":null,"distance":0},{"name":"Bruegger's Bagel Bakery","code":null,"latitude":43.32755,"longitude":-73.6676,"address":"711 Upper Glen Street, Queensbury NY","chain_name":null,"distance":0},{"name":"Bruegger's Bagel Bakery","code":null,"latitude":32.22166,"longitude":-110.9102,"address":"3843 E Broadway Boulevard, Tucson AZ","chain_name":null,"distance":0},{"name":"Bruegger's Bagels","code":null,"latitude":40.44093,"longitude":-80.0023,"address":"26 Market Square, Pittsburgh PA","chain_name":null,"distance":0},{"name":"Bruegger's Bagel Bakery","code":null,"latitude":44.91816,"longitude":-93.503,"address":"4719 County Road 101, Minnetonka MN","chain_name":null,"distance":0},{"name":"Bruegger's Bagel Bakery","code":null,"latitude":39.09997,"longitude":-84.5124,"address":"2 E 4th Street, Cincinnati OH","chain_name":null,"distance":0},{"name":"Brueggers Bagel Bakery","code":null,"latitude":39.74689,"longitude":-104.9919,"address":"817 17th Street, Denver CO","chain_name":null,"distance":0},{"name":"Bruegger's Bagel Bakery","code":null,"latitude":32.40896,"longitude":-110.9958,"address":"11165 N La Canada Drive, Tucson AZ","chain_name":null,"distance":0},{"name":"Bruegger's Bagel Bakery","code":null,"latitude":42.59876,"longitude":-73.7099,"address":"Route 4 & Highway 20, East Greenbush NY","chain_name":null,"distance":0},{"name":"Bruegger's Bagel Bakery","code":null,"latitude":35.08857,"longitude":-80.8672,"address":"8706 Pineville Matthews Road, Charlotte NC","chain_name":null,"distance":0},{"name":"Brueggers","code":null,"latitude":42.35389,"longitude":-71.0583,"address":"91 Summer Street, Boston MA","chain_name":null,"distance":0},{"name":"Brueggers","code":null,"latitude":35.7514,"longitude":-78.7437,"address":"8204 Tryon Woods Drive, Cary NC","chain_name":null,"distance":0},{"name":"Brueggers Bagel Bakery","code":null,"latitude":40.0975,"longitude":-83.0924,"address":"4425 West Dublin Granville Road, Dublin OH","chain_name":null,"distance":0},{"name":"Bruegger's Bagel Bakery","code":null,"latitude":40.45061,"longitude":-79.9354,"address":"806 S Aiken Avenue, Pittsburgh PA","chain_name":null,"distance":0},{"name":"Brueggers Bagel Bakery","code":null,"latitude":33.57232,"longitude":-117.7233,"address":"26921 Aliso Creek Road, Aliso Viejo CA","chain_name":null,"distance":0},{"name":"Bruegger's Bagels","code":null,"latitude":45.02599,"longitude":-93.3802,"address":"3858 Winnetka Avenue North, Minneapolis MN","chain_name":null,"distance":0},{"name":"Bruegger's Bagel Bakery","code":null,"latitude":33.30538,"longitude":-111.9269,"address":"4929 W Chandler Boulevard # 3, Chandler AZ","chain_name":null,"distance":0},{"name":"Bruegger's Bagel Bakery","code":null,"latitude":42.27857,"longitude":-83.7401,"address":"709 N University Avenue, Ann Arbor MI","chain_name":null,"distance":0},{"name":"Bruegger's Bagel Bakery","code":null,"latitude":42.72803,"longitude":-73.7602,"address":"594 New Loudon Road # 13, Latham NY","chain_name":null,"distance":0},{"name":"Bruegger's Bagels","code":null,"latitude":44.94697,"longitude":-93.0974,"address":"1 7th Place West, Saint Paul MN","chain_name":null,"distance":0},{"name":"Bruegger's","code":null,"latitude":34.15672,"longitude":-118.7561,"address":"5879 Kanan Road, Agoura Hills CA","chain_name":null,"distance":0},{"name":"Bruegger's Bagel Bakery","code":null,"latitude":39.31917,"longitude":-84.3141,"address":"8220 Arbor Square Drive, Mason OH","chain_name":null,"distance":0},{"name":"Bruegger's Bagel Bakery","code":null,"latitude":35.08929,"longitude":-80.8718,"address":"9015 Pineville Matthews Road, Pineville NC","chain_name":null,"distance":0},{"name":"Bruegger's Bagels","code":null,"latitude":40.4372,"longitude":-79.9229,"address":"1717 Murray Avenue, Pittsburgh PA","chain_name":null,"distance":0},{"name":"Bruegger's Bagel Bakery","code":null,"latitude":35.8693,"longitude":-78.621,"address":"6325 Falls Of Neuse Road # 33, Raleigh NC","chain_name":null,"distance":0},{"name":"Brueggers Bagel Bakery","code":null,"latitude":33.46805,"longitude":-112.0884,"address":"1801 Palmcroft Way Northeast, Phoenix AZ","chain_name":null,"distance":0},{"name":"Bruegger's Bagel Bakery","code":null,"latitude":42.72789,"longitude":-73.8445,"address":"1770 Central Avenue # 17, Albany NY","chain_name":null,"distance":0},{"name":"Brueggers","code":null,"latitude":34.82791,"longitude":-82.3986,"address":"1726 Augusta Street, Greenville SC","chain_name":null,"distance":0},{"name":"Bruegger's Bagel Bakery","code":null,"latitude":35.20025,"longitude":-80.8423,"address":"1531 East Boulevard, Charlotte NC","chain_name":null,"distance":0},{"name":"Bruegger's","code":null,"latitude":41.45259,"longitude":-97.0545,"address":"510 E 16th Street, Schuyler NE","chain_name":null,"distance":0},{"name":"Bruegger's Bagel Bakery","code":null,"latitude":40.44141,"longitude":-79.9571,"address":"3714 Forbes Avenue, Pittsburgh PA","chain_name":null,"distance":0},{"name":"Bruegger's Bagel Bakery","code":null,"latitude":44.96631,"longitude":-93.3494,"address":"1650 Park Place Boulevard, Minneapolis MN","chain_name":null,"distance":0},{"name":"Bruegger's Bagel Bakery","code":null,"latitude":42.3906,"longitude":-82.9148,"address":"17144 Kercheval Avenue, Grosse Pointe MI","chain_name":null,"distance":0},{"name":"Bruegger's Bagel Bakery","code":null,"latitude":42.71583,"longitude":-73.8108,"address":"98 Wolf Road # 12, Albany NY","chain_name":null,"distance":0},{"name":"Brueggers Bagel Bakery","code":null,"latitude":39.2185,"longitude":-76.0877,"address":"Po Box 462, Chestertown MD","chain_name":null,"distance":0},{"name":"Bruegger's Bagel Bakery","code":null,"latitude":36.1191,"longitude":-79.841,"address":"3211 Battleground Avenue, Greensboro NC","chain_name":null,"distance":0},{"name":"Bruegger's Bagels","code":null,"latitude":40.34764,"longitude":-80.0536,"address":"1720 Washington Road, Pittsburgh PA","chain_name":null,"distance":0},{"name":"Bruegger's Bagels","code":null,"latitude":40.45061,"longitude":-79.9354,"address":"806 South Aiken Avenue, Pittsburgh PA","chain_name":null,"distance":0},{"name":"Bruegger's - Tempe","code":null,"latitude":33.41894,"longitude":-111.9399,"address":"1038 South Mill Avenue, Tempe AZ","chain_name":null,"distance":0},{"name":"Bruegger's Bagel Bakery","code":null,"latitude":41.4633,"longitude":-81.9544,"address":"30155 Detroit Road, Westlake OH","chain_name":null,"distance":0},{"name":"Bruegger's Bagel Bakery","code":null,"latitude":41.13539,"longitude":-81.5549,"address":"1821 Merriman Road, Akron OH","chain_name":null,"distance":0},{"name":"Brueggers","code":null,"latitude":34.7302,"longitude":-86.5885,"address":"100 Church Street Southwest Suite 150, Huntsville AL","chain_name":null,"distance":0},{"name":"Bruegger's Bagel Bakery","code":null,"latitude":39.14701,"longitude":-84.4289,"address":"3842 Paxton Avenue, Cincinnati OH","chain_name":null,"distance":0},{"name":"Bruegger's Bagel Bakery","code":null,"latitude":32.22189,"longitude":-110.9712,"address":"1 W Congress Street, Tucson AZ","chain_name":null,"distance":0},{"name":"Bruegger's Bagel Bakery","code":null,"latitude":42.8605,"longitude":-73.7809,"address":"19 Clifton Country Road # 7, Clifton Park NY","chain_name":null,"distance":0},{"name":"Brueggers Bagel Bakery","code":null,"latitude":33.08608,"longitude":-117.2686,"address":"7680 El Camino Real, Carlsbad CA","chain_name":null,"distance":0},{"name":"Bruegger's Bagel Bakery","code":null,"latitude":41.45991,"longitude":-81.859,"address":"21619 Center Ridge Road, Rocky River OH","chain_name":null,"distance":0},{"name":"Bruegger's Bagel Bakery","code":null,"latitude":45.02133,"longitude":-93.1688,"address":"2712 Lincoln Drive, Saint Paul MN","chain_name":null,"distance":0},{"name":"Bruegger's Bagels","code":null,"latitude":40.4399,"longitude":-79.9965,"address":"531 Grant Street, Pittsburgh PA","chain_name":null,"distance":0},{"name":"Bruegger's Bagel Bakery","code":null,"latitude":35.3126,"longitude":-80.7432,"address":"9211 N Tryon Street, Charlotte NC","chain_name":null,"distance":0},{"name":"Brueggers Bagel Bakery","code":null,"latitude":36.09812,"longitude":-80.2471,"address":"310 West 4th Street, Winston Salem NC","chain_name":null,"distance":0},{"name":"Bruegger's Bagels","code":null,"latitude":40.51506,"longitude":-79.8435,"address":"333 Allegheny Avenue, Oakmont PA","chain_name":null,"distance":0},{"name":"Bruegger's Bagel Bakery","code":null,"latitude":43.20972,"longitude":-77.6949,"address":"2496 Ridge Road West, Rochester NY","chain_name":null,"distance":0},{"name":"Bruegger's Bagel Bakery","code":null,"latitude":42.4888,"longitude":-83.1442,"address":"201 S Main Street, Royal Oak MI","chain_name":null,"distance":0},{"name":"Bruegger's Bagel Bakery","code":null,"latitude":39.18837,"longitude":-84.3632,"address":"7005 Miami Avenue, Cincinnati OH","chain_name":null,"distance":0},{"name":"Bruegger's Bagel","code":null,"latitude":40.50479,"longitude":-80.2084,"address":"1134 Thorn Run Road, Moon Township PA","chain_name":null,"distance":0},{"name":"Brueggers Bagel","code":null,"latitude":42.31917,"longitude":-72.6303,"address":"96 Main Street, Northampton MA","chain_name":null,"distance":0},{"name":"Bruegger's Bagel Bakery","code":null,"latitude":32.30938,"longitude":-110.8926,"address":"5665 N Swan Road, Tucson AZ","chain_name":null,"distance":0},{"name":"Bruegger's Bagel Bakery","code":null,"latitude":35.73802,"longitude":-78.8646,"address":"760 W Williams Street, Apex NC","chain_name":null,"distance":0},{"name":"Bruegger's Bagel Bakery","code":null,"latitude":36.00681,"longitude":-78.9222,"address":"626 9th Street, Durham NC","chain_name":null,"distance":0},{"name":"Bruegger's Bagel Bakery","code":null,"latitude":43.19839,"longitude":-77.9424,"address":"6510 Brockport Spencerport Road, Brockport NY","chain_name":null,"distance":0},{"name":"Bruegger's Bagel Bakery","code":null,"latitude":42.73386,"longitude":-84.4785,"address":"505 E Grand River Avenue, East Lansing MI","chain_name":null,"distance":0},{"name":"Bruegger's Bagels","code":null,"latitude":40.54079,"longitude":-80.181,"address":"422 Beaver Street, Sewickley PA","chain_name":null,"distance":0},{"name":"Bruegger's Bagels","code":null,"latitude":40.43832,"longitude":-79.9985,"address":"429 4th Avenue, Pittsburgh PA","chain_name":null,"distance":0},{"name":"Bruegger's Bagel Bakery","code":null,"latitude":39.23307,"longitude":-84.5096,"address":"9172 Winton Road, Cincinnati OH","chain_name":null,"distance":0},{"name":"Bruegger's Bagel Bakery","code":null,"latitude":45.07966,"longitude":-93.1143,"address":"111 Village Center Drive, Saint Paul MN","chain_name":null,"distance":0},{"name":"Brueggers bagel","code":null,"latitude":38.80248,"longitude":-77.0619,"address":"500 John Carlyle Street, Alexandria VA","chain_name":null,"distance":0},{"name":"Brueggers Bagel Bakery","code":null,"latitude":41.13539,"longitude":-81.5549,"address":"1821 Merriman Road, Akron OH","chain_name":null,"distance":0},{"name":"Bruegger's Bagel & Bakery","code":null,"latitude":41.13597,"longitude":-81.6325,"address":"3737 West Market Street, Akron OH","chain_name":null,"distance":0},{"name":"Bruegger's Bagel Bakery","code":null,"latitude":44.86143,"longitude":-93.3017,"address":"7801 Southtown Centre, Minneapolis MN","chain_name":null,"distance":0},{"name":"Bruegger's Bagel Bakery","code":null,"latitude":42.5133,"longitude":-83.3593,"address":"29433 Orchard Lake Road, Farmington MI","chain_name":null,"distance":0},{"name":"Brueggers Bagel","code":null,"latitude":34.73934,"longitude":-86.63,"address":"1317 Putman Drive Northwest, Huntsville AL","chain_name":null,"distance":0},{"name":"Bruegger's Bagel Bakery","code":null,"latitude":36.10095,"longitude":-86.8708,"address":"5311 Harding Pike, Nashville TN","chain_name":null,"distance":0},{"name":"Bruegger's Bagels","code":null,"latitude":40.44265,"longitude":-79.9961,"address":"411 7th Avenue, Pittsburgh PA","chain_name":null,"distance":0},{"name":"Bruegger's Bagel Bakery","code":null,"latitude":43.05559,"longitude":-76.0853,"address":"3065 Erie Boulevard East, Syracuse NY","chain_name":null,"distance":0},{"name":"Bruegger's Bagel Bakery","code":null,"latitude":40.43787,"longitude":-79.9229,"address":"1719 Murray Avenue, Pittsburgh PA","chain_name":null,"distance":0},{"name":"Brueggers Bagel Bakeries","code":null,"latitude":44.96631,"longitude":-93.3494,"address":"1650 Park Place Boulevard, Minneapolis MN","chain_name":null,"distance":0},{"name":"Bruegger's Bagel Bakery","code":null,"latitude":35.90984,"longitude":-78.7844,"address":"8211 Brier Creek Parkway, Raleigh NC","chain_name":null,"distance":0},{"name":"Bruegger's Bagel Bakery","code":null,"latitude":42.65637,"longitude":-71.1404,"address":"10 Main St, Andover MA","chain_name":null,"distance":0},{"name":"Bruegger's Bagel Bakery","code":null,"latitude":43.12205,"longitude":-76.1569,"address":"5198 W Taft Road, Syracuse NY","chain_name":null,"distance":0},{"name":"Bruegger's Bagel Bakery","code":null,"latitude":41.30626,"longitude":-81.8352,"address":"15035 Pearl Road, Strongsville OH","chain_name":null,"distance":0},{"name":"Bruegger's Bagel Bakery","code":null,"latitude":42.2529,"longitude":-83.7498,"address":"2260 S Main Street, Ann Arbor MI","chain_name":null,"distance":0},{"name":"Bruegger's Bagel Bakery","code":null,"latitude":43.19178,"longitude":-77.5028,"address":"1950 Empire Boulevard # 53, Webster NY","chain_name":null,"distance":0},{"name":"Bruegger's Bagels","code":null,"latitude":40.34394,"longitude":-79.9713,"address":"5217 Clairton Boulevard, Pittsburgh PA","chain_name":null,"distance":0},{"name":"Brueggers Bagel Bakery","code":null,"latitude":41.30626,"longitude":-81.8352,"address":"15035 Pearl Road, Strongsville OH","chain_name":null,"distance":0},{"name":"Bruegger's Bagel Bakery","code":null,"latitude":39.71196,"longitude":-105.133,"address":"180 S Union Boulevard, Denver CO","chain_name":null,"distance":0},{"name":"Bruegger's Bagel Bakery","code":null,"latitude":35.83768,"longitude":-78.6412,"address":"4261 Six Forks Road, Raleigh NC","chain_name":null,"distance":0},{"name":"Bruegger's Bagel Bakery","code":null,"latitude":44.9752,"longitude":-93.2714,"address":"121 S 8th Street # 205, Minneapolis MN","chain_name":null,"distance":0},{"name":"Bruegger's Bagel Bakery","code":null,"latitude":42.29886,"longitude":-71.3957,"address":"1 Worcester Road # 109, Framingham MA","chain_name":null,"distance":0},{"name":"Brueggers Bagel Bakeries","code":null,"latitude":44.04119,"longitude":-92.4646,"address":"102 Elton Hills Lane Northwest, Rochester MN","chain_name":null,"distance":0},{"name":"Bruegger's Bagels","code":null,"latitude":36.11424,"longitude":-79.8344,"address":"2959 Battleground Avenue, Greensboro NC","chain_name":null,"distance":0},{"name":"Bruegger's Bagel Bakery","code":null,"latitude":35.77738,"longitude":-78.6782,"address":"2231 Avent Ferry Road, Raleigh NC","chain_name":null,"distance":0},{"name":"Bruegger's Bagel Bakery","code":null,"latitude":32.22158,"longitude":-110.86,"address":"6165 E Broadway Boulevard, Tucson AZ","chain_name":null,"distance":0},{"name":"Bruegger's Bagel Bakery","code":null,"latitude":41.71144,"longitude":-83.6804,"address":"5829 Monroe Street, Sylvania OH","chain_name":null,"distance":0},{"name":"Bruegger's Bagel Bakery","code":null,"latitude":42.24917,"longitude":-70.9065,"address":"211 Lincoln Street, Hingham MA","chain_name":null,"distance":0},{"name":"Bruegger's Bagel Bakery","code":null,"latitude":41.13582,"longitude":-81.6346,"address":"3737 W Market Street # Centre, Akron OH","chain_name":null,"distance":0},{"name":"Bruegger's Bagel Bakery","code":null,"latitude":33.36311,"longitude":-111.8418,"address":"721 N Arizona Avenue # 1, Gilbert AZ","chain_name":null,"distance":0},{"name":"Bruegger's Bagel Bakery","code":null,"latitude":42.68924,"longitude":-73.8526,"address":"1475 Wern Avenue, Albany NY","chain_name":null,"distance":0},{"name":"Bruegger's Bagel Bakery","code":null,"latitude":42.25922,"longitude":-71.0418,"address":"360 Granite Avenue, Milton MA","chain_name":null,"distance":0},{"name":"Bruegger's Bagel Bakery","code":null,"latitude":35.9019,"longitude":-78.6574,"address":"9704 Strickland Road, Raleigh NC","chain_name":null,"distance":0},{"name":"Brueggers Bagel Bakery","code":null,"latitude":41.67729,"longitude":-81.3092,"address":"9210 Mentor Avenue, Mentor OH","chain_name":null,"distance":0},{"name":"Bruegger's Bagel Bakery","code":null,"latitude":32.3405,"longitude":-111.0126,"address":"7320 N La Cholla Boulevard # 124, Tucson AZ","chain_name":null,"distance":0},{"name":"Bruegger's Bagel Bakery","code":null,"latitude":40.42875,"longitude":-79.9803,"address":"1801 E Carson Street, Pittsburgh PA","chain_name":null,"distance":0},{"name":"Bruegger's Bagel Bakery","code":null,"latitude":32.25085,"longitude":-110.8398,"address":"7127 E Tanque Verde Road, Tucson AZ","chain_name":null,"distance":0},{"name":"Brueggers Bagel Bakeries","code":null,"latitude":33.6286,"longitude":-117.9089,"address":"488 East 17th Street, Costa Mesa CA","chain_name":null,"distance":0},{"name":"Bruegger's Bagel Bakery","code":null,"latitude":44.8833,"longitude":-93.3086,"address":"6600 Penn Avenue South, Minneapolis MN","chain_name":null,"distance":0},{"name":"Bruegger's Bagel Bakery","code":null,"latitude":42.85094,"longitude":-72.5574,"address":"14 Main Street, Brattleboro VT","chain_name":null,"distance":0},{"name":"Bruegger's Bagel Bakery","code":null,"latitude":36.14577,"longitude":-86.7995,"address":"422 21st. Avenue South, Nashville TN","chain_name":null,"distance":0},{"name":"Bruegger's Bagel Bakery","code":null,"latitude":42.68155,"longitude":-83.1575,"address":"1398 Walton Boulevard, Rochester MI","chain_name":null,"distance":0},{"name":"Bruegger's Bagels","code":null,"latitude":39.0474,"longitude":-84.6702,"address":"3013 Terminal Drive, Cincinnati OH","chain_name":null,"distance":0},{"name":"Brueggers Bagel Bakery","code":null,"latitude":42.68155,"longitude":-83.1575,"address":"1398 Walton Boulevard, Rochester MI","chain_name":null,"distance":0},{"name":"Bruegger's Bagel Bakery","code":null,"latitude":42.29592,"longitude":-71.2982,"address":"97 Central Street, Wellesley MA","chain_name":null,"distance":0},{"name":"Bruegger's Bagel Bakery","code":null,"latitude":32.29703,"longitude":-110.9739,"address":"98 W River Road, Tucson AZ","chain_name":null,"distance":0},{"name":"Bruegger's Bagel Bakery","code":null,"latitude":44.9773,"longitude":-93.2718,"address":"651 Nicollet Mall, Minneapolis MN","chain_name":null,"distance":0},{"name":"Bruegger's Bagel Bakery","code":null,"latitude":42.80441,"longitude":-73.9036,"address":"1634 Union Street, Schenectady NY","chain_name":null,"distance":0},{"name":"Bruegger's Bagel Bakery","code":null,"latitude":36.02699,"longitude":-86.7922,"address":"330 Franklin Road, Brentwood TN","chain_name":null,"distance":0},{"name":"Bruegger's Bagels","code":null,"latitude":32.95944,"longitude":-117.2651,"address":"1435 Camino Del Mar, Del Mar CA","chain_name":null,"distance":0},{"name":"Brueggers Bagel Bakery","code":null,"latitude":42.5133,"longitude":-83.3593,"address":"29433 Orchard Lake Road, Farmington MI","chain_name":null,"distance":0},{"name":"Bruegger's Bagel Bakery","code":null,"latitude":42.72887,"longitude":-73.6915,"address":"55 Congress Street, Troy NY","chain_name":null,"distance":0},{"name":"Brueggers Bagel Bakery","code":null,"latitude":38.90375,"longitude":-77.0471,"address":"2101 L Street Northwest, Washington DC","chain_name":null,"distance":0},{"name":"Bruegger's Bagel Bakery","code":null,"latitude":35.56391,"longitude":-82.5424,"address":"160 Hendersonville Road, Asheville NC","chain_name":null,"distance":0},{"name":"Bruegger's Bagel Bakery","code":null,"latitude":41.26868,"longitude":-73.1294,"address":"811 Bridgeport Avenue, Shelton CT","chain_name":null,"distance":0},{"name":"Brueggers Bagel Bakery","code":null,"latitude":42.3906,"longitude":-82.9148,"address":"17144 Kercheval Avenue, Grosse Pointe MI","chain_name":null,"distance":0},{"name":"Bruegger's Bagel Bakery","code":null,"latitude":42.34145,"longitude":-71.121,"address":"253 Harvard Street, Brookline MA","chain_name":null,"distance":0},{"name":"Bruegger's Bagel Bakery","code":null,"latitude":44.97117,"longitude":-93.4996,"address":"1179 Wayzata Boulevard East, Wayzata MN","chain_name":null,"distance":0},{"name":"Brueggers Bagel Bakery","code":null,"latitude":30.50109,"longitude":-90.4699,"address":"912 West Morris Avenue, Hammond LA","chain_name":null,"distance":0},{"name":"Bruegger's Bagel Bakery","code":null,"latitude":41.67729,"longitude":-81.3092,"address":"9210 Mentor Avenue, Mentor OH","chain_name":null,"distance":0},{"name":"Bruegger's Bagel Bakery","code":null,"latitude":44.41259,"longitude":-73.2145,"address":"2989 Shelburne Road, Shelburne VT","chain_name":null,"distance":0},{"name":"Bruegger's Bagels","code":null,"latitude":33.63789,"longitude":-117.5897,"address":"22361 Antonio Parkway, Rancho Santa Margari CA","chain_name":null,"distance":0},{"name":"Brueggers Bagel Bakery","code":null,"latitude":38.89615,"longitude":-77.0239,"address":"505 9th Street Northwest, Washington DC","chain_name":null,"distance":0},{"name":"Bruegger's Bagel Bakery","code":null,"latitude":43.2311,"longitude":-77.4543,"address":"Webster NY","chain_name":null,"distance":0},{"name":"Bruegger's Bagel Bakery","code":null,"latitude":32.71564,"longitude":-117.1687,"address":"655 W Broadway, San Diego CA","chain_name":null,"distance":0},{"name":"Bruegger's Bagel Bakery","code":null,"latitude":41.4882,"longitude":-72.8095,"address":"970 N Colony Road # G, Wallingford CT","chain_name":null,"distance":0},{"name":"Bruegger's Bagel Bakery","code":null,"latitude":35.79048,"longitude":-78.8267,"address":"4212 Northwest Cary Parkway, Cary NC","chain_name":null,"distance":0},{"name":"Bruegger's Bagel Bakery","code":null,"latitude":45.0377,"longitude":-92.8409,"address":"1970 Market Drive, Stillwater MN","chain_name":null,"distance":0},{"name":"Brueggers Bagel Bakery","code":null,"latitude":44.8833,"longitude":-93.3087,"address":"6600 Penn Avenue South, Minneapolis MN","chain_name":null,"distance":0},{"name":"Brueggers Bagel Bakery","code":null,"latitude":39.6145,"longitude":-105.0716,"address":"Littleton CO","chain_name":null,"distance":0},{"name":"Bruegger's Bagel Bakery","code":null,"latitude":41.60726,"longitude":-81.4397,"address":"5900 Som Center Road, Willoughby OH","chain_name":null,"distance":0},{"name":"Bruegger's Bagel Bakery","code":null,"latitude":42.3975,"longitude":-71.1753,"address":"41 Leonard Street, Belmont MA","chain_name":null,"distance":0},{"name":"Brueggers Bagel Bakery","code":null,"latitude":43.07153,"longitude":-77.4423,"address":"585 Moseley Rd, Fairport NY","chain_name":null,"distance":0},{"name":"Bruegger's Bagel Bakery","code":null,"latitude":33.60115,"longitude":-117.8727,"address":"2743 E Coast Highway, Corona Del Mar CA","chain_name":null,"distance":0},{"name":"Bruegger's Bagels","code":null,"latitude":43.06086,"longitude":-89.4855,"address":"6150 Mineral Point Road, Madison WI","chain_name":null,"distance":0},{"name":"Bruegger's Bagel Bakery","code":null,"latitude":35.93657,"longitude":-79.0265,"address":"1800 E Franklin Street, Chapel Hill NC","chain_name":null,"distance":0},{"name":"Bruegger's Bagel Bakery","code":null,"latitude":43.1567,"longitude":-77.6047,"address":"133 Midtown Plaza, Rochester NY","chain_name":null,"distance":0},{"name":"Bruegger's Bagel Bakery","code":null,"latitude":42.33973,"longitude":-71.1086,"address":"375 Longwood Avenue, Cambridge MA","chain_name":null,"distance":0},{"name":"Bruegger's Bagel Bakery","code":null,"latitude":41.23997,"longitude":-81.4448,"address":"84 W Streetsboro Street, Hudson OH","chain_name":null,"distance":0},{"name":"Bruegger's Bagel Bakery","code":null,"latitude":44.87401,"longitude":-93.3288,"address":"7101 France Avenue South, Minneapolis MN","chain_name":null,"distance":0},{"name":"Bruegger's Bagel Bakery","code":null,"latitude":41.71919,"longitude":-72.6137,"address":"2801 Main Street, Glastonbury CT","chain_name":null,"distance":0},{"name":"Brueggers Bagel Bakery","code":null,"latitude":43.08707,"longitude":-77.5971,"address":"Bushnell Basin, Rochester NY","chain_name":null,"distance":0},{"name":"Bruegger's Bagel Bakery","code":null,"latitude":32.93715,"longitude":-117.0989,"address":"10625 Scripps Poway Parkway, San Diego CA","chain_name":null,"distance":0},{"name":"Brueggers Bagel Bakery","code":null,"latitude":42.10464,"longitude":-87.849,"address":"2743 Pfingsten Road, Glenview IL","chain_name":null,"distance":0},{"name":"Bruegger's Bagel Bakery","code":null,"latitude":45.02185,"longitude":-93.3803,"address":"3558 Winnetka Avenue North, Minneapolis MN","chain_name":null,"distance":0},{"name":"Bruegger's Bagels","code":null,"latitude":41.23399,"longitude":-96.1168,"address":"12989 W Center Road, Omaha NE","chain_name":null,"distance":0},{"name":"Bruegger's Bagel Bakery","code":null,"latitude":33.20686,"longitude":-117.2861,"address":"4171 Oceanside Boulevard # 109, Oceanside CA","chain_name":null,"distance":0},{"name":"Bruegger's Bagel Bakery","code":null,"latitude":44.47775,"longitude":-73.2125,"address":"93 Church Street, Burlington VT","chain_name":null,"distance":0},{"name":"Bruegger's Bagel Bakery","code":null,"latitude":34.70865,"longitude":-86.7419,"address":"347 Hughes Road, Madison AL","chain_name":null,"distance":0},{"name":"Bruegger's Bagel Bakery","code":null,"latitude":41.32001,"longitude":-81.6267,"address":"7322 Chippewa Road, Brecksville OH","chain_name":null,"distance":0},{"name":"Bruegger's Bagel Bakery","code":null,"latitude":42.45368,"longitude":-71.1374,"address":"600 Main Street, Winchester MA","chain_name":null,"distance":0},{"name":"Bruegger's Bagel Bakery","code":null,"latitude":44.96493,"longitude":-93.2361,"address":"815 25th Avenue South, Minneapolis MN","chain_name":null,"distance":0},{"name":"Bruegger's Bagel Bakery","code":null,"latitude":42.62893,"longitude":-73.8117,"address":"180 Delaware Avenue, Delmar NY","chain_name":null,"distance":0},{"name":"Brueggers Bagel Bakery","code":null,"latitude":40.43545,"longitude":-80.232,"address":"402 High Tech Drive, Oakdale PA","chain_name":null,"distance":0},{"name":"Bruegger's Bagel Bakery","code":null,"latitude":35.96086,"longitude":-78.9588,"address":"1831 Martin Luther King Parkway, Durham NC","chain_name":null,"distance":0},{"name":"Bruegger's Bagel Bakery","code":null,"latitude":33.65432,"longitude":-117.7378,"address":"15346 Alton Parkway, Irvine CA","chain_name":null,"distance":0},{"name":"Bruegger's Bagel Bakery","code":null,"latitude":44.47817,"longitude":-73.2134,"address":"159 Bank Street, Burlington VT","chain_name":null,"distance":0},{"name":"Bruegger's Bagels","code":null,"latitude":40.81582,"longitude":-96.7039,"address":"1205 Q Street, Lincoln NE","chain_name":null,"distance":0},{"name":"Bruegger's Bagel Bakery","code":null,"latitude":39.40829,"longitude":-76.9491,"address":"1311 Londontown Boulevard, Sykesville MD","chain_name":null,"distance":0},{"name":"Bruegger's Bagel Bakery","code":null,"latitude":42.33973,"longitude":-71.1086,"address":"375 Longwood Avenue, Boston MA","chain_name":null,"distance":0},{"name":"Bruegger's Bagel Bakery","code":null,"latitude":39.35712,"longitude":-84.3796,"address":"7739 Tylers Place Boulevard, West Chester OH","chain_name":null,"distance":0},{"name":"Bruegger's Bagel Bakery","code":null,"latitude":32.92143,"longitude":-117.2152,"address":"4645 Carmel Mountain Road # 101, San Diego CA","chain_name":null,"distance":0},{"name":"Bruegger's Bagel Bakery","code":null,"latitude":30.46353,"longitude":-84.3126,"address":"1625 W Tharpe Street, Tallahassee FL","chain_name":null,"distance":0},{"name":"Brueggers Bagel Bakery","code":null,"latitude":40.01368,"longitude":-75.3025,"address":"396 West Lancaster Avenue, Haverford PA","chain_name":null,"distance":0},{"name":"Bruegger's Bagel Bakery","code":null,"latitude":43.12253,"longitude":-77.6185,"address":"1400 Mount Hope Avenue, Rochester NY","chain_name":null,"distance":0},{"name":"Bruegger's Bagel Bakery","code":null,"latitude":41.67371,"longitude":-83.7164,"address":"7225 W Central Avenue, Toledo OH","chain_name":null,"distance":0},{"name":"Bruegger's Bagel Bakery","code":null,"latitude":44.92204,"longitude":-93.329,"address":"4412 France Avenue South, Minneapolis MN","chain_name":null,"distance":0},{"name":"Bruegger's Bagel Bakery","code":null,"latitude":42.50993,"longitude":-71.1422,"address":"10 Roessler Road, Woburn MA","chain_name":null,"distance":0},{"name":"Bruegger's Bagel Bakery","code":null,"latitude":40.34764,"longitude":-80.0536,"address":"1720 Washington Road, Pittsburgh PA","chain_name":null,"distance":0},{"name":"Bruegger's Bagels","code":null,"latitude":41.25982,"longitude":-96.091,"address":"228 N 114th Street, Omaha NE","chain_name":null,"distance":0},{"name":"Bruegger's Bagel Bakery","code":null,"latitude":41.37679,"longitude":-72.915,"address":"2425 Dixwell Avenue, Hamden CT","chain_name":null,"distance":0},{"name":"Brueggers Bagel Bakery","code":null,"latitude":45.19754,"longitude":-93.2376,"address":"12525 Ulysses Street Northeast, Blaine MN","chain_name":null,"distance":0},{"name":"Bruegger's Bagel Bakery","code":null,"latitude":43.02862,"longitude":-76.1115,"address":"333 Nottingham Road, Syracuse NY","chain_name":null,"distance":0},{"name":"Bruegger's Bagel Bakery","code":null,"latitude":33.54659,"longitude":-117.1426,"address":"39584 Winchester Road # A, Temecula CA","chain_name":null,"distance":0},{"name":"Bruegger's Bagel Bakery","code":null,"latitude":41.1999,"longitude":-81.4404,"address":"4963 Darrow Road, Stow OH","chain_name":null,"distance":0},{"name":"Brueggers Bagel Bakery","code":null,"latitude":38.80477,"longitude":-77.0459,"address":"606 King Street, Alexandria VA","chain_name":null,"distance":0},{"name":"Bruegger's Bagel Bakery","code":null,"latitude":42.66635,"longitude":-73.792,"address":"1116 Madison Avenue # 1, Albany NY","chain_name":null,"distance":0},{"name":"Bruegger's Bagel Bakery","code":null,"latitude":42.37821,"longitude":-72.5199,"address":"170 N Pleasant Street, Amherst MA","chain_name":null,"distance":0},{"name":"Bruegger's Bagel Bakery","code":null,"latitude":32.84024,"longitude":-117.2735,"address":"905 Pearl Street, La Jolla CA","chain_name":null,"distance":0},{"name":"Bruegger's Bagel Bakery","code":null,"latitude":30.45561,"longitude":-84.2806,"address":"1216 N Monroe Street, Tallahassee FL","chain_name":null,"distance":0},{"name":"Bruegger's Bagel Bakery","code":null,"latitude":44.04119,"longitude":-92.4646,"address":"102 Elton Hills Lane NW, Rochester MN","chain_name":null,"distance":0},{"name":"Bruegger's Bagel Bakery","code":null,"latitude":43.13832,"longitude":-76.2264,"address":"7601 Oswego Road, Liverpool NY","chain_name":null,"distance":0},{"name":"Bruegger's Bagels","code":null,"latitude":43.07524,"longitude":-89.4445,"address":"3310 University Avenue, Madison WI","chain_name":null,"distance":0},{"name":"Bruegger's Bagel Bakery","code":null,"latitude":32.66209,"longitude":-116.9701,"address":"2322 Proctor Valley Road # D101, Chula Vista CA","chain_name":null,"distance":0},{"name":"Bruegger's Bagel Bakery","code":null,"latitude":41.24474,"longitude":-73.1964,"address":"900 White Plains Road, Trumbull CT","chain_name":null,"distance":0},{"name":"Bruegger's Bagel Bakery","code":null,"latitude":35.62166,"longitude":-82.5545,"address":"671 Merrimon Avenue, Asheville NC","chain_name":null,"distance":0},{"name":"Bruegger's Bagel Bakery","code":null,"latitude":42.15653,"longitude":-70.85,"address":"2100 Washington Street, Hanover MA","chain_name":null,"distance":0},{"name":"Bruegger's Bagels","code":null,"latitude":43.03605,"longitude":-88.0171,"address":"8340 W Bluemound Road, Wauwatosa WI","chain_name":null,"distance":0},{"name":"Bruegger's Bagel Bakery","code":null,"latitude":40.44084,"longitude":-80.0024,"address":"25 Market Square, Pittsburgh PA","chain_name":null,"distance":0},{"name":"Brueggers Bagel Bakery","code":null,"latitude":35.20323,"longitude":-80.7435,"address":"6003 Albemarle Road, Charlotte NC","chain_name":null,"distance":0},{"name":"Bruegger's Bagel Bakery","code":null,"latitude":43.08268,"longitude":-73.7849,"address":"453 Broadway, Saratoga Springs NY","chain_name":null,"distance":0},{"name":"Bruegger's Bagel Bakery","code":null,"latitude":44.94836,"longitude":-93.301,"address":"1500 W Lake Street, Minneapolis MN","chain_name":null,"distance":0},{"name":"Bruegger's Bagel Bakery","code":null,"latitude":42.43521,"longitude":-71.2344,"address":"413 Waltham Street, Lexington MA","chain_name":null,"distance":0},{"name":"Bruegger's Bagel Bakery","code":null,"latitude":42.6609,"longitude":-73.7432,"address":"32 Learned Street, Albany NY","chain_name":null,"distance":0},{"name":"Bruegger's Bagel Bakery","code":null,"latitude":45.02818,"longitude":-93.4547,"address":"4000 Annapolis Lane N # 109, Minneapolis MN","chain_name":null,"distance":0},{"name":"Bruegger's Bagels","code":null,"latitude":41.25964,"longitude":-95.9741,"address":"4015 Dodge Street, Omaha NE","chain_name":null,"distance":0},{"name":"Bruegger's Bagel Bakery","code":null,"latitude":40.75537,"longitude":-73.9837,"address":"1115 Avenue Of The Americas, New York NY","chain_name":null,"distance":0},{"name":"Bruegger's Bagel Bakery","code":null,"latitude":44.81062,"longitude":-93.3286,"address":"3809 W Old Shakopee Road, Minneapolis MN","chain_name":null,"distance":0},{"name":"Bruegger's Bagel Bakery","code":null,"latitude":33.08608,"longitude":-117.2686,"address":"7680 El Camino Real, Carlsbad CA","chain_name":null,"distance":0},{"name":"Bruegger's Bagel Bakery","code":null,"latitude":38.98735,"longitude":-84.7698,"address":"3013 Terminal Drive, Burlington KY","chain_name":null,"distance":0},{"name":"Bruegger's Bagel Bakery","code":null,"latitude":36.08335,"longitude":-79.8321,"address":"3116 W Friendly Avenue, Greensboro NC","chain_name":null,"distance":0},{"name":"Bruegger's Bagel Bakery","code":null,"latitude":41.80812,"longitude":-72.8265,"address":"45 E Main Street, Avon CT","chain_name":null,"distance":0},{"name":"Bruegger's Bagel Bakery","code":null,"latitude":42.4899,"longitude":-71.2742,"address":"170 Great Road, Bedford MA","chain_name":null,"distance":0},{"name":"Bruegger's Bagel Bakery","code":null,"latitude":40.33315,"longitude":-80.0238,"address":"5213 Library Road, Bethel Park PA","chain_name":null,"distance":0},{"name":"Brueggers Bagel Bakery","code":null,"latitude":36.02699,"longitude":-86.7922,"address":"330 Franklin Road, Suite 138, Brentwood TN","chain_name":null,"distance":0},{"name":"Bruegger's Bagel Bakery","code":null,"latitude":44.9743,"longitude":-93.1951,"address":"2233 Energy Park Drive # 100, Saint Paul MN","chain_name":null,"distance":0},{"name":"Brueggers Bagel Bakery","code":null,"latitude":35.80112,"longitude":-78.6841,"address":"3510 Wade Avenue, Raleigh NC","chain_name":null,"distance":0},{"name":"Bruegger's Bagel Bakery","code":null,"latitude":39.7035,"longitude":-104.9992,"address":"730 S Jason Street, Denver CO","chain_name":null,"distance":0},{"name":"Bruegger's Bagels","code":null,"latitude":43.09639,"longitude":-88.481,"address":"1043 E Summit, Oconomowoc WI","chain_name":null,"distance":0},{"name":"Bruegger's Bagel Bakery","code":null,"latitude":32.68356,"longitude":-117.1787,"address":"1305 Orange Avenue, Coronado CA","chain_name":null,"distance":0},{"name":"Bruegger's Bagel Bakery","code":null,"latitude":30.5046,"longitude":-84.2508,"address":"3425 Thomasville Road, Tallahassee FL","chain_name":null,"distance":0},{"name":"Bruegger's Bagel Bakery","code":null,"latitude":41.52009,"longitude":-81.46,"address":"6075 Mayfield Road, Cleveland OH","chain_name":null,"distance":0},{"name":"Bruegger's Bagel Bakery","code":null,"latitude":43.00134,"longitude":-75.9788,"address":"112 E Seneca Street, Manlius NY","chain_name":null,"distance":0},{"name":"Bruegger's Bagel Bakery","code":null,"latitude":42.65069,"longitude":-73.7521,"address":"29 N Pearl Street, Albany NY","chain_name":null,"distance":0},{"name":"Bruegger's Bagel Bakery","code":null,"latitude":34.67189,"longitude":-86.5391,"address":"2000 Cecil Ashbrn Drive, Huntsville AL","chain_name":null,"distance":0},{"name":"Bruegger's Bagel Bakery","code":null,"latitude":41.50107,"longitude":-81.5928,"address":"12443 Cedar Road, Cleveland OH","chain_name":null,"distance":0},{"name":"Brueggers Bagel Bakery","code":null,"latitude":34.81939,"longitude":-82.2723,"address":"1717 Woodruff Road, Greenville SC","chain_name":null,"distance":0},{"name":"Bruegger's Bagel Bakery","code":null,"latitude":44.79027,"longitude":-93.2172,"address":"2149 Cliff Road, Saint Paul MN","chain_name":null,"distance":0},{"name":"Bruegger's Bagels","code":null,"latitude":43.11843,"longitude":-87.9025,"address":"601 E Silver Spring Drive, Whitefish Bay WI","chain_name":null,"distance":0},{"name":"Bruegger's Bagel Bakery","code":null,"latitude":41.31068,"longitude":-72.9224,"address":"1 Whitney Avenue, New Haven CT","chain_name":null,"distance":0},{"name":"Bruegger's Bagel Bakery","code":null,"latitude":44.93109,"longitude":-93.3476,"address":"5400 Excelsior Boulevard, Minneapolis MN","chain_name":null,"distance":0},{"name":"Bruegger's Bagel Bakery","code":null,"latitude":42.35472,"longitude":-71.0546,"address":"211 Congress Street # 2, Boston MA","chain_name":null,"distance":0},{"name":"Bruegger's Bagel Bakery","code":null,"latitude":43.04235,"longitude":-76.1366,"address":"731 S Crouse Avenue, Syracuse NY","chain_name":null,"distance":0},{"name":"Brueggers Bagel Bakery","code":null,"latitude":41.98353,"longitude":-91.6458,"address":"1740 4th Avenue Southeast, Cedar Rapids IA","chain_name":null,"distance":0},{"name":"Bruegger's Bagel Bakery","code":null,"latitude":32.95944,"longitude":-117.2651,"address":"1435 Camino Del Mar, Del Mar CA","chain_name":null,"distance":0},{"name":"Bruegger's Bagel Bakery","code":null,"latitude":35.17592,"longitude":-80.7983,"address":"106 S Sharon Amity Road, Charlotte NC","chain_name":null,"distance":0},{"name":"Bruegger's Bagel Bakery","code":null,"latitude":42.29382,"longitude":-71.1612,"address":"659 Vfw Parkway, West Roxbury MA","chain_name":null,"distance":0},{"name":"Bruegger's Bagel Bakery","code":null,"latitude":40.28395,"longitude":-80.121,"address":"3527 Washington Road, Canonsburg PA","chain_name":null,"distance":0},{"name":"Bruegger's Bagels","code":null,"latitude":43.07527,"longitude":-89.4476,"address":"3515 University Avenue, Madison WI","chain_name":null,"distance":0},{"name":"Bruegger's Bagel Bakery","code":null,"latitude":41.76163,"longitude":-72.7422,"address":"1 S Main Street, West Hartford CT","chain_name":null,"distance":0},{"name":"Bruegger's Bagel Bakery","code":null,"latitude":33.72159,"longitude":-117.771,"address":"3991 Irvine Boulevard, Irvine CA","chain_name":null,"distance":0},{"name":"Bruegger's Bagel Bakery","code":null,"latitude":43.14606,"longitude":-77.5928,"address":"548 Monroe Avenue, Rochester NY","chain_name":null,"distance":0},{"name":"Bruegger's Bagel Bakery","code":null,"latitude":35.12413,"longitude":-80.708,"address":"1905 Matthews Township Parkway, Matthews NC","chain_name":null,"distance":0},{"name":"Brueggers Bagel Bakery","code":null,"latitude":33.35032,"longitude":-111.8107,"address":"721 North Arizona Avenue, Gilbert AZ","chain_name":null,"distance":0},{"name":"Bruegger's Bagels","code":null,"latitude":32.22189,"longitude":-110.9712,"address":"1 West Congress Street, Tucson AZ","chain_name":null,"distance":0},{"name":"Bruegger's Bagel Bakery","code":null,"latitude":35.48461,"longitude":-80.8776,"address":"20619 Torrence Chapel Road, Cornelius NC","chain_name":null,"distance":0},{"name":"Bruegger's Bagels","code":null,"latitude":42.73386,"longitude":-84.4785,"address":"505 East Grand River Avenue, East Lansing MI","chain_name":null,"distance":0},{"name":"Bruegger's Bagel Bakery","code":null,"latitude":42.36284,"longitude":-71.1378,"address":"370 Western Avenue, Brighton MA","chain_name":null,"distance":0},{"name":"Bruegger's Bagel Bakery","code":null,"latitude":41.1464,"longitude":-73.4932,"address":"11 South Avenue, New Canaan CT","chain_name":null,"distance":0},{"name":"Bruegger's Bagel Bakery","code":null,"latitude":35.17306,"longitude":-80.8511,"address":"4327 Park Road, Charlotte NC","chain_name":null,"distance":0},{"name":"Bruegger's Bagel Bakery","code":null,"latitude":41.66127,"longitude":-91.5327,"address":"225 Iowa Avenue, Iowa City IA","chain_name":null,"distance":0},{"name":"Bruegger's Bagel Bakery","code":null,"latitude":41.75544,"longitude":-72.6762,"address":"1 Main Street, Hartford CT","chain_name":null,"distance":0},{"name":"Bruegger's Bagel Bakery","code":null,"latitude":43.17674,"longitude":-87.9124,"address":"383 W Brown Deer Road # 20, Milwaukee WI","chain_name":null,"distance":0},{"name":"Bruegger's Bagel Bakery","code":null,"latitude":40.34394,"longitude":-79.9713,"address":"5217 Clairton Boulevard, Pittsburgh PA","chain_name":null,"distance":0},{"name":"Bruegger's Bagel Bakery","code":null,"latitude":43.15257,"longitude":-77.5739,"address":"1044 University Avenue, Rochester NY","chain_name":null,"distance":0},{"name":"Brueggers Bagel Bakery","code":null,"latitude":42.33973,"longitude":-71.1086,"address":"375 Longwood Avenue, Boston MA","chain_name":null,"distance":0},{"name":"Bruegger's Bagels - Clocktower","code":null,"latitude":40.78717,"longitude":-96.6971,"address":"70th & A, Lincoln NE","chain_name":null,"distance":0},{"name":"Bruegger's Bagel Bakery","code":null,"latitude":42.3883,"longitude":-71.1194,"address":"1876 Massachusetts Avenue, Cambridge MA","chain_name":null,"distance":0},{"name":"Bruegger's Bagel Bakery","code":null,"latitude":35.94251,"longitude":-78.5415,"address":"10750 Wakefield Commons Drive, Raleigh NC","chain_name":null,"distance":0},{"name":"Bruegger's Bagel Bakery","code":null,"latitude":43.11843,"longitude":-87.9025,"address":"601 E Silver Spring Drive, Milwaukee WI","chain_name":null,"distance":0},{"name":"Bruegger's Bagel Bakery","code":null,"latitude":42.68138,"longitude":-73.7914,"address":"900 Central Avenue # 16, Albany NY","chain_name":null,"distance":0},{"name":"Bruegger's Bagel Bakery","code":null,"latitude":39.2315,"longitude":-84.377,"address":"9590 Kenwood Road, Cincinnati OH","chain_name":null,"distance":0},{"name":"Bruegger's Bagel Bakery","code":null,"latitude":44.9514,"longitude":-93.0114,"address":"2133 Old Hudson Road, Saint Paul MN","chain_name":null,"distance":0},{"name":"Bruegger's Bagel Bakery","code":null,"latitude":44.02192,"longitude":-92.4644,"address":"155 1st Avenue Southwest, Rochester MN","chain_name":null,"distance":0},{"name":"Bruegger's Bagel Bakery - Cleveland HTS","code":null,"latitude":41.50107,"longitude":-81.5928,"address":"12443 Cedar Road, Cleveland OH","chain_name":null,"distance":0},{"name":"Bruegger's Bagels - Downtown, Scott Township","code":null,"latitude":40.44084,"longitude":-80.0024,"address":"25 Market Square, Pittsburgh PA","chain_name":null,"distance":0},{"name":"Bruegger's Bagel Bakery","code":null,"latitude":42.45517,"longitude":-71.0652,"address":"496 Main Street, Melrose MA","chain_name":null,"distance":0},{"name":"Bruegger's Bagel Bakery","code":null,"latitude":40.52944,"longitude":-80.0087,"address":"4885 McKnight Road, Pittsburgh PA","chain_name":null,"distance":0},{"name":"Brueggers Bagel Bakery","code":null,"latitude":42.35744,"longitude":-71.0585,"address":"7 School Street, Boston MA","chain_name":null,"distance":0},{"name":"Bruegger's Bagel Bakery","code":null,"latitude":40.54079,"longitude":-80.181,"address":"422 Beaver Street, Sewickley PA","chain_name":null,"distance":0},{"name":"Bruegger's Bagel Bakery","code":null,"latitude":44.96274,"longitude":-93.2548,"address":"1433 E Franklin Avenue, Minneapolis MN","chain_name":null,"distance":0},{"name":"Bruegger's Bagel Bakery","code":null,"latitude":43.0606,"longitude":-77.4755,"address":"707 Pittsford Victor Road, Pittsford NY","chain_name":null,"distance":0},{"name":"Bruegger's Bagels - Downtown, South Hills","code":null,"latitude":40.44255,"longitude":-79.9961,"address":"411 7th Avenue, Suite 1, Pittsburgh PA","chain_name":null,"distance":0},{"name":"Bruegger's Bagel Bakery","code":null,"latitude":41.41668,"longitude":-81.9218,"address":"27045 Lorain Road, North Olmsted OH","chain_name":null,"distance":0},{"name":"Bruegger's Bagel Bakery","code":null,"latitude":32.78713,"longitude":-79.9537,"address":"221 Spring Street, Charleston SC","chain_name":null,"distance":0},{"name":"Bruegger's Bagel Bakery","code":null,"latitude":39.14187,"longitude":-84.5193,"address":"3317 Clifton Avenue, Cincinnati OH","chain_name":null,"distance":0},{"name":"Brueggers Bagel Bakery","code":null,"latitude":38.94189,"longitude":-90.2224,"address":"1710 Tomahawk Lane, Godfrey IL","chain_name":null,"distance":0},{"name":"Bruegger's Bagel Bakery","code":null,"latitude":43.13512,"longitude":-77.4985,"address":"1601 Penfield Road # 287, Rochester NY","chain_name":null,"distance":0},{"name":"Bruegger's Bagel Bakery","code":null,"latitude":35.88932,"longitude":-78.6797,"address":"7550 Creedmoor Road # 106, Raleigh NC","chain_name":null,"distance":0},{"name":"Bruegger's Bagel Bakery","code":null,"latitude":42.35744,"longitude":-71.0585,"address":"7 School Street, Boston MA","chain_name":null,"distance":0},{"name":"Bruegger's Bagel Bakery","code":null,"latitude":40.61396,"longitude":-80.0548,"address":"10672 Perry Highway, Wexford PA","chain_name":null,"distance":0},{"name":"Bruegger's Bagel Bakery","code":null,"latitude":42.36711,"longitude":-71.3006,"address":"31 Center Street, Weston MA","chain_name":null,"distance":0},{"name":"Bruegger's Bagel Bakery - West Roxbury","code":null,"latitude":42.29579,"longitude":-71.1572,"address":"659 Vfw Parkway, Chestnut Hill MA","chain_name":null,"distance":0},{"name":"Bruegger's Bagels - Downtown, South Hills","code":null,"latitude":40.43834,"longitude":-79.9986,"address":"429 4th Avenue, Pittsburgh PA","chain_name":null,"distance":0},{"name":"Bruegger's Bagel Bakery","code":null,"latitude":44.91255,"longitude":-93.3087,"address":"4953 Penn Avenue South, Minneapolis MN","chain_name":null,"distance":0},{"name":"Bruegger's Bagel Bakery","code":null,"latitude":43.04017,"longitude":-87.9093,"address":"753 N Water Street, Milwaukee WI","chain_name":null,"distance":0},{"name":"Bruegger's Bagel Commisary","code":null,"latitude":42.5101,"longitude":-71.1435,"address":"10 Roessler Road, Woburn MA","chain_name":null,"distance":0},{"name":"Brueggers Bagel Bakery","code":null,"latitude":44.91255,"longitude":-93.3087,"address":"4953 Penn Avenue South, Minneapolis MN","chain_name":null,"distance":0},{"name":"Bruegger's Bagel Bakery","code":null,"latitude":42.31917,"longitude":-72.6303,"address":"96 Main Street, Northampton MA","chain_name":null,"distance":0},{"name":"Bruegger's Bagel Bakery","code":null,"latitude":38.83576,"longitude":-104.8234,"address":"132 N Tejon Street, Colorado Springs CO","chain_name":null,"distance":0},{"name":"Bruegger's Bagel Bakery","code":null,"latitude":43.13073,"longitude":-77.4396,"address":"2200 Penfield Road # 646, Penfield NY","chain_name":null,"distance":0},{"name":"Brueggers Bagel Bakery","code":null,"latitude":45.0377,"longitude":-92.8409,"address":"1970 Market Drive, Stillwater MN","chain_name":null,"distance":0},{"name":"Bruegger's Bagel Bakery","code":null,"latitude":41.79585,"longitude":-88.0104,"address":"5002 Main Street, Downers Grove IL","chain_name":null,"distance":0},{"name":"Bruegger's Bagel Bakery","code":null,"latitude":44.94697,"longitude":-93.0974,"address":"1 7th Place West, Saint Paul MN","chain_name":null,"distance":0},{"name":"Bruegger's Bagels","code":null,"latitude":30.42701,"longitude":-84.2325,"address":"2870 Apalachee Parkway, Tallahassee FL","chain_name":null,"distance":0},{"name":"Bruegger's Bagels - Downtown, South Hills","code":null,"latitude":40.43974,"longitude":-79.9965,"address":"531 Grant Street, Pittsburgh PA","chain_name":null,"distance":0},{"name":"Bruegger's Bagel Bakery","code":null,"latitude":40.39227,"longitude":-80.0618,"address":"1644 Cochran Road, Pittsburgh PA","chain_name":null,"distance":0},{"name":"Bruegger's Bagel Bakery","code":null,"latitude":42.29579,"longitude":-71.1572,"address":"659 Vfw Parkway, Chestnut Hill MA","chain_name":null,"distance":0},{"name":"Bruegger's Bagels - Highland Village, Retail Stores","code":null,"latitude":44.91785,"longitude":-93.1905,"address":"2136 Ford Parkway, Saint Paul MN","chain_name":null,"distance":0},{"name":"Bruegger's Bagel Bakery","code":null,"latitude":44.91786,"longitude":-93.1905,"address":"2136 Ford Parkway, Saint Paul MN","chain_name":null,"distance":0},{"name":"Bruegger's Bagel Bakery","code":null,"latitude":44.96274,"longitude":-93.2554,"address":"1311 E Franklin Avenue, Minneapolis MN","chain_name":null,"distance":0},{"name":"Bruegger's Bagel Bakery","code":null,"latitude":44.94832,"longitude":-92.7303,"address":"131 Carmichael Road, Hudson WI","chain_name":null,"distance":0},{"name":"Bruegger's Bagel Bakery","code":null,"latitude":40.44256,"longitude":-79.9961,"address":"411 7th Avenue, Pittsburgh PA","chain_name":null,"distance":0},{"name":"Brueggers Bagel Bakery","code":null,"latitude":40.44141,"longitude":-79.9571,"address":"3714 Forbes Avenue, Pittsburgh PA","chain_name":null,"distance":0},{"name":"Bruegger's Bagel Bakery","code":null,"latitude":44.92069,"longitude":-92.9368,"address":"8320 City Centre Drive, Saint Paul MN","chain_name":null,"distance":0},{"name":"Bruegger's Bagel Bakery","code":null,"latitude":39.91512,"longitude":-105.0557,"address":"1275 E 1st Avenue, Broomfield CO","chain_name":null,"distance":0},{"name":"Bruegger's Bagel Bakery","code":null,"latitude":42.34917,"longitude":-71.0955,"address":"644 Beacon Street, Boston MA","chain_name":null,"distance":0},{"name":"Bruegger's Bagels","code":null,"latitude":42.3656,"longitude":-71.0182,"address":"1 Logan Airport, East Boston MA","chain_name":null,"distance":0},{"name":"Brueggers Bagel Bakery","code":null,"latitude":44.98763,"longitude":-93.2574,"address":"228 East Hennepin Avenue, Minneapolis MN","chain_name":null,"distance":0},{"name":"Bruegger's Bagels","code":null,"latitude":40.33315,"longitude":-80.0238,"address":"5213 Library Road, Bethel Park PA","chain_name":null,"distance":0},{"name":"Bruegger's Bagels","code":null,"latitude":40.28389,"longitude":-80.121,"address":"3527 Washington Road, Canonsburg PA","chain_name":null,"distance":0},{"name":"Bruegger's Bagels - New Hope, South Minneapolis, Edina, Retail Stores","code":null,"latitude":44.92204,"longitude":-93.329,"address":"4412 France Avenue South, Minneapolis MN","chain_name":null,"distance":0},{"name":"Bruegger's Bagel Bakery","code":null,"latitude":41.58572,"longitude":-93.6253,"address":"655 Walnut Street # 236, Des Moines IA","chain_name":null,"distance":0},{"name":"Bruegger's Bagel Bakery","code":null,"latitude":44.9797,"longitude":-93.2364,"address":"319 14th Avenue SE, Minneapolis MN","chain_name":null,"distance":0},{"name":"Bruegger's Bagel Bakery","code":null,"latitude":36.05594,"longitude":-79.8933,"address":"4401 W Wendover Avenue, Greensboro NC","chain_name":null,"distance":0},{"name":"Bruegger's Bagels - North Oaks, Retail Stores, St Paul","code":null,"latitude":45.07966,"longitude":-93.1143,"address":"111 Village Center Drive, Saint Paul MN","chain_name":null,"distance":0},{"name":"Bruegger's Bagel Bakery","code":null,"latitude":40.43831,"longitude":-79.9985,"address":"429 4th Avenue, Pittsburgh PA","chain_name":null,"distance":0},{"name":"Bruegger's Bagels - Retail Stores","code":null,"latitude":44.97117,"longitude":-93.4996,"address":"1179 Wayzata Boulevard East, Wayzata MN","chain_name":null,"distance":0},{"name":"Bruegger's Bagel Bakery","code":null,"latitude":44.7464,"longitude":-93.2996,"address":"1601 County Road 42 West, Burnsville MN","chain_name":null,"distance":0},{"name":"Bruegger's Bagel Bakery","code":null,"latitude":42.34759,"longitude":-71.2458,"address":"2050 Commonwealth Avenue, Auburndale MA","chain_name":null,"distance":0},{"name":"Bruegger's Bagel Bakery","code":null,"latitude":44.93994,"longitude":-93.1338,"address":"800 Grand Avenue, Saint Paul MN","chain_name":null,"distance":0},{"name":"Bruegger's Bagel Bakery","code":null,"latitude":41.67256,"longitude":-91.5655,"address":"404 1st Avenue, Coralville IA","chain_name":null,"distance":0},{"name":"Bruegger's Bagels - Retail Stores, Eagan","code":null,"latitude":44.79027,"longitude":-93.2172,"address":"2149 Cliff Road, Suite A, Saint Paul MN","chain_name":null,"distance":0},{"name":"Brueggers Bagel Bakery","code":null,"latitude":37.23821,"longitude":-77.2573,"address":"5330 Ruffin Road, Prince George VA","chain_name":null,"distance":0},{"name":"Bruegger's Bagel Bakery","code":null,"latitude":43.09027,"longitude":-77.5135,"address":"24 State Street, Pittsford NY","chain_name":null,"distance":0},{"name":"Bruegger's Bagels - Retail Stores, Minnetonka","code":null,"latitude":44.96657,"longitude":-93.4426,"address":"1808 Plymouth Road, Minnetonka MN","chain_name":null,"distance":0},{"name":"Bruegger's Bagel Bakery","code":null,"latitude":42.69014,"longitude":-73.8662,"address":"1800 Western Avenue # 7, Albany NY","chain_name":null,"distance":0},{"name":"Bruegger's Bagel Bakery","code":null,"latitude":36.10095,"longitude":-86.8708,"address":"5311 Harding Road, Nashville TN","chain_name":null,"distance":0},{"name":"Bruegger's Bagels - Retail Stores, Richfield","code":null,"latitude":44.8833,"longitude":-93.3086,"address":"6600 Penn Avenue South, Minneapolis MN","chain_name":null,"distance":0},{"name":"Bruegger's Bagels - Retail Stores, Southtown","code":null,"latitude":44.86143,"longitude":-93.3017,"address":"7801 Southtown Centre, Minneapolis MN","chain_name":null,"distance":0},{"name":"Bruegger's Bagels - Retail Stores, Woodbury","code":null,"latitude":44.92069,"longitude":-92.9368,"address":"8320 City Centre Drive, Saint Paul MN","chain_name":null,"distance":0},{"name":"Bruegger's Bagel Bakery","code":null,"latitude":41.97686,"longitude":-91.6196,"address":"3310 Mount Vernon Road Southeast, Cedar Rapids IA","chain_name":null,"distance":0},{"name":"Brueggers Bagel Bakery","code":null,"latitude":37.24452,"longitude":-77.2168,"address":"10611 Montclair Court, Prince George VA","chain_name":null,"distance":0},{"name":"Bruegger's Bagel Bakery","code":null,"latitude":41.9767,"longitude":-91.6673,"address":"115 3rd Avenue Southeast, Cedar Rapids IA","chain_name":null,"distance":0},{"name":"Bruegger's Bagel Bakery","code":null,"latitude":43.1976,"longitude":-77.5842,"address":"1234 Ridge Road East, Rochester NY","chain_name":null,"distance":0},{"name":"Bruegger's Bagel Bakery","code":null,"latitude":34.02021,"longitude":-80.9717,"address":"4699 Forest Drive, Columbia SC","chain_name":null,"distance":0},{"name":"Bruegger's Bagel Bakery","code":null,"latitude":41.60626,"longitude":-93.7362,"address":"1650 Nw 86th Street, Clive IA","chain_name":null,"distance":0},{"name":"Brueggers Bagel Bakery","code":null,"latitude":44.8368,"longitude":-93.401,"address":"9641 Anderson Lakes Parkway, Eden Prairie MN","chain_name":null,"distance":0},{"name":"Brueggers Bagel Bakery","code":null,"latitude":36.02707,"longitude":-86.7143,"address":"312 Burgandy Hill Trail, Nashville TN","chain_name":null,"distance":0},{"name":"Bruegger's Bagel Bakery","code":null,"latitude":43.25302,"longitude":-77.6996,"address":"3177 Latta Road, Rochester NY","chain_name":null,"distance":0},{"name":"Bruegger's Bagel Bakery","code":null,"latitude":41.0312,"longitude":-73.767,"address":"167 Martine Avenue, White Plains NY","chain_name":null,"distance":0},{"name":"Bruegger's Bagel Bakery","code":null,"latitude":43.08659,"longitude":-77.637,"address":"3333 W Henrietta Road, Rochester NY","chain_name":null,"distance":0},{"name":"Brueggers Bagel Bakery","code":null,"latitude":35.2043,"longitude":-81.3716,"address":"105 McCarter Drive, Kings Mountain NC","chain_name":null,"distance":0},{"name":"Brueggers Bagel Bakery","code":null,"latitude":39.67995,"longitude":-104.9593,"address":"2000 S University Boulevard, Denver CO","chain_name":null,"distance":0},{"name":"Brueggers Bagel Bakery","code":null,"latitude":39.74689,"longitude":-104.9919,"address":"817 17th Street, Denver CO","chain_name":null,"distance":0},{"name":"Brueggers Bagel Bakery","code":null,"latitude":40.0975,"longitude":-83.0924,"address":"4425 West Dublin Granville Road, Dublin OH","chain_name":null,"distance":0}]