[{"name":"Cold Stone Creamery","code":null,"latitude":44.08105,"longitude":-103.2509,"address":"1925 W Main Street, # 3, Rapid City SD","chain_name":null,"distance":0},{"name":"Cold Stone Creamery","code":null,"latitude":39.1855,"longitude":-75.5352,"address":"1051 N Dupont Highway, Dover DE","chain_name":null,"distance":0},{"name":"Cold Stone Creamery","code":null,"latitude":43.61812,"longitude":-116.3545,"address":"1400 N Eagle Road, # 103, Meridian ID","chain_name":null,"distance":0},{"name":"Cold Stone Creamery","code":null,"latitude":34.10155,"longitude":-118.3387,"address":"6801 Hollywood Boulevard, Los Angeles CA","chain_name":null,"distance":0},{"name":"Cold Stone Creamery","code":null,"latitude":32.61828,"longitude":-83.667,"address":"2628 Watson Boulevard, # D, Warner Robins GA","chain_name":null,"distance":0},{"name":"Cold Stone Creamery","code":null,"latitude":43.65767,"longitude":-70.2546,"address":"180 Middle Street, Portland ME","chain_name":null,"distance":0},{"name":"Cold Stone Creamery","code":null,"latitude":29.86612,"longitude":-81.3291,"address":"200 Cbl Drive, St Augustine FL","chain_name":null,"distance":0},{"name":"Cold Stone Creamery","code":null,"latitude":45.03594,"longitude":-92.8391,"address":"13327 N 60 St, Stillwater MN","chain_name":null,"distance":0},{"name":"Cold Stone Creamery","code":null,"latitude":39.91415,"longitude":-74.9241,"address":"230 N Maple Avenue, Marlton NJ","chain_name":null,"distance":0},{"name":"Cold Stone Creamery","code":null,"latitude":46.83322,"longitude":-100.81,"address":"1219 W Century Avenue, Bismarck ND","chain_name":null,"distance":0},{"name":"Cold Stone Creamery","code":null,"latitude":33.8904,"longitude":-117.3245,"address":"8974 Trautwn Road, Riverside CA","chain_name":null,"distance":0},{"name":"Cold Stone Creamery","code":null,"latitude":38.91931,"longitude":-77.2208,"address":"7852 Tysons Corner Centre, # E, Mc Lean VA","chain_name":null,"distance":0},{"name":"Cold Stone Creamery","code":null,"latitude":36.62676,"longitude":-87.3306,"address":"1780 Tiny Town Road, # C, Clarksville TN","chain_name":null,"distance":0},{"name":"Cold Stone Creamery","code":null,"latitude":42.79892,"longitude":-71.5333,"address":"2 Cellu Drive, # 111, Nashua NH","chain_name":null,"distance":0},{"name":"Cold Stone Creamery","code":null,"latitude":42.25546,"longitude":-83.6881,"address":"3597 Washtenaw Avenue, # B, Ann Arbor MI","chain_name":null,"distance":0},{"name":"Cold Stone Creamery","code":null,"latitude":34.00022,"longitude":-96.4078,"address":"307 Radio Road, Durant OK","chain_name":null,"distance":0},{"name":"Cold Stone Creamery","code":null,"latitude":38.98673,"longitude":-77.5369,"address":"42385 Ryan Road, Ashburn VA","chain_name":null,"distance":0},{"name":"Cold Stone Creamery","code":null,"latitude":41.37493,"longitude":-73.4875,"address":"28 Backus Avenue, Danbury CT","chain_name":null,"distance":0},{"name":"Cold Stone Creamery","code":null,"latitude":42.8487,"longitude":-106.3132,"address":"939 E 2nd Street, # 700, Casper WY","chain_name":null,"distance":0},{"name":"Cold Stone Creamery","code":null,"latitude":33.59689,"longitude":-86.645,"address":"1430 Gadsden Highway, # 108, Birmingham AL","chain_name":null,"distance":0},{"name":"Cold Stone Creamery","code":null,"latitude":39.0451,"longitude":-95.7616,"address":"1227 SW Wanamaker Road, # 100, Topeka KS","chain_name":null,"distance":0},{"name":"Cold Stone Creamery","code":null,"latitude":42.0026,"longitude":-93.6095,"address":"1310 S Duff Avenue, # 101, Ames IA","chain_name":null,"distance":0},{"name":"Cold Stone Creamery","code":null,"latitude":44.77176,"longitude":-91.4382,"address":"4613 Keystone Xing, Eau Claire WI","chain_name":null,"distance":0},{"name":"Cold Stone Creamery","code":null,"latitude":38.5806,"longitude":-92.246,"address":"610 Wildwood Drive, Jefferson City MO","chain_name":null,"distance":0},{"name":"Cold Stone Creamery","code":null,"latitude":32.73259,"longitude":-97.3888,"address":"4601 West Freeway, Fort Worth TX","chain_name":null,"distance":0},{"name":"Cold Stone Creamery","code":null,"latitude":42.00917,"longitude":-87.8856,"address":"7080 Mannheim Road, Des Plaines IL","chain_name":null,"distance":0},{"name":"Cold Stone Creamery","code":null,"latitude":41.80136,"longitude":-73.1213,"address":"50 Main Street, Torrington CT","chain_name":null,"distance":0},{"name":"Cold Stone Creamery","code":null,"latitude":46.85831,"longitude":-96.862,"address":"4501 15th Avenue South, # 109, Fargo ND","chain_name":null,"distance":0},{"name":"Cold Stone Creamery","code":null,"latitude":35.8637,"longitude":-78.5702,"address":"5811 Poyner Village Parkway, # 105, Raleigh NC","chain_name":null,"distance":0},{"name":"Cold Stone Creamery","code":null,"latitude":35.05598,"longitude":-85.3119,"address":"100 Chestnut Street, Chattanooga TN","chain_name":null,"distance":0},{"name":"Cold Stone Creamery","code":null,"latitude":46.14194,"longitude":-122.9329,"address":"1208 Washington Way, Longview WA","chain_name":null,"distance":0},{"name":"Cold Stone Creamery","code":null,"latitude":37.7185,"longitude":-87.125,"address":"5140 Frederica Street, # A, Owensboro KY","chain_name":null,"distance":0},{"name":"Cold Stone Creamery","code":null,"latitude":40.50502,"longitude":-88.9533,"address":"309 S Veterans Parkway, Normal IL","chain_name":null,"distance":0},{"name":"Cold Stone Creamery","code":null,"latitude":33.7216,"longitude":-116.3936,"address":"72840 State Highway 111, Palm Desert CA","chain_name":null,"distance":0},{"name":"Cold Stone Creamery","code":null,"latitude":38.3979,"longitude":-75.5717,"address":"2657 N Salisbury Boulevard, Salisbury MD","chain_name":null,"distance":0},{"name":"Cold Stone Creamery","code":null,"latitude":40.84105,"longitude":-74.2075,"address":"227 Bellevue Avenue, Montclair NJ","chain_name":null,"distance":0},{"name":"Cold Stone Creamery","code":null,"latitude":38.42222,"longitude":-82.4431,"address":"10 Pullman Square, Huntington WV","chain_name":null,"distance":0},{"name":"Cold Stone Creamery","code":null,"latitude":25.57596,"longitude":-80.3408,"address":"20587 Old Cutler Road, Miami FL","chain_name":null,"distance":0},{"name":"Cold Stone Creamery","code":null,"latitude":38.99717,"longitude":-84.6536,"address":"7683 Mall Road, # B, Florence KY","chain_name":null,"distance":0},{"name":"Cold Stone Creamery","code":null,"latitude":42.2138,"longitude":-121.7565,"address":"2655 Shasta Way, # 1, Klamath Falls OR","chain_name":null,"distance":0},{"name":"Cold Stone Creamery","code":null,"latitude":34.41689,"longitude":-119.6955,"address":"504 State, Santa Barbara CA","chain_name":null,"distance":0},{"name":"Cold Stone Creamery","code":null,"latitude":42.54639,"longitude":-83.4386,"address":"1741 Haggerty Highway, Walled Lake MI","chain_name":null,"distance":0},{"name":"Cold Stone Creamery","code":null,"latitude":37.59398,"longitude":-122.5043,"address":"1321 Linda Mar Shopping Centre, Pacifica CA","chain_name":null,"distance":0},{"name":"Cold Stone Creamery","code":null,"latitude":41.95702,"longitude":-91.7164,"address":"2210 Edgewood Road Southwest, Cedar Rapids IA","chain_name":null,"distance":0},{"name":"Cold Stone Creamery","code":null,"latitude":38.9127,"longitude":-94.7589,"address":"14941 W 119th Street, Olathe KS","chain_name":null,"distance":0},{"name":"Cold Stone Creamery","code":null,"latitude":34.63085,"longitude":-118.2193,"address":"5022 W Avenue North, # 124, Belfast CA","chain_name":null,"distance":0},{"name":"Cold Stone Creamery","code":null,"latitude":33.71073,"longitude":-112.2712,"address":"9918 W Happy Valley Road, # 1020, Peoria AZ","chain_name":null,"distance":0},{"name":"Cold Stone Creamery","code":null,"latitude":38.99761,"longitude":-77.0248,"address":"821 Ellsworth Drive, Silver Spring MD","chain_name":null,"distance":0},{"name":"Cold Stone Creamery","code":null,"latitude":35.94426,"longitude":-86.82,"address":"600 Frazier Drive, # 100, Franklin TN","chain_name":null,"distance":0},{"name":"Cold Stone Creamery","code":null,"latitude":36.23943,"longitude":-115.1684,"address":"1829 W Craig Road, # 2, North Las Vegas NV","chain_name":null,"distance":0},{"name":"Cold Stone Creamery","code":null,"latitude":34.75368,"longitude":-92.4139,"address":"12800 Chenal Parkway, # 8, Little Rock AR","chain_name":null,"distance":0},{"name":"Cold Stone Creamery","code":null,"latitude":37.45339,"longitude":-122.183,"address":"611 Santa Cruz Avenue, Menlo Park CA","chain_name":null,"distance":0},{"name":"Cold Stone Creamery","code":null,"latitude":41.16016,"longitude":-104.7851,"address":"2316 Dell Range Boulevard, # C, Cheyenne WY","chain_name":null,"distance":0},{"name":"Cold Stone Creamery","code":null,"latitude":33.85631,"longitude":-117.9208,"address":"215 Orangefair Mall, Fullerton CA","chain_name":null,"distance":0},{"name":"Cold Stone Creamery","code":null,"latitude":40.74023,"longitude":-96.6793,"address":"2910 Pine Lake Road, # P, Lincoln NE","chain_name":null,"distance":0},{"name":"Cold Stone Creamery","code":null,"latitude":39.0774,"longitude":-108.5362,"address":"2474 Hwy 6 And 50, Grand Junction CO","chain_name":null,"distance":0},{"name":"Cold Stone Creamery","code":null,"latitude":33.48956,"longitude":-82.0797,"address":"210 Robert Centre Daniel Jr Parkway, # A, Augusta GA","chain_name":null,"distance":0},{"name":"Cold Stone Creamery","code":null,"latitude":41.98787,"longitude":-88.3407,"address":"324 Randall Road, South Elgin IL","chain_name":null,"distance":0},{"name":"Cold Stone Creamery","code":null,"latitude":39.87884,"longitude":-83.0431,"address":"1776 Stringtown Road, Grove City OH","chain_name":null,"distance":0},{"name":"Cold Stone Creamery","code":null,"latitude":37.97648,"longitude":-87.4738,"address":"6401 E Lloyd Expressway, # 8A, Evansville IN","chain_name":null,"distance":0},{"name":"Cold Stone Creamery","code":null,"latitude":41.7476,"longitude":-71.4661,"address":"1000 Chapel View Boulevard, Cranston RI","chain_name":null,"distance":0},{"name":"Cold Stone Creamery","code":null,"latitude":25.68529,"longitude":-80.4156,"address":"13624 SW 88th Street, Miami FL","chain_name":null,"distance":0},{"name":"Cold Stone Creamery","code":null,"latitude":34.42044,"longitude":-117.294,"address":"16922 Main, Hesperia CA","chain_name":null,"distance":0},{"name":"Cold Stone Creamery","code":null,"latitude":33.45445,"longitude":-88.8066,"address":"605 Highway 12 East, Starkville MS","chain_name":null,"distance":0},{"name":"Cold Stone Creamery","code":null,"latitude":44.95919,"longitude":-89.6578,"address":"1800 Stewart Avenue, Wausau WI","chain_name":null,"distance":0},{"name":"Cold Stone Creamery","code":null,"latitude":30.30155,"longitude":-87.6829,"address":"3800 Gulf Shores Parkway, # 236, Gulf Shores AL","chain_name":null,"distance":0},{"name":"Cold Stone Creamery","code":null,"latitude":42.35099,"longitude":-71.1598,"address":"957 Comnwlth Avenue, Brighton MA","chain_name":null,"distance":0},{"name":"Cold Stone Creamery","code":null,"latitude":38.4466,"longitude":-122.6878,"address":"2324 Montgomery Drive, Santa Rosa CA","chain_name":null,"distance":0},{"name":"Cold Stone Creamery","code":null,"latitude":33.67033,"longitude":-78.9391,"address":"4008 Deville Street, Myrtle Beach SC","chain_name":null,"distance":0},{"name":"Cold Stone Creamery","code":null,"latitude":31.5454,"longitude":-110.2573,"address":"1100 S Highway 92, # 2, Sierra Vista AZ","chain_name":null,"distance":0},{"name":"Cold Stone Creamery","code":null,"latitude":34.07105,"longitude":-117.9228,"address":"1240 Lakes Drive, West Covina CA","chain_name":null,"distance":0},{"name":"Cold Stone Creamery","code":null,"latitude":47.35929,"longitude":-122.1148,"address":"17017 SE 270th Place, Covington WA","chain_name":null,"distance":0},{"name":"Cold Stone Creamery","code":null,"latitude":37.11209,"longitude":-113.554,"address":"245 Red Cliffs Drive, # 4, Saint George UT","chain_name":null,"distance":0},{"name":"Cold Stone Creamery","code":null,"latitude":42.99054,"longitude":-88.0471,"address":"2935 S 108th Street, Milwaukee WI","chain_name":null,"distance":0},{"name":"Cold Stone Creamery","code":null,"latitude":30.45135,"longitude":-90.1369,"address":"70380 Highway 21, # 3, Covington LA","chain_name":null,"distance":0},{"name":"Cold Stone Creamery","code":null,"latitude":39.46361,"longitude":-76.6361,"address":"10015 York Road, Cockeysville MD","chain_name":null,"distance":0},{"name":"Cold Stone Creamery","code":null,"latitude":34.81542,"longitude":-106.7644,"address":"2270 Main Street Northwest, # A, Los Lunas NM","chain_name":null,"distance":0},{"name":"Cold Stone Creamery","code":null,"latitude":35.22616,"longitude":-80.8418,"address":"210 E Trade Street, # 120, Charlotte NC","chain_name":null,"distance":0},{"name":"Cold Stone Creamery","code":null,"latitude":41.03189,"longitude":-73.7664,"address":"25 Mamaroneck Avenue, White Plains NY","chain_name":null,"distance":0},{"name":"Cold Stone Creamery","code":null,"latitude":33.60173,"longitude":-111.9789,"address":"12625 N Tatum Boulevard, Phoenix AZ","chain_name":null,"distance":0},{"name":"Cold Stone Creamery","code":null,"latitude":36.14449,"longitude":-115.2998,"address":"9350 W Sahara Avenue, # 140, Las Vegas NV","chain_name":null,"distance":0},{"name":"Cold Stone Creamery","code":null,"latitude":45.75519,"longitude":-108.59,"address":"896 S 29th Street West, # A, Billings MT","chain_name":null,"distance":0},{"name":"Cold Stone Creamery","code":null,"latitude":35.62979,"longitude":-117.6698,"address":"501 North China Lake Boulevard, Ridgecrest CA","chain_name":null,"distance":0},{"name":"Cold Stone Creamery","code":null,"latitude":39.97714,"longitude":-75.1194,"address":"2530 Aramingo Avenue, Philadelphia PA","chain_name":null,"distance":0},{"name":"Cold Stone Creamery","code":null,"latitude":38.73396,"longitude":-75.1372,"address":"18578 Coastal Highway, # 1228, Rehoboth Beach DE","chain_name":null,"distance":0},{"name":"Cold Stone Creamery","code":null,"latitude":40.91904,"longitude":-98.3817,"address":"206 Wilmar Avenue, # 6, Grand Island NE","chain_name":null,"distance":0},{"name":"Cold Stone Creamery","code":null,"latitude":31.32159,"longitude":-89.382,"address":"6111 US Highway 98, # 10, Hattiesburg MS","chain_name":null,"distance":0},{"name":"Cold Stone Creamery","code":null,"latitude":43.60099,"longitude":-116.5965,"address":"1238 Caldwell Boulevard, Nampa ID","chain_name":null,"distance":0},{"name":"Cold Stone Creamery","code":null,"latitude":36.00894,"longitude":-114.9912,"address":"75 E Horizon Ridge Parkway, # 140, Henderson NV","chain_name":null,"distance":0},{"name":"Cold Stone Creamery","code":null,"latitude":46.83274,"longitude":-96.8057,"address":"1617 32nd Avenue South, # F, Fargo ND","chain_name":null,"distance":0},{"name":"Cold Stone Creamery","code":null,"latitude":40.72549,"longitude":-73.5153,"address":"3535 Hempstead Turnpike, Levittown NY","chain_name":null,"distance":0},{"name":"Cold Stone Creamery","code":null,"latitude":34.02323,"longitude":-118.3948,"address":"9514 Culver Boulevard, Culver City CA","chain_name":null,"distance":0},{"name":"Cold Stone Creamery","code":null,"latitude":29.97271,"longitude":-95.69,"address":"17337 Spring Cypress Road, # A, Cypress TX","chain_name":null,"distance":0},{"name":"Cold Stone Creamery","code":null,"latitude":41.28876,"longitude":-72.528,"address":"7 Glenwood Road, # F, Clinton CT","chain_name":null,"distance":0},{"name":"Cold Stone Creamery","code":null,"latitude":38.65152,"longitude":-121.0629,"address":"2085 Vine Street, # 103, El Dorado Hills CA","chain_name":null,"distance":0},{"name":"Cold Stone Creamery","code":null,"latitude":33.86244,"longitude":-112.1333,"address":"3434 W Anthem Wy, Anthem AZ","chain_name":null,"distance":0},{"name":"Cold Stone Creamery","code":null,"latitude":41.56849,"longitude":-93.8091,"address":"101 Jordan Creek Parkway, # 12516, West Des Moines IA","chain_name":null,"distance":0},{"name":"Cold Stone Creamery","code":null,"latitude":37.73812,"longitude":-97.2446,"address":"3000 N Rock Road, Wichita KS","chain_name":null,"distance":0},{"name":"Cold Stone Creamery","code":null,"latitude":41.57431,"longitude":-109.2448,"address":"1977 Dewar Drive, # E, Rock Springs WY","chain_name":null,"distance":0},{"name":"Cold Stone Creamery","code":null,"latitude":45.03889,"longitude":-93.2211,"address":"2700 39th Avenue Northeast, Minneapolis MN","chain_name":null,"distance":0},{"name":"Cold Stone Creamery","code":null,"latitude":39.2809,"longitude":-80.2777,"address":"124 Emily Drive, Clarksburg WV","chain_name":null,"distance":0},{"name":"Cold Stone Creamery","code":null,"latitude":42.96175,"longitude":-71.4435,"address":"102 March Avenue, Manchester NH","chain_name":null,"distance":0},{"name":"Cold Stone Creamery","code":null,"latitude":40.99177,"longitude":-74.0331,"address":"441 Broadway, Westwood NJ","chain_name":null,"distance":0},{"name":"Cold Stone Creamery","code":null,"latitude":35.06391,"longitude":-80.7747,"address":"5355 Ballantyne Commons Parkway, Charlotte NC","chain_name":null,"distance":0},{"name":"Cold Stone Creamery","code":null,"latitude":35.46311,"longitude":-97.6189,"address":"315 South Macarthur Boulevard, Oklahoma City OK","chain_name":null,"distance":0},{"name":"Cold Stone Creamery","code":null,"latitude":29.9598,"longitude":-90.1837,"address":"1130 S Clearview Parkway, # F, New Orleans LA","chain_name":null,"distance":0},{"name":"Cold Stone Creamery","code":null,"latitude":41.66082,"longitude":-91.5331,"address":"39 S Dubuque Street, Iowa City IA","chain_name":null,"distance":0},{"name":"Cold Stone Creamery","code":null,"latitude":44.5195,"longitude":-89.5747,"address":"101 Division Street, Stevens Point WI","chain_name":null,"distance":0},{"name":"Cold Stone Creamery","code":null,"latitude":38.52577,"longitude":-90.363,"address":"7 Ronnies Plaza, Saint Louis MO","chain_name":null,"distance":0},{"name":"Cold Stone Creamery","code":null,"latitude":41.06995,"longitude":-85.1954,"address":"4150 W Jefferson Boulevard, Fort Wayne IN","chain_name":null,"distance":0},{"name":"Cold Stone Creamery","code":null,"latitude":41.42596,"longitude":-81.7343,"address":"4826 Ridge Road, Cleveland OH","chain_name":null,"distance":0},{"name":"Cold Stone Creamery","code":null,"latitude":37.10529,"longitude":-76.4981,"address":"550 Oyster Point Road, Newport News VA","chain_name":null,"distance":0},{"name":"Cold Stone Creamery","code":null,"latitude":40.78038,"longitude":-74.6975,"address":"235 Us Highway 206 S, Chester NJ","chain_name":null,"distance":0},{"name":"Cold Stone Creamery","code":null,"latitude":43.09272,"longitude":-70.7974,"address":"45 Gosling Road, Newington NH","chain_name":null,"distance":0},{"name":"Cold Stone Creamery","code":null,"latitude":41.35805,"longitude":-71.809,"address":"143 Franklin, Westerly RI","chain_name":null,"distance":0},{"name":"Cold Stone Creamery","code":null,"latitude":40.26416,"longitude":-111.6687,"address":"2302 N University Parkway, Provo UT","chain_name":null,"distance":0},{"name":"Cold Stone Creamery","code":null,"latitude":38.59531,"longitude":-121.3442,"address":"5150 Arden Way, Carmichael CA","chain_name":null,"distance":0},{"name":"Cold Stone Creamery","code":null,"latitude":31.4961,"longitude":-97.1562,"address":"2812 W Loop 340, # 1, Waco TX","chain_name":null,"distance":0},{"name":"Cold Stone Creamery","code":null,"latitude":39.72984,"longitude":-121.8414,"address":"146 Broadway Street, Chico CA","chain_name":null,"distance":0},{"name":"Cold Stone Creamery","code":null,"latitude":30.40291,"longitude":-91.1795,"address":"3930 Burbank Drive, # K, Baton Rouge LA","chain_name":null,"distance":0},{"name":"Cold Stone Creamery","code":null,"latitude":38.21738,"longitude":-85.5872,"address":"2015 S Hurstbourne Parkway, Louisville KY","chain_name":null,"distance":0},{"name":"Cold Stone Creamery","code":null,"latitude":42.5884,"longitude":-114.4527,"address":"799 Cheney Drive, # A, Twin Falls ID","chain_name":null,"distance":0},{"name":"Cold Stone Creamery","code":null,"latitude":41.46044,"longitude":-81.9523,"address":"24 Main, Westlake OH","chain_name":null,"distance":0},{"name":"Cold Stone Creamery","code":null,"latitude":40.01466,"longitude":-105.2629,"address":"2412 Arapahoe Avenue, Boulder CO","chain_name":null,"distance":0},{"name":"Cold Stone Creamery","code":null,"latitude":32.46824,"longitude":-90.1297,"address":"1888 Main Street, # B, Madison MS","chain_name":null,"distance":0},{"name":"Cold Stone Creamery","code":null,"latitude":35.65274,"longitude":-97.4641,"address":"1197 E 2nd Street, # 3001, Edmond OK","chain_name":null,"distance":0},{"name":"Cold Stone Creamery","code":null,"latitude":48.20818,"longitude":-101.3067,"address":"2400 10th Street Southwest, # 356, Minot ND","chain_name":null,"distance":0},{"name":"Cold Stone Creamery","code":null,"latitude":37.97434,"longitude":-87.6412,"address":"5435 Pearl Drive, # 5, Evansville IN","chain_name":null,"distance":0},{"name":"Cold Stone Creamery","code":null,"latitude":42.91908,"longitude":-83.6191,"address":"12821 S Saginaw Street, # D16, Grand Blanc MI","chain_name":null,"distance":0},{"name":"Cold Stone Creamery","code":null,"latitude":40.54874,"longitude":-74.3339,"address":"55 Parsonage Road, # 453, Edison NJ","chain_name":null,"distance":0},{"name":"Cold Stone Creamery","code":null,"latitude":38.57264,"longitude":-89.9273,"address":"3228 Green Mount Crossing Drive, O Fallon IL","chain_name":null,"distance":0},{"name":"Cold Stone Creamery","code":null,"latitude":41.38106,"longitude":-72.1526,"address":"909 Hartford Turnpike, # D7B, Waterford CT","chain_name":null,"distance":0},{"name":"Cold Stone Creamery","code":null,"latitude":29.62543,"longitude":-82.3741,"address":"3443 SW Archer Road, # A3, Gainesville FL","chain_name":null,"distance":0},{"name":"Cold Stone Creamery","code":null,"latitude":33.66602,"longitude":-112.203,"address":"20022 N 67 Avenue, Glendale AZ","chain_name":null,"distance":0},{"name":"Cold Stone Creamery","code":null,"latitude":32.17639,"longitude":-80.73,"address":"890 William Hilton Parkway, # 38, Hilton Head Island SC","chain_name":null,"distance":0},{"name":"Cold Stone Creamery","code":null,"latitude":34.03277,"longitude":-118.2539,"address":"1300 S San Pedro Street, Los Angeles CA","chain_name":null,"distance":0},{"name":"Cold Stone Creamery","code":null,"latitude":40.17897,"longitude":-74.8794,"address":"2300 E Lincoln Highway, # Fc1, Langhorne PA","chain_name":null,"distance":0},{"name":"Cold Stone Creamery","code":null,"latitude":35.92209,"longitude":-95.8718,"address":"8222 East 103 St South, # 100, Bixby OK","chain_name":null,"distance":0},{"name":"Cold Stone Creamery","code":null,"latitude":33.49491,"longitude":-111.9887,"address":"4290 E Indian School Road, # 121, Phoenix AZ","chain_name":null,"distance":0},{"name":"Cold Stone Creamery","code":null,"latitude":41.56083,"longitude":-72.6486,"address":"100 Riverview Centre, # 125, Middletown CT","chain_name":null,"distance":0},{"name":"Cold Stone Creamery","code":null,"latitude":40.44857,"longitude":-75.3613,"address":"260 North West End Boulevard, Quakertown PA","chain_name":null,"distance":0},{"name":"Cold Stone Creamery","code":null,"latitude":45.3827,"longitude":-122.7557,"address":"7656 SW Nyberg Street, Tualatin OR","chain_name":null,"distance":0},{"name":"Cold Stone Creamery","code":null,"latitude":35.0926,"longitude":-85.0729,"address":"8308 Mill Race Drive, Ooltewah TN","chain_name":null,"distance":0},{"name":"Cold Stone Creamery","code":null,"latitude":33.89618,"longitude":-84.0066,"address":"1350 Scenic Highway North, # 824, Snellville GA","chain_name":null,"distance":0},{"name":"Cold Stone Creamery","code":null,"latitude":41.76654,"longitude":-88.0682,"address":"3520 Seven Bridges Drive, # 102, Woodridge IL","chain_name":null,"distance":0},{"name":"Cold Stone Creamery","code":null,"latitude":47.48277,"longitude":-111.3397,"address":"1601 Market Place Drive, Great Falls MT","chain_name":null,"distance":0},{"name":"Cold Stone Creamery","code":null,"latitude":47.67019,"longitude":-122.1215,"address":"7349 164th Avenue, Redmond WA","chain_name":null,"distance":0},{"name":"Cold Stone Creamery","code":null,"latitude":39.37181,"longitude":-76.4655,"address":"8137 Honeygo Boulevard, Nottingham MD","chain_name":null,"distance":0},{"name":"Cold Stone Creamery","code":null,"latitude":36.1248,"longitude":-94.1559,"address":"160 E Joyce Boulevard, # 109, Fayetteville AR","chain_name":null,"distance":0},{"name":"Cold Stone Creamery","code":null,"latitude":47.88947,"longitude":-97.0795,"address":"3551 32nd Avenue South, # 600, Grand Forks ND","chain_name":null,"distance":0},{"name":"Cold Stone Creamery","code":null,"latitude":44.92439,"longitude":-93.4097,"address":"768 Mainstreet, Hopkins MN","chain_name":null,"distance":0},{"name":"Cold Stone Creamery","code":null,"latitude":36.06362,"longitude":-115.043,"address":"1311 W Sunset Road, # 110, Henderson NV","chain_name":null,"distance":0},{"name":"Cold Stone Creamery","code":null,"latitude":37.65265,"longitude":-122.104,"address":"24381 Southland Drive, Hayward CA","chain_name":null,"distance":0},{"name":"Cold Stone Creamery","code":null,"latitude":40.81551,"longitude":-96.7025,"address":"232 N 13th Street, # 3, Lincoln NE","chain_name":null,"distance":0},{"name":"Cold Stone Creamery","code":null,"latitude":36.76678,"longitude":-108.1483,"address":"4917 E Main Street, # A, Farmington NM","chain_name":null,"distance":0},{"name":"Cold Stone Creamery","code":null,"latitude":32.30886,"longitude":-110.8439,"address":"6960 E Sunrise Drive, Tucson AZ","chain_name":null,"distance":0},{"name":"Cold Stone Creamery","code":null,"latitude":38.91305,"longitude":-94.6464,"address":"5234 W 119th Street, # B, Leawood KS","chain_name":null,"distance":0},{"name":"Cold Stone Creamery","code":null,"latitude":29.74262,"longitude":-95.4104,"address":"2071 Westheimer Road, Suite E, Houston TX","chain_name":null,"distance":0},{"name":"Cold Stone Creamery","code":null,"latitude":40.41683,"longitude":-86.8389,"address":"100 S Creasy Lane, Lafayette IN","chain_name":null,"distance":0},{"name":"Cold Stone Creamery","code":null,"latitude":38.71663,"longitude":-75.0772,"address":"43 Rehoboth Avenue, # B, Rehoboth Beach DE","chain_name":null,"distance":0},{"name":"Cold Stone Creamery","code":null,"latitude":42.51277,"longitude":-92.434,"address":"6421 University Avenue, # 1, Cedar Falls IA","chain_name":null,"distance":0},{"name":"Cold Stone Creamery","code":null,"latitude":32.51879,"longitude":-93.7405,"address":"420 Boardwalk Boulevard, Bossier City LA","chain_name":null,"distance":0},{"name":"Cold Stone Creamery","code":null,"latitude":27.83755,"longitude":-82.6826,"address":"7220 US Highway 19 North, Pinellas Park FL","chain_name":null,"distance":0},{"name":"Cold Stone Creamery","code":null,"latitude":34.28841,"longitude":-118.7176,"address":"2916 Tapo Canyon Road, Simi Valley CA","chain_name":null,"distance":0},{"name":"Cold Stone Creamery","code":null,"latitude":33.41617,"longitude":-111.8321,"address":"25 W Pepper Place, Mesa AZ","chain_name":null,"distance":0},{"name":"Cold Stone Creamery","code":null,"latitude":39.07629,"longitude":-76.8681,"address":"13600 Baltimore Avenue, Laurel MD","chain_name":null,"distance":0},{"name":"Cold Stone Creamery","code":null,"latitude":35.9144,"longitude":-78.778,"address":"7840 Alexander Promenade Pl, Raleigh NC","chain_name":null,"distance":0},{"name":"Cold Stone Creamery","code":null,"latitude":33.64062,"longitude":-112.0655,"address":"17015 N 7th Street, # 2, Phoenix AZ","chain_name":null,"distance":0},{"name":"Cold Stone Creamery","code":null,"latitude":40.35756,"longitude":-75.9845,"address":"2733 Papermill Road, # X1, Reading PA","chain_name":null,"distance":0},{"name":"Cold Stone Creamery","code":null,"latitude":28.49008,"longitude":-81.5084,"address":"4848 S Apopka Vineland Road, #218, Orlando FL","chain_name":null,"distance":0},{"name":"Cold Stone Creamery","code":null,"latitude":35.69386,"longitude":-78.5822,"address":"164 Shenstone Ln, Garner NC","chain_name":null,"distance":0},{"name":"Cold Stone Creamery","code":null,"latitude":42.69723,"longitude":-87.8533,"address":"6035 Durand Avenue, # B, Racine WI","chain_name":null,"distance":0},{"name":"Cold Stone Creamery","code":null,"latitude":30.19491,"longitude":-93.2494,"address":"3475 Nelson Road, Lake Charles LA","chain_name":null,"distance":0},{"name":"Cold Stone Creamery","code":null,"latitude":35.17403,"longitude":-106.5598,"address":"8100 Wyoming Boulevard Northeast, # M2, Albuquerque NM","chain_name":null,"distance":0},{"name":"Cold Stone Creamery","code":null,"latitude":35.2359,"longitude":-97.4809,"address":"1400 24th Avenue Northwest, Norman OK","chain_name":null,"distance":0},{"name":"Cold Stone Creamery","code":null,"latitude":32.56305,"longitude":-97.3178,"address":"1185 North Burleson Boulevard, Suite 215, Burleson TX","chain_name":null,"distance":0},{"name":"Cold Stone Creamery","code":null,"latitude":41.66284,"longitude":-71.4984,"address":"1000 Division, East Greenwich RI","chain_name":null,"distance":0},{"name":"Cold Stone Creamery","code":null,"latitude":42.35731,"longitude":-71.0628,"address":"8 Park Plaza, Boston MA","chain_name":null,"distance":0},{"name":"Cold Stone Creamery","code":null,"latitude":37.6623,"longitude":-77.4602,"address":"9982 Brook Road, Glen Allen VA","chain_name":null,"distance":0},{"name":"Cold Stone Creamery","code":null,"latitude":34.67684,"longitude":-86.5438,"address":"2750 Carl T Jones Drive Southeast, #1200S, Huntsville AL","chain_name":null,"distance":0},{"name":"Cold Stone Creamery","code":null,"latitude":36.65822,"longitude":-121.6592,"address":"1176 S Main Street, Salinas CA","chain_name":null,"distance":0},{"name":"Cold Stone Creamery","code":null,"latitude":39.79668,"longitude":-105.0774,"address":"5545 Wadsworth Bypass, Arvada CO","chain_name":null,"distance":0},{"name":"Cold Stone Creamery","code":null,"latitude":43.95944,"longitude":-71.1818,"address":"1500 White Mountain Highway, Conway NH","chain_name":null,"distance":0},{"name":"Cold Stone Creamery","code":null,"latitude":37.60238,"longitude":-122.0667,"address":"30985 Courthouse Drive, Union City CA","chain_name":null,"distance":0},{"name":"Cold Stone Creamery","code":null,"latitude":40.0623,"longitude":-80.5961,"address":"44 Fort Henry Road, Triadelphia WV","chain_name":null,"distance":0},{"name":"Cold Stone Creamery","code":null,"latitude":33.07188,"longitude":-117.2675,"address":"1935 Calle Barcelona, Carlsbad CA","chain_name":null,"distance":0},{"name":"Cold Stone Creamery","code":null,"latitude":41.79367,"longitude":-71.3242,"address":"47 Commerce Wy, Seekonk MA","chain_name":null,"distance":0},{"name":"Cold Stone Creamery","code":null,"latitude":35.09756,"longitude":-89.8585,"address":"1243 Ridgeway Road, Memphis TN","chain_name":null,"distance":0},{"name":"Cold Stone Creamery","code":null,"latitude":39.32704,"longitude":-76.6158,"address":"3201 Saint Paul, Baltimore MD","chain_name":null,"distance":0},{"name":"Cold Stone Creamery","code":null,"latitude":37.81132,"longitude":-121.9963,"address":"412 Sycamore Valley Road, Danville CA","chain_name":null,"distance":0},{"name":"Cold Stone Creamery","code":null,"latitude":42.98941,"longitude":-78.6969,"address":"8124 Transit Rd., Williamsville NY","chain_name":null,"distance":0},{"name":"Cold Stone Creamery","code":null,"latitude":36.84273,"longitude":-76.1338,"address":"228 Central Park Avenue, Virginia Beach VA","chain_name":null,"distance":0},{"name":"Cold Stone Creamery","code":null,"latitude":35.91358,"longitude":-79.0546,"address":"131 E Franklin Street, Chapel Hill NC","chain_name":null,"distance":0},{"name":"Cold Stone Creamery","code":null,"latitude":43.47966,"longitude":-111.9844,"address":"2019 S 25th East, Idaho Falls ID","chain_name":null,"distance":0},{"name":"Cold Stone Creamery","code":null,"latitude":38.57768,"longitude":-90.4064,"address":"328 S Kirkwood Road, Saint Louis MO","chain_name":null,"distance":0},{"name":"Cold Stone Creamery","code":null,"latitude":34.07,"longitude":-117.183,"address":"27512 W Lugonia Avenue, # B2B, Redlands CA","chain_name":null,"distance":0},{"name":"Cold Stone Creamery","code":null,"latitude":41.21727,"longitude":-80.7404,"address":"1924 Niles Cortland Road Southeast, Warren OH","chain_name":null,"distance":0},{"name":"Cold Stone Creamery","code":null,"latitude":34.08553,"longitude":-117.6701,"address":"1515 North Mountn Avenue, Ontario CA","chain_name":null,"distance":0},{"name":"Cold Stone Creamery","code":null,"latitude":41.26552,"longitude":-73.0029,"address":"297 Boston Post Road, Orange CT","chain_name":null,"distance":0},{"name":"Cold Stone Creamery","code":null,"latitude":40.10312,"longitude":-83.1611,"address":"7000 Hospital Drive, Dublin OH","chain_name":null,"distance":0},{"name":"Cold Stone Creamery","code":null,"latitude":33.42933,"longitude":-111.9004,"address":"2000 E Rio Salado Parkway, Tempe AZ","chain_name":null,"distance":0},{"name":"Cold Stone Creamery","code":null,"latitude":34.94396,"longitude":-80.9788,"address":"1910 Cinema Drive, Suite 106, Rock Hill SC","chain_name":null,"distance":0},{"name":"Cold Stone Creamery","code":null,"latitude":47.74478,"longitude":-117.4066,"address":"9502 N Newport Highway, # 7, Spokane WA","chain_name":null,"distance":0},{"name":"Cold Stone Creamery","code":null,"latitude":39.99435,"longitude":-83.0069,"address":"1574 N High Street, Columbus OH","chain_name":null,"distance":0},{"name":"Cold Stone Creamery","code":null,"latitude":40.2734,"longitude":-111.6815,"address":"575 E University Parkway, # B41, Orem UT","chain_name":null,"distance":0},{"name":"Cold Stone Creamery","code":null,"latitude":43.57672,"longitude":-84.7673,"address":"2330 S Mission Street, Mt Pleasant MI","chain_name":null,"distance":0},{"name":"Cold Stone Creamery","code":null,"latitude":37.32335,"longitude":-121.9458,"address":"2855 Stevens Creek Boulevard, # 1076, Santa Clara CA","chain_name":null,"distance":0},{"name":"Cold Stone Creamery","code":null,"latitude":43.83451,"longitude":-111.778,"address":"485 N 2nd East, # 102, Rexburg ID","chain_name":null,"distance":0},{"name":"Cold Stone Creamery","code":null,"latitude":40.88426,"longitude":-111.8871,"address":"273 W 500 South, # 2, Bountiful UT","chain_name":null,"distance":0},{"name":"Cold Stone Creamery","code":null,"latitude":37.63,"longitude":-77.5354,"address":"9320 W Broad Street, Richmond VA","chain_name":null,"distance":0},{"name":"Cold Stone Creamery","code":null,"latitude":38.95536,"longitude":-119.9445,"address":"1001 Heavenly Village Way, # 24, South Lake Tahoe CA","chain_name":null,"distance":0},{"name":"Cold Stone Creamery","code":null,"latitude":39.96934,"longitude":-74.9024,"address":"4270 Dearborn Circle, Mount Laurel NJ","chain_name":null,"distance":0},{"name":"Cold Stone Creamery","code":null,"latitude":38.02808,"longitude":-84.4214,"address":"2337 Sir Barton Way, Lexington KY","chain_name":null,"distance":0},{"name":"Cold Stone Creamery","code":null,"latitude":33.21072,"longitude":-87.5527,"address":"1130 University Boulevard, # A1, Tuscaloosa AL","chain_name":null,"distance":0},{"name":"Cold Stone Creamery","code":null,"latitude":36.05246,"longitude":-115.2792,"address":"7435 S Durango Drive, # 103, Las Vegas NV","chain_name":null,"distance":0},{"name":"Cold Stone Creamery","code":null,"latitude":33.37988,"longitude":-111.6879,"address":"1959 S Power Road, # 102, Mesa AZ","chain_name":null,"distance":0},{"name":"Cold Stone Creamery","code":null,"latitude":45.53634,"longitude":-122.8674,"address":"2227 NW 185th Avenue, Hillsboro OR","chain_name":null,"distance":0},{"name":"Cold Stone Creamery","code":null,"latitude":41.07366,"longitude":-111.9798,"address":"936 N Main, Layton UT","chain_name":null,"distance":0},{"name":"Cold Stone Creamery","code":null,"latitude":43.066,"longitude":-76.1729,"address":"Carousel Center, Syracuse NY","chain_name":null,"distance":0},{"name":"Cold Stone Creamery","code":null,"latitude":41.24308,"longitude":-75.8421,"address":"277 Mundy Street, Wilkes Barre PA","chain_name":null,"distance":0},{"name":"Cold Stone Creamery","code":null,"latitude":39.05421,"longitude":-74.7599,"address":"271 96th Street, Stone Harbor NJ","chain_name":null,"distance":0},{"name":"Cold Stone Creamery","code":null,"latitude":33.79237,"longitude":-84.3958,"address":"231 18th Street Northwest, Atlanta GA","chain_name":null,"distance":0},{"name":"Cold Stone Creamery","code":null,"latitude":36.04128,"longitude":-86.7787,"address":"782 Old Hickory Boulevard, # 119, Brentwood TN","chain_name":null,"distance":0},{"name":"Cold Stone Creamery","code":null,"latitude":39.31556,"longitude":-81.5536,"address":"1515 Grand Central Avenue, Vienna WV","chain_name":null,"distance":0},{"name":"Cold Stone Creamery","code":null,"latitude":28.00055,"longitude":-81.9787,"address":"1615 Town Center Drive, Lakeland FL","chain_name":null,"distance":0},{"name":"Cold Stone Creamery","code":null,"latitude":39.16498,"longitude":-86.4987,"address":"115 S State Road 46, # D, Bloomington IN","chain_name":null,"distance":0},{"name":"Cold Stone Creamery","code":null,"latitude":32.80729,"longitude":-116.9673,"address":"377 Parkway Plaza, El Cajon CA","chain_name":null,"distance":0},{"name":"Cold Stone Creamery","code":null,"latitude":44.74626,"longitude":-93.3796,"address":"14101 Highway 13, Savage MN","chain_name":null,"distance":0},{"name":"Cold Stone Creamery","code":null,"latitude":32.34865,"longitude":-106.7647,"address":"2821 N Telshor Boulevard, # 2, Las Cruces NM","chain_name":null,"distance":0},{"name":"Cold Stone Creamery","code":null,"latitude":32.7731,"longitude":-116.9251,"address":"2963 Jamacha Road, El Cajon CA","chain_name":null,"distance":0},{"name":"Cold Stone Creamery","code":null,"latitude":36.30555,"longitude":-94.1881,"address":"3301 Market Street, # 108, Rogers AR","chain_name":null,"distance":0},{"name":"Cold Stone Creamery","code":null,"latitude":45.67931,"longitude":-111.0574,"address":"1531 W Main Street, # 102, Bozeman MT","chain_name":null,"distance":0},{"name":"Cold Stone Creamery","code":null,"latitude":44.0698,"longitude":-123.0767,"address":"112 Oakway Centre, Eugene OR","chain_name":null,"distance":0},{"name":"Cold Stone Creamery","code":null,"latitude":34.35485,"longitude":-84.0461,"address":"837 Highway 400 South, # 130, Dawsonville GA","chain_name":null,"distance":0},{"name":"Cold Stone Creamery","code":null,"latitude":34.18166,"longitude":-118.8759,"address":"215 N Moorprk Road, Thousand Oaks CA","chain_name":null,"distance":0},{"name":"Cold Stone Creamery","code":null,"latitude":38.77788,"longitude":-90.6999,"address":"2283 Highway K, O Fallon MO","chain_name":null,"distance":0},{"name":"Cold Stone Creamery","code":null,"latitude":37.67284,"longitude":-122.0846,"address":"22530 Mission Boulevard, Hayward CA","chain_name":null,"distance":0},{"name":"Cold Stone Creamery","code":null,"latitude":40.4408,"longitude":-74.5323,"address":"3562 State Route 27, Kendall Park NJ","chain_name":null,"distance":0},{"name":"Cold Stone Creamery","code":null,"latitude":41.68848,"longitude":-83.7267,"address":"7633 W Sylvania Avenue, Sylvania OH","chain_name":null,"distance":0},{"name":"Cold Stone Creamery","code":null,"latitude":38.65955,"longitude":-121.5119,"address":"4730 Natomas Boulevard, # 150, Sacramento CA","chain_name":null,"distance":0},{"name":"Cold Stone Creamery","code":null,"latitude":41.72033,"longitude":-88.0445,"address":"635 E Boughton Road, # 146, Bolingbrook IL","chain_name":null,"distance":0},{"name":"Cold Stone Creamery","code":null,"latitude":33.55582,"longitude":-79.0442,"address":"4390 Highway 17, # C3, Murrells Inlet SC","chain_name":null,"distance":0},{"name":"Cold Stone Creamery","code":null,"latitude":36.0602,"longitude":-95.8863,"address":"7111 South Memorial Drive, Tulsa OK","chain_name":null,"distance":0},{"name":"Cold Stone Creamery","code":null,"latitude":39.68357,"longitude":-75.7463,"address":"168 E Main Street, Newark DE","chain_name":null,"distance":0},{"name":"Cold Stone Creamery","code":null,"latitude":41.12019,"longitude":-100.7604,"address":"402 E Leota Street, # 2, North Platte NE","chain_name":null,"distance":0},{"name":"Cold Stone Creamery","code":null,"latitude":43.07479,"longitude":-89.3921,"address":"427 State Street, Madison WI","chain_name":null,"distance":0},{"name":"Cold Stone Creamery","code":null,"latitude":45.36726,"longitude":-122.6129,"address":"5656 Hood Street, # 111, West Linn OR","chain_name":null,"distance":0},{"name":"Cold Stone Creamery","code":null,"latitude":41.02429,"longitude":-80.6475,"address":"439 Boardman Poland Road, # B, Youngstown OH","chain_name":null,"distance":0},{"name":"Cold Stone Creamery","code":null,"latitude":39.094,"longitude":-84.4961,"address":"1 Levee Way, # 2104, Newport KY","chain_name":null,"distance":0},{"name":"Cold Stone Creamery","code":null,"latitude":30.16422,"longitude":-95.4611,"address":"9595 Six Pines Drive, # 920, Spring TX","chain_name":null,"distance":0},{"name":"Cold Stone Creamery","code":null,"latitude":39.18572,"longitude":-96.5752,"address":"1225 Moro Street, Manhattan KS","chain_name":null,"distance":0},{"name":"Cold Stone Creamery","code":null,"latitude":42.46531,"longitude":-92.3211,"address":"2060 Crossroads Boulevard, # 260, Waterloo IA","chain_name":null,"distance":0},{"name":"Cold Stone Creamery","code":null,"latitude":46.8036,"longitude":-92.1518,"address":"1017 W Central Entrance, Duluth MN","chain_name":null,"distance":0},{"name":"Cold Stone Creamery","code":null,"latitude":35.59589,"longitude":-80.8686,"address":"688 Bluefield Rd, Mooresville NC","chain_name":null,"distance":0},{"name":"Cold Stone Creamery","code":null,"latitude":26.28539,"longitude":-80.1864,"address":"4425 Lyons Road, Coconut Creek FL","chain_name":null,"distance":0},{"name":"Cold Stone Creamery","code":null,"latitude":30.48245,"longitude":-90.4569,"address":"1913 SW Railroad Avenue, Hammond LA","chain_name":null,"distance":0},{"name":"Cold Stone Creamery","code":null,"latitude":34.10704,"longitude":-117.6535,"address":"121 West Foothl Boulevard, Upland CA","chain_name":null,"distance":0},{"name":"Cold Stone Creamery","code":null,"latitude":41.66706,"longitude":-72.7194,"address":"2997 Berlin Turnpike, # A, Newington CT","chain_name":null,"distance":0},{"name":"Cold Stone Creamery","code":null,"latitude":42.74069,"longitude":-84.6245,"address":"5403 West Saginaw, Lansing MI","chain_name":null,"distance":0},{"name":"Cold Stone Creamery","code":null,"latitude":41.261,"longitude":-96.186,"address":"17304 Davenport Street, # 102, Omaha NE","chain_name":null,"distance":0},{"name":"Cold Stone Creamery","code":null,"latitude":47.9121,"longitude":-122.2142,"address":"1405 SE Everett Mall Way, Everett WA","chain_name":null,"distance":0},{"name":"Cold Stone Creamery","code":null,"latitude":41.2488,"longitude":-96.0476,"address":"8714 Pacific Street, Omaha NE","chain_name":null,"distance":0},{"name":"Cold Stone Creamery","code":null,"latitude":42.88329,"longitude":-87.9122,"address":"8880 S Howell Avenue, # 1000, Oak Creek WI","chain_name":null,"distance":0},{"name":"Cold Stone Creamery","code":null,"latitude":35.13952,"longitude":-106.5992,"address":"4959 Pan American West Northeast, # E, Albuquerque NM","chain_name":null,"distance":0},{"name":"Cold Stone Creamery","code":null,"latitude":39.60436,"longitude":-75.749,"address":"2470 Pulaski Highway, # C, Newark DE","chain_name":null,"distance":0},{"name":"Cold Stone Creamery","code":null,"latitude":25.76088,"longitude":-80.4258,"address":"14226 SW 8th Street, Miami FL","chain_name":null,"distance":0},{"name":"Cold Stone Creamery","code":null,"latitude":39.62128,"longitude":-77.7722,"address":"17247 Cole Road, Hagerstown MD","chain_name":null,"distance":0},{"name":"Cold Stone Creamery","code":null,"latitude":39.60032,"longitude":-104.7097,"address":"23973 E Prospect Avenue, Aurora CO","chain_name":null,"distance":0},{"name":"Cold Stone Creamery","code":null,"latitude":42.40376,"longitude":-71.0806,"address":"61 Station Lndg, Medford MA","chain_name":null,"distance":0},{"name":"Cold Stone Creamery","code":null,"latitude":34.10674,"longitude":-117.8269,"address":"1009 West Arrow Highway, San Dimas CA","chain_name":null,"distance":0},{"name":"Cold Stone Creamery","code":null,"latitude":38.42358,"longitude":-121.4002,"address":"9170 W Stockton Boulevard, # 190, Elk Grove CA","chain_name":null,"distance":0},{"name":"Cold Stone Creamery","code":null,"latitude":33.23774,"longitude":-86.8026,"address":"750 Colonial Promenade, # 5700, Alabaster AL","chain_name":null,"distance":0},{"name":"Cold Stone Creamery","code":null,"latitude":33.44882,"longitude":-111.684,"address":"1829 N Power Road, Mesa AZ","chain_name":null,"distance":0},{"name":"Cold Stone Creamery","code":null,"latitude":36.19932,"longitude":-115.2422,"address":"2192 N Rainbow Boulevard, # 101, Las Vegas NV","chain_name":null,"distance":0},{"name":"Cold Stone Creamery","code":null,"latitude":35.39257,"longitude":-118.9673,"address":"2625 Mount Vernon Avenue, # 104, Bakersfield CA","chain_name":null,"distance":0},{"name":"Cold Stone Creamery","code":null,"latitude":34.04545,"longitude":-118.2608,"address":"645 W 9th, Los Angeles CA","chain_name":null,"distance":0},{"name":"Cold Stone Creamery","code":null,"latitude":46.89529,"longitude":-114.0392,"address":"3275 N Reserve Street Suite F, Missoula MT","chain_name":null,"distance":0},{"name":"Cold Stone Creamery","code":null,"latitude":33.86264,"longitude":-118.4001,"address":"1223 Hermosa Avenue, Hermosa Beach CA","chain_name":null,"distance":0},{"name":"Cold Stone Creamery","code":null,"latitude":29.94356,"longitude":-90.1338,"address":"624 S Carrollton Avenue, New Orleans LA","chain_name":null,"distance":0},{"name":"Cold Stone Creamery","code":null,"latitude":40.72909,"longitude":-73.7896,"address":"176 -60 Union Turnpike, Fresh Meadows NY","chain_name":null,"distance":0},{"name":"Cold Stone Creamery","code":null,"latitude":35.48599,"longitude":-82.5536,"address":"30 Town Square Boulevard, # 150, Asheville NC","chain_name":null,"distance":0},{"name":"Cold Stone Creamery","code":null,"latitude":32.36059,"longitude":-86.165,"address":"7240 Eastchase Parkway, Montgomery AL","chain_name":null,"distance":0},{"name":"Cold Stone Creamery","code":null,"latitude":28.06723,"longitude":-82.5054,"address":"13168 Dale Mabry Highway, Tampa FL","chain_name":null,"distance":0},{"name":"Cold Stone Creamery","code":null,"latitude":39.02752,"longitude":-84.5798,"address":"2817 Dixie Highway, Ft Mitchell KY","chain_name":null,"distance":0},{"name":"Cold Stone Creamery","code":null,"latitude":32.98686,"longitude":-117.2705,"address":"437 S Highway 101, Solana Beach CA","chain_name":null,"distance":0},{"name":"Cold Stone Creamery","code":null,"latitude":34.09458,"longitude":-118.128,"address":"101 W Main Street, # B, Alhambra CA","chain_name":null,"distance":0},{"name":"Cold Stone Creamery","code":null,"latitude":30.43066,"longitude":-91.1108,"address":"7539 Corporate Boulevard, # 110, Baton Rouge LA","chain_name":null,"distance":0},{"name":"Cold Stone Creamery","code":null,"latitude":43.87891,"longitude":-91.1877,"address":"2928 Market Place, Onalaska WI","chain_name":null,"distance":0},{"name":"Cold Stone Creamery","code":null,"latitude":42.29239,"longitude":-71.5208,"address":"154 Turnpike Road, Southborough MA","chain_name":null,"distance":0},{"name":"Cold Stone Creamery","code":null,"latitude":42.88355,"longitude":-112.4514,"address":"465 Yellowstone Avenue, Pocatello ID","chain_name":null,"distance":0},{"name":"Cold Stone Creamery","code":null,"latitude":33.41834,"longitude":-111.9339,"address":"301 E Orange Mall Az State, Tempe AZ","chain_name":null,"distance":0},{"name":"Cold Stone Creamery","code":null,"latitude":45.19666,"longitude":-123.2066,"address":"877 SW Keck Drive, Mcminnville OR","chain_name":null,"distance":0},{"name":"Cold Stone Creamery","code":null,"latitude":34.07008,"longitude":-83.9119,"address":"3517 Braselton Highway, Dacula GA","chain_name":null,"distance":0},{"name":"Cold Stone Creamery","code":null,"latitude":43.02025,"longitude":-85.6889,"address":"3150 Alpine Avenue Northwest, # D, Grand Rapids MI","chain_name":null,"distance":0},{"name":"Cold Stone Creamery","code":null,"latitude":39.6295,"longitude":-79.9561,"address":"356 High Street, Morgantown WV","chain_name":null,"distance":0},{"name":"Cold Stone Creamery","code":null,"latitude":28.24273,"longitude":-80.7261,"address":"2250 Town Center Avenue, # 125, Melbourne FL","chain_name":null,"distance":0},{"name":"Cold Stone Creamery","code":null,"latitude":40.1046,"longitude":-84.24,"address":"1187 Experiment Farm Road, Troy OH","chain_name":null,"distance":0},{"name":"Cold Stone Creamery","code":null,"latitude":41.10888,"longitude":-73.5473,"address":"1109 High Ridge Road, Stamford CT","chain_name":null,"distance":0},{"name":"Cold Stone Creamery","code":null,"latitude":38.80206,"longitude":-77.071,"address":"229 Swamp Fox Road, Alexandria VA","chain_name":null,"distance":0},{"name":"Cold Stone Creamery","code":null,"latitude":40.862,"longitude":-73.0596,"address":"1315 Middle Country Road, Centereach NY","chain_name":null,"distance":0},{"name":"Cold Stone Creamery","code":null,"latitude":40.23442,"longitude":-75.2418,"address":"139 Montgomery Mall, # 139, North Wales PA","chain_name":null,"distance":0},{"name":"Cold Stone Creamery","code":null,"latitude":39.73018,"longitude":-82.6273,"address":"1635 River Valley Circle South, # 5072, Lancaster OH","chain_name":null,"distance":0},{"name":"Cold Stone Creamery","code":null,"latitude":44.95981,"longitude":-92.7198,"address":"1005 Pearson Drive, Hudson WI","chain_name":null,"distance":0},{"name":"Cold Stone Creamery","code":null,"latitude":38.24022,"longitude":-85.7242,"address":"976 Baxter Avenue, Louisville KY","chain_name":null,"distance":0},{"name":"Cold Stone Creamery","code":null,"latitude":33.58184,"longitude":-112.1219,"address":"2815 W Peoria Avenue, Phoenix AZ","chain_name":null,"distance":0},{"name":"Cold Stone Creamery","code":null,"latitude":41.68622,"longitude":-91.6034,"address":"921 25th Avenue, Coralville IA","chain_name":null,"distance":0},{"name":"Cold Stone Creamery","code":null,"latitude":41.75748,"longitude":-111.8214,"address":"505 E 1400 North, # 140, Logan UT","chain_name":null,"distance":0},{"name":"Cold Stone Creamery","code":null,"latitude":37.80693,"longitude":-122.4189,"address":"2800 Leavenworth Street, # 6, San Francisco CA","chain_name":null,"distance":0},{"name":"Cold Stone Creamery","code":null,"latitude":40.74631,"longitude":-74.2598,"address":"3 Sloan Street, South Orange NJ","chain_name":null,"distance":0},{"name":"Cold Stone Creamery","code":null,"latitude":35.15548,"longitude":-106.6806,"address":"6261 Riverside Plaza Lane Northwest, #A1, Albuquerque NM","chain_name":null,"distance":0},{"name":"Cold Stone Creamery","code":null,"latitude":33.57578,"longitude":-117.7233,"address":"26711 Aliso Creek Road, Aliso Viejo CA","chain_name":null,"distance":0},{"name":"Cold Stone Creamery","code":null,"latitude":33.15854,"longitude":-117.3513,"address":"2967 Carlsbad Boulevard, Carlsbad CA","chain_name":null,"distance":0},{"name":"Cold Stone Creamery","code":null,"latitude":33.20167,"longitude":-117.2432,"address":"116 Main, Vista CA","chain_name":null,"distance":0},{"name":"Cold Stone Creamery","code":null,"latitude":39.04211,"longitude":-94.3427,"address":"20140 E Jackson Drive, Independence MO","chain_name":null,"distance":0},{"name":"Cold Stone Creamery","code":null,"latitude":41.41472,"longitude":-87.3354,"address":"11 W 112th Avenue, Crown Point IN","chain_name":null,"distance":0},{"name":"Cold Stone Creamery","code":null,"latitude":37.7282,"longitude":-97.4625,"address":"2441 N Maize Road, # 216, Wichita KS","chain_name":null,"distance":0},{"name":"Cold Stone Creamery","code":null,"latitude":38.71073,"longitude":-75.2152,"address":"4575 Highway One, Lewes DE","chain_name":null,"distance":0},{"name":"Cold Stone Creamery","code":null,"latitude":41.56869,"longitude":-90.5167,"address":"4706 Utica Ridge Road, # 2, Davenport IA","chain_name":null,"distance":0},{"name":"Cold Stone Creamery","code":null,"latitude":40.07382,"longitude":-80.6695,"address":"44 Fort Henry Road, Wheeling WV","chain_name":null,"distance":0},{"name":"Cold Stone Creamery","code":null,"latitude":42.30604,"longitude":-83.5359,"address":"50409 Independence Street, Canton MI","chain_name":null,"distance":0},{"name":"Cold Stone Creamery","code":null,"latitude":40.72013,"longitude":-111.5408,"address":"6030 Market Street, # 125, Park City UT","chain_name":null,"distance":0},{"name":"Cold Stone Creamery","code":null,"latitude":36.01168,"longitude":-115.1367,"address":"9785 S Maryland Parkway, # A1, Las Vegas NV","chain_name":null,"distance":0},{"name":"Cold Stone Creamery","code":null,"latitude":44.03156,"longitude":-121.3095,"address":"61455 S Highway 97, Bend OR","chain_name":null,"distance":0},{"name":"Cold Stone Creamery","code":null,"latitude":27.93024,"longitude":-82.506,"address":"3810 Neptune Street West, Tampa FL","chain_name":null,"distance":0},{"name":"Cold Stone Creamery","code":null,"latitude":34.03978,"longitude":-118.4292,"address":"10875 W Pico Boulevard, Los Angeles CA","chain_name":null,"distance":0},{"name":"Cold Stone Creamery","code":null,"latitude":38.97223,"longitude":-95.2359,"address":"647 Massachusetts Street, Lawrence KS","chain_name":null,"distance":0},{"name":"Cold Stone Creamery","code":null,"latitude":41.8884,"longitude":-87.8023,"address":"134 N Marion Street, Oak Park IL","chain_name":null,"distance":0},{"name":"Cold Stone Creamery","code":null,"latitude":40.55542,"longitude":-112.2974,"address":"1197 N Main Street, # E, Tooele UT","chain_name":null,"distance":0},{"name":"Cold Stone Creamery","code":null,"latitude":45.19836,"longitude":-93.3556,"address":"3461 River Rapids Drive, Minneapolis MN","chain_name":null,"distance":0},{"name":"Cold Stone Creamery","code":null,"latitude":34.19372,"longitude":-118.6239,"address":"22820 Vanowen, West Hills CA","chain_name":null,"distance":0},{"name":"Cold Stone Creamery","code":null,"latitude":41.67282,"longitude":-70.3045,"address":"1070 Iyannough Road, Hyannis MA","chain_name":null,"distance":0},{"name":"Cold Stone Creamery","code":null,"latitude":41.27799,"longitude":-96.1004,"address":"2055 N 120th Street, Omaha NE","chain_name":null,"distance":0},{"name":"Cold Stone Creamery","code":null,"latitude":29.59821,"longitude":-95.6268,"address":"16200 Kensington Drive, Sugar Land TX","chain_name":null,"distance":0},{"name":"Cold Stone Creamery","code":null,"latitude":44.9397,"longitude":-122.9842,"address":"3910 Center Street Northeast, Salem OR","chain_name":null,"distance":0},{"name":"Cold Stone Creamery","code":null,"latitude":34.18844,"longitude":-79.8068,"address":"1939 W Palmetto Street, Florence SC","chain_name":null,"distance":0},{"name":"Cold Stone Creamery","code":null,"latitude":43.01784,"longitude":-89.424,"address":"2970 Cahill Main, # 103, Madison WI","chain_name":null,"distance":0},{"name":"Cold Stone Creamery","code":null,"latitude":33.65128,"longitude":-117.7469,"address":"71 Fortune, Irvine CA","chain_name":null,"distance":0},{"name":"Cold Stone Creamery","code":null,"latitude":38.77002,"longitude":-121.33,"address":"4001 Woodcreek Oaks Boulevard, # 130, Roseville CA","chain_name":null,"distance":0},{"name":"Cold Stone Creamery","code":null,"latitude":34.01687,"longitude":-118.2827,"address":"3730 S Figueroa Street, Los Angeles CA","chain_name":null,"distance":0},{"name":"Cold Stone Creamery","code":null,"latitude":39.4771,"longitude":-106.0449,"address":"505 S Main Street, Breckenridge CO","chain_name":null,"distance":0},{"name":"Cold Stone Creamery","code":null,"latitude":42.24048,"longitude":-87.9717,"address":"281 W Townline Road, # 110, Vernon Hills IL","chain_name":null,"distance":0},{"name":"Cold Stone Creamery","code":null,"latitude":32.93259,"longitude":-80.0367,"address":"7250 Rivers Avenue, North Charleston SC","chain_name":null,"distance":0},{"name":"Cold Stone Creamery","code":null,"latitude":39.44948,"longitude":-77.3837,"address":"1700 Kingfisher Drive, Frederick MD","chain_name":null,"distance":0},{"name":"Cold Stone Creamery","code":null,"latitude":35.03512,"longitude":-80.8049,"address":"9820 Rea Road, Charlotte NC","chain_name":null,"distance":0},{"name":"Cold Stone Creamery","code":null,"latitude":44.97836,"longitude":-93.2742,"address":"600 Hennepin Avenue, Minneapolis MN","chain_name":null,"distance":0},{"name":"Cold Stone Creamery","code":null,"latitude":33.7794,"longitude":-116.4626,"address":"68718 E Palm Canyon Drive, # 101, Cathedral City CA","chain_name":null,"distance":0},{"name":"Cold Stone Creamery","code":null,"latitude":33.36321,"longitude":-86.8268,"address":"2772 John Hawkins Parkway Suite 110, Hoover AL","chain_name":null,"distance":0},{"name":"Cold Stone Creamery","code":null,"latitude":34.167,"longitude":-118.3759,"address":"5300 Lankershim Boulevard, North Hollywood CA","chain_name":null,"distance":0},{"name":"Cold Stone Creamery","code":null,"latitude":47.65081,"longitude":-122.6822,"address":"9601 Mickelberry Road Northwest, Silverdale WA","chain_name":null,"distance":0},{"name":"Cold Stone Creamery","code":null,"latitude":29.10956,"longitude":-81.0369,"address":"5543 South Williamson, Port Orange FL","chain_name":null,"distance":0},{"name":"Cold Stone Creamery","code":null,"latitude":42.55621,"longitude":-83.029,"address":"35732 Van Dyke Avenue, Sterling Heights MI","chain_name":null,"distance":0},{"name":"Cold Stone Creamery","code":null,"latitude":33.45295,"longitude":-112.0699,"address":"455 N 3 St, Phoenix AZ","chain_name":null,"distance":0},{"name":"Cold Stone Creamery","code":null,"latitude":39.43085,"longitude":-75.0402,"address":"3849 S Delsea Drive, # A0011, Vineland NJ","chain_name":null,"distance":0},{"name":"Cold Stone Creamery","code":null,"latitude":32.91541,"longitude":-117.1204,"address":"10716 Westview Parkway, San Diego CA","chain_name":null,"distance":0},{"name":"Cold Stone Creamery","code":null,"latitude":33.8879,"longitude":-117.8646,"address":"151 E Yorba Linda Boulevard, Placentia CA","chain_name":null,"distance":0},{"name":"Cold Stone Creamery","code":null,"latitude":39.12583,"longitude":-94.8294,"address":"1865 Village West Parkway, Kansas City KS","chain_name":null,"distance":0},{"name":"Cold Stone Creamery","code":null,"latitude":33.78853,"longitude":-117.9592,"address":"9971 Chapman Avenue, Garden Grove CA","chain_name":null,"distance":0},{"name":"Cold Stone Creamery","code":null,"latitude":32.15619,"longitude":-110.9907,"address":"5435 S Calle Santa Cruz, Tucson AZ","chain_name":null,"distance":0},{"name":"Cold Stone Creamery","code":null,"latitude":35.20788,"longitude":-106.6526,"address":"3703 Ellison Road Northwest, Suite A, Albuquerque NM","chain_name":null,"distance":0},{"name":"Cold Stone Creamery","code":null,"latitude":42.6814,"longitude":-73.8384,"address":"1475 Western Avenue, Albany NY","chain_name":null,"distance":0},{"name":"Cold Stone Creamery","code":null,"latitude":39.52543,"longitude":-119.8142,"address":"95 N Sierra Street, # 102, Reno NV","chain_name":null,"distance":0},{"name":"Cold Stone Creamery","code":null,"latitude":33.7128,"longitude":-112.1117,"address":"2501 W Happy Valley Road, Phoenix AZ","chain_name":null,"distance":0},{"name":"Cold Stone Creamery","code":null,"latitude":42.38929,"longitude":-82.9184,"address":"16823 Kercheval Avenue, Grosse Pointe MI","chain_name":null,"distance":0},{"name":"Cold Stone Creamery","code":null,"latitude":42.33049,"longitude":-71.1921,"address":"767 Beacon Street, Newton Center MA","chain_name":null,"distance":0},{"name":"Cold Stone Creamery","code":null,"latitude":36.7735,"longitude":-76.2352,"address":"836 N Eden Way, Chesapeake VA","chain_name":null,"distance":0},{"name":"Cold Stone Creamery","code":null,"latitude":40.5861,"longitude":-122.3563,"address":"913 Dana Drive, # 3D, Redding CA","chain_name":null,"distance":0},{"name":"Cold Stone Creamery","code":null,"latitude":40.52679,"longitude":-111.8892,"address":"62 E 12300 South, Draper UT","chain_name":null,"distance":0},{"name":"Cold Stone Creamery","code":null,"latitude":39.28118,"longitude":-76.5812,"address":"2500 Boston Street # 102, Baltimore MD","chain_name":null,"distance":0},{"name":"Cold Stone Creamery","code":null,"latitude":37.52177,"longitude":-120.8801,"address":"2866 W Monte Vista Avenue, Turlock CA","chain_name":null,"distance":0},{"name":"Cold Stone Creamery","code":null,"latitude":41.05975,"longitude":-83.6704,"address":"1040 Interstate Court, Findlay OH","chain_name":null,"distance":0},{"name":"Cold Stone Creamery","code":null,"latitude":44.88478,"longitude":-93.1208,"address":"720 Main Street, # 103, Saint Paul MN","chain_name":null,"distance":0},{"name":"Cold Stone Creamery","code":null,"latitude":32.84647,"longitude":-117.2755,"address":"909 Prospect Street, # 225, La Jolla CA","chain_name":null,"distance":0},{"name":"Cold Stone Creamery","code":null,"latitude":42.15913,"longitude":-88.0523,"address":"20330 N Deer Park Boulevard, # 106, Barrington IL","chain_name":null,"distance":0},{"name":"Cold Stone Creamery","code":null,"latitude":43.68793,"longitude":-116.3549,"address":"664 S Rivershore Lane, # 160, Eagle ID","chain_name":null,"distance":0},{"name":"Cold Stone Creamery","code":null,"latitude":39.81629,"longitude":-76.9934,"address":"1000 Carlisle Street, Hanover PA","chain_name":null,"distance":0},{"name":"Cold Stone Creamery","code":null,"latitude":33.43491,"longitude":-111.9959,"address":"3800 E Sky Harbor Boulevard, Phoenix AZ","chain_name":null,"distance":0},{"name":"Cold Stone Creamery","code":null,"latitude":42.56676,"longitude":-87.8913,"address":"6935 75th Street, # A, Kenosha WI","chain_name":null,"distance":0},{"name":"Cold Stone Creamery","code":null,"latitude":27.92654,"longitude":-82.3156,"address":"2024 Badlands Drive, Brandon FL","chain_name":null,"distance":0},{"name":"Cold Stone Creamery","code":null,"latitude":43.00121,"longitude":-85.5928,"address":"2121 Celebration Drive Northeast, # 400, Grand Rapids MI","chain_name":null,"distance":0},{"name":"Cold Stone Creamery","code":null,"latitude":42.03826,"longitude":-72.6162,"address":"1623 Main Street, Agawam MA","chain_name":null,"distance":0},{"name":"Cold Stone Creamery","code":null,"latitude":39.25075,"longitude":-94.6639,"address":"7250 NW 86th Terrace, Kansas City MO","chain_name":null,"distance":0},{"name":"Cold Stone Creamery","code":null,"latitude":31.98185,"longitude":-81.1726,"address":"14045 Abercorn Street, Suite 2218, Savannah GA","chain_name":null,"distance":0},{"name":"Cold Stone Creamery","code":null,"latitude":41.49261,"longitude":-87.506,"address":"883 Joliet Street, Dyer IN","chain_name":null,"distance":0},{"name":"Cold Stone Creamery","code":null,"latitude":41.81169,"longitude":-72.5565,"address":"201 Evergreen Way, # 265, South Windsor CT","chain_name":null,"distance":0},{"name":"Cold Stone Creamery","code":null,"latitude":31.83622,"longitude":-106.5528,"address":"7040 N Mesa Street, El Paso TX","chain_name":null,"distance":0},{"name":"Cold Stone Creamery","code":null,"latitude":43.09239,"longitude":-89.527,"address":"1650 Deming Way, Middleton WI","chain_name":null,"distance":0},{"name":"Cold Stone Creamery","code":null,"latitude":30.18954,"longitude":-85.6428,"address":"1000 East 23rd Street, Suite G, Panama City FL","chain_name":null,"distance":0},{"name":"Cold Stone Creamery","code":null,"latitude":32.02584,"longitude":-81.1089,"address":"5500 Abercorn Street, # 20, Savannah GA","chain_name":null,"distance":0},{"name":"Cold Stone Creamery","code":null,"latitude":38.24844,"longitude":-122.6244,"address":"301 S Mc Dowell Boulevard, Petaluma CA","chain_name":null,"distance":0},{"name":"Cold Stone Creamery","code":null,"latitude":40.56034,"longitude":-111.9386,"address":"10493 S Redwood Road, South Jordan UT","chain_name":null,"distance":0},{"name":"Cold Stone Creamery","code":null,"latitude":33.91908,"longitude":-117.9012,"address":"260 W Birch, Brea CA","chain_name":null,"distance":0},{"name":"Cold Stone Creamery","code":null,"latitude":41.6555,"longitude":-93.7374,"address":"8779 Northpark Court, Johnston IA","chain_name":null,"distance":0},{"name":"Cold Stone Creamery","code":null,"latitude":36.11522,"longitude":-115.1031,"address":"3310 E Flamingo Road, # A, Las Vegas NV","chain_name":null,"distance":0},{"name":"Cold Stone Creamery","code":null,"latitude":38.9857,"longitude":-76.7088,"address":"15754 Annapolis Road, Bowie MD","chain_name":null,"distance":0},{"name":"Cold Stone Creamery","code":null,"latitude":47.69461,"longitude":-116.8064,"address":"2396 N Old Mill Loop, Coeur D Alene ID","chain_name":null,"distance":0},{"name":"Cold Stone Creamery","code":null,"latitude":33.44667,"longitude":-112.0708,"address":"201 E Jefferson Street, Phoenix AZ","chain_name":null,"distance":0},{"name":"Cold Stone Creamery","code":null,"latitude":42.59178,"longitude":-88.4363,"address":"859 W Main Street, Lake Geneva WI","chain_name":null,"distance":0},{"name":"Cold Stone Creamery","code":null,"latitude":35.57579,"longitude":-82.513,"address":"129 Bleachery Boulevard, # S, Asheville NC","chain_name":null,"distance":0},{"name":"Cold Stone Creamery","code":null,"latitude":46.56652,"longitude":-120.4833,"address":"2401 S 1st Street, # 100, Yakima WA","chain_name":null,"distance":0},{"name":"Cold Stone Creamery","code":null,"latitude":39.73353,"longitude":-105.1607,"address":"14239 W Colfax Avenue, Golden CO","chain_name":null,"distance":0},{"name":"Cold Stone Creamery","code":null,"latitude":26.00773,"longitude":-80.3901,"address":"18225 Pines Boulevard, Hollywood FL","chain_name":null,"distance":0},{"name":"Cold Stone Creamery","code":null,"latitude":38.58179,"longitude":-90.6274,"address":"101 Plaza Drive, Grover MO","chain_name":null,"distance":0},{"name":"Cold Stone Creamery","code":null,"latitude":45.51205,"longitude":-122.6293,"address":"3420 SE Hawthorne Boulevard, Portland OR","chain_name":null,"distance":0},{"name":"Cold Stone Creamery","code":null,"latitude":38.62799,"longitude":-76.9161,"address":"3063 Waldorf Market Place, Waldorf MD","chain_name":null,"distance":0},{"name":"Cold Stone Creamery","code":null,"latitude":40.71622,"longitude":-99.0842,"address":"214 W 42nd Street, # B, Kearney NE","chain_name":null,"distance":0},{"name":"Cold Stone Creamery","code":null,"latitude":32.28615,"longitude":-110.9781,"address":"4386 N Oracle Road, Tucson AZ","chain_name":null,"distance":0},{"name":"Cold Stone Creamery","code":null,"latitude":40.65697,"longitude":-73.6719,"address":"6 Broadway, Lynbrook NY","chain_name":null,"distance":0},{"name":"Cold Stone Creamery","code":null,"latitude":39.49038,"longitude":-84.741,"address":"9 W Highst, Oxford OH","chain_name":null,"distance":0},{"name":"Cold Stone Creamery","code":null,"latitude":40.77613,"longitude":-73.0363,"address":"499 Sunrise Highway, Patchogue NY","chain_name":null,"distance":0},{"name":"Cold Stone Creamery","code":null,"latitude":33.71881,"longitude":-78.8787,"address":"1130 Celebrity Circle, Myrtle Beach SC","chain_name":null,"distance":0},{"name":"Cold Stone Creamery","code":null,"latitude":41.91012,"longitude":-87.6346,"address":"1533 N Wells Street, # 1, Chicago IL","chain_name":null,"distance":0},{"name":"Cold Stone Creamery","code":null,"latitude":38.01052,"longitude":-121.3224,"address":"874 W Benjamin Holt Drive, Stockton CA","chain_name":null,"distance":0},{"name":"Cold Stone Creamery","code":null,"latitude":32.77977,"longitude":-117.0095,"address":"5500 Grossmont Center, La Mesa CA","chain_name":null,"distance":0},{"name":"Cold Stone Creamery","code":null,"latitude":33.81045,"longitude":-118.1159,"address":"5939 E Spring Street, Long Beach CA","chain_name":null,"distance":0},{"name":"Cold Stone Creamery","code":null,"latitude":33.88561,"longitude":-118.4082,"address":"451 Manhattan Beach Boulevard, Manhattan Beach CA","chain_name":null,"distance":0},{"name":"Cold Stone Creamery","code":null,"latitude":39.62539,"longitude":-86.1194,"address":"789 US Highway 31 North, # K, Greenwood IN","chain_name":null,"distance":0},{"name":"Cold Stone Creamery","code":null,"latitude":42.49236,"longitude":-90.7204,"address":"806 Wacker Drive, # 118, Dubuque IA","chain_name":null,"distance":0},{"name":"Cold Stone Creamery","code":null,"latitude":42.51078,"longitude":-96.4168,"address":"1921 Hamilton Boulevard, Sioux City IA","chain_name":null,"distance":0},{"name":"Cold Stone Creamery","code":null,"latitude":40.00874,"longitude":-75.2899,"address":"10 Coulter Avenue, Ardmore PA","chain_name":null,"distance":0},{"name":"Cold Stone Creamery","code":null,"latitude":37.63539,"longitude":-122.4204,"address":"1150 El Camino Real, # 192, San Bruno CA","chain_name":null,"distance":0},{"name":"Cold Stone Creamery","code":null,"latitude":38.94851,"longitude":-92.3275,"address":"904 Elm Street, # 102, Columbia MO","chain_name":null,"distance":0},{"name":"Cold Stone Creamery","code":null,"latitude":36.78974,"longitude":-76.123,"address":"2077 Lynnhaven Parkway, Virginia Beach VA","chain_name":null,"distance":0},{"name":"Cold Stone Creamery","code":null,"latitude":40.05296,"longitude":-74.1354,"address":"960 Cedar Bridge Avenue, Brick NJ","chain_name":null,"distance":0},{"name":"Cold Stone Creamery","code":null,"latitude":33.80292,"longitude":-118.037,"address":"4957 Katella Avenue, Cypress CA","chain_name":null,"distance":0},{"name":"Cold Stone Creamery","code":null,"latitude":33.99434,"longitude":-81.2305,"address":"914 N Lake Drive, # C, Lexington SC","chain_name":null,"distance":0},{"name":"Cold Stone Creamery","code":null,"latitude":47.13501,"longitude":-122.293,"address":"13333 Meridian Street East, Puyallup WA","chain_name":null,"distance":0},{"name":"Cold Stone Creamery","code":null,"latitude":33.86592,"longitude":-84.4684,"address":"2850 Paces Ferry Road Southeast, # 420, Atlanta GA","chain_name":null,"distance":0},{"name":"Cold Stone Creamery","code":null,"latitude":35.38355,"longitude":-119.1039,"address":"9160 Rosedale Highway, # 300, Bakersfield CA","chain_name":null,"distance":0},{"name":"Cold Stone Creamery","code":null,"latitude":35.08037,"longitude":-106.6092,"address":"3222 Central Avenue Southeast, # B, Albuquerque NM","chain_name":null,"distance":0},{"name":"Cold Stone Creamery","code":null,"latitude":33.45868,"longitude":-117.651,"address":"638 Camino De Los Mares, San Clemente CA","chain_name":null,"distance":0},{"name":"Cold Stone Creamery","code":null,"latitude":41.24079,"longitude":-81.4424,"address":"48 Park Lane, Hudson OH","chain_name":null,"distance":0},{"name":"Cold Stone Creamery","code":null,"latitude":41.52848,"longitude":-87.6571,"address":"1835 Dixie Highway, Flossmoor IL","chain_name":null,"distance":0},{"name":"Cold Stone Creamery","code":null,"latitude":41.50977,"longitude":-72.8078,"address":"490 S Broad Street, # 3, Meriden CT","chain_name":null,"distance":0},{"name":"Cold Stone Creamery","code":null,"latitude":40.65762,"longitude":-111.5071,"address":"1700 Park Avenue, # 103B, Park City UT","chain_name":null,"distance":0},{"name":"Cold Stone Creamery","code":null,"latitude":42.91267,"longitude":-85.5438,"address":"5088 28th Street Southeast, Grand Rapids MI","chain_name":null,"distance":0},{"name":"Cold Stone Creamery","code":null,"latitude":28.51666,"longitude":-81.4592,"address":"2312 S Kirkman Road, Orlando FL","chain_name":null,"distance":0},{"name":"Cold Stone Creamery","code":null,"latitude":36.15939,"longitude":-115.0457,"address":"5891 E Charleston Boulevard, # 100A, Las Vegas NV","chain_name":null,"distance":0},{"name":"Cold Stone Creamery","code":null,"latitude":42.1142,"longitude":-71.4654,"address":"257 Hartford Avenue, Bellingham MA","chain_name":null,"distance":0},{"name":"Cold Stone Creamery","code":null,"latitude":27.91683,"longitude":-82.8194,"address":"2923 West Bay Drive, Belleair Bluffs FL","chain_name":null,"distance":0},{"name":"Cold Stone Creamery","code":null,"latitude":38.57426,"longitude":-121.4044,"address":"2445 Fair Oaks Boulevard, Sacramento CA","chain_name":null,"distance":0},{"name":"Cold Stone Creamery","code":null,"latitude":39.62853,"longitude":-84.1905,"address":"1053 Miamisburg Centerville Road, Dayton OH","chain_name":null,"distance":0},{"name":"Cold Stone Creamery","code":null,"latitude":44.8541,"longitude":-93.2404,"address":"60 East Broadway, Minneapolis MN","chain_name":null,"distance":0},{"name":"Cold Stone Creamery","code":null,"latitude":37.76285,"longitude":-121.9504,"address":"600 Market Place, San Ramon CA","chain_name":null,"distance":0},{"name":"Cold Stone Creamery","code":null,"latitude":29.56271,"longitude":-98.3324,"address":"7917 Pat Booker Road, San Antonio TX","chain_name":null,"distance":0},{"name":"Cold Stone Creamery","code":null,"latitude":33.61413,"longitude":-117.6796,"address":"24000 Alicia Parkway, Mission Viejo CA","chain_name":null,"distance":0},{"name":"Cold Stone Creamery","code":null,"latitude":30.48026,"longitude":-81.6386,"address":"840 Nautica Drive, # 123, Jacksonville FL","chain_name":null,"distance":0},{"name":"Cold Stone Creamery","code":null,"latitude":38.97979,"longitude":-76.9379,"address":"7314 Baltimore Avenue, College Park MD","chain_name":null,"distance":0},{"name":"Cold Stone Creamery","code":null,"latitude":39.95674,"longitude":-86.0203,"address":"8395 E 116th Street, # 121, Fishers IN","chain_name":null,"distance":0},{"name":"Cold Stone Creamery","code":null,"latitude":37.70008,"longitude":-121.066,"address":"3801 Pelandale Avenue, Modesto CA","chain_name":null,"distance":0},{"name":"Cold Stone Creamery","code":null,"latitude":35.38123,"longitude":-77.9315,"address":"1209 N Berkeley Boulevard, # C, Goldsboro NC","chain_name":null,"distance":0},{"name":"Cold Stone Creamery","code":null,"latitude":39.91406,"longitude":-104.9711,"address":"1281 E 120th Avenue, Denver CO","chain_name":null,"distance":0},{"name":"Cold Stone Creamery","code":null,"latitude":39.81532,"longitude":-94.815,"address":"5301 N Belt Highway, # 115, Saint Joseph MO","chain_name":null,"distance":0},{"name":"Cold Stone Creamery","code":null,"latitude":39.99274,"longitude":-85.9303,"address":"13170 Harrell Parkway, # 1000, Noblesville IN","chain_name":null,"distance":0},{"name":"Cold Stone Creamery","code":null,"latitude":42.02471,"longitude":-91.623,"address":"4701 1st Avenue Southeast, # 8, Cedar Rapids IA","chain_name":null,"distance":0},{"name":"Cold Stone Creamery","code":null,"latitude":34.86645,"longitude":-111.7626,"address":"101 N State Route 89A, # C16, Sedona AZ","chain_name":null,"distance":0},{"name":"Cold Stone Creamery","code":null,"latitude":33.95336,"longitude":-84.6585,"address":"3625 Dallas Highway Southwest, # 780, Marietta GA","chain_name":null,"distance":0},{"name":"Cold Stone Creamery","code":null,"latitude":38.59302,"longitude":-90.2722,"address":"3702 S Kingshighway Boulevard, Saint Louis MO","chain_name":null,"distance":0},{"name":"Cold Stone Creamery","code":null,"latitude":40.19132,"longitude":-74.6442,"address":"141 Marketplace Boulevard, Trenton NJ","chain_name":null,"distance":0},{"name":"Cold Stone Creamery","code":null,"latitude":40.62054,"longitude":-111.856,"address":"7186 S Union Park Avenue, Midvale UT","chain_name":null,"distance":0},{"name":"Cold Stone Creamery","code":null,"latitude":33.28037,"longitude":-111.6861,"address":"7507 S Power Road, Queen Creek AZ","chain_name":null,"distance":0},{"name":"Cold Stone Creamery","code":null,"latitude":43.07112,"longitude":-87.8879,"address":"2907 N Oakland Avenue, Milwaukee WI","chain_name":null,"distance":0},{"name":"Cold Stone Creamery","code":null,"latitude":45.51621,"longitude":-122.5789,"address":"9976 SE 82nd Avenue, Portland OR","chain_name":null,"distance":0},{"name":"Cold Stone Creamery","code":null,"latitude":32.67529,"longitude":-97.3983,"address":"4811 Overton Ridge Boulevard, Fort Worth TX","chain_name":null,"distance":0},{"name":"Cold Stone Creamery","code":null,"latitude":26.58949,"longitude":-80.1451,"address":"6346 Lantana Rd., Lake Worth FL","chain_name":null,"distance":0},{"name":"Cold Stone Creamery","code":null,"latitude":43.10253,"longitude":-77.538,"address":"3349 Monroe Avenue, # 30, Rochester NY","chain_name":null,"distance":0},{"name":"Cold Stone Creamery","code":null,"latitude":36.85131,"longitude":-119.791,"address":"7971 N Blackstone Avenue, Fresno CA","chain_name":null,"distance":0},{"name":"Cold Stone Creamery","code":null,"latitude":43.71759,"longitude":-87.7545,"address":"3546 Washington Avenue, Sheboygan WI","chain_name":null,"distance":0},{"name":"Cold Stone Creamery","code":null,"latitude":40.581,"longitude":-83.0933,"address":"1325 Mount Vernon Avenue, Marion OH","chain_name":null,"distance":0},{"name":"Cold Stone Creamery","code":null,"latitude":26.69525,"longitude":-81.974,"address":"2311 Santa Barbara Boulevard, # 109, Cape Coral FL","chain_name":null,"distance":0},{"name":"Cold Stone Creamery","code":null,"latitude":41.37089,"longitude":-73.2717,"address":"255 S Main Street, Newtown CT","chain_name":null,"distance":0},{"name":"Cold Stone Creamery","code":null,"latitude":40.4381,"longitude":-79.9229,"address":"5800 Forbes Avenue, Pittsburgh PA","chain_name":null,"distance":0},{"name":"Cold Stone Creamery","code":null,"latitude":33.96491,"longitude":-84.4115,"address":"640 Johnson Ferry Road, # 110, Marietta GA","chain_name":null,"distance":0},{"name":"Cold Stone Creamery","code":null,"latitude":45.54976,"longitude":-94.2079,"address":"3959 2nd Street South, Suite 305, Saint Cloud MN","chain_name":null,"distance":0},{"name":"Cold Stone Creamery","code":null,"latitude":33.27743,"longitude":-111.7906,"address":"2970 E Germann Road, # 5, Chandler AZ","chain_name":null,"distance":0},{"name":"Cold Stone Creamery","code":null,"latitude":29.16036,"longitude":-82.1747,"address":"3100 SW College Road, # 426, Ocala FL","chain_name":null,"distance":0},{"name":"Cold Stone Creamery","code":null,"latitude":33.93971,"longitude":-117.9672,"address":"1940 W Whittier Boulevard, La Habra CA","chain_name":null,"distance":0},{"name":"Cold Stone Creamery","code":null,"latitude":39.55384,"longitude":-119.7056,"address":"2838 Vista Boulevard, # 106, Sparks NV","chain_name":null,"distance":0},{"name":"Cold Stone Creamery","code":null,"latitude":36.06838,"longitude":-79.5094,"address":"3160 Walden Lane, Burlington NC","chain_name":null,"distance":0},{"name":"Cold Stone Creamery","code":null,"latitude":38.87996,"longitude":-77.1108,"address":"4238 Wilson Boulevard, Arlington VA","chain_name":null,"distance":0},{"name":"Cold Stone Creamery","code":null,"latitude":33.37919,"longitude":-111.7528,"address":"3641 E Baseline Road, Gilbert AZ","chain_name":null,"distance":0},{"name":"Cold Stone Creamery","code":null,"latitude":41.72103,"longitude":-87.6799,"address":"2306 West 95th Street, Chicago IL","chain_name":null,"distance":0},{"name":"Cold Stone Creamery","code":null,"latitude":33.79259,"longitude":-117.7626,"address":"8544 E Chapman Avenue, Orange CA","chain_name":null,"distance":0},{"name":"Cold Stone Creamery","code":null,"latitude":43.04736,"longitude":-88.3728,"address":"2742 Hillside Drive, Delafield WI","chain_name":null,"distance":0},{"name":"Cold Stone Creamery","code":null,"latitude":26.01081,"longitude":-80.174,"address":"3261 Hollywood Boulevard, Hollywood FL","chain_name":null,"distance":0},{"name":"Cold Stone Creamery","code":null,"latitude":37.83392,"longitude":-122.2921,"address":"5609 Bay Street, Emeryville CA","chain_name":null,"distance":0},{"name":"Cold Stone Creamery","code":null,"latitude":42.12606,"longitude":-122.5526,"address":"39085 Fremont Hub, Ashland CA","chain_name":null,"distance":0},{"name":"Cold Stone Creamery","code":null,"latitude":44.99717,"longitude":-124.001,"address":"4157 NW Highway 101, # 138, Lincoln City OR","chain_name":null,"distance":0},{"name":"Cold Stone Creamery","code":null,"latitude":34.04063,"longitude":-84.3048,"address":"7601 N Point Parkway, # 200B, Alpharetta GA","chain_name":null,"distance":0},{"name":"Cold Stone Creamery","code":null,"latitude":41.18282,"longitude":-73.2547,"address":"2323 Black Rock Turnpike, Fairfield CT","chain_name":null,"distance":0},{"name":"Cold Stone Creamery","code":null,"latitude":32.77677,"longitude":-79.9737,"address":"2 Windermere Boulevard, # 16, Charleston SC","chain_name":null,"distance":0},{"name":"Cold Stone Creamery","code":null,"latitude":34.03041,"longitude":-118.4844,"address":"1824 Wilshire Boulevard, Santa Monica CA","chain_name":null,"distance":0},{"name":"Cold Stone Creamery","code":null,"latitude":38.32483,"longitude":-122.2869,"address":"651 Trancas Street, Napa CA","chain_name":null,"distance":0},{"name":"Cold Stone Creamery","code":null,"latitude":36.76178,"longitude":-76.0075,"address":"1169 Nimmo Parkway, Virginia Beach VA","chain_name":null,"distance":0},{"name":"Cold Stone Creamery","code":null,"latitude":47.03475,"longitude":-122.7648,"address":"1350 Marvin Road Northeast, # A, Lacey WA","chain_name":null,"distance":0},{"name":"Cold Stone Creamery","code":null,"latitude":40.75669,"longitude":-73.9885,"address":"255 W 42, New York NY","chain_name":null,"distance":0},{"name":"Cold Stone Creamery","code":null,"latitude":38.65626,"longitude":-90.3079,"address":"6662 Delmar Boulevard, # B, Saint Louis MO","chain_name":null,"distance":0},{"name":"Cold Stone Creamery","code":null,"latitude":42.30523,"longitude":-83.2482,"address":"22215 Michigan Avenue, Dearborn MI","chain_name":null,"distance":0},{"name":"Cold Stone Creamery","code":null,"latitude":42.21796,"longitude":-71.1884,"address":"301 Washington, Westwood MA","chain_name":null,"distance":0},{"name":"Cold Stone Creamery","code":null,"latitude":44.88728,"longitude":-123.0331,"address":"4643 Commercial Street Southeast, Salem OR","chain_name":null,"distance":0},{"name":"Cold Stone Creamery","code":null,"latitude":36.58468,"longitude":-121.9005,"address":"1470 Del Monte Centre, Monterey CA","chain_name":null,"distance":0},{"name":"Cold Stone Creamery","code":null,"latitude":28.09161,"longitude":-80.5664,"address":"2 5th Avenue, # B, Indialantic FL","chain_name":null,"distance":0},{"name":"Cold Stone Creamery","code":null,"latitude":39.15256,"longitude":-77.0639,"address":"18105 Village Center Drive, Olney MD","chain_name":null,"distance":0},{"name":"Cold Stone Creamery","code":null,"latitude":41.81981,"longitude":-72.8657,"address":"530 Bushy Hill Road, # 162, Simsbury CT","chain_name":null,"distance":0},{"name":"Cold Stone Creamery","code":null,"latitude":44.81208,"longitude":-93.0396,"address":"9024 Cahill Avenue East, Inver Grove Heights MN","chain_name":null,"distance":0},{"name":"Cold Stone Creamery","code":null,"latitude":35.05205,"longitude":-114.589,"address":"3699 Highway 95, # 685, Bullhead City AZ","chain_name":null,"distance":0},{"name":"Cold Stone Creamery","code":null,"latitude":28.46877,"longitude":-81.3099,"address":"6607 S Semoran Boulevard, Orlando FL","chain_name":null,"distance":0},{"name":"Cold Stone Creamery","code":null,"latitude":44.27299,"longitude":-88.4697,"address":"4301 W Wisconsin Avenue, # 175, Appleton WI","chain_name":null,"distance":0},{"name":"Cold Stone Creamery","code":null,"latitude":38.43657,"longitude":-75.0542,"address":"13115 Coastal Highway, Ocean City MD","chain_name":null,"distance":0},{"name":"Cold Stone Creamery","code":null,"latitude":39.15253,"longitude":-76.7255,"address":"7645 Arundel Mills Boulevard, Hanover MD","chain_name":null,"distance":0},{"name":"Cold Stone Creamery","code":null,"latitude":33.91339,"longitude":-117.886,"address":"1065 Brea Mall, # 2157, Brea CA","chain_name":null,"distance":0},{"name":"Cold Stone Creamery","code":null,"latitude":38.44634,"longitude":-105.1832,"address":"127 Justice Center Road, # D, Canon City CO","chain_name":null,"distance":0},{"name":"Cold Stone Creamery","code":null,"latitude":40.11401,"longitude":-111.6547,"address":"320 N Main, Spanish Fork UT","chain_name":null,"distance":0},{"name":"Cold Stone Creamery","code":null,"latitude":33.39133,"longitude":-84.7624,"address":"234 Newnan Crossing Bypass, Newnan GA","chain_name":null,"distance":0},{"name":"Cold Stone Creamery","code":null,"latitude":39.71157,"longitude":-86.3554,"address":"2499 Futura Parkway, # 114, Plainfield IN","chain_name":null,"distance":0},{"name":"Cold Stone Creamery","code":null,"latitude":38.14651,"longitude":-92.625,"address":"4540 Highway 54, # A1, Osage Beach MO","chain_name":null,"distance":0},{"name":"Cold Stone Creamery","code":null,"latitude":35.37147,"longitude":-80.7184,"address":"8111 Concord Mills Boulevard, # 743, Concord NC","chain_name":null,"distance":0},{"name":"Cold Stone Creamery","code":null,"latitude":34.16104,"longitude":-118.275,"address":"901 West Glenoaks Boulevard, Glendale CA","chain_name":null,"distance":0},{"name":"Cold Stone Creamery","code":null,"latitude":47.61698,"longitude":-122.1303,"address":"15600 NE 8th Street, Bellevue WA","chain_name":null,"distance":0},{"name":"Cold Stone Creamery","code":null,"latitude":40.73807,"longitude":-74.0307,"address":"116 Washington Street, # A, Hoboken NJ","chain_name":null,"distance":0},{"name":"Cold Stone Creamery","code":null,"latitude":25.98194,"longitude":-80.3597,"address":"2937 SW 160th Avenue, Hollywood FL","chain_name":null,"distance":0},{"name":"Cold Stone Creamery","code":null,"latitude":37.89186,"longitude":-122.12,"address":"3545 Mount Diablo Boulevard, Lafayette CA","chain_name":null,"distance":0},{"name":"Cold Stone Creamery","code":null,"latitude":40.1103,"longitude":-88.2319,"address":"505 E Green Street, # 4, Champaign IL","chain_name":null,"distance":0},{"name":"Cold Stone Creamery","code":null,"latitude":38.26117,"longitude":-122.0574,"address":"1586 Gateway Boulevard, # C9, Fairfield CA","chain_name":null,"distance":0},{"name":"Cold Stone Creamery","code":null,"latitude":30.15361,"longitude":-97.3371,"address":"696 W Highway 71, Bastrop TX","chain_name":null,"distance":0},{"name":"Cold Stone Creamery","code":null,"latitude":33.9849,"longitude":-84.0784,"address":"5900 Sugarloaf Parkway, # 442, Lawrenceville GA","chain_name":null,"distance":0},{"name":"Cold Stone Creamery","code":null,"latitude":33.63221,"longitude":-111.9037,"address":"16101 N 82nd Street, Scottsdale AZ","chain_name":null,"distance":0},{"name":"Cold Stone Creamery","code":null,"latitude":39.39059,"longitude":-84.5015,"address":"3425 Princeton Road, # 100, Hamilton OH","chain_name":null,"distance":0},{"name":"Cold Stone Creamery","code":null,"latitude":36.11345,"longitude":-115.2428,"address":"4126 S Rainbow Boulevard, Las Vegas NV","chain_name":null,"distance":0},{"name":"Cold Stone Creamery","code":null,"latitude":40.26018,"longitude":-76.8822,"address":"Colonial Commons Shopping Center, Harrisburg PA","chain_name":null,"distance":0},{"name":"Cold Stone Creamery","code":null,"latitude":37.41591,"longitude":-77.6402,"address":"13261 Rittenhouse Drive, Midlothian VA","chain_name":null,"distance":0},{"name":"Cold Stone Creamery","code":null,"latitude":45.1639,"longitude":-93.1582,"address":"4355 Pheasant Ridge Drive, Minneapolis MN","chain_name":null,"distance":0},{"name":"Cold Stone Creamery","code":null,"latitude":40.62,"longitude":-111.9807,"address":"3781 W Center Park Drive, West Jordan UT","chain_name":null,"distance":0},{"name":"Cold Stone Creamery","code":null,"latitude":40.81789,"longitude":-73.4111,"address":"350 Route 110, Huntington Station NY","chain_name":null,"distance":0},{"name":"Cold Stone Creamery","code":null,"latitude":29.16608,"longitude":-82.1688,"address":"2701 Southwest College Road, Suite 109, Ocala FL","chain_name":null,"distance":0},{"name":"Cold Stone Creamery","code":null,"latitude":40.04211,"longitude":-75.4789,"address":"82 E Lancaster Avenue # A-7, Paoli PA","chain_name":null,"distance":0},{"name":"Cold Stone Creamery","code":null,"latitude":37.70624,"longitude":-121.8852,"address":"4920 Dublin Boulevard, Dublin CA","chain_name":null,"distance":0},{"name":"Cold Stone Creamery","code":null,"latitude":33.63857,"longitude":-112.3631,"address":"14071 W Bell Road, Surprise AZ","chain_name":null,"distance":0},{"name":"Cold Stone Creamery","code":null,"latitude":36.28142,"longitude":-115.2878,"address":"6640 N Durango Drive, # 150, Las Vegas NV","chain_name":null,"distance":0},{"name":"Cold Stone Creamery","code":null,"latitude":47.2711,"longitude":-122.5158,"address":"2601 N Pearl Street, Tacoma WA","chain_name":null,"distance":0},{"name":"Cold Stone Creamery","code":null,"latitude":42.18037,"longitude":-70.9064,"address":"92 Derby, Hingham MA","chain_name":null,"distance":0},{"name":"Cold Stone Creamery","code":null,"latitude":44.85172,"longitude":-93.4305,"address":"582 Prairie Center Drive, Eden Prairie MN","chain_name":null,"distance":0},{"name":"Cold Stone Creamery","code":null,"latitude":35.74883,"longitude":-78.8853,"address":"2050 Creekside Landing Dr, Apex NC","chain_name":null,"distance":0},{"name":"Cold Stone Creamery","code":null,"latitude":28.45015,"longitude":-81.4018,"address":"1700 Sand Lake Road, # D108, Orlando FL","chain_name":null,"distance":0},{"name":"Cold Stone Creamery","code":null,"latitude":37.77211,"longitude":-120.8326,"address":"1449 East F, Oakdale CA","chain_name":null,"distance":0},{"name":"Cold Stone Creamery","code":null,"latitude":45.45092,"longitude":-122.579,"address":"9976 SE 82nd Avenue, Happy Valley OR","chain_name":null,"distance":0},{"name":"Cold Stone Creamery","code":null,"latitude":40.72943,"longitude":-73.6355,"address":"984 Franklin Avenue, Garden City NY","chain_name":null,"distance":0},{"name":"Cold Stone Creamery","code":null,"latitude":34.13602,"longitude":-117.871,"address":"425 W Foothill Boulevard, Glendora CA","chain_name":null,"distance":0},{"name":"Cold Stone Creamery","code":null,"latitude":34.08066,"longitude":-81.1598,"address":"285 Columbiana Drive, # M, Columbia SC","chain_name":null,"distance":0},{"name":"Cold Stone Creamery","code":null,"latitude":38.56094,"longitude":-121.7658,"address":"1411 W Covell Boulevard, # 110, Davis CA","chain_name":null,"distance":0},{"name":"Cold Stone Creamery","code":null,"latitude":33.55411,"longitude":-117.1969,"address":"25395 Madisn Avenue, Murrieta CA","chain_name":null,"distance":0},{"name":"Cold Stone Creamery","code":null,"latitude":30.05101,"longitude":-95.2443,"address":"706 Kingwood Drive, Kingwood TX","chain_name":null,"distance":0},{"name":"Cold Stone Creamery","code":null,"latitude":42.73473,"longitude":-84.4815,"address":"200 Mac Avenue, East Lansing MI","chain_name":null,"distance":0},{"name":"Cold Stone Creamery","code":null,"latitude":37.33018,"longitude":-121.8119,"address":"2980 E Capitol Expressway, # 20, San Jose CA","chain_name":null,"distance":0},{"name":"Cold Stone Creamery","code":null,"latitude":39.03838,"longitude":-76.681,"address":"1310 Main Chapel Way, Gambrills MD","chain_name":null,"distance":0},{"name":"Cold Stone Creamery","code":null,"latitude":34.83027,"longitude":-82.3049,"address":"1125 Woodruff Road, # 1602, Greenville SC","chain_name":null,"distance":0},{"name":"Cold Stone Creamery","code":null,"latitude":44.20894,"longitude":-89.8081,"address":"326 State Highway 13, Wisconsin Dells WI","chain_name":null,"distance":0},{"name":"Cold Stone Creamery","code":null,"latitude":33.64981,"longitude":-83.9972,"address":"1522 Dogwood Drive Southeast, Suite D, Conyers GA","chain_name":null,"distance":0},{"name":"Cold Stone Creamery","code":null,"latitude":35.33982,"longitude":-119.102,"address":"9000 Ming Avenue, # H2, Bakersfield CA","chain_name":null,"distance":0},{"name":"Cold Stone Creamery","code":null,"latitude":47.54738,"longitude":-122.0407,"address":"6100 E Lake Sammamish Southeast, # 6, Issaquah WA","chain_name":null,"distance":0},{"name":"Cold Stone Creamery","code":null,"latitude":33.68075,"longitude":-96.6089,"address":"4062 N US Highway 75, Sherman TX","chain_name":null,"distance":0},{"name":"Cold Stone Creamery","code":null,"latitude":28.66191,"longitude":-81.3836,"address":"229 East Altamonte Drive, Altamonte Springs FL","chain_name":null,"distance":0},{"name":"Cold Stone Creamery","code":null,"latitude":39.71298,"longitude":-104.8228,"address":"14132 E Cedar Avenue, # A, Aurora CO","chain_name":null,"distance":0},{"name":"Cold Stone Creamery","code":null,"latitude":41.69476,"longitude":-86.1902,"address":"620 W Edison Road, # 116, Mishawaka IN","chain_name":null,"distance":0},{"name":"Cold Stone Creamery","code":null,"latitude":36.67169,"longitude":-93.2576,"address":"1615 W Highway 76, Branson MO","chain_name":null,"distance":0},{"name":"Cold Stone Creamery","code":null,"latitude":41.62916,"longitude":-85.9106,"address":"4536 Elkhart Road, # 1600, Elkhart IN","chain_name":null,"distance":0},{"name":"Cold Stone Creamery","code":null,"latitude":32.70863,"longitude":-117.085,"address":"336 Euclid Avenue, # 504, San Diego CA","chain_name":null,"distance":0},{"name":"Cold Stone Creamery","code":null,"latitude":35.10406,"longitude":-80.9853,"address":"14126 Rivergate Parkway, # 100, Charlotte NC","chain_name":null,"distance":0},{"name":"Cold Stone Creamery","code":null,"latitude":40.65632,"longitude":-111.8882,"address":"5287 S State, Salt Lake City UT","chain_name":null,"distance":0},{"name":"Cold Stone Creamery","code":null,"latitude":40.79356,"longitude":-74.2538,"address":"455 Prospect Avenue, West Orange NJ","chain_name":null,"distance":0},{"name":"Cold Stone Creamery","code":null,"latitude":41.59794,"longitude":-88.0197,"address":"16527 W 159th Street, # 107, Lockport IL","chain_name":null,"distance":0},{"name":"Cold Stone Creamery","code":null,"latitude":40.14758,"longitude":-74.997,"address":"210 East Street Road, Feasterville-Trevose PA","chain_name":null,"distance":0},{"name":"Cold Stone Creamery","code":null,"latitude":29.60795,"longitude":-98.4651,"address":"1750 N Loop 1604 East, # 104, San Antonio TX","chain_name":null,"distance":0},{"name":"Cold Stone Creamery","code":null,"latitude":37.94613,"longitude":-122.0618,"address":"60 Crescent Drive, # J, Pleasant Hill CA","chain_name":null,"distance":0},{"name":"Cold Stone Creamery","code":null,"latitude":46.35836,"longitude":-94.2265,"address":"14136 Baxter, Brainerd MN","chain_name":null,"distance":0},{"name":"Cold Stone Creamery","code":null,"latitude":34.15147,"longitude":-118.452,"address":"14622 Ventura Boulevard, Sherman Oaks CA","chain_name":null,"distance":0},{"name":"Cold Stone Creamery","code":null,"latitude":37.56343,"longitude":-77.4716,"address":"933 W Broad Street, Richmond VA","chain_name":null,"distance":0},{"name":"Cold Stone Creamery","code":null,"latitude":34.11665,"longitude":-118.2621,"address":"3134 Glendale Boulevard, Los Angeles CA","chain_name":null,"distance":0},{"name":"Cold Stone Creamery","code":null,"latitude":41.75101,"longitude":-88.0144,"address":"1001 West 75th Street, Woodridge IL","chain_name":null,"distance":0},{"name":"Cold Stone Creamery","code":null,"latitude":41.53012,"longitude":-73.8928,"address":"11 Merritt Boulevard, Fishkill NY","chain_name":null,"distance":0},{"name":"Cold Stone Creamery","code":null,"latitude":37.2737,"longitude":-76.7514,"address":"4615 Monticello Avenue, Williamsburg VA","chain_name":null,"distance":0},{"name":"Cold Stone Creamery","code":null,"latitude":33.83341,"longitude":-118.185,"address":"4247 Atlantic Avenue, Long Beach CA","chain_name":null,"distance":0},{"name":"Cold Stone Creamery","code":null,"latitude":40.49198,"longitude":-74.443,"address":"294 George Street, New Brunswick NJ","chain_name":null,"distance":0},{"name":"Cold Stone Creamery","code":null,"latitude":26.37214,"longitude":-80.2036,"address":"20449 State Road 7, Boca Raton FL","chain_name":null,"distance":0},{"name":"Cold Stone Creamery","code":null,"latitude":25.98605,"longitude":-80.1299,"address":"1723 E Hallandale Beach Boulevard, Hallandale FL","chain_name":null,"distance":0},{"name":"Cold Stone Creamery","code":null,"latitude":42.19773,"longitude":-83.2603,"address":"23360 Eureka Road, Taylor MI","chain_name":null,"distance":0},{"name":"Cold Stone Creamery","code":null,"latitude":47.61658,"longitude":-122.0349,"address":"22830 NE 8th Street, Sammamish WA","chain_name":null,"distance":0},{"name":"Cold Stone Creamery","code":null,"latitude":41.71475,"longitude":-81.2954,"address":"9560 Diamond Centre, Mentor OH","chain_name":null,"distance":0},{"name":"Cold Stone Creamery","code":null,"latitude":40.65138,"longitude":-74.3486,"address":"163 E Broad Street, Westfield NJ","chain_name":null,"distance":0},{"name":"Cold Stone Creamery","code":null,"latitude":34.07394,"longitude":-118.3765,"address":"100 N La Cienega Boulevard, Los Angeles CA","chain_name":null,"distance":0},{"name":"Cold Stone Creamery","code":null,"latitude":42.71657,"longitude":-88.9796,"address":"2900 Deerfield Drive, # 1F, Janesville WI","chain_name":null,"distance":0},{"name":"Cold Stone Creamery","code":null,"latitude":33.38318,"longitude":-111.5986,"address":"1752 S Signal Butte Road, # 107, Mesa AZ","chain_name":null,"distance":0},{"name":"Cold Stone Creamery","code":null,"latitude":35.50692,"longitude":-78.3219,"address":"150 S Equity Dr, Smithfield NC","chain_name":null,"distance":0},{"name":"Cold Stone Creamery","code":null,"latitude":34.93595,"longitude":-82.2762,"address":"6015 Wade Hampton Boulevard, # D, Taylors SC","chain_name":null,"distance":0},{"name":"Cold Stone Creamery","code":null,"latitude":39.50573,"longitude":-119.8005,"address":"299 E Plumb Lane, # A, Reno NV","chain_name":null,"distance":0},{"name":"Cold Stone Creamery","code":null,"latitude":30.44911,"longitude":-84.3063,"address":"1444 West Tennessee Street, Tallahassee FL","chain_name":null,"distance":0},{"name":"Cold Stone Creamery","code":null,"latitude":41.58029,"longitude":-83.6794,"address":"479 W Dussel Drive, Maumee OH","chain_name":null,"distance":0},{"name":"Cold Stone Creamery","code":null,"latitude":42.34592,"longitude":-71.0838,"address":"94 Belvidere Street, Boston MA","chain_name":null,"distance":0},{"name":"Cold Stone Creamery","code":null,"latitude":42.33184,"longitude":-122.8664,"address":"635 Medford Centre # D1-2, Medford OR","chain_name":null,"distance":0},{"name":"Cold Stone Creamery","code":null,"latitude":39.18203,"longitude":-77.2653,"address":"19847 Century Boulevard, Germantown MD","chain_name":null,"distance":0},{"name":"Cold Stone Creamery","code":null,"latitude":32.83876,"longitude":-116.9822,"address":"9868 Mission Gorge Road, Santee CA","chain_name":null,"distance":0},{"name":"Cold Stone Creamery","code":null,"latitude":33.15301,"longitude":-96.8628,"address":"3193 West Main Street, Suite 319, Frisco TX","chain_name":null,"distance":0},{"name":"Cold Stone Creamery","code":null,"latitude":37.36236,"longitude":-108.7334,"address":"Cortez CO","chain_name":null,"distance":0},{"name":"Cold Stone Creamery","code":null,"latitude":33.72625,"longitude":-84.7361,"address":"2911 Chapel Hill Road, # 240, Douglasville GA","chain_name":null,"distance":0},{"name":"Cold Stone Creamery","code":null,"latitude":40.90561,"longitude":-74.5466,"address":"321 Mount Hope Avenue, # 11, Rockaway NJ","chain_name":null,"distance":0},{"name":"Cold Stone Creamery","code":null,"latitude":32.84154,"longitude":-79.856,"address":"644 Long Point Road, # H, Mount Pleasant SC","chain_name":null,"distance":0},{"name":"Cold Stone Creamery","code":null,"latitude":34.44123,"longitude":-119.8233,"address":"5718 Calle Real, Goleta CA","chain_name":null,"distance":0},{"name":"Cold Stone Creamery","code":null,"latitude":33.84828,"longitude":-118.1463,"address":"5107 E Candlwd, Lakewood CA","chain_name":null,"distance":0},{"name":"Cold Stone Creamery","code":null,"latitude":39.54718,"longitude":-76.3156,"address":"1200 Agora Drive, Bel Air MD","chain_name":null,"distance":0},{"name":"Cold Stone Creamery","code":null,"latitude":42.34888,"longitude":-71.1595,"address":"470 Washington, Brighton MA","chain_name":null,"distance":0},{"name":"Cold Stone Creamery","code":null,"latitude":32.7522,"longitude":-117.1939,"address":"2448 San Diego Avenue, San Diego CA","chain_name":null,"distance":0},{"name":"Cold Stone Creamery","code":null,"latitude":40.1483,"longitude":-74.9983,"address":"140 East Street Road, Feasterville Trevose PA","chain_name":null,"distance":0},{"name":"Cold Stone Creamery","code":null,"latitude":30.18851,"longitude":-81.552,"address":"9960 Southside Boulevard, # 100, Jacksonville FL","chain_name":null,"distance":0},{"name":"Cold Stone Creamery","code":null,"latitude":38.80643,"longitude":-90.2971,"address":"14013 New Halls Ferry Road, Florissant MO","chain_name":null,"distance":0},{"name":"Cold Stone Creamery","code":null,"latitude":46.78264,"longitude":-92.094,"address":"349 Canal Park Drive, Duluth MN","chain_name":null,"distance":0},{"name":"Cold Stone Creamery","code":null,"latitude":44.49528,"longitude":-88.0611,"address":"2101 S Oneida Street, # 300, Green Bay WI","chain_name":null,"distance":0},{"name":"Cold Stone Creamery","code":null,"latitude":38.74936,"longitude":-77.0837,"address":"7702 Richmond Highway, Alexandria VA","chain_name":null,"distance":0},{"name":"Cold Stone Creamery","code":null,"latitude":39.74175,"longitude":-84.1837,"address":"131 Jasper Street, Dayton OH","chain_name":null,"distance":0},{"name":"Cold Stone Creamery","code":null,"latitude":33.85974,"longitude":-117.7925,"address":"5626 E La Palma Avenue, Anaheim CA","chain_name":null,"distance":0},{"name":"Cold Stone Creamery","code":null,"latitude":32.99883,"longitude":-96.7975,"address":"18101 Preston Road, # 204D, Dallas TX","chain_name":null,"distance":0},{"name":"Cold Stone Creamery","code":null,"latitude":29.2309,"longitude":-81.0101,"address":"250 N Atlantic Avenue, # 102, Daytona Beach FL","chain_name":null,"distance":0},{"name":"Cold Stone Creamery","code":null,"latitude":47.1623,"longitude":-122.5206,"address":"10417 Gravelly Lake Drive Southwest, Lakewood WA","chain_name":null,"distance":0},{"name":"Cold Stone Creamery","code":null,"latitude":25.91321,"longitude":-80.3097,"address":"6723 Main Street, Hialeah FL","chain_name":null,"distance":0},{"name":"Cold Stone Creamery","code":null,"latitude":38.67403,"longitude":-90.4591,"address":"12418 Olive Boulevard, Saint Louis MO","chain_name":null,"distance":0},{"name":"Cold Stone Creamery","code":null,"latitude":38.23312,"longitude":-77.504,"address":"9917 Southpoint Parkway, Fredericksburg VA","chain_name":null,"distance":0},{"name":"Cold Stone Creamery","code":null,"latitude":28.54081,"longitude":-81.1517,"address":"457 Avalon Park South Boulevard, Orlando FL","chain_name":null,"distance":0},{"name":"Cold Stone Creamery","code":null,"latitude":33.82488,"longitude":-117.5161,"address":"2630 Tuscany Street, # 101, Corona CA","chain_name":null,"distance":0},{"name":"Cold Stone Creamery","code":null,"latitude":34.09337,"longitude":-84.2801,"address":"875 N Main Street, # 303, Alpharetta GA","chain_name":null,"distance":0},{"name":"Cold Stone Creamery","code":null,"latitude":39.99919,"longitude":-86.1299,"address":"14550 Clay Terrace Boulevard, # 105, Carmel IN","chain_name":null,"distance":0},{"name":"Cold Stone Creamery","code":null,"latitude":34.0661,"longitude":-84.1692,"address":"11720 Medlock Bridge Road, # 164, Duluth GA","chain_name":null,"distance":0},{"name":"Cold Stone Creamery","code":null,"latitude":40.68438,"longitude":-73.9776,"address":"139 Flatbush Avenue, Brooklyn NY","chain_name":null,"distance":0},{"name":"Cold Stone Creamery","code":null,"latitude":40.5542,"longitude":-75.5818,"address":"1042 Millcreek Road, # 31, Allentown PA","chain_name":null,"distance":0},{"name":"Cold Stone Creamery","code":null,"latitude":40.44291,"longitude":-76.27,"address":"260 N West End Boulevard, Richland PA","chain_name":null,"distance":0},{"name":"Cold Stone Creamery","code":null,"latitude":45.71866,"longitude":-122.6612,"address":"910 NE Tenney Road, # 103, Vancouver WA","chain_name":null,"distance":0},{"name":"Cold Stone Creamery","code":null,"latitude":41.65412,"longitude":-87.9997,"address":"1251 State Street, # 102, Lemont IL","chain_name":null,"distance":0},{"name":"Cold Stone Creamery","code":null,"latitude":41.8649,"longitude":-87.6468,"address":"1316 S Halsted Street, Chicago IL","chain_name":null,"distance":0},{"name":"Cold Stone Creamery","code":null,"latitude":37.22218,"longitude":-121.9841,"address":"20 S Snta Cruz Avenue, Los Gatos CA","chain_name":null,"distance":0},{"name":"Cold Stone Creamery","code":null,"latitude":29.63829,"longitude":-95.5845,"address":"12510 Fountain Lake Circle, Stafford TX","chain_name":null,"distance":0},{"name":"Cold Stone Creamery","code":null,"latitude":41.64846,"longitude":-70.9885,"address":"83 Centre Faunce Corner Road, North Dartmouth MA","chain_name":null,"distance":0},{"name":"Cold Stone Creamery","code":null,"latitude":39.88249,"longitude":-105.039,"address":"10443 Town Center Drive, Westminster CO","chain_name":null,"distance":0},{"name":"Cold Stone Creamery","code":null,"latitude":34.17679,"longitude":-117.33,"address":"5244 N University Parkway, San Bernardino CA","chain_name":null,"distance":0},{"name":"Cold Stone Creamery","code":null,"latitude":35.73835,"longitude":-77.9555,"address":"2847 Raleigh Road Parkway West, Wilson NC","chain_name":null,"distance":0},{"name":"Cold Stone Creamery","code":null,"latitude":41.46956,"longitude":-87.027,"address":"71 Silhavy Road, Valparaiso IN","chain_name":null,"distance":0},{"name":"Cold Stone Creamery","code":null,"latitude":36.02966,"longitude":-115.0862,"address":"1500 N Green Valley Parkway, # 130, Henderson NV","chain_name":null,"distance":0},{"name":"Cold Stone Creamery","code":null,"latitude":37.30087,"longitude":-120.4818,"address":"401 W Main, Merced CA","chain_name":null,"distance":0},{"name":"Cold Stone Creamery","code":null,"latitude":33.75843,"longitude":-84.3485,"address":"1220 Caroline Street Northeast, # 110, Atlanta GA","chain_name":null,"distance":0},{"name":"Cold Stone Creamery","code":null,"latitude":39.19198,"longitude":-76.6134,"address":"6711 Ritchie Highway, Glen Burnie MD","chain_name":null,"distance":0},{"name":"Cold Stone Creamery","code":null,"latitude":33.23382,"longitude":-111.7893,"address":"4990 S Gilbert Road, Chandler AZ","chain_name":null,"distance":0},{"name":"Cold Stone Creamery","code":null,"latitude":42.3352,"longitude":-83.0418,"address":"540 Monroe Street, Detroit MI","chain_name":null,"distance":0},{"name":"Cold Stone Creamery","code":null,"latitude":39.2251,"longitude":-76.7938,"address":"5705 Richards Valley, Ellicott City MD","chain_name":null,"distance":0},{"name":"Cold Stone Creamery","code":null,"latitude":33.00057,"longitude":-80.1784,"address":"310 Azalea Boulevard, Summerville SC","chain_name":null,"distance":0},{"name":"Cold Stone Creamery","code":null,"latitude":42.95706,"longitude":-78.8694,"address":"2674 Delaware Avenue, Buffalo NY","chain_name":null,"distance":0},{"name":"Cold Stone Creamery","code":null,"latitude":44.83675,"longitude":-92.9594,"address":"7750 Harkness Avenue South, Cottage Grove MN","chain_name":null,"distance":0},{"name":"Cold Stone Creamery","code":null,"latitude":38.40904,"longitude":-121.3521,"address":"9385 Elk Grove Boulevard, # 200, Elk Grove CA","chain_name":null,"distance":0},{"name":"Cold Stone Creamery","code":null,"latitude":35.34913,"longitude":-80.8553,"address":"9335 Center Lake Drive, # 160, Charlotte NC","chain_name":null,"distance":0},{"name":"Cold Stone Creamery","code":null,"latitude":44.24395,"longitude":-88.3576,"address":"3420 E Calumet Street, # D, Appleton WI","chain_name":null,"distance":0},{"name":"Cold Stone Creamery","code":null,"latitude":37.41621,"longitude":-121.8945,"address":"426 Great Mall Drive, Milpitas CA","chain_name":null,"distance":0},{"name":"Cold Stone Creamery","code":null,"latitude":34.03808,"longitude":-84.3463,"address":"540 East Crossville Road, Roswell GA","chain_name":null,"distance":0},{"name":"Cold Stone Creamery","code":null,"latitude":47.57451,"longitude":-122.1709,"address":"3910 Factoria Square Mall Southeast, Bellevue WA","chain_name":null,"distance":0},{"name":"Cold Stone Creamery","code":null,"latitude":44.62867,"longitude":-123.0784,"address":"2195 14th Avenue Southeast, Albany OR","chain_name":null,"distance":0},{"name":"Cold Stone Creamery","code":null,"latitude":41.95044,"longitude":-88.1123,"address":"723 Stratford Square Mall, Bloomingdale IL","chain_name":null,"distance":0},{"name":"Cold Stone Creamery","code":null,"latitude":40.5048,"longitude":-74.8485,"address":"325 US Highway No 202, Flemington NJ","chain_name":null,"distance":0},{"name":"Cold Stone Creamery","code":null,"latitude":39.56407,"longitude":-104.8847,"address":"8441 S Yosemite Street, Littleton CO","chain_name":null,"distance":0},{"name":"Cold Stone Creamery","code":null,"latitude":35.18146,"longitude":-101.863,"address":"2606 Curtis Drive, Amarillo TX","chain_name":null,"distance":0},{"name":"Cold Stone Creamery","code":null,"latitude":38.93017,"longitude":-76.564,"address":"129 Mitchells Chance Road, Edgewater MD","chain_name":null,"distance":0},{"name":"Cold Stone Creamery","code":null,"latitude":34.0109,"longitude":-84.573,"address":"2500 Cobb Place Lane Northwest, # 230, Kennesaw GA","chain_name":null,"distance":0},{"name":"Cold Stone Creamery","code":null,"latitude":39.76303,"longitude":-86.3268,"address":"55 S Raceway Road, # 400, Indianapolis IN","chain_name":null,"distance":0},{"name":"Cold Stone Creamery","code":null,"latitude":26.54446,"longitude":-81.8713,"address":"13711 S Tamiami Trail, # 7, Fort Myers FL","chain_name":null,"distance":0},{"name":"Cold Stone Creamery","code":null,"latitude":38.78006,"longitude":-77.5101,"address":"8113 Sudley Road, Manassas VA","chain_name":null,"distance":0},{"name":"Cold Stone Creamery","code":null,"latitude":37.71097,"longitude":-120.958,"address":"2213 Claribel Road, Riverbank CA","chain_name":null,"distance":0},{"name":"Cold Stone Creamery","code":null,"latitude":37.95487,"longitude":-121.2903,"address":"222 N El Dorado, Stockton CA","chain_name":null,"distance":0},{"name":"Cold Stone Creamery","code":null,"latitude":39.12443,"longitude":-77.2354,"address":"30 Exchange Street, Gaithersburg MD","chain_name":null,"distance":0},{"name":"Cold Stone Creamery","code":null,"latitude":40.1472,"longitude":-105.1308,"address":"1087 S Hover Road, Longmont CO","chain_name":null,"distance":0},{"name":"Cold Stone Creamery","code":null,"latitude":34.13825,"longitude":-118.2144,"address":"5047 Eagle Rock Boulevard, Los Angeles CA","chain_name":null,"distance":0},{"name":"Cold Stone Creamery","code":null,"latitude":34.04893,"longitude":-84.5981,"address":"3940 Cherokee Street Northwest, # 203, Kennesaw GA","chain_name":null,"distance":0},{"name":"Cold Stone Creamery","code":null,"latitude":44.26179,"longitude":-121.1796,"address":"1380 SW Canal Boulevard, # 102, Redmond OR","chain_name":null,"distance":0},{"name":"Cold Stone Creamery","code":null,"latitude":28.60743,"longitude":-81.3651,"address":"601 N Orlando Avenue, Winter Park FL","chain_name":null,"distance":0},{"name":"Cold Stone Creamery","code":null,"latitude":47.49639,"longitude":-94.9133,"address":"2219 Paul Bunyan Drive Northwest, # 4, Bemidji MN","chain_name":null,"distance":0},{"name":"Cold Stone Creamery","code":null,"latitude":37.40217,"longitude":-122.113,"address":"636 San Antonio Road, Mountain View CA","chain_name":null,"distance":0},{"name":"Cold Stone Creamery","code":null,"latitude":30.63926,"longitude":-81.4582,"address":"808 Sadler Road, Fernandina Beach FL","chain_name":null,"distance":0},{"name":"Cold Stone Creamery","code":null,"latitude":39.32943,"longitude":-82.1011,"address":"8 N Court Street, Athens OH","chain_name":null,"distance":0},{"name":"Cold Stone Creamery","code":null,"latitude":34.14509,"longitude":-118.2549,"address":"132 S Brand Boulevard, Glendale CA","chain_name":null,"distance":0},{"name":"Cold Stone Creamery","code":null,"latitude":34.10115,"longitude":-80.8559,"address":"101 Sparkleberry Crossing, Columbia SC","chain_name":null,"distance":0},{"name":"Cold Stone Creamery","code":null,"latitude":40.27465,"longitude":-74.044,"address":"State Route 35, Eatontown NJ","chain_name":null,"distance":0},{"name":"Cold Stone Creamery","code":null,"latitude":40.19295,"longitude":-77.1587,"address":"214 Westminster Drive, Carlisle PA","chain_name":null,"distance":0},{"name":"Cold Stone Creamery","code":null,"latitude":38.7006,"longitude":-90.4448,"address":"510 West Port Plaza, Saint Louis MO","chain_name":null,"distance":0},{"name":"Cold Stone Creamery","code":null,"latitude":35.70051,"longitude":-81.3027,"address":"2045 Catawba Valley Boulevard Southeast, Hickory NC","chain_name":null,"distance":0},{"name":"Cold Stone Creamery","code":null,"latitude":33.95676,"longitude":-117.3295,"address":"5225 Canyon Crest Drive, # 90, Riverside CA","chain_name":null,"distance":0},{"name":"Cold Stone Creamery","code":null,"latitude":41.62156,"longitude":-88.1236,"address":"72 S Weber Road, Romeoville IL","chain_name":null,"distance":0},{"name":"Cold Stone Creamery","code":null,"latitude":33.66814,"longitude":-112.1243,"address":"3045 W Agua Fria Frwy, Phoenix AZ","chain_name":null,"distance":0},{"name":"Cold Stone Creamery","code":null,"latitude":36.32449,"longitude":-119.673,"address":"186 N 12th Avenue, # 111, Hanford CA","chain_name":null,"distance":0},{"name":"Cold Stone Creamery","code":null,"latitude":42.80439,"longitude":-83.7359,"address":"3202 W Silver Lake Road, Fenton MI","chain_name":null,"distance":0},{"name":"Cold Stone Creamery","code":null,"latitude":40.14475,"longitude":-82.9913,"address":"1089 Polaris Parkway, Columbus OH","chain_name":null,"distance":0},{"name":"Cold Stone Creamery","code":null,"latitude":34.14826,"longitude":-117.4756,"address":"15068 Summit Avenue, Fontana CA","chain_name":null,"distance":0},{"name":"Cold Stone Creamery","code":null,"latitude":26.02954,"longitude":-80.3589,"address":"15641 Sheridan Street, # 500, Fort Lauderdale FL","chain_name":null,"distance":0},{"name":"Cold Stone Creamery","code":null,"latitude":27.46251,"longitude":-82.6366,"address":"7476 Cortez Road, Bradenton FL","chain_name":null,"distance":0},{"name":"Cold Stone Creamery","code":null,"latitude":42.19621,"longitude":-71.7756,"address":"70 Worc-Prov Turnpike, Millbury MA","chain_name":null,"distance":0},{"name":"Cold Stone Creamery","code":null,"latitude":40.06008,"longitude":-75.1049,"address":"3001 Cheltenham Avenue, Cheltenham PA","chain_name":null,"distance":0},{"name":"Cold Stone Creamery","code":null,"latitude":38.90257,"longitude":-76.845,"address":"880 Capital Centre Boulevard, Upper Marlboro MD","chain_name":null,"distance":0},{"name":"Cold Stone Creamery","code":null,"latitude":43.07941,"longitude":-73.7859,"address":"327 Broadway, Saratoga Springs NY","chain_name":null,"distance":0},{"name":"Cold Stone Creamery","code":null,"latitude":37.25049,"longitude":-121.8634,"address":"925 Blossom Hill Road, # 1641, San Jose CA","chain_name":null,"distance":0},{"name":"Cold Stone Creamery","code":null,"latitude":39.90505,"longitude":-86.0855,"address":"5025 E 82nd Street, # 400, Indianapolis IN","chain_name":null,"distance":0},{"name":"Cold Stone Creamery","code":null,"latitude":25.68594,"longitude":-80.3116,"address":"9059 S Dixie Highway, Miami FL","chain_name":null,"distance":0},{"name":"Cold Stone Creamery","code":null,"latitude":38.61235,"longitude":-90.6439,"address":"1605 Garden Valley Court, Glencoe MO","chain_name":null,"distance":0},{"name":"Cold Stone Creamery","code":null,"latitude":39.04223,"longitude":-94.5885,"address":"114 W 47th Street, Kansas City MO","chain_name":null,"distance":0},{"name":"Cold Stone Creamery","code":null,"latitude":44.59142,"longitude":-123.2534,"address":"2350 NW 9th Street, Corvallis OR","chain_name":null,"distance":0},{"name":"Cold Stone Creamery","code":null,"latitude":29.73794,"longitude":-95.4633,"address":"5135 W Alabama Street, # 7315, Houston TX","chain_name":null,"distance":0},{"name":"Cold Stone Creamery","code":null,"latitude":33.20611,"longitude":-117.2885,"address":"4121 Oceanside Boulevard, Oceanside CA","chain_name":null,"distance":0},{"name":"Cold Stone Creamery","code":null,"latitude":37.1595,"longitude":-93.2721,"address":"900 E Battlefield Street, # 116, Springfield MO","chain_name":null,"distance":0},{"name":"Cold Stone Creamery","code":null,"latitude":35.65121,"longitude":-80.458,"address":"343 Faith Road, Salisbury NC","chain_name":null,"distance":0},{"name":"Cold Stone Creamery","code":null,"latitude":45.61583,"longitude":-122.5075,"address":"16010 SE Mill Plain Boulevard, Vancouver WA","chain_name":null,"distance":0},{"name":"Cold Stone Creamery","code":null,"latitude":42.79118,"longitude":-78.7821,"address":"3464 Amelia Drive, Orchard Park NY","chain_name":null,"distance":0},{"name":"Cold Stone Creamery","code":null,"latitude":40.30642,"longitude":-79.5825,"address":"2530 Greengate Centre Circle, Greensburg PA","chain_name":null,"distance":0},{"name":"Cold Stone Creamery","code":null,"latitude":33.78438,"longitude":-78.7703,"address":"10740 Kings Road, Myrtle Beach SC","chain_name":null,"distance":0},{"name":"Cold Stone Creamery","code":null,"latitude":45.0958,"longitude":-93.4416,"address":"7765 Main Street North, Osseo MN","chain_name":null,"distance":0},{"name":"Cold Stone Creamery","code":null,"latitude":36.86913,"longitude":-76.2922,"address":"520 W 21st Street, Norfolk VA","chain_name":null,"distance":0},{"name":"Cold Stone Creamery","code":null,"latitude":35.06987,"longitude":-78.9627,"address":"5075 Morganton Rd, Fayetteville NC","chain_name":null,"distance":0},{"name":"Cold Stone Creamery","code":null,"latitude":33.2378,"longitude":-117.2968,"address":"4635 Frazee Road, Oceanside CA","chain_name":null,"distance":0},{"name":"Cold Stone Creamery","code":null,"latitude":40.81757,"longitude":-74.8393,"address":"1930 State Route 57, # B, Hackettstown NJ","chain_name":null,"distance":0},{"name":"Cold Stone Creamery","code":null,"latitude":45.32144,"longitude":-122.5781,"address":"19711 S Highway 213, Oregon City OR","chain_name":null,"distance":0},{"name":"Cold Stone Creamery","code":null,"latitude":33.82162,"longitude":-116.5468,"address":"155 S Palm Cnyn Drive, Palm Springs CA","chain_name":null,"distance":0},{"name":"Cold Stone Creamery","code":null,"latitude":40.0212,"longitude":-82.8799,"address":"508 Creekside Plaza, Columbus OH","chain_name":null,"distance":0},{"name":"Cold Stone Creamery","code":null,"latitude":32.70325,"longitude":-114.6045,"address":"1317 S Yuma Palms Parkway, Yuma AZ","chain_name":null,"distance":0},{"name":"Cold Stone Creamery","code":null,"latitude":33.92916,"longitude":-84.3418,"address":"1270 Ashford Crossing, Atlanta GA","chain_name":null,"distance":0},{"name":"Cold Stone Creamery","code":null,"latitude":39.54698,"longitude":-104.9993,"address":"9338 Dorchester, Littleton CO","chain_name":null,"distance":0},{"name":"Cold Stone Creamery","code":null,"latitude":47.62821,"longitude":-117.3669,"address":"3011 E 29th Avenue, Spokane WA","chain_name":null,"distance":0},{"name":"Cold Stone Creamery","code":null,"latitude":41.13711,"longitude":-73.7917,"address":"64 Washington Avenue, Pleasantville NY","chain_name":null,"distance":0},{"name":"Cold Stone Creamery","code":null,"latitude":47.31634,"longitude":-122.3024,"address":"2430 S 319th Place, Federal Way WA","chain_name":null,"distance":0},{"name":"Cold Stone Creamery","code":null,"latitude":34.0747,"longitude":-118.073,"address":"3580 Rosemead Boulevard, Rosemead CA","chain_name":null,"distance":0},{"name":"Cold Stone Creamery","code":null,"latitude":34.23681,"longitude":-119.0377,"address":"2390 Las Posas Road, Camarillo CA","chain_name":null,"distance":0},{"name":"Cold Stone Creamery","code":null,"latitude":29.55596,"longitude":-95.3851,"address":"10645 Broadway Street, # 101, Pearland TX","chain_name":null,"distance":0},{"name":"Cold Stone Creamery","code":null,"latitude":42.09604,"longitude":-72.5867,"address":"1150 W Columbus Avenue, Springfield MA","chain_name":null,"distance":0},{"name":"Cold Stone Creamery","code":null,"latitude":38.79596,"longitude":-77.6093,"address":"7372 Atlas Walk Way, Gainesville VA","chain_name":null,"distance":0},{"name":"Cold Stone Creamery","code":null,"latitude":33.80795,"longitude":-118.2733,"address":"210 E Sepulveda Boulevard, Carson CA","chain_name":null,"distance":0},{"name":"Cold Stone Creamery","code":null,"latitude":38.72853,"longitude":-77.797,"address":"183 W Lee Highway, Warrenton VA","chain_name":null,"distance":0},{"name":"Cold Stone Creamery","code":null,"latitude":34.16884,"longitude":-118.5362,"address":"18511 Ventura Boulevard, Tarzana CA","chain_name":null,"distance":0},{"name":"Cold Stone Creamery","code":null,"latitude":39.38706,"longitude":-76.7368,"address":"1809 Reisterstown Road, Pikesville MD","chain_name":null,"distance":0},{"name":"Cold Stone Creamery","code":null,"latitude":38.79,"longitude":-89.9512,"address":"2100 Troy Road, # 1, Edwardsville IL","chain_name":null,"distance":0},{"name":"Cold Stone Creamery","code":null,"latitude":35.58283,"longitude":-77.3739,"address":"518 Greenville Boulevard Southeast, # G, Greenville NC","chain_name":null,"distance":0},{"name":"Cold Stone Creamery","code":null,"latitude":43.95539,"longitude":-86.3972,"address":"4743 West US Highway 10, Ludington MI","chain_name":null,"distance":0},{"name":"Cold Stone Creamery","code":null,"latitude":28.12771,"longitude":-82.37,"address":"17519 Preserve Walk Lane, Tampa FL","chain_name":null,"distance":0},{"name":"Cold Stone Creamery","code":null,"latitude":26.12094,"longitude":-80.2402,"address":"6967 W Broward Boulevard, Fort Lauderdale FL","chain_name":null,"distance":0},{"name":"Cold Stone Creamery","code":null,"latitude":40.13599,"longitude":-74.2244,"address":"4707 Route 9 North, Howell NJ","chain_name":null,"distance":0},{"name":"Cold Stone Creamery","code":null,"latitude":41.95332,"longitude":-70.7148,"address":"158 Colony Place Road, Plymouth MA","chain_name":null,"distance":0},{"name":"Cold Stone Creamery","code":null,"latitude":26.26469,"longitude":-98.2195,"address":"7017 N 10th Street, Mcallen TX","chain_name":null,"distance":0},{"name":"Cold Stone Creamery","code":null,"latitude":33.99047,"longitude":-117.9231,"address":"17575 Colima, City Of Industry CA","chain_name":null,"distance":0},{"name":"Cold Stone Creamery","code":null,"latitude":39.89798,"longitude":-75.0319,"address":"210 Kings Highway East, Haddonfield NJ","chain_name":null,"distance":0},{"name":"Cold Stone Creamery","code":null,"latitude":33.6923,"longitude":-117.3372,"address":"29261 Centrl Avenue, Lake Elsinore CA","chain_name":null,"distance":0},{"name":"Cold Stone Creamery","code":null,"latitude":38.77274,"longitude":-121.2656,"address":"1228 Galleria Boulevard, # 140, Roseville CA","chain_name":null,"distance":0},{"name":"Cold Stone Creamery","code":null,"latitude":39.91075,"longitude":-86.266,"address":"6010 W 86th Street, # 142, Indianapolis IN","chain_name":null,"distance":0},{"name":"Cold Stone Creamery","code":null,"latitude":42.9908,"longitude":-78.8098,"address":"4110 Maple Road, Buffalo NY","chain_name":null,"distance":0},{"name":"Cold Stone Creamery","code":null,"latitude":40.76077,"longitude":-73.9228,"address":"3420 Broadway, Long Island City NY","chain_name":null,"distance":0},{"name":"Cold Stone Creamery","code":null,"latitude":41.13586,"longitude":-81.6386,"address":"3900 Medina Road, Akron OH","chain_name":null,"distance":0},{"name":"Cold Stone Creamery","code":null,"latitude":39.71095,"longitude":-105.0838,"address":"7850 W Alameda Avenue, Denver CO","chain_name":null,"distance":0},{"name":"Cold Stone Creamery","code":null,"latitude":44.83238,"longitude":-93.1587,"address":"1264 Town Centre Drive, Saint Paul MN","chain_name":null,"distance":0},{"name":"Cold Stone Creamery","code":null,"latitude":39.92439,"longitude":-82.7851,"address":"1718 Hill Road North, # 107, Pickerington OH","chain_name":null,"distance":0},{"name":"Cold Stone Creamery","code":null,"latitude":45.5049,"longitude":-122.441,"address":"1044 Northwest Civic Drive, Gresham OR","chain_name":null,"distance":0},{"name":"Cold Stone Creamery","code":null,"latitude":40.13836,"longitude":-74.9587,"address":"Neshimany Mall, Bensalem PA","chain_name":null,"distance":0},{"name":"Cold Stone Creamery","code":null,"latitude":36.08741,"longitude":-79.8302,"address":"3105 Northline Avenue, Greensboro NC","chain_name":null,"distance":0},{"name":"Cold Stone Creamery","code":null,"latitude":34.19769,"longitude":-119.1794,"address":"261 W 5th Street, Oxnard CA","chain_name":null,"distance":0},{"name":"Cold Stone Creamery","code":null,"latitude":33.88868,"longitude":-84.7464,"address":"4910 Jimmy Lee Smith Parkway, #105, Hiram GA","chain_name":null,"distance":0},{"name":"Cold Stone Creamery","code":null,"latitude":39.7999,"longitude":-89.6479,"address":"124 S 6th Street, Springfield IL","chain_name":null,"distance":0},{"name":"Cold Stone Creamery","code":null,"latitude":40.78725,"longitude":-82.5889,"address":"2074 Walker Lake Road, Mansfield OH","chain_name":null,"distance":0},{"name":"Cold Stone Creamery","code":null,"latitude":33.32656,"longitude":-111.687,"address":"4972 S Power Road, # 103, Mesa AZ","chain_name":null,"distance":0},{"name":"Cold Stone Creamery","code":null,"latitude":42.06403,"longitude":-76.0322,"address":"4700 Vestal Parkway, Vestal NY","chain_name":null,"distance":0},{"name":"Cold Stone Creamery","code":null,"latitude":28.33198,"longitude":-81.5261,"address":"15 Blake Boulevard, Kissimmee FL","chain_name":null,"distance":0},{"name":"Cold Stone Creamery","code":null,"latitude":33.03817,"longitude":-116.8755,"address":"1451 Main, Ramona CA","chain_name":null,"distance":0},{"name":"Cold Stone Creamery","code":null,"latitude":32.6815,"longitude":-97.1095,"address":"3900 Arlington Highlands Boulevard, Arlington TX","chain_name":null,"distance":0},{"name":"Cold Stone Creamery","code":null,"latitude":42.48546,"longitude":-71.1914,"address":"2 Wayside Road, Burlington MA","chain_name":null,"distance":0},{"name":"Cold Stone Creamery","code":null,"latitude":45.42055,"longitude":-122.7388,"address":"8 Centerpointe Drive, Lake Oswego OR","chain_name":null,"distance":0},{"name":"Cold Stone Creamery","code":null,"latitude":33.97535,"longitude":-117.5576,"address":"12569 Limonite Avenue, Mira Loma CA","chain_name":null,"distance":0},{"name":"Cold Stone Creamery","code":null,"latitude":38.34877,"longitude":-122.7199,"address":"441 Rohnert Park Expressway West, Rohnert Park CA","chain_name":null,"distance":0},{"name":"Cold Stone Creamery","code":null,"latitude":47.59576,"longitude":-120.6609,"address":"900 Front Street, Leavenworth WA","chain_name":null,"distance":0},{"name":"Cold Stone Creamery","code":null,"latitude":41.5422,"longitude":-88.1996,"address":"1153 Brook Forest Avenue, Shorewood IL","chain_name":null,"distance":0},{"name":"Cold Stone Creamery","code":null,"latitude":45.49713,"longitude":-122.8084,"address":"3205 SW Cedar Hills Boulevard, Beaverton OR","chain_name":null,"distance":0},{"name":"Cold Stone Creamery","code":null,"latitude":40.7443,"longitude":-74.3912,"address":"469 Main Street, Chatham NJ","chain_name":null,"distance":0},{"name":"Cold Stone Creamery","code":null,"latitude":42.34376,"longitude":-71.1021,"address":"201 Brookline Avenue, Boston MA","chain_name":null,"distance":0},{"name":"Cold Stone Creamery","code":null,"latitude":34.1431,"longitude":-118.4004,"address":"12265 Ventura Boulevard, Studio City CA","chain_name":null,"distance":0},{"name":"Cold Stone Creamery","code":null,"latitude":39.11364,"longitude":-77.5352,"address":"1013 Edwards Ferry Road, Leesburg VA","chain_name":null,"distance":0},{"name":"Cold Stone Creamery","code":null,"latitude":42.88162,"longitude":-85.7458,"address":"3427 Century Center Street Southwest, Grandville MI","chain_name":null,"distance":0},{"name":"Cold Stone Creamery","code":null,"latitude":37.78545,"longitude":-122.4083,"address":"119 Ellis Street, San Francisco CA","chain_name":null,"distance":0},{"name":"Cold Stone Creamery","code":null,"latitude":30.47294,"longitude":-84.2925,"address":"2415 N Monroe Street, # 1108, Tallahassee FL","chain_name":null,"distance":0},{"name":"Cold Stone Creamery","code":null,"latitude":37.1524,"longitude":-80.4144,"address":"2445 N Franklin Street, Christiansburg VA","chain_name":null,"distance":0},{"name":"Cold Stone Creamery","code":null,"latitude":38.80184,"longitude":-104.8176,"address":"2130 Southgate Road, Colorado Springs CO","chain_name":null,"distance":0},{"name":"Cold Stone Creamery","code":null,"latitude":26.30678,"longitude":-80.2788,"address":"6230 Coral Ridge Drive, # 110, Pompano Beach FL","chain_name":null,"distance":0},{"name":"Cold Stone Creamery","code":null,"latitude":33.63857,"longitude":-117.593,"address":"22342 El Paseo, Rancho Santa Margarita CA","chain_name":null,"distance":0},{"name":"Cold Stone Creamery","code":null,"latitude":36.7168,"longitude":-121.6561,"address":"796 Northridge Shopping Centre, Salinas CA","chain_name":null,"distance":0},{"name":"Cold Stone Creamery","code":null,"latitude":37.03547,"longitude":-76.3941,"address":"1986 Power Plant Parkway, Hampton VA","chain_name":null,"distance":0},{"name":"Cold Stone Creamery","code":null,"latitude":41.54535,"longitude":-83.5852,"address":"27151 Crossroads Parkway, # B, Rossford OH","chain_name":null,"distance":0},{"name":"Cold Stone Creamery","code":null,"latitude":43.6575,"longitude":-93.3167,"address":"820 Happy Trails Lane, Albert Lea MN","chain_name":null,"distance":0},{"name":"Cold Stone Creamery","code":null,"latitude":33.02014,"longitude":-117.074,"address":"11948 Bernardo Plaza Drive, San Diego CA","chain_name":null,"distance":0},{"name":"Cold Stone Creamery","code":null,"latitude":34.24324,"longitude":-77.8284,"address":"951 International Dr, Wilmington NC","chain_name":null,"distance":0},{"name":"Cold Stone Creamery","code":null,"latitude":38.49569,"longitude":-121.5227,"address":"1028 Florin Road, Sacramento CA","chain_name":null,"distance":0},{"name":"Cold Stone Creamery","code":null,"latitude":42.18138,"longitude":-88.3354,"address":"339 N Randall Road, Lake In The Hills IL","chain_name":null,"distance":0},{"name":"Cold Stone Creamery","code":null,"latitude":48.7853,"longitude":-122.4861,"address":"3908 Meridian Street, # 108, Bellingham WA","chain_name":null,"distance":0},{"name":"Cold Stone Creamery","code":null,"latitude":33.63807,"longitude":-112.2322,"address":"8215 W Bell Road, Peoria AZ","chain_name":null,"distance":0},{"name":"Cold Stone Creamery","code":null,"latitude":34.28441,"longitude":-118.4397,"address":"120 N Maclay Avenue, San Fernando CA","chain_name":null,"distance":0},{"name":"Cold Stone Creamery","code":null,"latitude":40.24807,"longitude":-75.2946,"address":"880 W Main Street, Lansdale PA","chain_name":null,"distance":0},{"name":"Cold Stone Creamery","code":null,"latitude":37.55647,"longitude":-122.2742,"address":"977 E Hillsdale Boulevard, # 170, San Mateo CA","chain_name":null,"distance":0},{"name":"Cold Stone Creamery","code":null,"latitude":29.03973,"longitude":-82.0648,"address":"2433 W Florida Avenue, Belleview CA","chain_name":null,"distance":0},{"name":"Cold Stone Creamery","code":null,"latitude":29.74378,"longitude":-95.7759,"address":"23501 Cinco Ranch Boulevard, # E100, Katy TX","chain_name":null,"distance":0},{"name":"Cold Stone Creamery","code":null,"latitude":26.25911,"longitude":-80.265,"address":"10343 Royal Palm Boulevard, Pompano Beach FL","chain_name":null,"distance":0},{"name":"Cold Stone Creamery","code":null,"latitude":40.38835,"longitude":-74.3079,"address":"3179 Us Highway 9, Old Bridge NJ","chain_name":null,"distance":0},{"name":"Cold Stone Creamery","code":null,"latitude":36.83755,"longitude":-119.6821,"address":"1845 Herndon Avenue, # A, Clovis CA","chain_name":null,"distance":0},{"name":"Cold Stone Creamery","code":null,"latitude":40.74664,"longitude":-73.5955,"address":"1504 Old Country Road, Westbury NY","chain_name":null,"distance":0},{"name":"Cold Stone Creamery","code":null,"latitude":40.62872,"longitude":-75.4777,"address":"250 Lehigh Valley Mall, Whitehall PA","chain_name":null,"distance":0},{"name":"Cold Stone Creamery","code":null,"latitude":26.48844,"longitude":-81.7894,"address":"10035 Gulf Center Drive, Fort Myers FL","chain_name":null,"distance":0},{"name":"Cold Stone Creamery","code":null,"latitude":26.3681,"longitude":-80.126,"address":"2200 Glades Road, Suite 103A, Boca Raton FL","chain_name":null,"distance":0},{"name":"Cold Stone Creamery","code":null,"latitude":44.00285,"longitude":-92.4775,"address":"1050 Apache Mall, Rochester MN","chain_name":null,"distance":0},{"name":"Cold Stone Creamery","code":null,"latitude":42.52787,"longitude":-71.7121,"address":"83 Orchard Hill Park Drive, Leominster MA","chain_name":null,"distance":0},{"name":"Cold Stone Creamery","code":null,"latitude":37.56676,"longitude":-122.3225,"address":"375 E 2nd Avenue, San Mateo CA","chain_name":null,"distance":0},{"name":"Cold Stone Creamery","code":null,"latitude":47.83182,"longitude":-122.2737,"address":"3000 184th Street, Lynnwood WA","chain_name":null,"distance":0},{"name":"Cold Stone Creamery","code":null,"latitude":42.53196,"longitude":-82.9143,"address":"31961 Gratiot Avenue, Roseville MI","chain_name":null,"distance":0},{"name":"Cold Stone Creamery","code":null,"latitude":33.31978,"longitude":-111.9657,"address":"7131 W Ray Road, Chandler AZ","chain_name":null,"distance":0},{"name":"Cold Stone Creamery","code":null,"latitude":39.84631,"longitude":-84.1921,"address":"6815 Miller Lane, Dayton OH","chain_name":null,"distance":0},{"name":"Cold Stone Creamery","code":null,"latitude":39.63998,"longitude":-104.7915,"address":"4251 South Buckley Road, Aurora CO","chain_name":null,"distance":0},{"name":"Cold Stone Creamery","code":null,"latitude":39.38297,"longitude":-104.5806,"address":"PO Box 2790, Elizabeth CO","chain_name":null,"distance":0},{"name":"Cold Stone Creamery","code":null,"latitude":36.87263,"longitude":-76.4401,"address":"5860 Harbour View Boulevard, Suffolk VA","chain_name":null,"distance":0},{"name":"Cold Stone Creamery","code":null,"latitude":28.05455,"longitude":-82.428,"address":"2774 Fowler Avenue, Tampa FL","chain_name":null,"distance":0},{"name":"Cold Stone Creamery","code":null,"latitude":46.67758,"longitude":-122.9771,"address":"1648 NW Louisiana Avenue, Chehalis WA","chain_name":null,"distance":0},{"name":"Cold Stone Creamery","code":null,"latitude":36.0303,"longitude":-75.6706,"address":"1716 N Croatan Highway, Kill Devil Hills NC","chain_name":null,"distance":0},{"name":"Cold Stone Creamery","code":null,"latitude":38.52623,"longitude":-122.7882,"address":"6580 Hembree Lane, # 258, Windsor CA","chain_name":null,"distance":0},{"name":"Cold Stone Creamery","code":null,"latitude":41.81299,"longitude":-87.8695,"address":"76 S La Grange Road, La Grange IL","chain_name":null,"distance":0},{"name":"Cold Stone Creamery","code":null,"latitude":41.62705,"longitude":-81.43,"address":"36175 Euclid, Willoughby OH","chain_name":null,"distance":0},{"name":"Cold Stone Creamery","code":null,"latitude":38.85987,"longitude":-77.3619,"address":"Fair Oaks Mall, Fairfax VA","chain_name":null,"distance":0},{"name":"Cold Stone Creamery","code":null,"latitude":33.71598,"longitude":-116.2968,"address":"78380 State Highway 111, La Quinta CA","chain_name":null,"distance":0},{"name":"Cold Stone Creamery","code":null,"latitude":40.77812,"longitude":-73.9806,"address":"162 W 72, New York NY","chain_name":null,"distance":0},{"name":"Cold Stone Creamery","code":null,"latitude":38.67497,"longitude":-121.2715,"address":"6105 Sunrise Boulevard, Citrus Heights CA","chain_name":null,"distance":0},{"name":"Cold Stone Creamery","code":null,"latitude":34.00148,"longitude":-117.8125,"address":"1127 S Grand Avenue, Diamond Bar CA","chain_name":null,"distance":0},{"name":"Cold Stone Creamery","code":null,"latitude":29.99853,"longitude":-95.178,"address":"6320 Fm 1960 Road East, Humble TX","chain_name":null,"distance":0},{"name":"Cold Stone Creamery","code":null,"latitude":39.88105,"longitude":-74.9219,"address":"500 Route 73 South, # C19, Marlton NJ","chain_name":null,"distance":0},{"name":"Cold Stone Creamery","code":null,"latitude":33.80902,"longitude":-117.9152,"address":"1570 S Harbor Boulevard, Anaheim CA","chain_name":null,"distance":0},{"name":"Cold Stone Creamery","code":null,"latitude":47.85855,"longitude":-122.2202,"address":"15415 Main Street, Mill Creek WA","chain_name":null,"distance":0},{"name":"Cold Stone Creamery","code":null,"latitude":25.74951,"longitude":-80.2598,"address":"261 Miracle Mile, Miami FL","chain_name":null,"distance":0},{"name":"Cold Stone Creamery","code":null,"latitude":35.2803,"longitude":-120.6621,"address":"860 Higuera Street, San Luis Obispo CA","chain_name":null,"distance":0},{"name":"Cold Stone Creamery","code":null,"latitude":37.96168,"longitude":-121.7379,"address":"5779 Lone Tree Way, # F, Antioch CA","chain_name":null,"distance":0},{"name":"Cold Stone Creamery","code":null,"latitude":40.61256,"longitude":-75.5328,"address":"1530 N Cedar Crest Boulevard, Allentown PA","chain_name":null,"distance":0},{"name":"Cold Stone Creamery","code":null,"latitude":40.03856,"longitude":-74.8282,"address":"2501 Mount Holly Road, # 144, Burlington NJ","chain_name":null,"distance":0},{"name":"Cold Stone Creamery","code":null,"latitude":40.62716,"longitude":-74.4312,"address":"55 Mountain Boulevard, North Plainfield NJ","chain_name":null,"distance":0},{"name":"Cold Stone Creamery","code":null,"latitude":33.39213,"longitude":-111.9091,"address":"3330 S McClintock Drive, Tempe AZ","chain_name":null,"distance":0},{"name":"Cold Stone Creamery","code":null,"latitude":42.66718,"longitude":-82.9945,"address":"50496 Schoenherr Road, Utica MI","chain_name":null,"distance":0},{"name":"Cold Stone Creamery","code":null,"latitude":39.9145,"longitude":-75.3421,"address":"1001 Baltimore Pke, Springfield PA","chain_name":null,"distance":0},{"name":"Cold Stone Creamery","code":null,"latitude":32.83653,"longitude":-96.7772,"address":"5331 E Mockingbird Lane, Dallas TX","chain_name":null,"distance":0},{"name":"Cold Stone Creamery","code":null,"latitude":38.46266,"longitude":-122.718,"address":"2280 Mendocino Avenue, # B4, Santa Rosa CA","chain_name":null,"distance":0},{"name":"Cold Stone Creamery","code":null,"latitude":45.2827,"longitude":-93.5584,"address":"9010 Quantrelle Avenue Northeast, Elk River MN","chain_name":null,"distance":0},{"name":"Cold Stone Creamery","code":null,"latitude":44.92571,"longitude":-92.9551,"address":"7455 Currell Boulevard, Saint Paul MN","chain_name":null,"distance":0},{"name":"Cold Stone Creamery","code":null,"latitude":33.95765,"longitude":-118.3962,"address":"8732 S Sepulveda Boulevard, Los Angeles CA","chain_name":null,"distance":0},{"name":"Cold Stone Creamery","code":null,"latitude":47.16819,"longitude":-122.1526,"address":"20829 State Route 410 East, Bonney Lake WA","chain_name":null,"distance":0},{"name":"Cold Stone Creamery","code":null,"latitude":40.91477,"longitude":-74.0789,"address":"1 Garden State Plaza, Paramus NJ","chain_name":null,"distance":0},{"name":"Cold Stone Creamery","code":null,"latitude":39.53428,"longitude":-104.7902,"address":"17051 E Lincoln Avenue, Parker CO","chain_name":null,"distance":0},{"name":"Cold Stone Creamery","code":null,"latitude":35.95247,"longitude":-78.9895,"address":"3515 Witherspoon Boulevard, Durham NC","chain_name":null,"distance":0},{"name":"Cold Stone Creamery","code":null,"latitude":38.95518,"longitude":-77.3966,"address":"13027 Worldgate Drive, Herndon VA","chain_name":null,"distance":0},{"name":"Cold Stone Creamery","code":null,"latitude":25.65667,"longitude":-80.3971,"address":"12536 SW 120th Street, Miami FL","chain_name":null,"distance":0},{"name":"Cold Stone Creamery","code":null,"latitude":34.01894,"longitude":-118.3555,"address":"3745 S La Brea Avenue, Los Angeles CA","chain_name":null,"distance":0},{"name":"Cold Stone Creamery","code":null,"latitude":33.76469,"longitude":-118.1939,"address":"25 Aquarium Wy, Long Beach CA","chain_name":null,"distance":0},{"name":"Cold Stone Creamery","code":null,"latitude":32.87959,"longitude":-111.7159,"address":"1664 E Florence Boulevard, Casa Grande AZ","chain_name":null,"distance":0},{"name":"Cold Stone Creamery","code":null,"latitude":38.44709,"longitude":-107.8644,"address":"1541 Oxbow Drive, # 1000, Montrose CO","chain_name":null,"distance":0},{"name":"Cold Stone Creamery","code":null,"latitude":39.64704,"longitude":-84.1103,"address":"6252 Wilmington Pike, # B, Dayton OH","chain_name":null,"distance":0},{"name":"Cold Stone Creamery","code":null,"latitude":38.7857,"longitude":-77.282,"address":"5705 Burke Centre Parkway, Burke VA","chain_name":null,"distance":0},{"name":"Cold Stone Creamery","code":null,"latitude":33.97963,"longitude":-118.4658,"address":"36 Washington Boulevard, Marina Del Rey CA","chain_name":null,"distance":0},{"name":"Cold Stone Creamery","code":null,"latitude":27.24968,"longitude":-80.2747,"address":"3619 NW Federal Highway, Jensen Beach FL","chain_name":null,"distance":0},{"name":"Cold Stone Creamery","code":null,"latitude":40.58871,"longitude":-73.6597,"address":"151 E Park Avenue, Long Beach NY","chain_name":null,"distance":0},{"name":"Cold Stone Creamery","code":null,"latitude":37.33967,"longitude":-121.8429,"address":"1110 S King Road, San Jose CA","chain_name":null,"distance":0},{"name":"Cold Stone Creamery","code":null,"latitude":42.04701,"longitude":-87.6818,"address":"1611 Sherman Avenue, Evanston IL","chain_name":null,"distance":0},{"name":"Cold Stone Creamery","code":null,"latitude":38.65386,"longitude":-121.1224,"address":"2791 E Bidwell Street, # 1000, Folsom CA","chain_name":null,"distance":0},{"name":"Cold Stone Creamery","code":null,"latitude":33.91892,"longitude":-118.4156,"address":"130 E Grand Avenue, El Segundo CA","chain_name":null,"distance":0},{"name":"Cold Stone Creamery","code":null,"latitude":40.08539,"longitude":-75.3934,"address":"160 N Gulph Road, King Of Prussia PA","chain_name":null,"distance":0},{"name":"Cold Stone Creamery","code":null,"latitude":33.53438,"longitude":-112.2609,"address":"9380 W Westgate Boulevard, Glendale AZ","chain_name":null,"distance":0},{"name":"Cold Stone Creamery","code":null,"latitude":43.98354,"longitude":-92.4621,"address":"2650 S Broadway, # 100, Rochester MN","chain_name":null,"distance":0},{"name":"Cold Stone Creamery","code":null,"latitude":47.64975,"longitude":-122.3509,"address":"624 N 34th, Seattle WA","chain_name":null,"distance":0},{"name":"Cold Stone Creamery","code":null,"latitude":30.39173,"longitude":-86.4257,"address":"4142 Legendary Drive # B-106, Destin FL","chain_name":null,"distance":0},{"name":"Cold Stone Creamery","code":null,"latitude":33.78951,"longitude":-118.3191,"address":"2169 Pacific Coast Highway, Lomita CA","chain_name":null,"distance":0},{"name":"Cold Stone Creamery","code":null,"latitude":40.29583,"longitude":-74.6812,"address":"3371 US Highway 1, # 157A, Lawrence Township NJ","chain_name":null,"distance":0},{"name":"Cold Stone Creamery","code":null,"latitude":43.07125,"longitude":-78.6969,"address":"8124 Transit Road, East Amherst NY","chain_name":null,"distance":0},{"name":"Cold Stone Creamery","code":null,"latitude":37.3947,"longitude":-121.9458,"address":"3934 Rivermark Plaza, Santa Clara CA","chain_name":null,"distance":0},{"name":"Cold Stone Creamery","code":null,"latitude":39.98323,"longitude":-104.8238,"address":"245 Pavilions Place, Brighton CO","chain_name":null,"distance":0},{"name":"Cold Stone Creamery","code":null,"latitude":29.65022,"longitude":-95.1505,"address":"5873 Fairmont Parkway, Pasadena TX","chain_name":null,"distance":0},{"name":"Cold Stone Creamery","code":null,"latitude":42.7166,"longitude":-82.7995,"address":"50756 Gratiot Avenue, New Baltimore MI","chain_name":null,"distance":0},{"name":"Cold Stone Creamery","code":null,"latitude":27.94131,"longitude":-82.2403,"address":"3426 Lithia Pinecrst Road, Valrico FL","chain_name":null,"distance":0},{"name":"Cold Stone Creamery","code":null,"latitude":35.90301,"longitude":-78.9387,"address":"6917 Fayetteville Rd, Durham NC","chain_name":null,"distance":0},{"name":"Cold Stone Creamery","code":null,"latitude":33.62145,"longitude":-111.8752,"address":"14858 N Frank Lloyd Wright Blv, Scottsdale AZ","chain_name":null,"distance":0},{"name":"Cold Stone Creamery","code":null,"latitude":40.50162,"longitude":-106.857,"address":"2032 Curve Plaza, Steamboat Springs CO","chain_name":null,"distance":0},{"name":"Cold Stone Creamery","code":null,"latitude":40.6558,"longitude":-74.6523,"address":"428 Us Highway No 202-206, Bedminster NJ","chain_name":null,"distance":0},{"name":"Cold Stone Creamery","code":null,"latitude":45.1242,"longitude":-93.1465,"address":"1210 County Road J, # 101, Saint Paul MN","chain_name":null,"distance":0},{"name":"Cold Stone Creamery","code":null,"latitude":42.04942,"longitude":-88.0376,"address":"5 Woodfield Mall # D-206, Schaumburg IL","chain_name":null,"distance":0},{"name":"Cold Stone Creamery","code":null,"latitude":33.48568,"longitude":-117.0804,"address":"33215 State Highway 79, Temecula CA","chain_name":null,"distance":0},{"name":"Cold Stone Creamery","code":null,"latitude":33.94639,"longitude":-117.3813,"address":"3243 Arlington Avenue, Riverside CA","chain_name":null,"distance":0},{"name":"Cold Stone Creamery","code":null,"latitude":26.13314,"longitude":-80.2874,"address":"819 N Nob Hill Road, Fort Lauderdale FL","chain_name":null,"distance":0},{"name":"Cold Stone Creamery","code":null,"latitude":37.68909,"longitude":-120.9942,"address":"Mc Henry Avenue & Standiford Avenue, Modesto CA","chain_name":null,"distance":0},{"name":"Cold Stone Creamery","code":null,"latitude":40.9053,"longitude":-73.1256,"address":"2182 Nesconset Highway, Stony Brook NY","chain_name":null,"distance":0},{"name":"Cold Stone Creamery","code":null,"latitude":42.13604,"longitude":-75.9051,"address":"904 Upper Front Street, # 2, Binghamton NY","chain_name":null,"distance":0},{"name":"Cold Stone Creamery","code":null,"latitude":41.44454,"longitude":-81.7032,"address":"14224 Pearl Road, Cleveland OH","chain_name":null,"distance":0},{"name":"Cold Stone Creamery","code":null,"latitude":28.3571,"longitude":-80.6857,"address":"777 E Merritt Island Causeway, Merritt Island FL","chain_name":null,"distance":0},{"name":"Cold Stone Creamery","code":null,"latitude":35.62567,"longitude":-120.6898,"address":"832 11th Street, Paso Robles CA","chain_name":null,"distance":0},{"name":"Cold Stone Creamery","code":null,"latitude":33.69035,"longitude":-117.8934,"address":"901 S Coast Drive, # D160, Costa Mesa CA","chain_name":null,"distance":0},{"name":"Cold Stone Creamery","code":null,"latitude":41.0996,"longitude":-80.7647,"address":"5549 Mahoning Avenue, Youngstown OH","chain_name":null,"distance":0},{"name":"Cold Stone Creamery","code":null,"latitude":39.7503,"longitude":-75.0772,"address":"304 Greentree Road, # B, Sewell NJ","chain_name":null,"distance":0},{"name":"Cold Stone Creamery","code":null,"latitude":36.06527,"longitude":-80.3026,"address":"124 Hanes Mall Circle, # 200, Winston Salem NC","chain_name":null,"distance":0},{"name":"Cold Stone Creamery","code":null,"latitude":42.68065,"longitude":-83.1943,"address":"3026 Walton Boulevard, Rochester MI","chain_name":null,"distance":0},{"name":"Cold Stone Creamery","code":null,"latitude":34.18151,"longitude":-118.3116,"address":"131 E Palm Avenue, Burbank CA","chain_name":null,"distance":0},{"name":"Cold Stone Creamery","code":null,"latitude":37.3593,"longitude":-79.1808,"address":"3911 B Wards Road, Lynchburg VA","chain_name":null,"distance":0},{"name":"Cold Stone Creamery","code":null,"latitude":38.36266,"longitude":-121.9639,"address":"2091 Harbison Drive, Vacaville CA","chain_name":null,"distance":0},{"name":"Cold Stone Creamery","code":null,"latitude":40.22789,"longitude":-75.6597,"address":"1106 Town Square Road, Pottstown PA","chain_name":null,"distance":0},{"name":"Cold Stone Creamery","code":null,"latitude":37.26175,"longitude":-121.9331,"address":"2031 Camden Avenue, San Jose CA","chain_name":null,"distance":0},{"name":"Cold Stone Creamery","code":null,"latitude":44.06273,"longitude":-92.5011,"address":"3780 Marketplace Drive Northwest, # 111, Rochester MN","chain_name":null,"distance":0},{"name":"Cold Stone Creamery","code":null,"latitude":34.10996,"longitude":-117.173,"address":"28932 Greenspot Road, Highland CA","chain_name":null,"distance":0},{"name":"Cold Stone Creamery","code":null,"latitude":27.33645,"longitude":-82.533,"address":"1900 Main Street, Sarasota FL","chain_name":null,"distance":0},{"name":"Cold Stone Creamery","code":null,"latitude":42.60168,"longitude":-83.2625,"address":"42761 Woodward Avenue, Bloomfield Hills MI","chain_name":null,"distance":0},{"name":"Cold Stone Creamery","code":null,"latitude":32.23615,"longitude":-110.943,"address":"1927 E Speedway Boulevard, Tucson AZ","chain_name":null,"distance":0},{"name":"Cold Stone Creamery","code":null,"latitude":26.25662,"longitude":-80.1002,"address":"2101 N Federal Highway, # 112, Pompano Beach FL","chain_name":null,"distance":0},{"name":"Cold Stone Creamery","code":null,"latitude":34.24273,"longitude":-118.559,"address":"19500 Plummer, Northridge CA","chain_name":null,"distance":0},{"name":"Cold Stone Creamery","code":null,"latitude":40.78152,"longitude":-89.6758,"address":"7728 N Grand Prairie Drive, Peoria IL","chain_name":null,"distance":0},{"name":"Cold Stone Creamery","code":null,"latitude":39.13016,"longitude":-123.1982,"address":"1252 Airport Park Boulevard, # B6, Ukiah CA","chain_name":null,"distance":0},{"name":"Cold Stone Creamery","code":null,"latitude":47.5639,"longitude":-122.6252,"address":"100 Washington, Bremerton WA","chain_name":null,"distance":0},{"name":"Cold Stone Creamery","code":null,"latitude":39.75839,"longitude":-104.9005,"address":"7473 E 29th Place, Denver CO","chain_name":null,"distance":0},{"name":"Cold Stone Creamery","code":null,"latitude":31.75765,"longitude":-106.2724,"address":"1830 N Zaragoza Road, El Paso TX","chain_name":null,"distance":0},{"name":"Cold Stone Creamery","code":null,"latitude":40.70974,"longitude":-73.8688,"address":"80 -28 Cooper Avenue, Ridgewood NY","chain_name":null,"distance":0},{"name":"Cold Stone Creamery","code":null,"latitude":40.59113,"longitude":-74.165,"address":"2341 Richmond Avenue, Staten Island NY","chain_name":null,"distance":0},{"name":"Cold Stone Creamery","code":null,"latitude":25.94445,"longitude":-80.1479,"address":"18225 Biscayne Boulevard, North Miami Beach FL","chain_name":null,"distance":0},{"name":"Cold Stone Creamery","code":null,"latitude":32.64027,"longitude":-117.0487,"address":"374 East H, Chula Vista CA","chain_name":null,"distance":0},{"name":"Cold Stone Creamery","code":null,"latitude":29.78258,"longitude":-95.536,"address":"900 Memorial City Way, Houston TX","chain_name":null,"distance":0},{"name":"Cold Stone Creamery","code":null,"latitude":34.20842,"longitude":-118.5092,"address":"17270 Saticoy Street, Van Nuys CA","chain_name":null,"distance":0},{"name":"Cold Stone Creamery","code":null,"latitude":47.44865,"longitude":-122.2624,"address":"17304 Southcenter Parkway, Tukwila WA","chain_name":null,"distance":0},{"name":"Cold Stone Creamery","code":null,"latitude":34.11209,"longitude":-117.5338,"address":"12451 North Mainstreet, Rancho Cucamonga CA","chain_name":null,"distance":0},{"name":"Cold Stone Creamery","code":null,"latitude":32.41024,"longitude":-99.7782,"address":"4249 Southwest Drive, # 4249, Abilene TX","chain_name":null,"distance":0},{"name":"Cold Stone Creamery","code":null,"latitude":40.14594,"longitude":-82.9245,"address":"762 N State Street, Westerville OH","chain_name":null,"distance":0},{"name":"Cold Stone Creamery","code":null,"latitude":40.45483,"longitude":-80.1613,"address":"6509 Robinson Center Drive, Pittsburgh PA","chain_name":null,"distance":0},{"name":"Cold Stone Creamery","code":null,"latitude":34.19778,"longitude":-119.1923,"address":"1261 W 5th, Oxnard CA","chain_name":null,"distance":0},{"name":"Cold Stone Creamery","code":null,"latitude":42.46565,"longitude":-83.3781,"address":"33175 Grand River Avenue, Farmington MI","chain_name":null,"distance":0},{"name":"Cold Stone Creamery","code":null,"latitude":44.4317,"longitude":-95.7746,"address":"1200 Susan Drive, Marshall MN","chain_name":null,"distance":0},{"name":"Cold Stone Creamery","code":null,"latitude":40.51818,"longitude":-74.2345,"address":"240 Page Avenue, Staten Island NY","chain_name":null,"distance":0},{"name":"Cold Stone Creamery","code":null,"latitude":36.1112,"longitude":-79.8803,"address":"1564 Highwoods Boulevard, # C, Greensboro NC","chain_name":null,"distance":0},{"name":"Cold Stone Creamery","code":null,"latitude":32.33536,"longitude":-110.9773,"address":"7090 N Oracle Road, Tucson AZ","chain_name":null,"distance":0},{"name":"Cold Stone Creamery","code":null,"latitude":39.15233,"longitude":-78.1765,"address":"2520 S Pleasant Valley Road, Winchester VA","chain_name":null,"distance":0},{"name":"Cold Stone Creamery","code":null,"latitude":41.90037,"longitude":-87.9399,"address":"116 N York Street, # 101, Elmhurst IL","chain_name":null,"distance":0},{"name":"Cold Stone Creamery","code":null,"latitude":40.35647,"longitude":-74.3062,"address":"67 US Highway No 9, Morganville NJ","chain_name":null,"distance":0},{"name":"Cold Stone Creamery","code":null,"latitude":33.74104,"longitude":-117.8193,"address":"13681 Newport, Suite 10, Tustin CA","chain_name":null,"distance":0},{"name":"Cold Stone Creamery","code":null,"latitude":41.0026,"longitude":-73.8138,"address":"993 Central Avenue, Scarsdale NY","chain_name":null,"distance":0},{"name":"Cold Stone Creamery","code":null,"latitude":34.06319,"longitude":-118.3991,"address":"250 S Beverly Drive, # B, Beverly Hills CA","chain_name":null,"distance":0},{"name":"Cold Stone Creamery","code":null,"latitude":26.71449,"longitude":-80.1001,"address":"801 Village Boulevard, # 307, West Palm Beach FL","chain_name":null,"distance":0},{"name":"Cold Stone Creamery","code":null,"latitude":41.80144,"longitude":-87.9292,"address":"114 S Washington Street, Hinsdale IL","chain_name":null,"distance":0},{"name":"Cold Stone Creamery","code":null,"latitude":26.21178,"longitude":-81.7286,"address":"5999 Pine Ridge Road Extension, Naples FL","chain_name":null,"distance":0},{"name":"Cold Stone Creamery","code":null,"latitude":37.99094,"longitude":-122.3066,"address":"1473 Fitzgerald Drive, # 103, Pinole CA","chain_name":null,"distance":0},{"name":"Cold Stone Creamery","code":null,"latitude":42.79026,"longitude":-86.1074,"address":"5 W 8th Street, Holland MI","chain_name":null,"distance":0},{"name":"Cold Stone Creamery","code":null,"latitude":32.74184,"longitude":-117.0484,"address":"6939 Federal Boulevard, Lemon Grove CA","chain_name":null,"distance":0},{"name":"Cold Stone Creamery","code":null,"latitude":34.24762,"longitude":-119.1954,"address":"2950 Johnson Drive, Ventura CA","chain_name":null,"distance":0},{"name":"Cold Stone Creamery","code":null,"latitude":35.44619,"longitude":-80.8792,"address":"16915 Birkdale Cmns Pkwy, Huntersville NC","chain_name":null,"distance":0},{"name":"Cold Stone Creamery","code":null,"latitude":25.78942,"longitude":-80.1411,"address":"1631 Alton Road, Miami Beach FL","chain_name":null,"distance":0},{"name":"Cold Stone Creamery","code":null,"latitude":47.75596,"longitude":-122.1554,"address":"17848 Garden Way, Woodinville WA","chain_name":null,"distance":0},{"name":"Cold Stone Creamery","code":null,"latitude":33.95654,"longitude":-117.389,"address":"3540 Riverside Plaza, Riverside CA","chain_name":null,"distance":0},{"name":"Cold Stone Creamery","code":null,"latitude":40.61835,"longitude":-74.4933,"address":"55 Mountain Boulevard, Warren NJ","chain_name":null,"distance":0},{"name":"Cold Stone Creamery","code":null,"latitude":41.54905,"longitude":-87.665,"address":"18717 Dixie Highway, Homewood IL","chain_name":null,"distance":0},{"name":"Cold Stone Creamery","code":null,"latitude":40.4873,"longitude":-79.8845,"address":"1035 Freeport Road, Pittsburgh PA","chain_name":null,"distance":0},{"name":"Cold Stone Creamery","code":null,"latitude":26.21944,"longitude":-81.7711,"address":"6420 Naples Boulevard, Naples FL","chain_name":null,"distance":0},{"name":"Cold Stone Creamery","code":null,"latitude":37.2897,"longitude":-121.9317,"address":"1875 S Bascom Avenue, # 160, Campbell CA","chain_name":null,"distance":0},{"name":"Cold Stone Creamery","code":null,"latitude":39.409,"longitude":-104.8591,"address":"312 Metzler Drive, Castle Rock CO","chain_name":null,"distance":0},{"name":"Cold Stone Creamery","code":null,"latitude":33.69371,"longitude":-117.9542,"address":"18511 Brookhrst, Fountain Valley CA","chain_name":null,"distance":0},{"name":"Cold Stone Creamery","code":null,"latitude":33.65899,"longitude":-118.0003,"address":"416 Olive Avenue, # K, Huntington Beach CA","chain_name":null,"distance":0},{"name":"Cold Stone Creamery","code":null,"latitude":40.06546,"longitude":-76.3403,"address":"142 Park City Centre, Lancaster PA","chain_name":null,"distance":0},{"name":"Cold Stone Creamery","code":null,"latitude":37.92528,"longitude":-121.7224,"address":"3140 Balfour Road, # B, Brentwood CA","chain_name":null,"distance":0},{"name":"Cold Stone Creamery","code":null,"latitude":34.03403,"longitude":-117.069,"address":"33694 Yucaipa Boulevard, Yucaipa CA","chain_name":null,"distance":0},{"name":"Cold Stone Creamery","code":null,"latitude":41.49979,"longitude":-81.5362,"address":"2193 Warrensville Center Road, Cleveland OH","chain_name":null,"distance":0},{"name":"Cold Stone Creamery","code":null,"latitude":40.70033,"longitude":-73.3223,"address":"255 Deer Park Avenue, # 1, Babylon NY","chain_name":null,"distance":0},{"name":"Cold Stone Creamery","code":null,"latitude":36.10891,"longitude":-80.095,"address":"960 S Main Street, # D, Kernersville NC","chain_name":null,"distance":0},{"name":"Cold Stone Creamery","code":null,"latitude":38.13541,"longitude":-121.2738,"address":"115 W Elm, Lodi CA","chain_name":null,"distance":0},{"name":"Cold Stone Creamery","code":null,"latitude":39.78525,"longitude":-104.8921,"address":"8286 E 49th Avenue, Denver CO","chain_name":null,"distance":0},{"name":"Cold Stone Creamery","code":null,"latitude":33.52707,"longitude":-117.1568,"address":"40688 Winchester Road, # B, Temecula CA","chain_name":null,"distance":0},{"name":"Cold Stone Creamery","code":null,"latitude":37.30258,"longitude":-79.958,"address":"4760 Valley View Boulevard, Roanoke VA","chain_name":null,"distance":0},{"name":"Cold Stone Creamery","code":null,"latitude":28.36894,"longitude":-81.4291,"address":"13586 Village Park Drive, # 300, Orlando FL","chain_name":null,"distance":0},{"name":"Cold Stone Creamery","code":null,"latitude":32.72949,"longitude":-97.7882,"address":"116 E Interstate 20, Weatherford TX","chain_name":null,"distance":0},{"name":"Cold Stone Creamery","code":null,"latitude":25.95277,"longitude":-81.7291,"address":"740 Collier Boulevard North, Marco Island FL","chain_name":null,"distance":0},{"name":"Cold Stone Creamery","code":null,"latitude":41.40892,"longitude":-82.6647,"address":"4912 Milan Road, Sandusky OH","chain_name":null,"distance":0},{"name":"Cold Stone Creamery","code":null,"latitude":47.38506,"longitude":-122.2353,"address":"504 Ramsay Way, Kent WA","chain_name":null,"distance":0},{"name":"Cold Stone Creamery","code":null,"latitude":40.18013,"longitude":-75.0536,"address":"210 East Street Road, Southampton PA","chain_name":null,"distance":0},{"name":"Cold Stone Creamery","code":null,"latitude":32.22148,"longitude":-110.8671,"address":"5870 East Broadway Boulevard, Tucson AZ","chain_name":null,"distance":0},{"name":"Cold Stone Creamery","code":null,"latitude":32.98035,"longitude":-117.0622,"address":"14797 Pomerado Road, Poway CA","chain_name":null,"distance":0},{"name":"Cold Stone Creamery","code":null,"latitude":32.69805,"longitude":-117.1706,"address":"1201 1st Street, # 222, Coronado CA","chain_name":null,"distance":0},{"name":"Cold Stone Creamery","code":null,"latitude":44.73034,"longitude":-93.2175,"address":"15100 Cedar Avenue, Saint Paul MN","chain_name":null,"distance":0},{"name":"Cold Stone Creamery","code":null,"latitude":40.15401,"longitude":-105.1307,"address":"551 S Hover Street, Longmont CO","chain_name":null,"distance":0},{"name":"Cold Stone Creamery","code":null,"latitude":33.96922,"longitude":-118.1644,"address":"7000 Eastern Avenue, # E, Bell CA","chain_name":null,"distance":0},{"name":"Cold Stone Creamery","code":null,"latitude":43.66277,"longitude":-84.2471,"address":"7207 Eastman Avenue, Midland MI","chain_name":null,"distance":0},{"name":"Cold Stone Creamery","code":null,"latitude":45.02107,"longitude":-93.4818,"address":"3505 Vicksburg Lane North, # 700, Minneapolis MN","chain_name":null,"distance":0},{"name":"Cold Stone Creamery","code":null,"latitude":29.60731,"longitude":-98.5987,"address":"17503 La Cantera Parkway, # 101, San Antonio TX","chain_name":null,"distance":0},{"name":"Cold Stone Creamery","code":null,"latitude":25.76196,"longitude":-80.3329,"address":"8448 SW 8th Street, Miami FL","chain_name":null,"distance":0},{"name":"Cold Stone Creamery","code":null,"latitude":40.9725,"longitude":-73.9609,"address":"234 Closter Dock Road, # 3, Closter NJ","chain_name":null,"distance":0},{"name":"Cold Stone Creamery","code":null,"latitude":33.77259,"longitude":-118.3744,"address":"550 Deep Valley Drive, Rolling Hills Estates CA","chain_name":null,"distance":0},{"name":"Cold Stone Creamery","code":null,"latitude":42.54663,"longitude":-83.2142,"address":"108 S Old Woodward Avenue, Birmingham MI","chain_name":null,"distance":0},{"name":"Cold Stone Creamery","code":null,"latitude":25.79157,"longitude":-80.3683,"address":"10672 NW 19th Street, Miami FL","chain_name":null,"distance":0},{"name":"Cold Stone Creamery","code":null,"latitude":41.96698,"longitude":-87.6874,"address":"4709 N Lincoln Avenue, Chicago IL","chain_name":null,"distance":0},{"name":"Cold Stone Creamery","code":null,"latitude":43.20944,"longitude":-77.4554,"address":"1028 Ridge Road, # 127, Webster NY","chain_name":null,"distance":0},{"name":"Cold Stone Creamery","code":null,"latitude":39.57721,"longitude":-84.2308,"address":"754 N Main Street, Springboro OH","chain_name":null,"distance":0},{"name":"Cold Stone Creamery","code":null,"latitude":38.74376,"longitude":-121.2263,"address":"3988 Douglas Boulevard, # 130, Roseville CA","chain_name":null,"distance":0},{"name":"Cold Stone Creamery","code":null,"latitude":27.99081,"longitude":-82.6881,"address":"100 Main Street, Safety Harbor FL","chain_name":null,"distance":0},{"name":"Cold Stone Creamery","code":null,"latitude":33.94547,"longitude":-118.3305,"address":"3388 W Century Boulevard, Inglewood CA","chain_name":null,"distance":0},{"name":"Cold Stone Creamery","code":null,"latitude":33.05096,"longitude":-96.7944,"address":"4025 Preston Road, Suite 608, Plano TX","chain_name":null,"distance":0},{"name":"Cold Stone Creamery","code":null,"latitude":33.32085,"longitude":-111.807,"address":"Ray & Cooper, Chandler AZ","chain_name":null,"distance":0},{"name":"Cold Stone Creamery","code":null,"latitude":31.75317,"longitude":-106.3456,"address":"10555 Gateway Boulevard West, El Paso TX","chain_name":null,"distance":0},{"name":"Cold Stone Creamery","code":null,"latitude":42.26566,"longitude":-88.98,"address":"653 S Perryville Road, Rockford IL","chain_name":null,"distance":0},{"name":"Cold Stone Creamery","code":null,"latitude":35.76101,"longitude":-78.739,"address":"325 Crossroads Blvd, Cary NC","chain_name":null,"distance":0},{"name":"Cold Stone Creamery","code":null,"latitude":40.57099,"longitude":-122.3523,"address":"1030 E Cypress Avenue, # D, Redding CA","chain_name":null,"distance":0},{"name":"Cold Stone Creamery","code":null,"latitude":39.06502,"longitude":-104.849,"address":"15932 Jackson Creek Parkway, Monument CO","chain_name":null,"distance":0},{"name":"Cold Stone Creamery","code":null,"latitude":33.81757,"longitude":-118.0553,"address":"4483 Viaduct Linda, Cypress CA","chain_name":null,"distance":0},{"name":"Cold Stone Creamery","code":null,"latitude":48.14913,"longitude":-122.1889,"address":"16822 Twin Lakes Avenue, Marysville WA","chain_name":null,"distance":0},{"name":"Cold Stone Creamery","code":null,"latitude":40.62499,"longitude":-74.0304,"address":"8403 3 Avenue, Brooklyn NY","chain_name":null,"distance":0},{"name":"Cold Stone Creamery","code":null,"latitude":39.00634,"longitude":-77.4383,"address":"22025 Dulles Retail Plaza, Sterling VA","chain_name":null,"distance":0},{"name":"Cold Stone Creamery","code":null,"latitude":40.2156,"longitude":-75.1395,"address":"110 Easton Road, Warrington PA","chain_name":null,"distance":0},{"name":"Cold Stone Creamery","code":null,"latitude":48.46452,"longitude":-122.3373,"address":"185 Cascade Mall Drive, Burlington WA","chain_name":null,"distance":0},{"name":"Cold Stone Creamery","code":null,"latitude":40.84537,"longitude":-81.9437,"address":"3790 Burbank Road, Wooster OH","chain_name":null,"distance":0},{"name":"Cold Stone Creamery","code":null,"latitude":33.92618,"longitude":-118.1309,"address":"12024 Lakewood Boulevard, Downey CA","chain_name":null,"distance":0},{"name":"Cold Stone Creamery","code":null,"latitude":26.54194,"longitude":-80.0908,"address":"1785 N Congress Avenue, Boynton Beach FL","chain_name":null,"distance":0},{"name":"Cold Stone Creamery","code":null,"latitude":32.25085,"longitude":-110.8404,"address":"7113 E Tanque Verde Road, Tucson AZ","chain_name":null,"distance":0},{"name":"Cold Stone Creamery","code":null,"latitude":44.14629,"longitude":-93.9943,"address":"1600 Warren Street, # 4, Mankato MN","chain_name":null,"distance":0},{"name":"Cold Stone Creamery","code":null,"latitude":37.70373,"longitude":-122.4708,"address":"1901 Junipero Serra Boulevard, # F, Daly City CA","chain_name":null,"distance":0},{"name":"Cold Stone Creamery","code":null,"latitude":37.50344,"longitude":-121.9686,"address":"43562 Christy, Fremont CA","chain_name":null,"distance":0},{"name":"Cold Stone Creamery","code":null,"latitude":42.29626,"longitude":-85.6449,"address":"4540 W Main Street, Kalamazoo MI","chain_name":null,"distance":0},{"name":"Cold Stone Creamery","code":null,"latitude":34.46979,"longitude":-117.3484,"address":"12080 Amargosa Road, Victorville CA","chain_name":null,"distance":0},{"name":"Cold Stone Creamery","code":null,"latitude":37.73944,"longitude":-121.4495,"address":"1859 W 11th Street, Tracy CA","chain_name":null,"distance":0},{"name":"Cold Stone Creamery","code":null,"latitude":40.39523,"longitude":-104.754,"address":"4626 Centerplace Drive, # 118, Greeley CO","chain_name":null,"distance":0},{"name":"Cold Stone Creamery","code":null,"latitude":27.94353,"longitude":-82.4486,"address":"615 Channelside Drive, Tampa FL","chain_name":null,"distance":0},{"name":"Cold Stone Creamery","code":null,"latitude":33.51961,"longitude":-101.8703,"address":"8215 University Avenue, Suite 160, Lubbock TX","chain_name":null,"distance":0},{"name":"Cold Stone Creamery","code":null,"latitude":39.44578,"longitude":-74.6295,"address":"4215 Black Horse Pike, Mays Landing NJ","chain_name":null,"distance":0},{"name":"Cold Stone Creamery","code":null,"latitude":32.83084,"longitude":-117.2058,"address":"4705 Clairemont Drive, # B, San Diego CA","chain_name":null,"distance":0},{"name":"Cold Stone Creamery","code":null,"latitude":33.85849,"longitude":-118.0906,"address":"11407 South Street, Cerritos CA","chain_name":null,"distance":0},{"name":"Cold Stone Creamery","code":null,"latitude":40.85719,"longitude":-74.7137,"address":"450 State Highway 10, Flanders NJ","chain_name":null,"distance":0},{"name":"Cold Stone Creamery","code":null,"latitude":40.15623,"longitude":-75.142,"address":"4013 Welsh Road, Willow Grove PA","chain_name":null,"distance":0},{"name":"Cold Stone Creamery","code":null,"latitude":40.52335,"longitude":-105.0432,"address":"1821 E Harmony Road, Fort Collins CO","chain_name":null,"distance":0},{"name":"Cold Stone Creamery","code":null,"latitude":33.68248,"longitude":-117.1675,"address":"30145 Antelpe Road, Menifee CA","chain_name":null,"distance":0},{"name":"Cold Stone Creamery","code":null,"latitude":40.25999,"longitude":-83.3738,"address":"17807 St Route 31, Marysville OH","chain_name":null,"distance":0},{"name":"Cold Stone Creamery","code":null,"latitude":28.52078,"longitude":-81.5872,"address":"3310 Daniels Road, Winter Garden FL","chain_name":null,"distance":0},{"name":"Cold Stone Creamery","code":null,"latitude":41.77293,"longitude":-88.1482,"address":"23 W Jefferson Avenue, # 100, Naperville IL","chain_name":null,"distance":0},{"name":"Cold Stone Creamery","code":null,"latitude":40.41267,"longitude":-74.1449,"address":"2111 State Route 35, # 1, Holmdel NJ","chain_name":null,"distance":0},{"name":"Cold Stone Creamery","code":null,"latitude":41.45938,"longitude":-82.0217,"address":"36050 Detroit Road, # K, Avon OH","chain_name":null,"distance":0},{"name":"Cold Stone Creamery","code":null,"latitude":36.03557,"longitude":-79.9622,"address":"3875 John Gordon Lane, # 102, High Point NC","chain_name":null,"distance":0},{"name":"Cold Stone Creamery","code":null,"latitude":32.64822,"longitude":-116.9656,"address":"2295 Otay Lakes Road, Chula Vista CA","chain_name":null,"distance":0},{"name":"Cold Stone Creamery","code":null,"latitude":39.91093,"longitude":-75.4897,"address":"Glen Eagle Square Shopping Center, Glen Mills PA","chain_name":null,"distance":0},{"name":"Cold Stone Creamery","code":null,"latitude":34.78456,"longitude":-77.3995,"address":"1250 Western Boulevard, # L3, Jacksonville NC","chain_name":null,"distance":0},{"name":"Cold Stone Creamery","code":null,"latitude":41.62784,"longitude":-73.9164,"address":"2020 South Road, Poughkeepsie NY","chain_name":null,"distance":0},{"name":"Cold Stone Creamery","code":null,"latitude":32.79748,"longitude":-117.2558,"address":"4603 Mission Boulevard, # 104, San Diego CA","chain_name":null,"distance":0},{"name":"Cold Stone Creamery","code":null,"latitude":33.37781,"longitude":-112.0346,"address":"2170 E Baseline Road, Phoenix AZ","chain_name":null,"distance":0},{"name":"Cold Stone Creamery","code":null,"latitude":37.97326,"longitude":-122.527,"address":"1010 Court Street, San Rafael CA","chain_name":null,"distance":0},{"name":"Cold Stone Creamery","code":null,"latitude":27.179,"longitude":-80.2377,"address":"2189 SE Federal Highway, Stuart FL","chain_name":null,"distance":0},{"name":"Cold Stone Creamery","code":null,"latitude":33.13359,"longitude":-117.1927,"address":"1158 W San Marcos Boulevard, San Marcos CA","chain_name":null,"distance":0},{"name":"Cold Stone Creamery","code":null,"latitude":43.06529,"longitude":-86.2203,"address":"418 N Beacon Boulevard, Grand Haven MI","chain_name":null,"distance":0},{"name":"Cold Stone Creamery","code":null,"latitude":44.8262,"longitude":-93.2867,"address":"501 W 98th Street, Minneapolis MN","chain_name":null,"distance":0},{"name":"Cold Stone Creamery","code":null,"latitude":33.07308,"longitude":-96.8073,"address":"7140 Bishop Road, Plano TX","chain_name":null,"distance":0},{"name":"Cold Stone Creamery","code":null,"latitude":41.29581,"longitude":-84.3608,"address":"714 N Clinton Street, Defiance OH","chain_name":null,"distance":0},{"name":"Cold Stone Creamery","code":null,"latitude":32.76158,"longitude":-117.0665,"address":"6145 El Cajon Boulevard, # H, San Diego CA","chain_name":null,"distance":0},{"name":"Cold Stone Creamery","code":null,"latitude":40.40279,"longitude":-79.1257,"address":"6509 Robinson Centre Drive, Robinson PA","chain_name":null,"distance":0},{"name":"Cold Stone Creamery","code":null,"latitude":37.27012,"longitude":-107.8817,"address":"598 Main Avenue, Durango CO","chain_name":null,"distance":0},{"name":"Cold Stone Creamery","code":null,"latitude":34.01713,"longitude":-117.7456,"address":"13065 Peyton Drive, Chino Hills CA","chain_name":null,"distance":0},{"name":"Cold Stone Creamery","code":null,"latitude":38.65131,"longitude":-77.2644,"address":"2449 Prince William Parkway, Woodbridge VA","chain_name":null,"distance":0},{"name":"Cold Stone Creamery","code":null,"latitude":37.55647,"longitude":-122.2742,"address":"977 E Hillsdale Boulevard, Foster City CA","chain_name":null,"distance":0},{"name":"Cold Stone Creamery","code":null,"latitude":38.43229,"longitude":-78.8504,"address":"245 Burgess Road, Harrisonburg VA","chain_name":null,"distance":0},{"name":"Cold Stone Creamery","code":null,"latitude":33.99806,"longitude":-118.4796,"address":"3101 Main, Santa Monica CA","chain_name":null,"distance":0},{"name":"Cold Stone Creamery","code":null,"latitude":40.6876,"longitude":-73.4687,"address":"5155 Merrick Road, Massapequa NY","chain_name":null,"distance":0},{"name":"Cold Stone Creamery","code":null,"latitude":40.27464,"longitude":-74.5415,"address":"70 Princeton Hightstown Road, East Windsor NJ","chain_name":null,"distance":0},{"name":"Cold Stone Creamery","code":null,"latitude":32.86873,"longitude":-96.7697,"address":"8687 N Central Expressway, # 2368, Dallas TX","chain_name":null,"distance":0},{"name":"Cold Stone Creamery","code":null,"latitude":29.6509,"longitude":-82.3541,"address":"3822 W Newberry Road, # B, Gainesville FL","chain_name":null,"distance":0},{"name":"Cold Stone Creamery","code":null,"latitude":41.37027,"longitude":-75.6825,"address":"3 Montage Mountain Road, Moosic PA","chain_name":null,"distance":0},{"name":"Cold Stone Creamery","code":null,"latitude":37.50982,"longitude":-77.6156,"address":"1220 Alverser Plaza, Midlothian VA","chain_name":null,"distance":0},{"name":"Cold Stone Creamery","code":null,"latitude":34.14795,"longitude":-118.0009,"address":"408 South Myrtle Avenue, Monrovia CA","chain_name":null,"distance":0},{"name":"Cold Stone Creamery","code":null,"latitude":41.69236,"longitude":-83.6446,"address":"4038 Talmadge Road, # 108, Toledo OH","chain_name":null,"distance":0},{"name":"Cold Stone Creamery","code":null,"latitude":32.81204,"longitude":-115.5697,"address":"2049 N Imperial Avenue, El Centro CA","chain_name":null,"distance":0},{"name":"Cold Stone Creamery","code":null,"latitude":40.41714,"longitude":-74.4159,"address":"348 Ryders Lane, East Brunswick NJ","chain_name":null,"distance":0},{"name":"Cold Stone Creamery","code":null,"latitude":36.29283,"longitude":-119.3135,"address":"4128 S Mooney Boulevard, Visalia CA","chain_name":null,"distance":0},{"name":"Cold Stone Creamery","code":null,"latitude":35.15756,"longitude":-79.4187,"address":"11088 N US Highway 15 501, Aberdeen NC","chain_name":null,"distance":0},{"name":"Cold Stone Creamery","code":null,"latitude":40.5866,"longitude":-73.9286,"address":"3165 Harkness Avenue, Brooklyn NY","chain_name":null,"distance":0},{"name":"Cold Stone Creamery","code":null,"latitude":34.13872,"longitude":-118.1323,"address":"415 S Lake Avenue, Pasadena CA","chain_name":null,"distance":0},{"name":"Cold Stone Creamery","code":null,"latitude":33.5916,"longitude":-117.1243,"address":"30628 Benton Road, Winchester CA","chain_name":null,"distance":0},{"name":"Cold Stone Creamery","code":null,"latitude":41.7197,"longitude":-87.7921,"address":"5120 W 95th Street, Oak Lawn IL","chain_name":null,"distance":0},{"name":"Cold Stone Creamery","code":null,"latitude":33.91416,"longitude":-118.0725,"address":"12200 Civic Centr Drive, Norwalk CA","chain_name":null,"distance":0},{"name":"Cold Stone Creamery","code":null,"latitude":41.31238,"longitude":-81.5161,"address":"8210 Macedonia Commons Boulevard, Northfield OH","chain_name":null,"distance":0},{"name":"Cold Stone Creamery","code":null,"latitude":33.46467,"longitude":-112.2793,"address":"10210 W McDowell Road, Avondale AZ","chain_name":null,"distance":0},{"name":"Cold Stone Creamery","code":null,"latitude":44.76408,"longitude":-85.6199,"address":"240 E Front Street, Traverse City MI","chain_name":null,"distance":0},{"name":"Cold Stone Creamery","code":null,"latitude":38.93624,"longitude":-104.7978,"address":"7230 N Academy Boulevard, Colorado Springs CO","chain_name":null,"distance":0},{"name":"Cold Stone Creamery","code":null,"latitude":40.0781,"longitude":-75.1266,"address":"105 Yorktown Plaza, Elkins Park PA","chain_name":null,"distance":0},{"name":"Cold Stone Creamery","code":null,"latitude":38.87841,"longitude":-77.6489,"address":"7372 Atlas Walk Way, Haymarket VA","chain_name":null,"distance":0},{"name":"Cold Stone Creamery","code":null,"latitude":31.77662,"longitude":-106.5028,"address":"2625 N Mesa Street, El Paso TX","chain_name":null,"distance":0},{"name":"Cold Stone Creamery","code":null,"latitude":39.60982,"longitude":-105.0785,"address":"7421 W Bowles Avenue, # 239, Littleton CO","chain_name":null,"distance":0},{"name":"Cold Stone Creamery","code":null,"latitude":34.07861,"longitude":-117.3529,"address":"1130 N Pepper Avenue, Colton CA","chain_name":null,"distance":0},{"name":"Cold Stone Creamery","code":null,"latitude":34.67189,"longitude":-118.1478,"address":"43440 W 10th Street, Lancaster CA","chain_name":null,"distance":0},{"name":"Cold Stone Creamery","code":null,"latitude":36.05898,"longitude":-79.8854,"address":"4203 W Wendover Avenue, # B, Greensboro NC","chain_name":null,"distance":0},{"name":"Cold Stone Creamery","code":null,"latitude":41.31248,"longitude":-73.8691,"address":"3131 E Main, Mohegan Lake NY","chain_name":null,"distance":0},{"name":"Cold Stone Creamery","code":null,"latitude":34.41583,"longitude":-118.4621,"address":"18740 Soledad Canyon Road, Santa Clarita CA","chain_name":null,"distance":0},{"name":"Cold Stone Creamery","code":null,"latitude":40.46192,"longitude":-106.8209,"address":"1815 Central Park Drive, Steamboat Springs CO","chain_name":null,"distance":0},{"name":"Cold Stone Creamery","code":null,"latitude":42.48711,"longitude":-83.1441,"address":"420 S Main Street, Royal Oak MI","chain_name":null,"distance":0},{"name":"Cold Stone Creamery","code":null,"latitude":33.42517,"longitude":-111.94,"address":"510 S Mill Avenue, Tempe AZ","chain_name":null,"distance":0},{"name":"Cold Stone Creamery","code":null,"latitude":26.06512,"longitude":-80.3624,"address":"4535 Weston Road, # 110, Fort Lauderdale FL","chain_name":null,"distance":0},{"name":"Cold Stone Creamery","code":null,"latitude":33.76445,"longitude":-118.3111,"address":"28154 S Western Avenue, San Pedro CA","chain_name":null,"distance":0},{"name":"Cold Stone Creamery","code":null,"latitude":38.87165,"longitude":-121.2985,"address":"825 S State Highway 65, Lincoln CA","chain_name":null,"distance":0},{"name":"Cold Stone Creamery","code":null,"latitude":36.8414,"longitude":-76.0629,"address":"701 Lynnhaven Parkway, Virginia Beach VA","chain_name":null,"distance":0},{"name":"Cold Stone Creamery","code":null,"latitude":33.37466,"longitude":-117.2514,"address":"925 S Main Avenue, Fallbrook CA","chain_name":null,"distance":0},{"name":"Cold Stone Creamery","code":null,"latitude":34.60185,"longitude":-118.1513,"address":"1201 W Rancho Vista Boulevard, Palmdale CA","chain_name":null,"distance":0},{"name":"Cold Stone Creamery","code":null,"latitude":42.21802,"longitude":-85.5894,"address":"6800 S Westnedge Avenue, # G, Portage MI","chain_name":null,"distance":0},{"name":"Cold Stone Creamery","code":null,"latitude":41.09957,"longitude":-73.9598,"address":"4394 Palisades Center Drive, West Nyack NY","chain_name":null,"distance":0},{"name":"Cold Stone Creamery","code":null,"latitude":34.38743,"longitude":-118.5809,"address":"25802 W Hemingway Avenue, Stevenson Ranch CA","chain_name":null,"distance":0},{"name":"Cold Stone Creamery","code":null,"latitude":38.67716,"longitude":-121.7388,"address":"1780 E Main Street, # 200, Woodland CA","chain_name":null,"distance":0},{"name":"Cold Stone Creamery","code":null,"latitude":32.60921,"longitude":-117.081,"address":"1120 Broadway, Chula Vista CA","chain_name":null,"distance":0},{"name":"Cold Stone Creamery","code":null,"latitude":33.80696,"longitude":-118.3512,"address":"5003 Pac Cst Highway, Torrance CA","chain_name":null,"distance":0},{"name":"Cold Stone Creamery","code":null,"latitude":32.88986,"longitude":-96.4796,"address":"2115 Summer Lee Drive, # 101, Rockwall TX","chain_name":null,"distance":0},{"name":"Cold Stone Creamery","code":null,"latitude":28.59771,"longitude":-81.2194,"address":"11565 University Boulevard, # 3, Orlando FL","chain_name":null,"distance":0},{"name":"Cold Stone Creamery","code":null,"latitude":39.65333,"longitude":-104.9958,"address":"697 W Hampden Avenue, Englewood CO","chain_name":null,"distance":0},{"name":"Cold Stone Creamery","code":null,"latitude":33.89054,"longitude":-117.2083,"address":"25960 Iris Avenue, Moreno Valley CA","chain_name":null,"distance":0},{"name":"Cold Stone Creamery","code":null,"latitude":28.19408,"longitude":-82.6381,"address":"10710 State Road 54, New Port Richey FL","chain_name":null,"distance":0},{"name":"Cold Stone Creamery","code":null,"latitude":33.50933,"longitude":-112.0271,"address":"2525 E Camelback Road, # 130, Phoenix AZ","chain_name":null,"distance":0},{"name":"Cold Stone Creamery","code":null,"latitude":42.41405,"longitude":-83.4325,"address":"17382 Haggerty Road, Livonia MI","chain_name":null,"distance":0},{"name":"Cold Stone Creamery","code":null,"latitude":26.65093,"longitude":-80.206,"address":"10240 W Forest Hill Boulevard, # 110, West Palm Beach FL","chain_name":null,"distance":0},{"name":"Cold Stone Creamery","code":null,"latitude":33.89876,"longitude":-118.0055,"address":"15282 Rosecrans Avenue, La Mirada CA","chain_name":null,"distance":0},{"name":"Cold Stone Creamery","code":null,"latitude":25.63554,"longitude":-80.3378,"address":"14455 S Dixie Highway, Miami FL","chain_name":null,"distance":0},{"name":"Cold Stone Creamery","code":null,"latitude":38.60043,"longitude":-121.4285,"address":"1689 Arden Way, # 2010, Sacramento CA","chain_name":null,"distance":0},{"name":"Cold Stone Creamery","code":null,"latitude":39.9842,"longitude":-76.6478,"address":"2609 E Market Street, York PA","chain_name":null,"distance":0},{"name":"Cold Stone Creamery","code":null,"latitude":32.58467,"longitude":-117.0926,"address":"655 Saturn Boulevard, San Diego CA","chain_name":null,"distance":0},{"name":"Cold Stone Creamery","code":null,"latitude":40.7962,"longitude":-77.8566,"address":"321 E Beaver Avenue, State College PA","chain_name":null,"distance":0},{"name":"Cold Stone Creamery","code":null,"latitude":38.85429,"longitude":-77.0494,"address":"2200 Crystal Drive, Arlington VA","chain_name":null,"distance":0},{"name":"Cold Stone Creamery","code":null,"latitude":33.93673,"longitude":-117.2615,"address":"12625 Frederck, Moreno Valley CA","chain_name":null,"distance":0},{"name":"Cold Stone Creamery","code":null,"latitude":33.45313,"longitude":-94.0969,"address":"4228 Saint Michael Drive, Texarkana TX","chain_name":null,"distance":0},{"name":"Cold Stone Creamery","code":null,"latitude":33.50923,"longitude":-112.04,"address":"1949 E Camelback Road, # 162, Phoenix AZ","chain_name":null,"distance":0},{"name":"Cold Stone Creamery","code":null,"latitude":42.783,"longitude":-73.893,"address":"418 Balltown Road, Niskayuna NY","chain_name":null,"distance":0},{"name":"Cold Stone Creamery","code":null,"latitude":37.9558,"longitude":-121.9523,"address":"1536 Kirker Passage Road, Clayton CA","chain_name":null,"distance":0},{"name":"Cold Stone Creamery","code":null,"latitude":36.5947,"longitude":-79.4279,"address":"459 Mount Cross Road, Danville VA","chain_name":null,"distance":0},{"name":"Cold Stone Creamery","code":null,"latitude":33.70663,"longitude":-117.7856,"address":"14370 Culver Drive, Irvine CA","chain_name":null,"distance":0},{"name":"Cold Stone Creamery","code":null,"latitude":37.68864,"longitude":-121.0499,"address":"3401 Dale Road, Modesto CA","chain_name":null,"distance":0},{"name":"Cold Stone Creamery","code":null,"latitude":27.29177,"longitude":-82.5306,"address":"4248 S Tamiami Trail, Sarasota FL","chain_name":null,"distance":0},{"name":"Cold Stone Creamery","code":null,"latitude":32.34854,"longitude":-111.0999,"address":"7850 N Silverbell Road, # 144, Tucson AZ","chain_name":null,"distance":0},{"name":"Cold Stone Creamery","code":null,"latitude":34.00395,"longitude":-118.0898,"address":"8536 E Whittier Boulevard, Pico Rivera CA","chain_name":null,"distance":0},{"name":"Cold Stone Creamery","code":null,"latitude":33.91651,"longitude":-117.4534,"address":"9867 Magnolia Avenue, Riverside CA","chain_name":null,"distance":0},{"name":"Cold Stone Creamery","code":null,"latitude":33.04851,"longitude":-96.699,"address":"3933 Central Expressway, Plano TX","chain_name":null,"distance":0},{"name":"Cold Stone Creamery","code":null,"latitude":34.02736,"longitude":-117.8358,"address":"505 North Grand Avenue, Walnut CA","chain_name":null,"distance":0},{"name":"Cold Stone Creamery","code":null,"latitude":38.88025,"longitude":-104.717,"address":"3235 Cinema Point, Colorado Springs CO","chain_name":null,"distance":0},{"name":"Cold Stone Creamery","code":null,"latitude":40.73452,"longitude":-73.8731,"address":"88 -01 Queens Boulevard, Elmhurst NY","chain_name":null,"distance":0},{"name":"Cold Stone Creamery","code":null,"latitude":42.56343,"longitude":-83.1673,"address":"3137 Crooks Road, Troy MI","chain_name":null,"distance":0},{"name":"Cold Stone Creamery","code":null,"latitude":39.03685,"longitude":-77.4084,"address":"45999 Regal Plaza, Sterling VA","chain_name":null,"distance":0},{"name":"Cold Stone Creamery","code":null,"latitude":40.47003,"longitude":-78.4066,"address":"122 Park Hills Plaza, Altoona PA","chain_name":null,"distance":0},{"name":"Cold Stone Creamery","code":null,"latitude":32.84098,"longitude":-116.7067,"address":"5003 Willows Road, Alpine CA","chain_name":null,"distance":0},{"name":"Cold Stone Creamery","code":null,"latitude":40.65383,"longitude":-73.8483,"address":"157 -14 Cross Bay Boulevard, Howard Beach NY","chain_name":null,"distance":0},{"name":"Cold Stone Creamery","code":null,"latitude":34.55029,"longitude":-118.3893,"address":"27071 McBean, Santa Clarita CA","chain_name":null,"distance":0},{"name":"Cold Stone Creamery","code":null,"latitude":38.31225,"longitude":-104.6128,"address":"4200 N Freeway Road, # 110, Pueblo CO","chain_name":null,"distance":0},{"name":"Cold Stone Creamery","code":null,"latitude":35.17943,"longitude":-111.6612,"address":"2080 S Milton Road, # 500, Flagstaff AZ","chain_name":null,"distance":0},{"name":"Cold Stone Creamery","code":null,"latitude":41.75088,"longitude":-88.3798,"address":"190 E Stacy Road, Aurora TX","chain_name":null,"distance":0},{"name":"Cold Stone Creamery","code":null,"latitude":34.85047,"longitude":-117.0829,"address":"2843 Lenwood Road, Barstow CA","chain_name":null,"distance":0},{"name":"Cold Stone Creamery","code":null,"latitude":34.07038,"longitude":-117.4334,"address":"17009 Valley Boulevard, Fontana CA","chain_name":null,"distance":0},{"name":"Cold Stone Creamery","code":null,"latitude":42.49529,"longitude":-83.4835,"address":"44175 W 12 Mile Road # F-144, Novi MI","chain_name":null,"distance":0},{"name":"Cold Stone Creamery","code":null,"latitude":26.10049,"longitude":-80.1275,"address":"1501 SE 17th Street, # F, Fort Lauderdale FL","chain_name":null,"distance":0},{"name":"Cold Stone Creamery","code":null,"latitude":42.53026,"longitude":-83.1068,"address":"32389 John R Road, Madison Heights MI","chain_name":null,"distance":0},{"name":"Cold Stone Creamery","code":null,"latitude":33.64126,"longitude":-117.9187,"address":"1835 Newport Boulevard, Costa Mesa CA","chain_name":null,"distance":0},{"name":"Cold Stone Creamery","code":null,"latitude":27.79007,"longitude":-82.6385,"address":"1961 4th Street, Saint Petersburg FL","chain_name":null,"distance":0},{"name":"Cold Stone Creamery","code":null,"latitude":37.6543,"longitude":-77.6233,"address":"11800 West Broad Street, Richmond VA","chain_name":null,"distance":0},{"name":"Cold Stone Creamery","code":null,"latitude":34.27897,"longitude":-118.8925,"address":"754 Los Angeles Avenue, Moorpark CA","chain_name":null,"distance":0},{"name":"Cold Stone Creamery","code":null,"latitude":42.0711,"longitude":-80.0937,"address":"360 Millcreek Plaza, Erie PA","chain_name":null,"distance":0},{"name":"Cold Stone Creamery","code":null,"latitude":33.97473,"longitude":-118.2339,"address":"2112 E Florence Avenue, Huntington Park CA","chain_name":null,"distance":0},{"name":"Cold Stone Creamery","code":null,"latitude":36.97252,"longitude":-122.0256,"address":"1129 Pacific Avenue, Santa Cruz CA","chain_name":null,"distance":0},{"name":"Cold Stone Creamery","code":null,"latitude":33.97743,"longitude":-118.3744,"address":"5375 W Centinela Avenue, Los Angeles CA","chain_name":null,"distance":0},{"name":"Cold Stone Creamery","code":null,"latitude":42.27761,"longitude":-83.2166,"address":"23009 Outer Drive, Allen Park MI","chain_name":null,"distance":0},{"name":"Cold Stone Creamery","code":null,"latitude":37.32553,"longitude":-122.0142,"address":"10123 N Wolfe Road, Cupertino CA","chain_name":null,"distance":0},{"name":"Cold Stone Creamery","code":null,"latitude":33.48275,"longitude":-112.3615,"address":"3301 N Litchfield Road, # 400, Goodyear AZ","chain_name":null,"distance":0},{"name":"Cold Stone Creamery","code":null,"latitude":37.69768,"longitude":-121.7729,"address":"2252 Las Positas Road, Livermore CA","chain_name":null,"distance":0},{"name":"Cold Stone Creamery","code":null,"latitude":39.59641,"longitude":-104.8029,"address":"6616 S Parker Road, Aurora CO","chain_name":null,"distance":0},{"name":"Cold Stone Creamery","code":null,"latitude":32.59724,"longitude":-97.1485,"address":"2041 Highway 287, Mansfield TX","chain_name":null,"distance":0},{"name":"Cold Stone Creamery","code":null,"latitude":37.35751,"longitude":-122.0197,"address":"757 E El Camino Real, Sunnyvale CA","chain_name":null,"distance":0},{"name":"Cold Stone Creamery","code":null,"latitude":39.65301,"longitude":-104.9156,"address":"6300 E Hampden Avenue, Denver CO","chain_name":null,"distance":0},{"name":"Cold Stone Creamery","code":null,"latitude":33.71566,"longitude":-118.0035,"address":"7071 Warner Avenue, Huntington Beach CA","chain_name":null,"distance":0},{"name":"Cold Stone Creamery","code":null,"latitude":33.34368,"longitude":-118.3261,"address":"118 Sumner Avenue, Avalon CA","chain_name":null,"distance":0},{"name":"Cold Stone Creamery","code":null,"latitude":36.80963,"longitude":-119.8083,"address":"5076 N Palm Avenue, Fresno CA","chain_name":null,"distance":0},{"name":"Cold Stone Creamery","code":null,"latitude":37.79974,"longitude":-121.92,"address":"3456 Blackhawk Plaza Circle, Danville CA","chain_name":null,"distance":0},{"name":"Cold Stone Creamery","code":null,"latitude":34.86641,"longitude":-120.4187,"address":"4869 S Bradly Road, Santa Maria CA","chain_name":null,"distance":0},{"name":"Cold Stone Creamery","code":null,"latitude":39.58543,"longitude":-105.0233,"address":"7301 S Santa Fe Drive, Littleton CO","chain_name":null,"distance":0},{"name":"Cold Stone Creamery","code":null,"latitude":33.26267,"longitude":-111.8586,"address":"2960 S Alma School Road, Chandler AZ","chain_name":null,"distance":0},{"name":"Cold Stone Creamery","code":null,"latitude":38.13259,"longitude":-122.216,"address":"173 Plaza Drive, # 1007, Vallejo CA","chain_name":null,"distance":0},{"name":"Cold Stone Creamery","code":null,"latitude":38.8882,"longitude":-77.25,"address":"205 Maple Avenue, Vienna VA","chain_name":null,"distance":0},{"name":"Cold Stone Creamery","code":null,"latitude":34.10468,"longitude":-117.9076,"address":"1404 N Azusa Avenue, # B, Covina CA","chain_name":null,"distance":0},{"name":"Cold Stone Creamery","code":null,"latitude":37.6591,"longitude":-121.8766,"address":"349 Main, Pleasanton CA","chain_name":null,"distance":0},{"name":"Cold Stone Creamery","code":null,"latitude":32.20632,"longitude":-110.7884,"address":"9565 E 22, Tucson AZ","chain_name":null,"distance":0},{"name":"Cold Stone Creamery","code":null,"latitude":34.46914,"longitude":-114.3425,"address":"151 Swanson Avenue, # B, Lake Havasu City AZ","chain_name":null,"distance":0},{"name":"Cold Stone Creamery","code":null,"latitude":37.4382,"longitude":-122.161,"address":"855 El Camino Real, # 9, Palo Alto CA","chain_name":null,"distance":0},{"name":"Cold Stone Creamery","code":null,"latitude":34.14584,"longitude":-118.1434,"address":"330 E Colorado Boulevard, Pasadena CA","chain_name":null,"distance":0},{"name":"Cold Stone Creamery","code":null,"latitude":33.39038,"longitude":-111.8559,"address":"1130 W Grove Avenue, Mesa AZ","chain_name":null,"distance":0},{"name":"Cold Stone Creamery","code":null,"latitude":33.72675,"longitude":-111.9256,"address":"15034 N Scottsdale Road, # 160, Scottsdale AZ","chain_name":null,"distance":0},{"name":"Cold Stone Creamery","code":null,"latitude":33.30569,"longitude":-111.897,"address":"3157 W Chandler Boulevard, # 1, Chandler AZ","chain_name":null,"distance":0},{"name":"Cold Stone Creamery","code":null,"latitude":39.61361,"longitude":-104.8977,"address":"5650 Greenwood Plaza Boulevard, Englewood CO","chain_name":null,"distance":0},{"name":"Cold Stone Creamery","code":null,"latitude":33.82537,"longitude":-117.836,"address":"2233 N Tustin, Orange CA","chain_name":null,"distance":0},{"name":"Cold Stone Creamery","code":null,"latitude":36.91702,"longitude":-121.7747,"address":"1487 Main Street, # 101, Watsonville CA","chain_name":null,"distance":0},{"name":"Cold Stone Creamery","code":null,"latitude":34.22987,"longitude":-118.2491,"address":"3231 Foothill Boulevard, Glendale CA","chain_name":null,"distance":0},{"name":"Cold Stone Creamery","code":null,"latitude":39.81251,"longitude":-105.1707,"address":"15300 W 64th Avenue, Arvada CO","chain_name":null,"distance":0},{"name":"Cold Stone Creamery","code":null,"latitude":38.74398,"longitude":-121.2778,"address":"1022 Douglas Boulevard, Roseville CA","chain_name":null,"distance":0},{"name":"Cold Stone Creamery","code":null,"latitude":33.38401,"longitude":-111.8054,"address":"1649 S Stapley Drive, Mesa AZ","chain_name":null,"distance":0},{"name":"Cold Stone Creamery","code":null,"latitude":33.71601,"longitude":-116.297,"address":"78370 Highway 111, La Quinta CA","chain_name":null,"distance":0},{"name":"Cold Stone Creamery","code":null,"latitude":32.7796,"longitude":-117.1289,"address":"2169 Fenton Parkway, # 103, San Diego CA","chain_name":null,"distance":0},{"name":"Cold Stone Creamery","code":null,"latitude":35.13003,"longitude":-118.4675,"address":"300 Tucker Road, # B, Tehachapi CA","chain_name":null,"distance":0},{"name":"Cold Stone Creamery","code":null,"latitude":34.07443,"longitude":-117.5474,"address":"980 North Ontario Mills Drive, Ontario CA","chain_name":null,"distance":0},{"name":"Cold Stone Creamery","code":null,"latitude":38.3252,"longitude":-122.6453,"address":"441 Rohnert Park Exprswy West, Penngrove CA","chain_name":null,"distance":0},{"name":"Cold Stone Creamery","code":null,"latitude":26.5905911,"longitude":-80.1766726,"address":"6346 Lantana Rd, Lake Worth FL","chain_name":null,"distance":0}]