[{"name":"Edible Arrangements","code":null,"latitude":42.1611993,"longitude":-71.7384139,"address":"156 Worcester Providence Tpke, Sutton MA","chain_name":null,"distance":0},{"name":"Edible Arrangements","code":null,"latitude":33.178177,"longitude":-117.3404776,"address":"1818 Marron Rd, Carlsbad CA","chain_name":null,"distance":0},{"name":"Edible Arrangements","code":null,"latitude":41.8285916,"longitude":-73.1095102,"address":"709 Winsted Rd, Torrington CT","chain_name":null,"distance":0},{"name":"Edible Arrangements","code":null,"latitude":26.355598,"longitude":-80.08659,"address":"555 N Federal Hwy, Boca Raton FL","chain_name":null,"distance":0},{"name":"Edible Arrangements","code":null,"latitude":27.0049144,"longitude":-82.1302502,"address":"1940 Tamiami Trl, Port Charlotte FL","chain_name":null,"distance":0},{"name":"Edible Arrangements","code":null,"latitude":41.5555606,"longitude":-72.6461604,"address":"100 Main St, Middletown CT","chain_name":null,"distance":0},{"name":"Edible Arrangements","code":null,"latitude":47.613847,"longitude":-122.201056,"address":"10455 NE 4th St, Bellevue WA","chain_name":null,"distance":0},{"name":"Edible Arrangements","code":null,"latitude":40.35286,"longitude":-74.064305,"address":"29 West Front St, Red Bank NJ","chain_name":null,"distance":0},{"name":"Edible Arrangements","code":null,"latitude":38.6695998,"longitude":-90.0142914,"address":"107 N Bluff Rd, Collinsville IL","chain_name":null,"distance":0},{"name":"Edible Arrangements","code":null,"latitude":37.800128,"longitude":-81.176019,"address":"1042 N Eisenhower Drive, Beckley WV","chain_name":null,"distance":0},{"name":"Edible Arrangements","code":null,"latitude":33.933194,"longitude":-118.183312,"address":"10721 Atlantic Ave, Lynwood CA","chain_name":null,"distance":0},{"name":"Edible Arrangements","code":null,"latitude":38.3687697,"longitude":-121.9607744,"address":"1661 E Monte Vista Ave, Vacaville CA","chain_name":null,"distance":0},{"name":"Edible Arrangements","code":null,"latitude":33.2199373,"longitude":-111.5726357,"address":"85 W Combs St, Queen Creek AZ","chain_name":null,"distance":0},{"name":"Edible Arrangements","code":null,"latitude":29.7174787,"longitude":-95.4158139,"address":"2418 Rice Blvd, Houston TX","chain_name":null,"distance":0},{"name":"Edible Arrangements","code":null,"latitude":43.6357918,"longitude":-79.5971406,"address":"1891 Rathburn Road E, Unit 15, Mississauga ON","chain_name":null,"distance":0},{"name":"Edible Arrangements","code":null,"latitude":42.3579786,"longitude":-71.0578975,"address":"241 Washington Street, Boston MA","chain_name":null,"distance":0},{"name":"Edible Arrangements","code":null,"latitude":38.1513064,"longitude":-85.587888,"address":"6515 Bardstown Road, Louisville KY","chain_name":null,"distance":0},{"name":"Edible Arrangements","code":null,"latitude":44.898022,"longitude":-93.3998768,"address":"5824 Lincoln Dr, Edina MN","chain_name":null,"distance":0},{"name":"Edible Arrangements","code":null,"latitude":40.963105,"longitude":-74.242552,"address":"87 Berdan Ave, Wayne NJ","chain_name":null,"distance":0},{"name":"Edible Arrangements","code":null,"latitude":41.9575878,"longitude":-88.0755183,"address":"156 E Lake St, Bloomingdale IL","chain_name":null,"distance":0},{"name":"Edible Arrangements","code":null,"latitude":35.582972,"longitude":-77.367656,"address":"642 East Arlington Blvd, Greenville NC","chain_name":null,"distance":0},{"name":"Edible Arrangements","code":null,"latitude":33.4504023,"longitude":-84.5044386,"address":"1240 Hwy 54 W, Fayetteville GA","chain_name":null,"distance":0},{"name":"Edible Arrangements","code":null,"latitude":37.3190495,"longitude":-79.961305,"address":"1345 Towne Square Plaza, Roanoke VA","chain_name":null,"distance":0},{"name":"Edible Arrangements","code":null,"latitude":49.2739257,"longitude":-122.7880914,"address":"#23-2755 Lougheed Hwy, Port Coquitlam BC","chain_name":null,"distance":0},{"name":"Edible Arrangements","code":null,"latitude":45.3666986,"longitude":-122.614399,"address":"21900 Willamette Dr, West Linn OR","chain_name":null,"distance":0},{"name":"Edible Arrangements","code":null,"latitude":30.014762,"longitude":-90.156212,"address":"3304 West Esplanade Ave, Metairie LA","chain_name":null,"distance":0},{"name":"Edible Arrangements","code":null,"latitude":43.420027,"longitude":-80.442474,"address":"509 Wilson Ave, Kitchener ON","chain_name":null,"distance":0},{"name":"Edible Arrangements","code":null,"latitude":33.892439,"longitude":-117.206114,"address":"26150 Iris Ave, Moreno Valley CA","chain_name":null,"distance":0},{"name":"Edible Arrangements","code":null,"latitude":38.3292755,"longitude":-85.756193,"address":"1020 Veterans Pkwy, Clarksville IN","chain_name":null,"distance":0},{"name":"Edible Arrangements","code":null,"latitude":42.1098876,"longitude":-70.8117245,"address":"386 Columbia Rd, Hanover MA","chain_name":null,"distance":0},{"name":"Edible Arrangements","code":null,"latitude":30.27274,"longitude":-97.757852,"address":"1201 W 6th St, Austin TX","chain_name":null,"distance":0},{"name":"Edible Arrangements","code":null,"latitude":29.924738,"longitude":-95.599656,"address":"12020 FM1960 West, Houston TX","chain_name":null,"distance":0},{"name":"Edible Arrangements","code":null,"latitude":43.050455,"longitude":-76.073203,"address":"3230 Erie Blvd E, Syracuse NY","chain_name":null,"distance":0},{"name":"Edible Arrangements","code":null,"latitude":40.338315,"longitude":-76.42488,"address":"37 S 8th St, Lebanon PA","chain_name":null,"distance":0},{"name":"Edible Arrangements","code":null,"latitude":39.7356699,"longitude":-105.1589097,"address":"14241 West Colfax Ave, Lakewood CO","chain_name":null,"distance":0},{"name":"Edible Arrangements","code":null,"latitude":33.8907468,"longitude":-118.3091457,"address":"15478 S Western Ave, Gardena CA","chain_name":null,"distance":0},{"name":"Edible Arrangements","code":null,"latitude":33.832313,"longitude":-117.9665066,"address":"2374 W Lincoln Ave, Anaheim CA","chain_name":null,"distance":0},{"name":"Edible Arrangements","code":null,"latitude":28.488548,"longitude":-81.430139,"address":"4104 Millenia Blvd, Orlando FL","chain_name":null,"distance":0},{"name":"Edible Arrangements","code":null,"latitude":33.755356,"longitude":-118.310174,"address":"28901 South Western Avenue, Rancho Palos Verdes CA","chain_name":null,"distance":0},{"name":"Edible Arrangements","code":null,"latitude":41.7327219,"longitude":-71.4311572,"address":"Airport Plaza, Warwick RI","chain_name":null,"distance":0},{"name":"Edible Arrangements","code":null,"latitude":41.3122346,"longitude":-73.0572161,"address":"676 New Haven Ave, Derby CT","chain_name":null,"distance":0},{"name":"Edible Arrangements","code":null,"latitude":41.6438397,"longitude":-70.9884907,"address":"85B Faunce Corner Rd, North Dartmouth MA","chain_name":null,"distance":0},{"name":"Edible Arrangements","code":null,"latitude":40.367905,"longitude":-80.0366279,"address":"250 Mt. Lebanon Blvd, Pittsburgh PA","chain_name":null,"distance":0},{"name":"Edible Arrangements","code":null,"latitude":34.6321576,"longitude":-98.474665,"address":"2413 NW 67th Street, Suite E, Lawton OK","chain_name":null,"distance":0},{"name":"Edible Arrangements","code":null,"latitude":38.8370963,"longitude":-76.9239727,"address":"Andrews Manor Shopping Center, Suitland MD","chain_name":null,"distance":0},{"name":"Edible Arrangements","code":null,"latitude":40.7149796,"longitude":-73.9496123,"address":"601 Lorimer St, Brooklyn NY","chain_name":null,"distance":0},{"name":"Edible Arrangements","code":null,"latitude":40.8374404,"longitude":-73.2947418,"address":"231 Commack Rd, Commack NY","chain_name":null,"distance":0},{"name":"Edible Arrangements","code":null,"latitude":39.6263863,"longitude":-105.0817448,"address":"5066 S Wadsworth Blvd, Littleton CO","chain_name":null,"distance":0},{"name":"Edible Arrangements","code":null,"latitude":41.4073618,"longitude":-73.4141907,"address":"67 Newtown Rd, Danbury CT","chain_name":null,"distance":0},{"name":"Edible Arrangements","code":null,"latitude":40.113056,"longitude":-83.077475,"address":"Foxfield Plaza, Foxboro MA","chain_name":null,"distance":0},{"name":"Edible Arrangements","code":null,"latitude":41.778922,"longitude":-72.535292,"address":"290 Broad Street, Manchester CT","chain_name":null,"distance":0},{"name":"Edible Arrangements","code":null,"latitude":40.764274,"longitude":-73.810721,"address":"154-08 Northern Boulevard, Flushing NY","chain_name":null,"distance":0},{"name":"Edible Arrangements","code":null,"latitude":40.247267,"longitude":-75.1428632,"address":"Warrington Shopping Center, Warrington PA","chain_name":null,"distance":0},{"name":"Edible Arrangements","code":null,"latitude":38.7817099,"longitude":-76.089163,"address":"28601 Marlboro Ave, Easton MD","chain_name":null,"distance":0},{"name":"Edible Arrangements","code":null,"latitude":39.3787021,"longitude":-76.7255973,"address":"3765 C Old Court Rd, Pikesville MD","chain_name":null,"distance":0},{"name":"Edible Arrangements","code":null,"latitude":34.1878621,"longitude":-79.8080861,"address":"1945 W Palmetto St, Florence SC","chain_name":null,"distance":0},{"name":"Edible Arrangements","code":null,"latitude":40.771693,"longitude":-96.623298,"address":"4101 Pioneer Woods Dr, Lincoln NE","chain_name":null,"distance":0},{"name":"Edible Arrangements","code":null,"latitude":39.9863889,"longitude":-83.0055555,"address":"Grandview Center, Columbus OH","chain_name":null,"distance":0},{"name":"Edible Arrangements","code":null,"latitude":39.2037043,"longitude":-84.3707431,"address":"8014 Hosbrook Rd, Cincinnati OH","chain_name":null,"distance":0},{"name":"Edible Arrangements","code":null,"latitude":40.638822,"longitude":-73.9192866,"address":"1557 Ralph Ave, Brooklyn NY","chain_name":null,"distance":0},{"name":"Edible Arrangements","code":null,"latitude":40.8153838,"longitude":-74.1623367,"address":"219 Franklin Ave, Nutley NJ","chain_name":null,"distance":0},{"name":"Edible Arrangements","code":null,"latitude":41.9715906,"longitude":-88.2068584,"address":"953 S IL ROUTE 59, Bartlett IL","chain_name":null,"distance":0},{"name":"Edible Arrangements","code":null,"latitude":43.856968,"longitude":-79.3855842,"address":"9206 Leslie Street, Richmond Hill ON","chain_name":null,"distance":0},{"name":"Edible Arrangements","code":null,"latitude":38.3031837,"longitude":-77.4605399,"address":"Central Park at Celebrate Virginia, Fredericksburg VA","chain_name":null,"distance":0},{"name":"Edible Arrangements","code":null,"latitude":39.277941,"longitude":-76.825092,"address":"3355 St Johns Ln, Ellicott City MD","chain_name":null,"distance":0},{"name":"Edible Arrangements","code":null,"latitude":32.3232491,"longitude":-110.9749969,"address":"6425 N Oracle Rd, Tucson AZ","chain_name":null,"distance":0},{"name":"Edible Arrangements","code":null,"latitude":35.920783,"longitude":-78.93021,"address":"5832 Fayetteville Rd, Durham NC","chain_name":null,"distance":0},{"name":"Edible Arrangements","code":null,"latitude":26.3949169,"longitude":-81.5706109,"address":"Estey Air Plaza, Naples FL","chain_name":null,"distance":0},{"name":"Edible Arrangements","code":null,"latitude":35.1483115,"longitude":-106.5760857,"address":"Fiesta Crossings Shopping Center, Albuquerque NM","chain_name":null,"distance":0},{"name":"Edible Arrangements","code":null,"latitude":38.8681778,"longitude":-77.1464162,"address":"6180 Arlington Blvd, Falls Church VA","chain_name":null,"distance":0},{"name":"Edible Arrangements","code":null,"latitude":43.5855471,"longitude":-79.7187507,"address":"63 Queen Street S Unit 9, Mississauga ON","chain_name":null,"distance":0},{"name":"Edible Arrangements","code":null,"latitude":41.901627,"longitude":-71.0901907,"address":"85 Main St, Taunton MA","chain_name":null,"distance":0},{"name":"Edible Arrangements","code":null,"latitude":41.6597197,"longitude":-87.6607598,"address":"12844 S Ashland Ave, Calumet Park IL","chain_name":null,"distance":0},{"name":"Edible Arrangements","code":null,"latitude":43.611832,"longitude":-116.295314,"address":"9140 West Emerald St, Boise ID","chain_name":null,"distance":0},{"name":"Edible Arrangements","code":null,"latitude":42.3503876,"longitude":-71.5030775,"address":"1025 Boston Post Rd East (Rt 20), Marlboro MA","chain_name":null,"distance":0},{"name":"Edible Arrangements","code":null,"latitude":43.1196685,"longitude":-77.475495,"address":"Spring House Commons, Rochester NY","chain_name":null,"distance":0},{"name":"Edible Arrangements","code":null,"latitude":41.0765494,"longitude":-73.8596141,"address":"25 Main St, Tarrytown NY","chain_name":null,"distance":0},{"name":"Edible Arrangements","code":null,"latitude":40.0992294,"longitude":-83.1140771,"address":"Trader Joe's Centre, Dublin OH","chain_name":null,"distance":0},{"name":"Edible Arrangements","code":null,"latitude":40.787361,"longitude":-73.9479649,"address":"1788 3rd Ave, New York City NY","chain_name":null,"distance":0},{"name":"Edible Arrangements","code":null,"latitude":35.171478,"longitude":-80.656949,"address":"6908 Matthews-Mint Hill Rd, Charlotte NC","chain_name":null,"distance":0},{"name":"Edible Arrangements","code":null,"latitude":40.7367979,"longitude":-74.1689492,"address":"1152 Raymond Blvd, Newark NJ","chain_name":null,"distance":0},{"name":"Edible Arrangements","code":null,"latitude":37.2493595,"longitude":-121.9558902,"address":"15075 Los Gatos Blvd, Los Gatos CA","chain_name":null,"distance":0},{"name":"Edible Arrangements","code":null,"latitude":41.8798745,"longitude":-87.6293723,"address":"136 S. Dearborn, Chicago IL","chain_name":null,"distance":0},{"name":"Edible Arrangements","code":null,"latitude":34.064488,"longitude":-84.395278,"address":"1125 Woodstock Rd, Roswell GA","chain_name":null,"distance":0},{"name":"Edible Arrangements","code":null,"latitude":40.2800274,"longitude":-74.347017,"address":"Town Pointe Shopping Center, Manalapan NJ","chain_name":null,"distance":0},{"name":"Edible Arrangements","code":null,"latitude":35.2073403,"longitude":-80.8358131,"address":"809 South Kings Dr., Charlotte NC","chain_name":null,"distance":0},{"name":"Edible Arrangements","code":null,"latitude":28.9329505,"longitude":-82.0163088,"address":"11962 County Rd 101, The Villages FL","chain_name":null,"distance":0},{"name":"Edible Arrangements","code":null,"latitude":42.1083527,"longitude":-80.1357865,"address":"2310 West 8th St, Erie PA","chain_name":null,"distance":0},{"name":"Edible Arrangements","code":null,"latitude":38.9789324,"longitude":-77.3487868,"address":"Village Center, Reston VA","chain_name":null,"distance":0},{"name":"Edible Arrangements","code":null,"latitude":43.5074604,"longitude":-79.8616576,"address":"6B-575 Ontario Street South, Milton ON","chain_name":null,"distance":0},{"name":"Edible Arrangements","code":null,"latitude":32.8492677,"longitude":-96.7880689,"address":"6833 Snider Plaza, Dallas TX","chain_name":null,"distance":0},{"name":"Edible Arrangements","code":null,"latitude":40.683515,"longitude":-80.100389,"address":"20120 Route 19, Cranberry Township PA","chain_name":null,"distance":0},{"name":"Edible Arrangements","code":null,"latitude":39.289446,"longitude":-76.611222,"address":"231 E Baltimore St, Baltimore MD","chain_name":null,"distance":0},{"name":"Edible Arrangements","code":null,"latitude":37.159581,"longitude":-93.276999,"address":"1336 E Battlefield St, Springfield MO","chain_name":null,"distance":0},{"name":"Edible Arrangements","code":null,"latitude":36.1217043,"longitude":-94.1413989,"address":"1204 E Joyce Blvd, Fayetteville AR","chain_name":null,"distance":0},{"name":"Edible Arrangements","code":null,"latitude":40.8861431,"longitude":-73.1016549,"address":"2194D Nesconset Hwy, Stony Brook NY","chain_name":null,"distance":0},{"name":"Edible Arrangements","code":null,"latitude":43.6579341,"longitude":-79.7418036,"address":"373 Steeles Ave W, Brampton ON","chain_name":null,"distance":0},{"name":"Edible Arrangements","code":null,"latitude":40.9313371,"longitude":-73.9957534,"address":"108 North Washington Ave, Bergenfield NJ","chain_name":null,"distance":0},{"name":"Edible Arrangements","code":null,"latitude":35.85922,"longitude":-86.44462,"address":"2615 Medical Center Pkwy, Murfreesboro TN","chain_name":null,"distance":0},{"name":"Edible Arrangements","code":null,"latitude":33.741693,"longitude":-117.817608,"address":"13662 Newport Ave, Tustin CA","chain_name":null,"distance":0},{"name":"Edible Arrangements","code":null,"latitude":40.7923539,"longitude":-74.3139268,"address":"113 South Livingston Ave, Livingston NJ","chain_name":null,"distance":0},{"name":"Edible Arrangements","code":null,"latitude":39.5645461,"longitude":-76.9793759,"address":"140 Village Shopping Plaza, Westminster MD","chain_name":null,"distance":0},{"name":"Edible Arrangements","code":null,"latitude":34.9704419,"longitude":-78.9453056,"address":"Millstone 14 Towne Center, Hope Mills NC","chain_name":null,"distance":0},{"name":"Edible Arrangements","code":null,"latitude":42.232361,"longitude":-72.0155694,"address":"72 W Main St, Spencer MA","chain_name":null,"distance":0},{"name":"Edible Arrangements","code":null,"latitude":43.2129668,"longitude":-77.4576482,"address":"Webster Parc, Webster NY","chain_name":null,"distance":0},{"name":"Edible Arrangements","code":null,"latitude":41.472429,"longitude":-87.02734,"address":"501 Silhavy Rd, Valparaiso IN","chain_name":null,"distance":0},{"name":"Edible Arrangements","code":null,"latitude":40.7847378,"longitude":-73.5003174,"address":"428 Woodbury Rd, Plainview NY","chain_name":null,"distance":0},{"name":"Edible Arrangements","code":null,"latitude":36.8479865,"longitude":-76.2915194,"address":"215 Granby St, Norfolk VA","chain_name":null,"distance":0},{"name":"Edible Arrangements","code":null,"latitude":34.0607144,"longitude":-118.3688814,"address":"Commodore Plaza, Beverly MA","chain_name":null,"distance":0},{"name":"Edible Arrangements","code":null,"latitude":30.639269,"longitude":-96.316909,"address":"1505 University Dr E, College Station TX","chain_name":null,"distance":0},{"name":"Edible Arrangements","code":null,"latitude":33.379862,"longitude":-111.690915,"address":"6610 E Baseline Rd, Mesa AZ","chain_name":null,"distance":0},{"name":"Edible Arrangements","code":null,"latitude":36.0709439,"longitude":-80.2931146,"address":"3244 Silas Creek Parkway, Winston Salem NC","chain_name":null,"distance":0},{"name":"Edible Arrangements","code":null,"latitude":27.9747465,"longitude":-81.9419177,"address":"Lake Miriam Square S\/C, Lakeland FL","chain_name":null,"distance":0},{"name":"Edible Arrangements","code":null,"latitude":42.149648,"longitude":-72.631225,"address":"1702 Riverdale St, West Springfield MA","chain_name":null,"distance":0},{"name":"Edible Arrangements","code":null,"latitude":42.76404,"longitude":-78.7547362,"address":"6177 West Quaker St, Orchard Park NY","chain_name":null,"distance":0},{"name":"Edible Arrangements","code":null,"latitude":42.247245,"longitude":-87.97981,"address":"1412 South Butterfield Rd, Mundelein IL","chain_name":null,"distance":0},{"name":"Edible Arrangements","code":null,"latitude":40.4252561,"longitude":-74.4296467,"address":"Heritage Plaza, Milltown NJ","chain_name":null,"distance":0},{"name":"Edible Arrangements","code":null,"latitude":38.4225171,"longitude":-82.4432627,"address":"16 Pullman Square, Huntington WV","chain_name":null,"distance":0},{"name":"Edible Arrangements","code":null,"latitude":41.557338,"longitude":-73.418297,"address":"116 Danbury Rd, New Milford CT","chain_name":null,"distance":0},{"name":"Edible Arrangements","code":null,"latitude":38.978211,"longitude":-76.536405,"address":"7 Old Solomons Island Rd, Annapolis MD","chain_name":null,"distance":0},{"name":"Edible Arrangements","code":null,"latitude":42.1391547,"longitude":-88.0249209,"address":"778 East Dundee Rd, Palatine IL","chain_name":null,"distance":0},{"name":"Edible Arrangements","code":null,"latitude":39.869016,"longitude":-86.120278,"address":"2602 E 62nd St, Indianapolis IN","chain_name":null,"distance":0},{"name":"Edible Arrangements","code":null,"latitude":41.316871,"longitude":-81.440826,"address":"9224 Darrow Rd, Twinsburg OH","chain_name":null,"distance":0},{"name":"Edible Arrangements","code":null,"latitude":37.8545262,"longitude":-122.2598789,"address":"3079 Telegraph Avenue, Berkeley CA","chain_name":null,"distance":0},{"name":"Edible Arrangements","code":null,"latitude":40.2847389,"longitude":-73.9893505,"address":"146 Brighton Avenue, Long Branch NJ","chain_name":null,"distance":0},{"name":"Edible Arrangements","code":null,"latitude":42.3387671,"longitude":-71.8372918,"address":"624 Main St, Holden MA","chain_name":null,"distance":0},{"name":"Edible Arrangements","code":null,"latitude":42.0478262,"longitude":-87.7994071,"address":"9144 Waukegan Rd, Morton Grove IL","chain_name":null,"distance":0},{"name":"Edible Arrangements","code":null,"latitude":39.180576,"longitude":-76.82559,"address":"6925 Oakland Mills Rd, Columbia MD","chain_name":null,"distance":0},{"name":"Edible Arrangements","code":null,"latitude":41.408426,"longitude":-75.6636599,"address":"209 N Washington Ave, Scranton PA","chain_name":null,"distance":0},{"name":"Edible Arrangements","code":null,"latitude":45.5357539,"longitude":-122.8675306,"address":"2305 North West 185th Ave, Hillsboro OR","chain_name":null,"distance":0},{"name":"Edible Arrangements","code":null,"latitude":29.546693,"longitude":-95.5302337,"address":"Sienna Village, Missouri City TX","chain_name":null,"distance":0},{"name":"Edible Arrangements","code":null,"latitude":42.0483008,"longitude":-87.9611078,"address":"1730 W Golf Rd, Mount Prospect IL","chain_name":null,"distance":0},{"name":"Edible Arrangements","code":null,"latitude":40.765738,"longitude":-73.9819008,"address":"1756 Broadway, New York NY","chain_name":null,"distance":0},{"name":"Edible Arrangements","code":null,"latitude":28.602571,"longitude":-81.3643169,"address":"480 N Orlando Ave, Winter Park FL","chain_name":null,"distance":0},{"name":"Edible Arrangements","code":null,"latitude":41.7544927,"longitude":-88.2225443,"address":"4400 McCoy Dr, Aurora IL","chain_name":null,"distance":0},{"name":"Edible Arrangements","code":null,"latitude":39.501159,"longitude":-76.383072,"address":"1621 Belair Rd, Fallston MD","chain_name":null,"distance":0},{"name":"Edible Arrangements","code":null,"latitude":40.65538,"longitude":-74.3898732,"address":"Olympia Plaza, Scotch Plains NJ","chain_name":null,"distance":0},{"name":"Edible Arrangements","code":null,"latitude":30.466898,"longitude":-87.204361,"address":"4350 Bayou Blvd, Pensacola FL","chain_name":null,"distance":0},{"name":"Edible Arrangements","code":null,"latitude":37.52663,"longitude":-122.284694,"address":"390 El Camino Real, Belmont CA","chain_name":null,"distance":0},{"name":"Edible Arrangements","code":null,"latitude":30.4831307,"longitude":-97.6766667,"address":"115 Sundance Pkwy, Round Rock TX","chain_name":null,"distance":0},{"name":"Edible Arrangements","code":null,"latitude":38.4066237,"longitude":-75.5630234,"address":"701 East Naylor Mill Rd, Salisbury MD","chain_name":null,"distance":0},{"name":"Edible Arrangements","code":null,"latitude":32.8611083,"longitude":-97.3229114,"address":"2700 Western Center Boulevard Ste 108, Fort Worth TX","chain_name":null,"distance":0},{"name":"Edible Arrangements","code":null,"latitude":43.4378482,"longitude":-79.7403881,"address":"1500 Upper Middle Road West, Oakville ON","chain_name":null,"distance":0},{"name":"Edible Arrangements","code":null,"latitude":29.5062342,"longitude":-98.5770684,"address":"Medical Center, San Antonio TX","chain_name":null,"distance":0},{"name":"Edible Arrangements","code":null,"latitude":34.0484087,"longitude":-117.8115775,"address":"3580 W Temple Ave, Pomona CA","chain_name":null,"distance":0},{"name":"Edible Arrangements","code":null,"latitude":42.1186976,"longitude":-87.745284,"address":"999 Green Bay Rd, Winnetka IL","chain_name":null,"distance":0},{"name":"Edible Arrangements","code":null,"latitude":41.320903,"longitude":-74.152973,"address":"215 Larkin Dr, Monroe NY","chain_name":null,"distance":0},{"name":"Edible Arrangements","code":null,"latitude":33.463177,"longitude":-84.222648,"address":"Henry Towne Center, Mcdonough GA","chain_name":null,"distance":0},{"name":"Edible Arrangements","code":null,"latitude":42.3383631,"longitude":-71.0502076,"address":"327 West Broadway, South Boston MA","chain_name":null,"distance":0},{"name":"Edible Arrangements","code":null,"latitude":34.083221,"longitude":-118.328471,"address":"5870 Melrose Avenue, Los Angeles CA","chain_name":null,"distance":0},{"name":"Edible Arrangements","code":null,"latitude":26.6644695,"longitude":-80.267185,"address":"13873 Wellington Trzce, West Palm Beach FL","chain_name":null,"distance":0},{"name":"Edible Arrangements","code":null,"latitude":43.4800469,"longitude":-83.9738159,"address":"2910 Tittabawassee RD, Saginaw MI","chain_name":null,"distance":0},{"name":"Edible Arrangements","code":null,"latitude":38.9821611,"longitude":-84.6473745,"address":"8217 US 42, Florence KY","chain_name":null,"distance":0},{"name":"Edible Arrangements","code":null,"latitude":40.7971254,"longitude":-74.4769494,"address":"89 Morris St, Morristown NJ","chain_name":null,"distance":0},{"name":"Edible Arrangements","code":null,"latitude":41.735646,"longitude":-88.129406,"address":"1807 S Washington St, Naperville IL","chain_name":null,"distance":0},{"name":"Edible Arrangements","code":null,"latitude":32.3395968,"longitude":-90.0608971,"address":"147 Market St, Flowood MS","chain_name":null,"distance":0},{"name":"Edible Arrangements","code":null,"latitude":37.228312,"longitude":-77.3903001,"address":"566 Maine St (U.S Rt 1), South Portland ME","chain_name":null,"distance":0},{"name":"Edible Arrangements","code":null,"latitude":42.3309586,"longitude":-71.2092369,"address":"1136 Beacon St, Newton MA","chain_name":null,"distance":0},{"name":"Edible Arrangements","code":null,"latitude":41.3515492,"longitude":-71.7693792,"address":"240 Post Rd, Westerly RI","chain_name":null,"distance":0},{"name":"Edible Arrangements","code":null,"latitude":26.7152999,"longitude":-80.1037721,"address":"Village Commons Shopping Center, West Palm Beach FL","chain_name":null,"distance":0},{"name":"Edible Arrangements","code":null,"latitude":43.5019765,"longitude":-80.5338461,"address":"583 King St North, Waterloo ON","chain_name":null,"distance":0},{"name":"Edible Arrangements","code":null,"latitude":36.0287642,"longitude":-79.8693674,"address":"4719 High Point Rd, Greensboro NC","chain_name":null,"distance":0},{"name":"Edible Arrangements","code":null,"latitude":43.1873504,"longitude":-80.2818292,"address":"358 King George Rd, Brantford ON","chain_name":null,"distance":0},{"name":"Edible Arrangements","code":null,"latitude":39.4829364,"longitude":-74.9573057,"address":"3696 East Landis Ave, Vineland NJ","chain_name":null,"distance":0},{"name":"Edible Arrangements","code":null,"latitude":40.684268,"longitude":-74.6357148,"address":"Far Hills Center, Far Hills NJ","chain_name":null,"distance":0},{"name":"Edible Arrangements","code":null,"latitude":30.3582506,"longitude":-90.0656311,"address":"Twenty Two West Shopping Center, Mandeville LA","chain_name":null,"distance":0},{"name":"Edible Arrangements","code":null,"latitude":43.726882,"longitude":-79.230669,"address":"3110 Kingston RdUnit 1, Scarborough ON","chain_name":null,"distance":0},{"name":"Edible Arrangements","code":null,"latitude":34.2789438,"longitude":-118.7105512,"address":"4316 Cochran St, Simi Valley CA","chain_name":null,"distance":0},{"name":"Edible Arrangements","code":null,"latitude":41.8023038,"longitude":-87.5893263,"address":"1465 E Hyde Park Blvd, Chicago IL","chain_name":null,"distance":0},{"name":"Edible Arrangements","code":null,"latitude":30.4248834,"longitude":-91.1317888,"address":"5720 Corporate Boulevard, Baton Rouge LA","chain_name":null,"distance":0},{"name":"Edible Arrangements","code":null,"latitude":33.6401421,"longitude":-112.1745837,"address":"5350 W Bell Rd, Glendale AZ","chain_name":null,"distance":0},{"name":"Edible Arrangements","code":null,"latitude":35.0923864,"longitude":-92.4146206,"address":"1050 Bob Courtway Dr, Conway AR","chain_name":null,"distance":0},{"name":"Edible Arrangements","code":null,"latitude":33.657231,"longitude":-84.512948,"address":"3830 Princeton Lakes Ct SW, Atlanta GA","chain_name":null,"distance":0},{"name":"Edible Arrangements","code":null,"latitude":42.5257024,"longitude":-71.7378831,"address":"100 Commercial Road, Leominster MA","chain_name":null,"distance":0},{"name":"Edible Arrangements","code":null,"latitude":39.6490852,"longitude":-79.8956774,"address":"869 Venture Dr, Morgantown WV","chain_name":null,"distance":0},{"name":"Edible Arrangements","code":null,"latitude":26.3554203,"longitude":-81.8075767,"address":"26381 South Tamiami Trail Suite 100, Bonita Springs FL","chain_name":null,"distance":0},{"name":"Edible Arrangements","code":null,"latitude":34.4724,"longitude":-117.278834,"address":"12180 Ridgecrest Rd, Victorville CA","chain_name":null,"distance":0},{"name":"Edible Arrangements","code":null,"latitude":39.4406601,"longitude":-77.4369798,"address":"2060 Yellow Springs Rd, Frederick MD","chain_name":null,"distance":0},{"name":"Edible Arrangements","code":null,"latitude":37.359155,"longitude":-79.24085,"address":"1627 Enterprise Dr, Lynchburg VA","chain_name":null,"distance":0},{"name":"Edible Arrangements","code":null,"latitude":27.098846,"longitude":-82.416043,"address":"1435 E Venice Ave, Venice FL","chain_name":null,"distance":0},{"name":"Edible Arrangements","code":null,"latitude":43.0328479,"longitude":-76.3058328,"address":"Aspen Dental Plaza, Camillus NY","chain_name":null,"distance":0},{"name":"Edible Arrangements","code":null,"latitude":42.1515065,"longitude":-72.4641256,"address":"2036 Boston Rd, Wilbraham MA","chain_name":null,"distance":0},{"name":"Edible Arrangements","code":null,"latitude":42.6702834,"longitude":-82.9946477,"address":"50464 Schoenherr Rd & 23 Mile Rd, Shelby Township MI","chain_name":null,"distance":0},{"name":"Edible Arrangements","code":null,"latitude":41.2443867,"longitude":-81.8323603,"address":"Brunswick Market Place, Brunswick OH","chain_name":null,"distance":0},{"name":"Edible Arrangements","code":null,"latitude":39.1516653,"longitude":-84.6277452,"address":"6461 Glenway Avenue, Cincinnati OH","chain_name":null,"distance":0},{"name":"Edible Arrangements","code":null,"latitude":41.2486543,"longitude":-80.4498064,"address":"1041 N Hermitage Rd, Hermitage PA","chain_name":null,"distance":0},{"name":"Edible Arrangements","code":null,"latitude":43.9723027,"longitude":-75.9627074,"address":"21856 Towne Center Dr, Watertown NY","chain_name":null,"distance":0},{"name":"Edible Arrangements","code":null,"latitude":45.2676864,"longitude":-75.7370553,"address":"129 Rio Can Ave, Nepean ON","chain_name":null,"distance":0},{"name":"Edible Arrangements","code":null,"latitude":39.1674005,"longitude":-75.4577775,"address":"Gateway South Shopping Center, Dover DE","chain_name":null,"distance":0},{"name":"Edible Arrangements","code":null,"latitude":29.1969416,"longitude":-81.0555301,"address":"International Speedway Square, Daytona Beach FL","chain_name":null,"distance":0},{"name":"Edible Arrangements","code":null,"latitude":43.4013785,"longitude":-80.3258108,"address":"525 Hespeler Road Unit 13, Cambridge ON","chain_name":null,"distance":0},{"name":"Edible Arrangements","code":null,"latitude":48.4397758,"longitude":-123.3636371,"address":"Blanshard Square, Victoria BC","chain_name":null,"distance":0},{"name":"Edible Arrangements","code":null,"latitude":33.042316,"longitude":-96.769361,"address":"3304 Coit Rd, Plano TX","chain_name":null,"distance":0},{"name":"Edible Arrangements","code":null,"latitude":26.934964,"longitude":-80.110964,"address":"901 Indiantown Rd, Jupiter FL","chain_name":null,"distance":0},{"name":"Edible Arrangements","code":null,"latitude":41.5690831,"longitude":-93.7327187,"address":"2020 Grand Ave, West Des Moines IA","chain_name":null,"distance":0},{"name":"Edible Arrangements","code":null,"latitude":29.8915075,"longitude":-90.0583128,"address":"1650 Gretna Blvd, Harvey LA","chain_name":null,"distance":0},{"name":"Edible Arrangements","code":null,"latitude":41.713064,"longitude":-87.6428288,"address":"9945 S Halsted St, Chicago IL","chain_name":null,"distance":0},{"name":"Edible Arrangements","code":null,"latitude":42.57278,"longitude":-71.776677,"address":"66 John Fitch Hwy, Fitchburg MA","chain_name":null,"distance":0},{"name":"Edible Arrangements","code":null,"latitude":48.395188,"longitude":-122.335376,"address":"2306 Highway 6, Vernon BC","chain_name":null,"distance":0},{"name":"Edible Arrangements","code":null,"latitude":39.3559421,"longitude":-84.3655837,"address":"7665 Cox Ln, West Chester OH","chain_name":null,"distance":0},{"name":"Edible Arrangements","code":null,"latitude":40.757319,"longitude":-73.969488,"address":"875 Third Ave, New York City NY","chain_name":null,"distance":0},{"name":"Edible Arrangements","code":null,"latitude":40.7481054,"longitude":-73.048036,"address":"911 Montauk Hwy, Bayport NY","chain_name":null,"distance":0},{"name":"Edible Arrangements","code":null,"latitude":42.4053666,"longitude":-71.1008605,"address":"275 Mystic Ave, Medford MA","chain_name":null,"distance":0},{"name":"Edible Arrangements","code":null,"latitude":38.7073379,"longitude":-77.0230313,"address":"Olde Forte Village Shopping Center, Fort Washington MD","chain_name":null,"distance":0},{"name":"Edible Arrangements","code":null,"latitude":33.467119,"longitude":-112.3392713,"address":"1729 N Dysart Rd, Avondale AZ","chain_name":null,"distance":0},{"name":"Edible Arrangements","code":null,"latitude":40.8862,"longitude":-73.9097917,"address":"3530 Johnson Ave, Bronx NY","chain_name":null,"distance":0},{"name":"Edible Arrangements","code":null,"latitude":31.07159,"longitude":-97.675785,"address":"300 W Central Texas Expy, Harker Heights TX","chain_name":null,"distance":0},{"name":"Edible Arrangements","code":null,"latitude":27.891588,"longitude":-82.241323,"address":"Shoppes at Lithia, Valrico FL","chain_name":null,"distance":0},{"name":"Edible Arrangements","code":null,"latitude":40.1529393,"longitude":-74.2284279,"address":"4146 Route 9 South, Howell NJ","chain_name":null,"distance":0},{"name":"Edible Arrangements","code":null,"latitude":26.534997,"longitude":-81.870022,"address":"14261 S Tamiami Trl, Fort Myers FL","chain_name":null,"distance":0},{"name":"Edible Arrangements","code":null,"latitude":40.6781731,"longitude":-73.4549909,"address":"125 Front St, Massapequa Park NY","chain_name":null,"distance":0},{"name":"Edible Arrangements","code":null,"latitude":33.636734,"longitude":-117.608242,"address":"29881 Aventura, Rancho Santa Margarita CA","chain_name":null,"distance":0},{"name":"Edible Arrangements","code":null,"latitude":47.861933,"longitude":-122.219744,"address":"15021 Main St, Mill Creek WA","chain_name":null,"distance":0},{"name":"Edible Arrangements","code":null,"latitude":33.4264473,"longitude":-117.6112237,"address":"305 S El Camino Real, San Clemente CA","chain_name":null,"distance":0},{"name":"Edible Arrangements","code":null,"latitude":41.7010208,"longitude":-72.9104261,"address":"920 Stafford Ave, Bristol CT","chain_name":null,"distance":0},{"name":"Edible Arrangements","code":null,"latitude":29.155161,"longitude":-82.1764759,"address":"3101 SW 34th Ave, Ocala FL","chain_name":null,"distance":0},{"name":"Edible Arrangements","code":null,"latitude":42.5716989,"longitude":-83.0297449,"address":"37852 Van Dyke Ave, Sterling Heights MI","chain_name":null,"distance":0},{"name":"Edible Arrangements","code":null,"latitude":40.806947,"longitude":-73.9418536,"address":"2035 Fifth Ave, New York City NY","chain_name":null,"distance":0},{"name":"Edible Arrangements","code":null,"latitude":42.2797554,"longitude":-71.1626756,"address":"Shaw's Plaza, West Roxbury MA","chain_name":null,"distance":0},{"name":"Edible Arrangements","code":null,"latitude":41.9035028,"longitude":-87.9400456,"address":"206 N York St, Elmhurst IL","chain_name":null,"distance":0},{"name":"Edible Arrangements","code":null,"latitude":29.597194,"longitude":-95.625186,"address":"Hwy 6\/16126 SouthWest Fwy, Sugar Land TX","chain_name":null,"distance":0},{"name":"Edible Arrangements","code":null,"latitude":33.9434879,"longitude":-117.9939893,"address":"15626 Whittwood Ln, Whittier CA","chain_name":null,"distance":0},{"name":"Edible Arrangements","code":null,"latitude":43.780367,"longitude":-79.6979719,"address":"Castlemore Village Shopping Centre, Brampton ON","chain_name":null,"distance":0},{"name":"Edible Arrangements","code":null,"latitude":38.8159473,"longitude":-76.7496909,"address":"Marlboro Square Shopping Center, Upper Marlboro MD","chain_name":null,"distance":0},{"name":"Edible Arrangements","code":null,"latitude":33.89416,"longitude":-118.396328,"address":"2405 N Sepulveda Blvd, Manhattan Beach CA","chain_name":null,"distance":0},{"name":"Edible Arrangements","code":null,"latitude":34.0723572,"longitude":-81.2188355,"address":"Murraywood Center, Columbia SC","chain_name":null,"distance":0},{"name":"Edible Arrangements","code":null,"latitude":34.2569638,"longitude":-88.737858,"address":"2240 Rabbit Drive Suite #600, Tupelo MS","chain_name":null,"distance":0},{"name":"Edible Arrangements","code":null,"latitude":40.263547,"longitude":-111.668429,"address":"2255 N University Parkway #27, Provo UT","chain_name":null,"distance":0},{"name":"Edible Arrangements","code":null,"latitude":40.8252004,"longitude":-72.9830814,"address":"3251 Horseblock Rd, Medford NY","chain_name":null,"distance":0},{"name":"Edible Arrangements","code":null,"latitude":34.8083898,"longitude":-82.3343375,"address":"Congaree Corners, Greenville SC","chain_name":null,"distance":0},{"name":"Edible Arrangements","code":null,"latitude":51.0466139,"longitude":-114.0678009,"address":"228 , 250 7th Ave. S.W., Calgary AB","chain_name":null,"distance":0},{"name":"Edible Arrangements","code":null,"latitude":39.020426,"longitude":-76.698378,"address":"2100 Concord Blvd, Crofton MD","chain_name":null,"distance":0},{"name":"Edible Arrangements","code":null,"latitude":32.935429,"longitude":-97.23864,"address":"721 Keller Pkwy, Keller TX","chain_name":null,"distance":0},{"name":"Edible Arrangements","code":null,"latitude":30.3943899,"longitude":-97.743571,"address":"10225 Research Blvd, Austin TX","chain_name":null,"distance":0},{"name":"Edible Arrangements","code":null,"latitude":42.86109,"longitude":-73.771621,"address":"54 The Crossing Blvd, Clifton Park NY","chain_name":null,"distance":0},{"name":"Edible Arrangements","code":null,"latitude":40.9562412,"longitude":-73.8123344,"address":"26 Mill Rd, Eastchester NY","chain_name":null,"distance":0},{"name":"Edible Arrangements","code":null,"latitude":40.7242625,"longitude":-73.9779955,"address":"100 St Marks Place (8th St), New York City NY","chain_name":null,"distance":0},{"name":"Edible Arrangements","code":null,"latitude":41.6015543,"longitude":-87.8428621,"address":"9040 W 159th St, Orland Park IL","chain_name":null,"distance":0},{"name":"Edible Arrangements","code":null,"latitude":36.280047,"longitude":-115.263661,"address":"6454 Sky Pointe Dr, Las Vegas NV","chain_name":null,"distance":0},{"name":"Edible Arrangements","code":null,"latitude":30.6761158,"longitude":-88.1500054,"address":"3952 Airport Blvd, Mobile AL","chain_name":null,"distance":0},{"name":"Edible Arrangements","code":null,"latitude":42.810454,"longitude":-70.8652512,"address":"75 Water St, Newburyport MA","chain_name":null,"distance":0},{"name":"Edible Arrangements","code":null,"latitude":41.2123163,"longitude":-73.2103861,"address":"3710 Main St, Bridgeport CT","chain_name":null,"distance":0},{"name":"Edible Arrangements","code":null,"latitude":38.669178,"longitude":-121.150822,"address":"1300 E Bidwell St, Folsom CA","chain_name":null,"distance":0},{"name":"Edible Arrangements","code":null,"latitude":39.9509036,"longitude":-75.1574567,"address":"Downtown Center City, Philadelphia PA","chain_name":null,"distance":0},{"name":"Edible Arrangements","code":null,"latitude":41.0326881,"longitude":-80.6659842,"address":"Boardman Plaza, Rt. 224, Youngstown OH","chain_name":null,"distance":0},{"name":"Edible Arrangements","code":null,"latitude":37.7966175,"longitude":-121.192329,"address":"1452 Hulsey Rd, Manteca CA","chain_name":null,"distance":0},{"name":"Edible Arrangements","code":null,"latitude":40.6118359,"longitude":-74.010738,"address":"1446 86th St, Brooklyn NY","chain_name":null,"distance":0},{"name":"Edible Arrangements","code":null,"latitude":40.6627896,"longitude":-74.1183711,"address":"14 East 22nd St, Bayonne NJ","chain_name":null,"distance":0},{"name":"Edible Arrangements","code":null,"latitude":44.9411976,"longitude":-92.9367778,"address":"8300 Tamarack Village Suite 108, Woodbury MN","chain_name":null,"distance":0},{"name":"Edible Arrangements","code":null,"latitude":40.709831,"longitude":-73.848466,"address":"104-16 Metropolitan Ave, Forest Hills NY","chain_name":null,"distance":0},{"name":"Edible Arrangements","code":null,"latitude":40.862191,"longitude":-74.754248,"address":"375 Route 46, Budd Lake NJ","chain_name":null,"distance":0},{"name":"Edible Arrangements","code":null,"latitude":44.4380781,"longitude":-88.0354379,"address":"569 Swan Rd, De Pere WI","chain_name":null,"distance":0},{"name":"Edible Arrangements","code":null,"latitude":35.6788681,"longitude":-105.9515707,"address":"825 Cerrillos Rd, Santa Fe NM","chain_name":null,"distance":0},{"name":"Edible Arrangements","code":null,"latitude":39.6893157,"longitude":-84.1686531,"address":"4015 Far Hills Ave, Dayton OH","chain_name":null,"distance":0},{"name":"Edible Arrangements","code":null,"latitude":38.6305305,"longitude":-90.1939478,"address":"418 N 10th St, Saint Louis MO","chain_name":null,"distance":0},{"name":"Edible Arrangements","code":null,"latitude":53.5425857,"longitude":-113.5010815,"address":"10179 105 St, Edmonton AB","chain_name":null,"distance":0},{"name":"Edible Arrangements","code":null,"latitude":32.82209,"longitude":-117.184205,"address":"4340 Genesee Ave, San Diego CA","chain_name":null,"distance":0},{"name":"Edible Arrangements","code":null,"latitude":35.01534,"longitude":-85.233202,"address":"4513 Brainerd Rd, Chattanooga TN","chain_name":null,"distance":0},{"name":"Edible Arrangements","code":null,"latitude":39.903333,"longitude":-74.971289,"address":"1871 Route 70 East, Cherry Hill NJ","chain_name":null,"distance":0},{"name":"Edible Arrangements","code":null,"latitude":37.33371,"longitude":-89.574007,"address":"1750 North KingsHwy, Cape Girardeau MO","chain_name":null,"distance":0},{"name":"Edible Arrangements","code":null,"latitude":41.6823989,"longitude":-72.6573764,"address":"Town Line Plaza, Rocky Hill CT","chain_name":null,"distance":0},{"name":"Edible Arrangements","code":null,"latitude":40.3888451,"longitude":-75.9935719,"address":"2731 Bernville Rd, Leesport PA","chain_name":null,"distance":0},{"name":"Edible Arrangements","code":null,"latitude":40.1508934,"longitude":-105.0967669,"address":"205 Ken Pratt Blvd, Longmont CO","chain_name":null,"distance":0},{"name":"Edible Arrangements","code":null,"latitude":35.8681377,"longitude":-84.0907246,"address":"Market Place Shopping Center, Knoxville TN","chain_name":null,"distance":0},{"name":"Edible Arrangements","code":null,"latitude":35.319499,"longitude":-80.952736,"address":"2910 Mount Holly Huntersville Rd, Charlotte NC","chain_name":null,"distance":0},{"name":"Edible Arrangements","code":null,"latitude":42.0909486,"longitude":-71.0491261,"address":"98 Westgate Dr, Brockton MA","chain_name":null,"distance":0},{"name":"Edible Arrangements","code":null,"latitude":41.4322985,"longitude":-74.4224102,"address":"125 Dolson Ave, Middletown NY","chain_name":null,"distance":0},{"name":"Edible Arrangements","code":null,"latitude":40.511412,"longitude":-79.669151,"address":"Walnut Hollow Plaza, Murrysville PA","chain_name":null,"distance":0},{"name":"Edible Arrangements","code":null,"latitude":38.7509488,"longitude":-77.4752667,"address":"Signal Hill Shopping Center, Manassas VA","chain_name":null,"distance":0},{"name":"Edible Arrangements","code":null,"latitude":36.7682885,"longitude":-76.2488649,"address":"1437 Sams Dr., Chesapeake VA","chain_name":null,"distance":0},{"name":"Edible Arrangements","code":null,"latitude":37.235572,"longitude":-79.97026,"address":"Townside Festival Shopping Center, Roanoke VA","chain_name":null,"distance":0},{"name":"Edible Arrangements","code":null,"latitude":34.1913169,"longitude":-84.1287446,"address":"2315 Marketplace Blvd, Cumming GA","chain_name":null,"distance":0},{"name":"Edible Arrangements","code":null,"latitude":33.518614,"longitude":-101.869809,"address":"8215 University Ave, Lubbock TX","chain_name":null,"distance":0},{"name":"Edible Arrangements","code":null,"latitude":43.1836915,"longitude":-76.0408635,"address":"Cicero Commons, Cicero NY","chain_name":null,"distance":0},{"name":"Edible Arrangements","code":null,"latitude":42.3290607,"longitude":-83.0359983,"address":"100 Renaissance Ctr, Detroit MI","chain_name":null,"distance":0},{"name":"Edible Arrangements","code":null,"latitude":42.339691,"longitude":-72.607033,"address":"Hadley Barn Shops, Hadley MA","chain_name":null,"distance":0},{"name":"Edible Arrangements","code":null,"latitude":39.272766,"longitude":-76.73318,"address":"734 Frederick Rd, Catonsville MD","chain_name":null,"distance":0},{"name":"Edible Arrangements","code":null,"latitude":32.757305,"longitude":-97.1413222,"address":"Fielder North Plaza Shopping Center, Arlington TX","chain_name":null,"distance":0},{"name":"Edible Arrangements","code":null,"latitude":28.126943,"longitude":-80.673655,"address":"1270 N Wickham Rd #7, Melbourne FL","chain_name":null,"distance":0},{"name":"Edible Arrangements","code":null,"latitude":41.5109188,"longitude":-72.8072631,"address":"425 S BRd St, Meriden CT","chain_name":null,"distance":0},{"name":"Edible Arrangements","code":null,"latitude":40.7247068,"longitude":-73.6366686,"address":"112 Seventh St, Garden City NY","chain_name":null,"distance":0},{"name":"Edible Arrangements","code":null,"latitude":42.5116238,"longitude":-70.9920523,"address":"919 Lynnfield St, Lynn MA","chain_name":null,"distance":0},{"name":"Edible Arrangements","code":null,"latitude":40.0735155,"longitude":-75.1312626,"address":"Yorktown Plaza - Route 611, Elkins Park PA","chain_name":null,"distance":0},{"name":"Edible Arrangements","code":null,"latitude":43.210683,"longitude":-79.8894184,"address":"1400 Upper James, Hamilton ON","chain_name":null,"distance":0},{"name":"Edible Arrangements","code":null,"latitude":37.8928875,"longitude":-122.0597901,"address":"1544 Newell Ave, Walnut Creek CA","chain_name":null,"distance":0},{"name":"Edible Arrangements","code":null,"latitude":41.7165144,"longitude":-73.9242251,"address":"10 IBM Rd Plaza, Poughkeepsie NY","chain_name":null,"distance":0},{"name":"Edible Arrangements","code":null,"latitude":35.2025653,"longitude":-89.7934253,"address":"2836 Wolfcreek Pkwy, Memphis TN","chain_name":null,"distance":0},{"name":"Edible Arrangements","code":null,"latitude":38.808501,"longitude":-90.2985985,"address":"14035 New Halls Ferry Rd, Florissant MO","chain_name":null,"distance":0},{"name":"Edible Arrangements","code":null,"latitude":40.2533758,"longitude":-74.2814086,"address":"Barclay Square, Freehold NJ","chain_name":null,"distance":0},{"name":"Edible Arrangements","code":null,"latitude":37.7377631,"longitude":-122.4694132,"address":"312 W Portal St, San Francisco CA","chain_name":null,"distance":0},{"name":"Edible Arrangements","code":null,"latitude":40.6166506,"longitude":-73.9713232,"address":"402 Ave M, Brooklyn NY","chain_name":null,"distance":0},{"name":"Edible Arrangements","code":null,"latitude":42.948961,"longitude":-85.570319,"address":"3989 Cascade Rd SE, Grand Rapids MI","chain_name":null,"distance":0},{"name":"Edible Arrangements","code":null,"latitude":38.7872317,"longitude":-89.9815265,"address":"1001 Century Dr, Edwardsville IL","chain_name":null,"distance":0},{"name":"Edible Arrangements","code":null,"latitude":41.756522,"longitude":-72.7272279,"address":"282 Park Rd, West Hartford CT","chain_name":null,"distance":0},{"name":"Edible Arrangements","code":null,"latitude":33.8886189,"longitude":-117.8089614,"address":"18617 Yorba Linda Blvd, Yorba Linda CA","chain_name":null,"distance":0},{"name":"Edible Arrangements","code":null,"latitude":32.5603946,"longitude":-84.9122903,"address":"The Landings, Columbus GA","chain_name":null,"distance":0},{"name":"Edible Arrangements","code":null,"latitude":29.577148,"longitude":-95.15757,"address":"13914 State Hwy 3, Webster TX","chain_name":null,"distance":0},{"name":"Edible Arrangements","code":null,"latitude":41.5645955,"longitude":-87.5339781,"address":"3422 Ridge Rd, Lansing IL","chain_name":null,"distance":0},{"name":"Edible Arrangements","code":null,"latitude":36.8497633,"longitude":-119.7296084,"address":"1215 North Willow Ave, Clovis CA","chain_name":null,"distance":0},{"name":"Edible Arrangements","code":null,"latitude":40.6721115,"longitude":-73.5092992,"address":"3253 Sunrise Hwy, Wantagh NY","chain_name":null,"distance":0},{"name":"Edible Arrangements","code":null,"latitude":38.4191486,"longitude":-81.7732912,"address":"1500 Plaza, Vienna WV","chain_name":null,"distance":0},{"name":"Edible Arrangements","code":null,"latitude":36.770708,"longitude":-76.58615,"address":"1024 Centerbrooke Lane Unit I, Suffolk VA","chain_name":null,"distance":0},{"name":"Edible Arrangements","code":null,"latitude":41.1475937,"longitude":-73.4263366,"address":"456 Main Ave, Norwalk CT","chain_name":null,"distance":0},{"name":"Edible Arrangements","code":null,"latitude":43.3377532,"longitude":-79.7856132,"address":"2440 New Street, Burlington ON","chain_name":null,"distance":0},{"name":"Edible Arrangements","code":null,"latitude":33.7772506,"longitude":-117.9152361,"address":"12781 Harbor Blvd, Garden Grove CA","chain_name":null,"distance":0},{"name":"Edible Arrangements","code":null,"latitude":34.201962,"longitude":-118.448301,"address":"7222 Van Nuys Blvd, Van Nuys CA","chain_name":null,"distance":0},{"name":"Edible Arrangements","code":null,"latitude":29.6892824,"longitude":-95.4634644,"address":"4850 Beechnut, Houston TX","chain_name":null,"distance":0},{"name":"Edible Arrangements","code":null,"latitude":43.5161328,"longitude":-80.2386327,"address":"292 Stone Road West, Guelph ON","chain_name":null,"distance":0},{"name":"Edible Arrangements","code":null,"latitude":29.5595383,"longitude":-95.3455631,"address":"8201 Broadway, Pearland TX","chain_name":null,"distance":0},{"name":"Edible Arrangements","code":null,"latitude":29.9855438,"longitude":-95.5025853,"address":"4765 FM 1960 West, Suite E, Houston TX","chain_name":null,"distance":0},{"name":"Edible Arrangements","code":null,"latitude":38.475819,"longitude":-77.414901,"address":"70 Doc Stone Rd, Stafford VA","chain_name":null,"distance":0},{"name":"Edible Arrangements","code":null,"latitude":32.7815526,"longitude":-96.8049257,"address":"407 N Lamar Street Suite 180, Dallas TX","chain_name":null,"distance":0},{"name":"Edible Arrangements","code":null,"latitude":40.8893831,"longitude":-74.0398931,"address":"350 Main St, Hackensack NJ","chain_name":null,"distance":0},{"name":"Edible Arrangements","code":null,"latitude":36.5909009,"longitude":-87.2914932,"address":"2872 Wilma Rudolph Blvd., Clarksville TN","chain_name":null,"distance":0},{"name":"Edible Arrangements","code":null,"latitude":40.0110953,"longitude":-82.867142,"address":"330B S Hamilton Rd, Columbus OH","chain_name":null,"distance":0},{"name":"Edible Arrangements","code":null,"latitude":40.2575016,"longitude":-75.3103245,"address":"2333 Welsh Rd, Lansdale PA","chain_name":null,"distance":0},{"name":"Edible Arrangements","code":null,"latitude":40.4737323,"longitude":-88.9602236,"address":"2205 E Oakland Ave, Bloomington IL","chain_name":null,"distance":0},{"name":"Edible Arrangements","code":null,"latitude":39.9567266,"longitude":-86.0192746,"address":"8395 East 116th St, Fishers IN","chain_name":null,"distance":0},{"name":"Edible Arrangements","code":null,"latitude":41.8868951,"longitude":-87.7844209,"address":"327 South Blvd, Oak Park IL","chain_name":null,"distance":0},{"name":"Edible Arrangements","code":null,"latitude":33.7972391,"longitude":-84.0273168,"address":"3425 Centerville Hwy SW (Hwy 124), Snellville GA","chain_name":null,"distance":0},{"name":"Edible Arrangements","code":null,"latitude":39.6357839,"longitude":-86.0849938,"address":"997 E County Line Rd, Greenwood IN","chain_name":null,"distance":0},{"name":"Edible Arrangements","code":null,"latitude":49.1607467,"longitude":-122.6678125,"address":"110-8700-200 Street, Langley BC","chain_name":null,"distance":0},{"name":"Edible Arrangements","code":null,"latitude":33.849747,"longitude":-118.3535998,"address":"20034 Hawthorne Blvd, Torrance CA","chain_name":null,"distance":0},{"name":"Edible Arrangements","code":null,"latitude":39.2827132,"longitude":-76.5059205,"address":"1135 Merritt Boulevard, Dundalk MD","chain_name":null,"distance":0},{"name":"Edible Arrangements","code":null,"latitude":43.828861,"longitude":-79.540981,"address":"3255 Rutherford RoadBuilding H, Vaughan ON","chain_name":null,"distance":0},{"name":"Edible Arrangements","code":null,"latitude":36.1147022,"longitude":-95.9754959,"address":"3311 South Peoria Ave, Tulsa OK","chain_name":null,"distance":0},{"name":"Edible Arrangements","code":null,"latitude":40.5572781,"longitude":-74.2762328,"address":"462 Rahway Ave, Woodbridge NJ","chain_name":null,"distance":0},{"name":"Edible Arrangements","code":null,"latitude":34.09936,"longitude":-118.090487,"address":"288 S San Gabriel Blvd, San Gabriel CA","chain_name":null,"distance":0},{"name":"Edible Arrangements","code":null,"latitude":38.850564,"longitude":-77.334088,"address":"11217-A Lee Hwy, Fairfax VA","chain_name":null,"distance":0},{"name":"Edible Arrangements","code":null,"latitude":38.8814805,"longitude":-77.1076805,"address":"911 N Quincy St, Arlington VA","chain_name":null,"distance":0},{"name":"Edible Arrangements","code":null,"latitude":41.659871,"longitude":-80.447739,"address":"6632 US Hwy 6, Portage IN","chain_name":null,"distance":0},{"name":"Edible Arrangements","code":null,"latitude":34.9647459,"longitude":-89.9871818,"address":"7075 Malco Blvd, Southaven MS","chain_name":null,"distance":0},{"name":"Edible Arrangements","code":null,"latitude":41.8664384,"longitude":-87.623928,"address":"1239 S Michigan Ave, Chicago IL","chain_name":null,"distance":0},{"name":"Edible Arrangements","code":null,"latitude":42.5030461,"longitude":-83.1980089,"address":"3766 West 12 Mile Rd, Berkley MI","chain_name":null,"distance":0},{"name":"Edible Arrangements","code":null,"latitude":40.6224539,"longitude":-75.3797153,"address":"34 West BRd St, Bethlehem PA","chain_name":null,"distance":0},{"name":"Edible Arrangements","code":null,"latitude":42.0281702,"longitude":-88.061444,"address":"728 East Schaumburg Rd, Schaumburg IL","chain_name":null,"distance":0},{"name":"Edible Arrangements","code":null,"latitude":34.24371,"longitude":-118.537137,"address":"9545 Reseda Blvd, Northridge CA","chain_name":null,"distance":0},{"name":"Edible Arrangements","code":null,"latitude":37.8053436,"longitude":-122.4157299,"address":"515 Bay Street, San Francisco CA","chain_name":null,"distance":0},{"name":"Edible Arrangements","code":null,"latitude":33.4950734,"longitude":-112.0202286,"address":"2824 East Indian School Rd, Phoenix AZ","chain_name":null,"distance":0},{"name":"Edible Arrangements","code":null,"latitude":40.985009,"longitude":-74.139352,"address":"85 Godwin Ave, Midland Park NJ","chain_name":null,"distance":0},{"name":"Edible Arrangements","code":null,"latitude":41.675629,"longitude":-83.704416,"address":"6710 W Central Ave #6, Toledo OH","chain_name":null,"distance":0},{"name":"Edible Arrangements","code":null,"latitude":38.9500481,"longitude":-77.1193794,"address":"4611 N Sangamore Rd, Bethesda MD","chain_name":null,"distance":0},{"name":"Edible Arrangements","code":null,"latitude":33.692912,"longitude":-84.087464,"address":"8200 Mall Pkwy, Lithonia GA","chain_name":null,"distance":0},{"name":"Edible Arrangements","code":null,"latitude":28.0763,"longitude":-82.50789,"address":"14308 N Dale Mabry Hwy, Tampa FL","chain_name":null,"distance":0},{"name":"Edible Arrangements","code":null,"latitude":38.424859,"longitude":-78.8413659,"address":"2035 - 83 E Market St, Harrisonburg VA","chain_name":null,"distance":0},{"name":"Edible Arrangements","code":null,"latitude":26.605046,"longitude":-81.977526,"address":"2522 Santa Barbara Blvd, Cape Coral FL","chain_name":null,"distance":0},{"name":"Edible Arrangements","code":null,"latitude":49.8583941,"longitude":-97.1509502,"address":"756 Pembina HighwayUnit 1B, Winnipeg MB","chain_name":null,"distance":0},{"name":"Edible Arrangements","code":null,"latitude":37.6769604,"longitude":-121.897686,"address":"3015 Hopyard Rd, Pleasanton CA","chain_name":null,"distance":0},{"name":"Edible Arrangements","code":null,"latitude":40.4950162,"longitude":-74.8557865,"address":"20 Commerce St, Flemington NJ","chain_name":null,"distance":0},{"name":"Edible Arrangements","code":null,"latitude":33.1350913,"longitude":-117.1194823,"address":"740 Nordahl Road, San Marcos CA","chain_name":null,"distance":0},{"name":"Edible Arrangements","code":null,"latitude":28.392678,"longitude":-80.609809,"address":"8501 Astronaut Blvd, Cape Canaveral FL","chain_name":null,"distance":0},{"name":"Edible Arrangements","code":null,"latitude":40.9106657,"longitude":-73.8825865,"address":"471 McLean Ave, Yonkers NY","chain_name":null,"distance":0},{"name":"Edible Arrangements","code":null,"latitude":40.5851116,"longitude":-73.9515026,"address":"1736 Sheepshead Bay Rd, Brooklyn NY","chain_name":null,"distance":0},{"name":"Edible Arrangements","code":null,"latitude":38.917232,"longitude":-77.239839,"address":"105B Maple Ave West, Vienna VA","chain_name":null,"distance":0},{"name":"Edible Arrangements","code":null,"latitude":30.1734326,"longitude":-91.999789,"address":"Pinhook Village, Lafayette LA","chain_name":null,"distance":0},{"name":"Edible Arrangements","code":null,"latitude":50.4459472,"longitude":-104.5433376,"address":"2725 E Quance Street, Regina SK","chain_name":null,"distance":0},{"name":"Edible Arrangements","code":null,"latitude":41.2744274,"longitude":-72.551618,"address":"1347 Boston Post Rd, Madison CT","chain_name":null,"distance":0},{"name":"Edible Arrangements","code":null,"latitude":41.0027245,"longitude":-74.2912536,"address":"280 Wanaque Ave, Pompton Lakes NJ","chain_name":null,"distance":0},{"name":"Edible Arrangements","code":null,"latitude":40.1063691,"longitude":-88.2412504,"address":"Marketview Shopping Center, Champaign IL","chain_name":null,"distance":0},{"name":"Edible Arrangements","code":null,"latitude":41.0532076,"longitude":-73.5408129,"address":"300 Main St, Stamford CT","chain_name":null,"distance":0},{"name":"Edible Arrangements","code":null,"latitude":40.1513889,"longitude":-74.9852778,"address":"Stockade Plaza, Feasterville Trevose PA","chain_name":null,"distance":0},{"name":"Edible Arrangements","code":null,"latitude":38.3019712,"longitude":-85.5447226,"address":"11314 Maple Brook Dr, Louisville KY","chain_name":null,"distance":0},{"name":"Edible Arrangements","code":null,"latitude":38.8854782,"longitude":-94.6679193,"address":"13412 Metcalf Ave, Overland Park KS","chain_name":null,"distance":0},{"name":"Edible Arrangements","code":null,"latitude":39.6984928,"longitude":-74.2741568,"address":"McKinley Plaza, Manahawkin NJ","chain_name":null,"distance":0},{"name":"Edible Arrangements","code":null,"latitude":42.2825841,"longitude":-83.7486168,"address":"205 North Main St, Ann Arbor MI","chain_name":null,"distance":0},{"name":"Edible Arrangements","code":null,"latitude":40.0350089,"longitude":-75.2167019,"address":"6153 Ridge Av, Philadelphia PA","chain_name":null,"distance":0},{"name":"Edible Arrangements","code":null,"latitude":33.13012,"longitude":-96.642863,"address":"431 East Stacy Rd, Mckinney TX","chain_name":null,"distance":0},{"name":"Edible Arrangements","code":null,"latitude":41.200862,"longitude":-73.726576,"address":"217 Main St, Mount Kisco NY","chain_name":null,"distance":0},{"name":"Edible Arrangements","code":null,"latitude":32.638185,"longitude":-117.079062,"address":"380 3rd Avenue Suite E, Chula Vista CA","chain_name":null,"distance":0},{"name":"Edible Arrangements","code":null,"latitude":43.5095224,"longitude":-79.6315874,"address":"2087 Royal Windsor Drive, Mississauga ON","chain_name":null,"distance":0},{"name":"Edible Arrangements","code":null,"latitude":41.489807,"longitude":-71.315899,"address":"14 Long Wharf Mall, Newport RI","chain_name":null,"distance":0},{"name":"Edible Arrangements","code":null,"latitude":45.5209034,"longitude":-73.5762443,"address":"4068 rue Saint - Denis, Montreal QC","chain_name":null,"distance":0},{"name":"Edible Arrangements","code":null,"latitude":34.0966764,"longitude":-117.7197785,"address":"The Packing House, Claremont CA","chain_name":null,"distance":0},{"name":"Edible Arrangements","code":null,"latitude":34.0574632,"longitude":-118.4430562,"address":"1265 Westwood Blvd, Los Angeles CA","chain_name":null,"distance":0},{"name":"Edible Arrangements","code":null,"latitude":40.8417408,"longitude":-74.1007427,"address":"326 Garden St, Carlstadt NJ","chain_name":null,"distance":0},{"name":"Edible Arrangements","code":null,"latitude":34.1303456,"longitude":-80.8754961,"address":"110-5 Forum Dr, Columbia SC","chain_name":null,"distance":0},{"name":"Edible Arrangements","code":null,"latitude":45.9392709,"longitude":-66.6577265,"address":"1111 Regent Street, Fredericton NB","chain_name":null,"distance":0},{"name":"Edible Arrangements","code":null,"latitude":40.1954413,"longitude":-75.5319314,"address":"325 10th Ave, Royersford PA","chain_name":null,"distance":0},{"name":"Edible Arrangements","code":null,"latitude":42.4480873,"longitude":-82.9054582,"address":"21016 Mack Ave, Grosse Pointe MI","chain_name":null,"distance":0},{"name":"Edible Arrangements","code":null,"latitude":40.7951614,"longitude":-73.9715526,"address":"2571 Broadway, New York City NY","chain_name":null,"distance":0},{"name":"Edible Arrangements","code":null,"latitude":26.1331316,"longitude":-80.1145899,"address":"Gateway Shoppes, Fort Lauderdale FL","chain_name":null,"distance":0},{"name":"Edible Arrangements","code":null,"latitude":41.501708,"longitude":-74.0350308,"address":"606 BRdway, Newburgh NY","chain_name":null,"distance":0},{"name":"Edible Arrangements","code":null,"latitude":37.351564,"longitude":-121.895798,"address":"201 East Taylor St, San Jose CA","chain_name":null,"distance":0},{"name":"Edible Arrangements","code":null,"latitude":29.756131,"longitude":-95.624715,"address":"1531 Eldridge Pkwy, Houston TX","chain_name":null,"distance":0},{"name":"Edible Arrangements","code":null,"latitude":42.7362812,"longitude":-84.5073452,"address":"300 N Clippert Street, Suite 11, Lansing MI","chain_name":null,"distance":0},{"name":"Edible Arrangements","code":null,"latitude":34.746451,"longitude":-92.401218,"address":"11401 Financial Centre Pkwy, Little Rock AR","chain_name":null,"distance":0},{"name":"Edible Arrangements","code":null,"latitude":35.3683745,"longitude":-119.1108249,"address":"1120 Calloway Dr, Bakersfield CA","chain_name":null,"distance":0},{"name":"Edible Arrangements","code":null,"latitude":38.6185158,"longitude":-121.3696743,"address":"Town & Country Village, Sacramento CA","chain_name":null,"distance":0},{"name":"Edible Arrangements","code":null,"latitude":30.0115419,"longitude":-95.180029,"address":"20669 West Lake Houston Pkwy, Humble TX","chain_name":null,"distance":0},{"name":"Edible Arrangements","code":null,"latitude":28.8998594,"longitude":-82.4450733,"address":"420 West Norvell Bryant HWY, Hernando FL","chain_name":null,"distance":0},{"name":"Edible Arrangements","code":null,"latitude":42.5378177,"longitude":-83.4368392,"address":"6167 Haggerty Rd, West Bloomfield MI","chain_name":null,"distance":0},{"name":"Edible Arrangements","code":null,"latitude":34.1502649,"longitude":-118.3879985,"address":"11702 Moorpark St, Studio City CA","chain_name":null,"distance":0},{"name":"Edible Arrangements","code":null,"latitude":32.676155,"longitude":-97.400252,"address":"4825 Overton Ridge Blvd, Fort Worth TX","chain_name":null,"distance":0},{"name":"Edible Arrangements","code":null,"latitude":39.0817119,"longitude":-76.5546031,"address":"1st Mariner Bank Square, Severna Park MD","chain_name":null,"distance":0},{"name":"Edible Arrangements","code":null,"latitude":38.8826654,"longitude":-76.997427,"address":"Capitol Hill, Washington DC","chain_name":null,"distance":0},{"name":"Edible Arrangements","code":null,"latitude":34.2204709,"longitude":-119.0506731,"address":"385 Carmen Dr, Camarillo CA","chain_name":null,"distance":0},{"name":"Edible Arrangements","code":null,"latitude":35.6241803,"longitude":-97.486343,"address":"3209 S BRdway, Edmond OK","chain_name":null,"distance":0},{"name":"Edible Arrangements","code":null,"latitude":45.4166823,"longitude":-75.6975118,"address":"240 Bank St, Ottawa ON","chain_name":null,"distance":0},{"name":"Edible Arrangements","code":null,"latitude":33.8711146,"longitude":-117.5394512,"address":"1150 El Camino Ave, Corona CA","chain_name":null,"distance":0},{"name":"Edible Arrangements","code":null,"latitude":40.9135303,"longitude":-73.8373017,"address":"138-Left Gramatan Ave, Mount Vernon NY","chain_name":null,"distance":0},{"name":"Edible Arrangements","code":null,"latitude":41.2754208,"longitude":-72.8298779,"address":"1060 West Main St, Branford CT","chain_name":null,"distance":0},{"name":"Edible Arrangements","code":null,"latitude":41.7922661,"longitude":-87.7888762,"address":"6656 W Archer Ave, Chicago IL","chain_name":null,"distance":0},{"name":"Edible Arrangements","code":null,"latitude":34.1510045,"longitude":-118.0273553,"address":"128 E Foothill Blvd, Arcadia CA","chain_name":null,"distance":0},{"name":"Edible Arrangements","code":null,"latitude":40.7935724,"longitude":-74.0127872,"address":"6610 Bergenline Ave, West New York NJ","chain_name":null,"distance":0},{"name":"Edible Arrangements","code":null,"latitude":40.69847,"longitude":-73.323134,"address":"10 Grove Place, Babylon NY","chain_name":null,"distance":0},{"name":"Edible Arrangements","code":null,"latitude":33.0493542,"longitude":-117.2601356,"address":"204 N El Camino Real, Encinitas CA","chain_name":null,"distance":0},{"name":"Edible Arrangements","code":null,"latitude":40.1445606,"longitude":-82.9761905,"address":"8743 Lyra Dr, Columbus OH","chain_name":null,"distance":0},{"name":"Edible Arrangements","code":null,"latitude":40.8405519,"longitude":-74.2770848,"address":"359A Bloomfield Ave, Caldwell NJ","chain_name":null,"distance":0},{"name":"Edible Arrangements","code":null,"latitude":26.2493116,"longitude":-98.2222316,"address":"5113-A North 10th St, Mcallen TX","chain_name":null,"distance":0},{"name":"Edible Arrangements","code":null,"latitude":40.41483,"longitude":-74.2295891,"address":"Stop & Shop Plaza, Matawan NJ","chain_name":null,"distance":0},{"name":"Edible Arrangements","code":null,"latitude":41.738164,"longitude":-73.90294,"address":"3900 Cheney Dr, Arlington TX","chain_name":null,"distance":0},{"name":"Edible Arrangements","code":null,"latitude":38.549879,"longitude":-90.405838,"address":"3802 S Lindbergh, Saint Louis MO","chain_name":null,"distance":0},{"name":"Edible Arrangements","code":null,"latitude":33.4986981,"longitude":-111.9175518,"address":"4320 N Miller Rd, Scottsdale AZ","chain_name":null,"distance":0},{"name":"Edible Arrangements","code":null,"latitude":41.818283,"longitude":-71.420741,"address":"755 Westminster St, Providence RI","chain_name":null,"distance":0},{"name":"Edible Arrangements","code":null,"latitude":42.2033843,"longitude":-71.8359518,"address":"385 Southbridge Street, Auburn MA","chain_name":null,"distance":0},{"name":"Edible Arrangements","code":null,"latitude":33.4796263,"longitude":-86.7907285,"address":"1830 29th Ave S, Homewood AL","chain_name":null,"distance":0},{"name":"Edible Arrangements","code":null,"latitude":33.5058006,"longitude":-117.1498951,"address":"27548 Ynez Rd, Temecula CA","chain_name":null,"distance":0},{"name":"Edible Arrangements","code":null,"latitude":41.4853536,"longitude":-81.7936341,"address":"14239 Detroit Ave, Lakewood OH","chain_name":null,"distance":0},{"name":"Edible Arrangements","code":null,"latitude":34.020679,"longitude":-84.272466,"address":"3005 Old Alabama Rd, Alpharetta GA","chain_name":null,"distance":0},{"name":"Edible Arrangements","code":null,"latitude":35.88194,"longitude":-79.065986,"address":"410 Market St, Chapel Hill NC","chain_name":null,"distance":0},{"name":"Edible Arrangements","code":null,"latitude":39.3504889,"longitude":-77.0685911,"address":"703 Lisbon Center Drive, Woodbine MD","chain_name":null,"distance":0},{"name":"Edible Arrangements","code":null,"latitude":40.4479499,"longitude":-80.1555528,"address":"6506 Steubenville Pike, Pittsburgh PA","chain_name":null,"distance":0},{"name":"Edible Arrangements","code":null,"latitude":41.7677047,"longitude":-72.6749706,"address":"93 Pratt St, Hartford CT","chain_name":null,"distance":0},{"name":"Edible Arrangements","code":null,"latitude":41.6884632,"longitude":-70.2100311,"address":"23 Whites Path, South Yarmouth MA","chain_name":null,"distance":0},{"name":"Edible Arrangements","code":null,"latitude":37.532761,"longitude":-121.9586726,"address":"3980 Washington Boulevard, Fremont CA","chain_name":null,"distance":0},{"name":"Edible Arrangements","code":null,"latitude":37.1047439,"longitude":-76.508414,"address":"340 Oyster Point Rd, Newport News VA","chain_name":null,"distance":0},{"name":"Edible Arrangements","code":null,"latitude":42.2798149,"longitude":-71.4032998,"address":"119 Waverly St, Framingham MA","chain_name":null,"distance":0},{"name":"Edible Arrangements","code":null,"latitude":50.914829,"longitude":-113.961164,"address":"McKenzie Town Centre, Calgary AB","chain_name":null,"distance":0},{"name":"Edible Arrangements","code":null,"latitude":29.7624458,"longitude":-95.3604435,"address":"225 Main St, Houston TX","chain_name":null,"distance":0},{"name":"Edible Arrangements","code":null,"latitude":39.539052,"longitude":-104.768299,"address":"9700 South Parker Rd, Parker CO","chain_name":null,"distance":0},{"name":"Edible Arrangements","code":null,"latitude":42.2684538,"longitude":-83.0019135,"address":"3395 Howard Ave, Windsor ON","chain_name":null,"distance":0},{"name":"Edible Arrangements","code":null,"latitude":34.1065275,"longitude":-117.6019171,"address":"9359 Foothill Blvd, Rancho Cucamonga CA","chain_name":null,"distance":0},{"name":"Edible Arrangements","code":null,"latitude":42.3702382,"longitude":-71.2369342,"address":"350-B Moody St, Waltham MA","chain_name":null,"distance":0},{"name":"Edible Arrangements","code":null,"latitude":49.334168,"longitude":-123.1796966,"address":"2412 Marine Drive, West Vancouver BC","chain_name":null,"distance":0},{"name":"Edible Arrangements","code":null,"latitude":27.0891447,"longitude":-80.2754766,"address":"Wedgewood Commons, Stuart FL","chain_name":null,"distance":0},{"name":"Edible Arrangements","code":null,"latitude":36.1523805,"longitude":-86.7893889,"address":"Elliston Point Shopping Center, Nashville TN","chain_name":null,"distance":0},{"name":"Edible Arrangements","code":null,"latitude":40.542808,"longitude":-74.206508,"address":"655 Rossville Ave, Staten Island NY","chain_name":null,"distance":0},{"name":"Edible Arrangements","code":null,"latitude":40.7741159,"longitude":-73.1987399,"address":"28 North Research Place, Central Islip NY","chain_name":null,"distance":0},{"name":"Edible Arrangements","code":null,"latitude":33.6211057,"longitude":-111.8991852,"address":"14870 N Northsight Blvd, Scottsdale AZ","chain_name":null,"distance":0},{"name":"Edible Arrangements","code":null,"latitude":33.8032138,"longitude":-117.8356629,"address":"970 N Tustin Ave, Orange CA","chain_name":null,"distance":0},{"name":"Edible Arrangements","code":null,"latitude":33.5109132,"longitude":-81.7150336,"address":"220 E Gate Dr, Aiken SC","chain_name":null,"distance":0},{"name":"Edible Arrangements","code":null,"latitude":42.0861102,"longitude":-76.051804,"address":"140 Vestal Pkwy E, Vestal NY","chain_name":null,"distance":0},{"name":"Edible Arrangements","code":null,"latitude":42.7536041,"longitude":-71.4617833,"address":"300 Main St, Nashua NH","chain_name":null,"distance":0},{"name":"Edible Arrangements","code":null,"latitude":30.3065729,"longitude":-81.7294702,"address":"The Shoppes of Avondale, Jacksonville FL","chain_name":null,"distance":0},{"name":"Edible Arrangements","code":null,"latitude":38.617207,"longitude":-90.538216,"address":"Baxter Center, Chesterfield MO","chain_name":null,"distance":0},{"name":"Edible Arrangements","code":null,"latitude":40.0825,"longitude":-74.266008,"address":"21 S Hope Chapel Rd, Jackson NJ","chain_name":null,"distance":0},{"name":"Edible Arrangements","code":null,"latitude":43.4948081,"longitude":-96.7475152,"address":"5019 S Western Ave, Sioux Falls SD","chain_name":null,"distance":0},{"name":"Edible Arrangements","code":null,"latitude":33.0352666,"longitude":-97.0704492,"address":"3634 Long Prairie Rd, Flower Mound TX","chain_name":null,"distance":0},{"name":"Edible Arrangements","code":null,"latitude":48.4153294,"longitude":-123.3671972,"address":"G105, 2401 Millstream Road, Victoria, BC V9B-3R5, Victoria BC","chain_name":null,"distance":0},{"name":"Edible Arrangements","code":null,"latitude":42.2459327,"longitude":-71.007826,"address":"Quincy Center, Quincy MA","chain_name":null,"distance":0},{"name":"Edible Arrangements","code":null,"latitude":41.9093803,"longitude":-71.363856,"address":"679 Washington St, South Attleboro MA","chain_name":null,"distance":0},{"name":"Edible Arrangements","code":null,"latitude":39.8770931,"longitude":-75.5506831,"address":"116 Painters Crossing, West Chester PA","chain_name":null,"distance":0},{"name":"Edible Arrangements","code":null,"latitude":41.7141321,"longitude":-72.2250149,"address":"1197 Main St, Willimantic CT","chain_name":null,"distance":0},{"name":"Edible Arrangements","code":null,"latitude":25.438579,"longitude":-80.488932,"address":"Golden Plaza, Florida City FL","chain_name":null,"distance":0},{"name":"Edible Arrangements","code":null,"latitude":30.4343715,"longitude":-86.6032078,"address":"Mariner Plaza230 Eglin Pkwy NE, Fort Walton Beach FL","chain_name":null,"distance":0},{"name":"Edible Arrangements","code":null,"latitude":29.4461593,"longitude":-98.535279,"address":"Ste 104 (1604@Culebra Rd), San Antonio TX","chain_name":null,"distance":0},{"name":"Edible Arrangements","code":null,"latitude":39.760569,"longitude":-84.057126,"address":"2495 Commons Blvd, Beavercreek OH","chain_name":null,"distance":0},{"name":"Edible Arrangements","code":null,"latitude":53.537413,"longitude":-113.31861,"address":"10 Main Boulevard, Sherwood Park AB","chain_name":null,"distance":0},{"name":"Edible Arrangements","code":null,"latitude":39.5237614,"longitude":-76.1839808,"address":"951 Beards Hill Rd, Aberdeen MD","chain_name":null,"distance":0},{"name":"Edible Arrangements","code":null,"latitude":42.326433,"longitude":-83.3001852,"address":"26430 Ford Rd, Dearborn Heights MI","chain_name":null,"distance":0},{"name":"Edible Arrangements","code":null,"latitude":41.8819102,"longitude":-88.3096781,"address":"312 Crescent Pl, Geneva IL","chain_name":null,"distance":0},{"name":"Edible Arrangements","code":null,"latitude":31.836829,"longitude":-106.552682,"address":"7040 North Mesa Suite E, El Paso TX","chain_name":null,"distance":0},{"name":"Edible Arrangements","code":null,"latitude":43.0687625,"longitude":-70.772663,"address":"800 Islington St, Portsmouth NH","chain_name":null,"distance":0},{"name":"Edible Arrangements","code":null,"latitude":37.2497984,"longitude":-77.3904178,"address":"798 South Park Blvd, Colonial Heights VA","chain_name":null,"distance":0},{"name":"Edible Arrangements","code":null,"latitude":41.5127465,"longitude":-72.1094507,"address":"77 Salem Tpke, Norwich CT","chain_name":null,"distance":0},{"name":"Edible Arrangements","code":null,"latitude":32.8964726,"longitude":-96.4719182,"address":"549 East I-30, Rockwall TX","chain_name":null,"distance":0},{"name":"Edible Arrangements","code":null,"latitude":28.7550185,"longitude":-81.3457668,"address":"3801 West Lake Mary Blvd, Lake Mary FL","chain_name":null,"distance":0},{"name":"Edible Arrangements","code":null,"latitude":43.9188037,"longitude":-78.9574341,"address":"20 Broadleaf Ave, Whitby ON","chain_name":null,"distance":0},{"name":"Edible Arrangements","code":null,"latitude":40.7165429,"longitude":-73.8079807,"address":"82-71 Parsons Blvd, Jamaica NY","chain_name":null,"distance":0},{"name":"Edible Arrangements","code":null,"latitude":41.2292398,"longitude":-73.0488089,"address":"211 Cherry St, Milford CT","chain_name":null,"distance":0},{"name":"Edible Arrangements","code":null,"latitude":30.6551017,"longitude":-87.8997055,"address":"6890 US Hwy 90, Daphne AL","chain_name":null,"distance":0},{"name":"Edible Arrangements","code":null,"latitude":34.1768024,"longitude":-118.1683448,"address":"La Cresta Plaza, La Crescenta CA","chain_name":null,"distance":0},{"name":"Edible Arrangements","code":null,"latitude":41.2332647,"longitude":-96.1795276,"address":"16950 Wright Plaza, Omaha NE","chain_name":null,"distance":0},{"name":"Edible Arrangements","code":null,"latitude":39.9141718,"longitude":-105.0222128,"address":"2821 W 120th Ave, Westminster CO","chain_name":null,"distance":0},{"name":"Edible Arrangements","code":null,"latitude":33.9358352,"longitude":-118.3315838,"address":"The Village at Century, Inglewood CA","chain_name":null,"distance":0},{"name":"Edible Arrangements","code":null,"latitude":30.083434,"longitude":-94.1421639,"address":"Phelon West Shop Center, Beaumont TX","chain_name":null,"distance":0},{"name":"Edible Arrangements","code":null,"latitude":40.656837,"longitude":-73.647349,"address":"9 North Village Ave, Rockville Centre NY","chain_name":null,"distance":0},{"name":"Edible Arrangements","code":null,"latitude":40.854689,"longitude":-73.855232,"address":"2021 Williamsbridge Rd, Bronx NY","chain_name":null,"distance":0},{"name":"Edible Arrangements","code":null,"latitude":32.3390928,"longitude":-95.2773839,"address":"Woodcreek Village, Tyler TX","chain_name":null,"distance":0},{"name":"Edible Arrangements","code":null,"latitude":41.3628977,"longitude":-72.1653076,"address":"Jordon Brook Plaza, Waterford CT","chain_name":null,"distance":0},{"name":"Edible Arrangements","code":null,"latitude":33.6554678,"longitude":-117.917141,"address":"2200 Harbor Blvd, Costa Mesa CA","chain_name":null,"distance":0},{"name":"Edible Arrangements","code":null,"latitude":41.974543,"longitude":-70.6850887,"address":"321 Court St, Plymouth MA","chain_name":null,"distance":0},{"name":"Edible Arrangements","code":null,"latitude":38.2518848,"longitude":-85.6606435,"address":"3701 Lexington Rd, Louisville KY","chain_name":null,"distance":0},{"name":"Edible Arrangements","code":null,"latitude":34.6901892,"longitude":-86.569401,"address":"5000 Whitesburg Dr S, Huntsville AL","chain_name":null,"distance":0},{"name":"Edible Arrangements","code":null,"latitude":42.0063391,"longitude":-72.5927463,"address":"636 Enfield St, Enfield CT","chain_name":null,"distance":0},{"name":"Edible Arrangements","code":null,"latitude":38.927708,"longitude":-92.363505,"address":"2200 Forum Blvd, Columbia MO","chain_name":null,"distance":0},{"name":"Edible Arrangements","code":null,"latitude":35.7975193,"longitude":-78.660142,"address":"1028 Oberlin Road, Raleigh NC","chain_name":null,"distance":0},{"name":"Edible Arrangements","code":null,"latitude":39.1819828,"longitude":-78.1678439,"address":"Apple Blossom Corners, Winchester VA","chain_name":null,"distance":0},{"name":"Edible Arrangements","code":null,"latitude":26.1894111,"longitude":-97.715771,"address":"1818 West Tyler Avenue, Harlingen TX","chain_name":null,"distance":0},{"name":"Edible Arrangements","code":null,"latitude":41.71212,"longitude":-70.49091,"address":"280 A Route 130, Sandwich MA","chain_name":null,"distance":0},{"name":"Edible Arrangements","code":null,"latitude":40.5022703,"longitude":-74.6447354,"address":"601 US Hwy 206, Hillsborough NJ","chain_name":null,"distance":0},{"name":"Edible Arrangements","code":null,"latitude":42.6818664,"longitude":-89.0255381,"address":"119 W Milwaukee St, Janesville WI","chain_name":null,"distance":0},{"name":"Edible Arrangements","code":null,"latitude":36.320295,"longitude":-86.596386,"address":"200 N Anderson Ln, Hendersonville TN","chain_name":null,"distance":0},{"name":"Edible Arrangements","code":null,"latitude":32.9484436,"longitude":-96.8380757,"address":"14446 Midway Rd, Dallas TX","chain_name":null,"distance":0},{"name":"Edible Arrangements","code":null,"latitude":37.4196136,"longitude":-77.6325061,"address":"4676 Commonwealth Centre Pkwy, Midlothian VA","chain_name":null,"distance":0},{"name":"Edible Arrangements","code":null,"latitude":35.8746364,"longitude":-78.6230595,"address":"6675 Falls of Neuse Rd, Raleigh NC","chain_name":null,"distance":0},{"name":"Edible Arrangements","code":null,"latitude":32.591039,"longitude":-97.1453499,"address":"120 W Debbie Ln, Mansfield TX","chain_name":null,"distance":0},{"name":"Edible Arrangements","code":null,"latitude":44.661205,"longitude":-63.655536,"address":"278 Lacewood Drive, Halifax NS","chain_name":null,"distance":0},{"name":"Edible Arrangements","code":null,"latitude":33.119258,"longitude":-96.805601,"address":"4760 Preston Rd, Frisco TX","chain_name":null,"distance":0},{"name":"Edible Arrangements","code":null,"latitude":38.4307484,"longitude":-90.3517661,"address":"840 Arnold Commons, Arnold MO","chain_name":null,"distance":0},{"name":"Edible Arrangements","code":null,"latitude":38.826674,"longitude":-104.840133,"address":"555 S 8th St, Colorado Springs CO","chain_name":null,"distance":0},{"name":"Edible Arrangements","code":null,"latitude":49.6810425,"longitude":-112.8032247,"address":"1129 Mayor Magrath Drive S., Lethbridge AB","chain_name":null,"distance":0},{"name":"Edible Arrangements","code":null,"latitude":39.8040121,"longitude":-75.0284605,"address":"1259 Blackwood Clementon Rd, Clementon NJ","chain_name":null,"distance":0},{"name":"Edible Arrangements","code":null,"latitude":38.633927,"longitude":-77.272256,"address":"The Market at Opitz Crossing, Woodbridge VA","chain_name":null,"distance":0},{"name":"Edible Arrangements","code":null,"latitude":35.2411233,"longitude":-81.1221667,"address":"2609-5 S New Hope Rd, Gastonia NC","chain_name":null,"distance":0},{"name":"Edible Arrangements","code":null,"latitude":40.0364603,"longitude":-75.3517672,"address":"777 E Lancaster Ave, Villanova PA","chain_name":null,"distance":0},{"name":"Edible Arrangements","code":null,"latitude":25.8195424,"longitude":-80.3553302,"address":"The Boykin Center, Doral FL","chain_name":null,"distance":0},{"name":"Edible Arrangements","code":null,"latitude":40.2563134,"longitude":-74.5479868,"address":"761 Route 33 West, East Windsor NJ","chain_name":null,"distance":0},{"name":"Edible Arrangements","code":null,"latitude":41.5627884,"longitude":-73.0103251,"address":"753 Wolcott St, Waterbury CT","chain_name":null,"distance":0},{"name":"Edible Arrangements","code":null,"latitude":45.5277127,"longitude":-73.7607146,"address":"4736 Blvd Samson, Laval QC","chain_name":null,"distance":0},{"name":"Edible Arrangements","code":null,"latitude":37.926223,"longitude":-121.754723,"address":"3101-D Balfour Road, Brentwood CA","chain_name":null,"distance":0},{"name":"Edible Arrangements","code":null,"latitude":25.8554332,"longitude":-80.1204843,"address":"6960 Collins Avenue, Miami Beach FL","chain_name":null,"distance":0},{"name":"Edible Arrangements","code":null,"latitude":36.869918,"longitude":-76.292891,"address":"520 W 21st St, Norfolk VA","chain_name":null,"distance":0},{"name":"Edible Arrangements","code":null,"latitude":34.0491093,"longitude":-118.2596131,"address":"868 W 7th St, Los Angeles CA","chain_name":null,"distance":0},{"name":"Edible Arrangements","code":null,"latitude":39.611735,"longitude":-77.7228147,"address":"222 E Oak Ridge Dr, Hagerstown MD","chain_name":null,"distance":0},{"name":"Edible Arrangements","code":null,"latitude":39.968181,"longitude":-82.7705445,"address":"Taylor Square, Reynoldsburg OH","chain_name":null,"distance":0},{"name":"Edible Arrangements","code":null,"latitude":40.8269847,"longitude":-72.6469,"address":"82 Old Riverhead Rd, Westhampton Beach NY","chain_name":null,"distance":0},{"name":"Edible Arrangements","code":null,"latitude":42.989394,"longitude":-71.4637432,"address":"Hampshire Plaza, Manchester NH","chain_name":null,"distance":0},{"name":"Edible Arrangements","code":null,"latitude":43.6388949,"longitude":-79.9306546,"address":"Halton Gate, Georgetown ON","chain_name":null,"distance":0},{"name":"Edible Arrangements","code":null,"latitude":39.0467244,"longitude":-77.1030557,"address":"5050C Nicholson Ln, Rockville MD","chain_name":null,"distance":0},{"name":"Edible Arrangements","code":null,"latitude":45.4592343,"longitude":-73.8650798,"address":"3709 Saint Charles Boulevard, Kirkland QC","chain_name":null,"distance":0},{"name":"Edible Arrangements","code":null,"latitude":33.9263941,"longitude":-118.127739,"address":"Downey Landings, Downey CA","chain_name":null,"distance":0},{"name":"Edible Arrangements","code":null,"latitude":32.9514993,"longitude":-117.066255,"address":"12222 Poway Rd, Poway CA","chain_name":null,"distance":0},{"name":"Edible Arrangements","code":null,"latitude":38.7555877,"longitude":-121.2555289,"address":"1490 Eureka Rd, Roseville CA","chain_name":null,"distance":0},{"name":"Edible Arrangements","code":null,"latitude":39.1709325,"longitude":-77.2626478,"address":"12619 Wisteria Dr, Germantown MD","chain_name":null,"distance":0},{"name":"Edible Arrangements","code":null,"latitude":39.631381,"longitude":-75.665316,"address":"1227 Quintillio Drive, Bear DE","chain_name":null,"distance":0},{"name":"Edible Arrangements","code":null,"latitude":35.1804711,"longitude":-79.4299118,"address":"24 Pinecrest Plaza, Southern Pines NC","chain_name":null,"distance":0},{"name":"Edible Arrangements","code":null,"latitude":42.2970607,"longitude":-88.9830879,"address":"6840 Springcreek Rd, Rockford IL","chain_name":null,"distance":0},{"name":"Edible Arrangements","code":null,"latitude":38.7254453,"longitude":-90.4596721,"address":"Dorsett Square Shopping Center, Maryland Heights MO","chain_name":null,"distance":0},{"name":"Edible Arrangements","code":null,"latitude":42.650296,"longitude":-71.4392717,"address":"Westford Plaza, Westford MA","chain_name":null,"distance":0},{"name":"Edible Arrangements","code":null,"latitude":40.8305302,"longitude":-73.6918612,"address":"139 Main St, Port Washington NY","chain_name":null,"distance":0},{"name":"Edible Arrangements","code":null,"latitude":26.2710651,"longitude":-80.0981718,"address":"3221 N Federal Hwy, Pompano Beach FL","chain_name":null,"distance":0},{"name":"Edible Arrangements","code":null,"latitude":40.0691937,"longitude":-74.1283553,"address":"1799 Route 88, Brick NJ","chain_name":null,"distance":0},{"name":"Edible Arrangements","code":null,"latitude":44.3825668,"longitude":-79.7052421,"address":"7 Anne Street South, Barrie ON","chain_name":null,"distance":0},{"name":"Edible Arrangements","code":null,"latitude":33.3957332,"longitude":-84.7432372,"address":"1053 Bullsboro Dr, Newnan GA","chain_name":null,"distance":0},{"name":"Edible Arrangements","code":null,"latitude":32.957374,"longitude":-96.616066,"address":"4430 Lavon Dr, Garland TX","chain_name":null,"distance":0},{"name":"Edible Arrangements","code":null,"latitude":40.6619,"longitude":-74.2335228,"address":"134 Elmora Ave, Elizabeth NJ","chain_name":null,"distance":0},{"name":"Edible Arrangements","code":null,"latitude":35.027104,"longitude":-79.054878,"address":"7737 Good Middling Dr, Fayetteville NC","chain_name":null,"distance":0},{"name":"Edible Arrangements","code":null,"latitude":39.345963,"longitude":-76.609433,"address":"York Rd Plaza - Govans, Baltimore MD","chain_name":null,"distance":0},{"name":"Edible Arrangements","code":null,"latitude":39.4452108,"longitude":-76.6528225,"address":"Yorkridge Shopping Center, Lutherville Timonium MD","chain_name":null,"distance":0},{"name":"Edible Arrangements","code":null,"latitude":45.2974053,"longitude":-75.8892519,"address":"474 Hazeldean Road U-8, Kanata ON","chain_name":null,"distance":0},{"name":"Edible Arrangements","code":null,"latitude":42.7636873,"longitude":-83.2423946,"address":"1232 S Lapeer Rd, Lake Orion MI","chain_name":null,"distance":0},{"name":"Edible Arrangements","code":null,"latitude":29.6202873,"longitude":-95.5669786,"address":"The Fountains Shopping Center, Stafford TX","chain_name":null,"distance":0},{"name":"Edible Arrangements","code":null,"latitude":47.6651449,"longitude":-117.4112299,"address":"821 North Division, Spokane WA","chain_name":null,"distance":0},{"name":"Edible Arrangements","code":null,"latitude":29.737061,"longitude":-95.514574,"address":"8401 Westheimer Road Suite #170, Houston TX","chain_name":null,"distance":0},{"name":"Edible Arrangements","code":null,"latitude":33.7243499,"longitude":-117.9881576,"address":"16480 Beach Blvd, Westminster CA","chain_name":null,"distance":0},{"name":"Edible Arrangements","code":null,"latitude":29.6653369,"longitude":-81.2881662,"address":"Bealls \/ Winn Dixie Plaza, Palm Coast FL","chain_name":null,"distance":0},{"name":"Edible Arrangements","code":null,"latitude":39.7246907,"longitude":-75.6567369,"address":"4563 Kirkwood Hwy, Wilmington DE","chain_name":null,"distance":0},{"name":"Edible Arrangements","code":null,"latitude":33.836052,"longitude":-84.376751,"address":"2986 Grandview Ave NE, Atlanta GA","chain_name":null,"distance":0},{"name":"Edible Arrangements","code":null,"latitude":42.7816546,"longitude":-71.0771329,"address":"308 Main St, Haverhill MA","chain_name":null,"distance":0},{"name":"Edible Arrangements","code":null,"latitude":30.212649,"longitude":-97.830208,"address":"3421 W. William Cannon, Austin TX","chain_name":null,"distance":0},{"name":"Edible Arrangements","code":null,"latitude":40.0223314,"longitude":-74.955948,"address":"Millside\/Target Plaza, Delran NJ","chain_name":null,"distance":0},{"name":"Edible Arrangements","code":null,"latitude":30.4537372,"longitude":-84.2808943,"address":"1100 N Monroe St, Tallahassee FL","chain_name":null,"distance":0},{"name":"Edible Arrangements","code":null,"latitude":42.6101575,"longitude":-83.1615243,"address":"Troy Corners Plaza, Troy MI","chain_name":null,"distance":0},{"name":"Edible Arrangements","code":null,"latitude":41.51907,"longitude":-81.495626,"address":"5126 Mayfield Rd, Lyndhurst OH","chain_name":null,"distance":0},{"name":"Edible Arrangements","code":null,"latitude":36.8197841,"longitude":-76.0716171,"address":"2728 N Mall Dr, Virginia Beach VA","chain_name":null,"distance":0},{"name":"Edible Arrangements","code":null,"latitude":34.0234337,"longitude":-84.6154897,"address":"Mainstreet at Town Center, Kennesaw GA","chain_name":null,"distance":0},{"name":"Edible Arrangements","code":null,"latitude":28.5521253,"longitude":-81.4816713,"address":"7357 W Colonial Dr, Orlando FL","chain_name":null,"distance":0},{"name":"Edible Arrangements","code":null,"latitude":41.749225,"longitude":-88.009892,"address":"7511 Lemont Rd, Darien IL","chain_name":null,"distance":0},{"name":"Edible Arrangements","code":null,"latitude":32.8164614,"longitude":-79.993384,"address":"1672 Old Towne Rd, Charleston SC","chain_name":null,"distance":0},{"name":"Edible Arrangements","code":null,"latitude":42.048868,"longitude":-91.639808,"address":"Colton Square 420 Colton Cir NE, Cedar Rapids IA","chain_name":null,"distance":0},{"name":"Edible Arrangements","code":null,"latitude":42.9714536,"longitude":-85.7178941,"address":"2030 Lake Michigan Dr, Grand Rapids MI","chain_name":null,"distance":0},{"name":"Edible Arrangements","code":null,"latitude":35.4353155,"longitude":-97.4044553,"address":"7199 SE 29th St. Suite 109 A, Oklahoma City OK","chain_name":null,"distance":0},{"name":"Edible Arrangements","code":null,"latitude":41.6669234,"longitude":-72.7822424,"address":"204 Main Street, New Britain CT","chain_name":null,"distance":0},{"name":"Edible Arrangements","code":null,"latitude":33.8993577,"longitude":-117.9110521,"address":"1068 E Bastanchury Rd, Fullerton CA","chain_name":null,"distance":0},{"name":"Edible Arrangements","code":null,"latitude":42.9999385,"longitude":-81.3326047,"address":"1634 Hyde Park Road, London ON","chain_name":null,"distance":0},{"name":"Edible Arrangements","code":null,"latitude":41.555834,"longitude":-87.682271,"address":"18312 Governors Hwy, Homewood IL","chain_name":null,"distance":0},{"name":"Edible Arrangements","code":null,"latitude":42.203992,"longitude":-83.148508,"address":"2910 Van Alstyne St, Wyandotte MI","chain_name":null,"distance":0},{"name":"Edible Arrangements","code":null,"latitude":28.2095851,"longitude":-82.3604799,"address":"Mystic Oaks, Wesley Chapel FL","chain_name":null,"distance":0},{"name":"Edible Arrangements","code":null,"latitude":43.2299885,"longitude":-75.494315,"address":"5819 Rome Taberg Rd, Rome NY","chain_name":null,"distance":0},{"name":"Edible Arrangements","code":null,"latitude":44.993948,"longitude":-93.501742,"address":"1400 County Rd 101 North, Plymouth MN","chain_name":null,"distance":0},{"name":"Edible Arrangements","code":null,"latitude":40.8636864,"longitude":-74.157734,"address":"890 Van Houten Ave, Clifton NJ","chain_name":null,"distance":0},{"name":"Edible Arrangements","code":null,"latitude":35.590353,"longitude":-82.582166,"address":"5 Regent Park Blvd, Asheville NC","chain_name":null,"distance":0},{"name":"Edible Arrangements","code":null,"latitude":40.7368859,"longitude":-74.0310985,"address":"84 Washington St, Hoboken NJ","chain_name":null,"distance":0},{"name":"Edible Arrangements","code":null,"latitude":41.5703303,"longitude":-90.5157593,"address":"4862 Utica Ridge Road, Davenport IA","chain_name":null,"distance":0},{"name":"Edible Arrangements","code":null,"latitude":38.003256,"longitude":-84.444956,"address":"3101 Richmond Rd, Lexington KY","chain_name":null,"distance":0},{"name":"Edible Arrangements","code":null,"latitude":42.2439121,"longitude":-88.3195299,"address":"5300 North West Hwy, Crystal Lake IL","chain_name":null,"distance":0},{"name":"Edible Arrangements","code":null,"latitude":42.9275277,"longitude":-83.6299518,"address":"Porter Place Plaza, Grand Blanc MI","chain_name":null,"distance":0},{"name":"Edible Arrangements","code":null,"latitude":44.9944522,"longitude":-93.1464669,"address":"1755 Lexington Ave N, Roseville MN","chain_name":null,"distance":0},{"name":"Edible Arrangements","code":null,"latitude":42.8650869,"longitude":-71.3739532,"address":"Crossroads Mall, Londonderry NH","chain_name":null,"distance":0},{"name":"Edible Arrangements","code":null,"latitude":38.9056386,"longitude":-77.0400054,"address":"1740 M St NW, Washington DC","chain_name":null,"distance":0},{"name":"Edible Arrangements","code":null,"latitude":40.7521224,"longitude":-73.985531,"address":"62 West 38th St, New York City NY","chain_name":null,"distance":0},{"name":"Edible Arrangements","code":null,"latitude":33.9974704,"longitude":-81.0152137,"address":"605 Harden St, Columbia SC","chain_name":null,"distance":0},{"name":"Edible Arrangements","code":null,"latitude":42.3698098,"longitude":-83.4704602,"address":"873 W Ann Arbor Trl, Plymouth MI","chain_name":null,"distance":0},{"name":"Edible Arrangements","code":null,"latitude":41.3640544,"longitude":-72.9232673,"address":"1920 Dixwell Ave, Hamden CT","chain_name":null,"distance":0},{"name":"Edible Arrangements","code":null,"latitude":47.707038,"longitude":-122.211322,"address":"9745 NE 119th Way, Kirkland WA","chain_name":null,"distance":0},{"name":"Edible Arrangements","code":null,"latitude":40.2222715,"longitude":-76.9325195,"address":"Capitol City Plaza, Camp Hill PA","chain_name":null,"distance":0},{"name":"Edible Arrangements","code":null,"latitude":43.7898707,"longitude":-79.418025,"address":"6039 Yonge St, North York ON","chain_name":null,"distance":0},{"name":"Edible Arrangements","code":null,"latitude":35.1492248,"longitude":-106.6837068,"address":"6001 Winter Haven Dr NW, Albuquerque NM","chain_name":null,"distance":0},{"name":"Edible Arrangements","code":null,"latitude":38.5788549,"longitude":-121.4911354,"address":"1020 12th St, Sacramento CA","chain_name":null,"distance":0},{"name":"Edible Arrangements","code":null,"latitude":37.313488,"longitude":-121.772679,"address":"4055 Evergreen Village Square, San Jose CA","chain_name":null,"distance":0},{"name":"Edible Arrangements","code":null,"latitude":53.2763548,"longitude":-113.5485443,"address":"#5, 6201-50 Street, Leduc AB","chain_name":null,"distance":0},{"name":"Edible Arrangements","code":null,"latitude":32.415745,"longitude":-90.138509,"address":"500 Hwy 51 North, Ridgeland MS","chain_name":null,"distance":0},{"name":"Edible Arrangements","code":null,"latitude":45.6268048,"longitude":-122.6019492,"address":"6617 East Mill Plain Blvd, Vancouver WA","chain_name":null,"distance":0},{"name":"Edible Arrangements","code":null,"latitude":41.51098,"longitude":-87.851367,"address":"590 Bankview Dr, Frankfort IL","chain_name":null,"distance":0},{"name":"Edible Arrangements","code":null,"latitude":45.5262079,"longitude":-122.637867,"address":"2710 NE Glisan St, Portland OR","chain_name":null,"distance":0},{"name":"Edible Arrangements","code":null,"latitude":40.3335686,"longitude":-74.6323068,"address":"Princeton Forrestal Village, Princeton NJ","chain_name":null,"distance":0},{"name":"Edible Arrangements","code":null,"latitude":33.9419897,"longitude":-84.3354551,"address":"Ashford Place, Dunwoody GA","chain_name":null,"distance":0},{"name":"Edible Arrangements","code":null,"latitude":33.9885277,"longitude":-118.2127835,"address":"5945 State St, Huntington Park CA","chain_name":null,"distance":0},{"name":"Edible Arrangements","code":null,"latitude":29.6262504,"longitude":-90.743265,"address":"West Side Plaza, Houma LA","chain_name":null,"distance":0},{"name":"Edible Arrangements","code":null,"latitude":32.748048,"longitude":-117.163084,"address":"141 University Ave, San Diego CA","chain_name":null,"distance":0},{"name":"Edible Arrangements","code":null,"latitude":29.592864,"longitude":-98.587168,"address":"5139 North Loop 1604 W, San Antonio TX","chain_name":null,"distance":0},{"name":"Edible Arrangements","code":null,"latitude":39.926418,"longitude":-75.3859059,"address":"845 North Jackson St at 5 points, Media PA","chain_name":null,"distance":0},{"name":"Edible Arrangements","code":null,"latitude":43.205762,"longitude":-71.5364931,"address":"1 Capital Plaza, Concord NH","chain_name":null,"distance":0},{"name":"Edible Arrangements","code":null,"latitude":33.85276,"longitude":-84.601637,"address":"1757 East West Connector, Austell GA","chain_name":null,"distance":0},{"name":"Edible Arrangements","code":null,"latitude":41.3937928,"longitude":-72.8577183,"address":"101 Washington Ave, North Haven CT","chain_name":null,"distance":0},{"name":"Edible Arrangements","code":null,"latitude":36.0409932,"longitude":-115.1722375,"address":"8174 South Las Vegas Blvd, Las Vegas NV","chain_name":null,"distance":0},{"name":"Edible Arrangements","code":null,"latitude":41.4841115,"longitude":-87.4451677,"address":"248 W Lincoln Hwy, Schererville IN","chain_name":null,"distance":0},{"name":"edible arrangements","code":null,"latitude":32.2371465,"longitude":-80.8603868,"address":"Rt 278, bluffton SC","chain_name":null,"distance":0},{"name":"Edible Arrangements","code":null,"latitude":40.5265214,"longitude":-111.8823866,"address":"278 E 12300 S, Draper UT","chain_name":null,"distance":0},{"name":"Edible Arrangements","code":null,"latitude":34.1123916,"longitude":-118.1875883,"address":"6100 N Figueroa St, Los Angeles CA","chain_name":null,"distance":0},{"name":"Edible Arrangements","code":null,"latitude":39.0710535,"longitude":-84.485507,"address":"Fort Thomas\/Newport, Newport KY","chain_name":null,"distance":0},{"name":"Edible Arrangements","code":null,"latitude":44.467682,"longitude":-73.180719,"address":"100 Dorset St, South Burlington VT","chain_name":null,"distance":0},{"name":"Edible Arrangements","code":null,"latitude":42.1766842,"longitude":-87.9244702,"address":"2045 Milwaukee Ave, Deerfield IL","chain_name":null,"distance":0},{"name":"Edible Arrangements","code":null,"latitude":40.1701874,"longitude":-75.2869371,"address":"730 DeKalb Pike, Blue Bell PA","chain_name":null,"distance":0},{"name":"Edible Arrangements","code":null,"latitude":40.6412782,"longitude":-73.5822401,"address":"Guy Lombardo Plaza, Freeport NY","chain_name":null,"distance":0},{"name":"Edible Arrangements","code":null,"latitude":36.197291,"longitude":-115.250766,"address":"7260 West Lake Mead #3, Las Vegas NV","chain_name":null,"distance":0},{"name":"Edible Arrangements","code":null,"latitude":41.2472577,"longitude":-96.0070569,"address":"Shoppes at Aksarben, Omaha NE","chain_name":null,"distance":0},{"name":"Edible Arrangements","code":null,"latitude":42.0193848,"longitude":-87.6756755,"address":"1783 W Howard Street, Chicago IL","chain_name":null,"distance":0},{"name":"Edible Arrangements","code":null,"latitude":39.6868048,"longitude":-104.941653,"address":"1685 S Colorado Blvd, Denver CO","chain_name":null,"distance":0},{"name":"Edible Arrangements","code":null,"latitude":40.4989942,"longitude":-74.347017,"address":"Tano Mall, Edison NJ","chain_name":null,"distance":0},{"name":"Edible Arrangements","code":null,"latitude":33.516901,"longitude":-112.082103,"address":"5501 N 7th Ave, Phoenix AZ","chain_name":null,"distance":0},{"name":"Edible Arrangements","code":null,"latitude":25.7730006,"longitude":-80.190327,"address":"150 SE 2nd Ave, Miami FL","chain_name":null,"distance":0},{"name":"Edible Arrangements","code":null,"latitude":29.5776097,"longitude":-98.5257611,"address":"Churchill Place, San Antonio TX","chain_name":null,"distance":0},{"name":"Edible Arrangements","code":null,"latitude":38.8293522,"longitude":-77.0859123,"address":"1531 N Quaker Ln, Alexandria VA","chain_name":null,"distance":0},{"name":"Edible Arrangements","code":null,"latitude":34.017759,"longitude":-118.143237,"address":"5929 Whittier Blvd, Los Angeles CA","chain_name":null,"distance":0},{"name":"Edible Arrangements","code":null,"latitude":37.2909813,"longitude":-121.8904136,"address":"The Plant Shopping Center, San Jose CA","chain_name":null,"distance":0},{"name":"Edible Arrangements","code":null,"latitude":27.6388267,"longitude":-80.383635,"address":"2046 Treasure Coast Plaza, Vero Beach FL","chain_name":null,"distance":0},{"name":"Edible Arrangements","code":null,"latitude":33.7749881,"longitude":-118.1524402,"address":"681 Redondo Ave, Long Beach CA","chain_name":null,"distance":0},{"name":"Edible Arrangements","code":null,"latitude":38.8142858,"longitude":-77.6414953,"address":"6723 Leaberry Way, Haymarket VA","chain_name":null,"distance":0},{"name":"Edible Arrangements","code":null,"latitude":32.9342919,"longitude":-97.0780654,"address":"Old Main Street Shopping Center, Grapevine TX","chain_name":null,"distance":0},{"name":"Edible Arrangements","code":null,"latitude":40.0050792,"longitude":-74.796448,"address":"516 High St, Mount Holly NJ","chain_name":null,"distance":0},{"name":"Edible Arrangements","code":null,"latitude":38.0635199,"longitude":-78.4884385,"address":"180 Zan Rd, Charlottesville VA","chain_name":null,"distance":0},{"name":"Edible Arrangements","code":null,"latitude":27.347874,"longitude":-82.513201,"address":"1100 N Tuttle Ave, Sarasota FL","chain_name":null,"distance":0},{"name":"Edible Arrangements","code":null,"latitude":34.1458289,"longitude":-118.1408614,"address":"452 E Colorado Blvd, Pasadena CA","chain_name":null,"distance":0},{"name":"Edible Arrangements","code":null,"latitude":42.3325513,"longitude":-71.1186917,"address":"256 Washington St, Brookline MA","chain_name":null,"distance":0},{"name":"Edible Arrangements","code":null,"latitude":42.6760958,"longitude":-82.7505354,"address":"35304 23 Mile Rd, New Baltimore MI","chain_name":null,"distance":0},{"name":"Edible Arrangements","code":null,"latitude":43.6478516,"longitude":-79.5085781,"address":"2943 A Bloor Street West, Etobicoke ON","chain_name":null,"distance":0},{"name":"Edible Arrangements","code":null,"latitude":41.7345308,"longitude":-87.7022206,"address":"8732 S Kedzie Ave, Evergreen Park IL","chain_name":null,"distance":0},{"name":"Edible Arrangements","code":null,"latitude":40.7173,"longitude":-74.3563999,"address":"84 Summit Ave, Summit NJ","chain_name":null,"distance":0},{"name":"Edible Arrangements","code":null,"latitude":35.9674184,"longitude":-78.4921522,"address":"944 Gateway Commons Circle, Wake Forest NC","chain_name":null,"distance":0},{"name":"Edible Arrangements","code":null,"latitude":41.1059013,"longitude":-74.5803914,"address":"70B Route 23, Franklin NJ","chain_name":null,"distance":0},{"name":"Edible Arrangements","code":null,"latitude":40.6297876,"longitude":-73.708374,"address":"958 Broadway, Woodmere NY","chain_name":null,"distance":0},{"name":"Edible Arrangements","code":null,"latitude":39.7899217,"longitude":-105.0812849,"address":"5324 Wadsworth Blvd, Arvada CO","chain_name":null,"distance":0},{"name":"Edible Arrangements","code":null,"latitude":40.6833151,"longitude":-74.2690711,"address":"484 Chestnut St, Union NJ","chain_name":null,"distance":0},{"name":"Edible Arrangements","code":null,"latitude":40.2283709,"longitude":-74.7361758,"address":"Hamilton Centre, Hamilton NJ","chain_name":null,"distance":0},{"name":"Edible Arrangements","code":null,"latitude":30.2721091,"longitude":-81.559185,"address":"4160 Southside Blvd, Jacksonville FL","chain_name":null,"distance":0},{"name":"Edible Arrangements","code":null,"latitude":34.0265018,"longitude":-118.489208,"address":"1324 Wilshire Blvd, Santa Monica CA","chain_name":null,"distance":0},{"name":"Edible Arrangements","code":null,"latitude":34.7882303,"longitude":-77.4222679,"address":"2599 Henderson Dr, Jacksonville NC","chain_name":null,"distance":0},{"name":"Edible Arrangements","code":null,"latitude":40.850232,"longitude":-73.936937,"address":"720 W 181st St, New York City NY","chain_name":null,"distance":0},{"name":"Edible Arrangements","code":null,"latitude":28.5668491,"longitude":-81.2084139,"address":"11776 East Colonial Drive, Orlando FL","chain_name":null,"distance":0},{"name":"Edible Arrangements","code":null,"latitude":38.9218512,"longitude":-76.7221082,"address":"Pointer Ridge Shopping Center, Bowie MD","chain_name":null,"distance":0},{"name":"Edible Arrangements","code":null,"latitude":33.0188672,"longitude":-80.1758383,"address":"123 South Main St, Summerville SC","chain_name":null,"distance":0},{"name":"Edible Arrangements","code":null,"latitude":26.2662889,"longitude":-80.2501899,"address":"2802 N University Dr, Coral Springs FL","chain_name":null,"distance":0},{"name":"Edible Arrangements","code":null,"latitude":40.9896324,"longitude":-75.2148371,"address":"923 North Ninth St, Stroudsburg PA","chain_name":null,"distance":0},{"name":"Edible Arrangements","code":null,"latitude":42.2834603,"longitude":-71.726659,"address":"Christmas Tree Shoppe Plaza, Shrewsbury MA","chain_name":null,"distance":0},{"name":"Edible Arrangements","code":null,"latitude":35.9805462,"longitude":-86.761749,"address":"Lakeside Center, Brentwood TN","chain_name":null,"distance":0},{"name":"Edible Arrangements","code":null,"latitude":33.4074143,"longitude":-111.9520078,"address":"930 W Broadway, Tempe AZ","chain_name":null,"distance":0},{"name":"Edible Arrangements","code":null,"latitude":40.04809,"longitude":-75.058822,"address":"2371 Cottman Avenue, Philadelphia PA","chain_name":null,"distance":0},{"name":"Edible Arrangements","code":null,"latitude":25.6622835,"longitude":-80.3070395,"address":"Pinecrest Town Center, Miami FL","chain_name":null,"distance":0},{"name":"Edible Arrangements","code":null,"latitude":25.7495915,"longitude":-80.2595936,"address":"239 Miracle Mile, Coral Gables FL","chain_name":null,"distance":0},{"name":"Edible Arrangements","code":null,"latitude":39.0778292,"longitude":-76.8694428,"address":"13600 Baltimore Ave, Laurel MD","chain_name":null,"distance":0},{"name":"Edible Arrangements","code":null,"latitude":31.750733,"longitude":-106.319453,"address":"1491 N Lee Trevino Dr, El Paso TX","chain_name":null,"distance":0},{"name":"Edible Arrangements","code":null,"latitude":33.7902252,"longitude":-84.3054742,"address":"2101 N Decatur Rd, Decatur GA","chain_name":null,"distance":0},{"name":"Edible Arrangements","code":null,"latitude":37.5542029,"longitude":-122.2917174,"address":"1866 S Norfolk Street, San Mateo CA","chain_name":null,"distance":0},{"name":"Edible Arrangements","code":null,"latitude":39.15323,"longitude":-77.06819,"address":"The Shopping Center, Olney MD","chain_name":null,"distance":0},{"name":"Edible Arrangements","code":null,"latitude":40.716216,"longitude":-74.0456053,"address":"261 Grand St, Jersey City NJ","chain_name":null,"distance":0},{"name":"Edible Arrangements","code":null,"latitude":32.4672263,"longitude":-93.7226903,"address":"3950 Youree Dr, Shreveport LA","chain_name":null,"distance":0},{"name":"Edible Arrangements","code":null,"latitude":38.4525155,"longitude":-81.9390017,"address":"4144 State Route 34, Hurricane WV","chain_name":null,"distance":0},{"name":"Edible Arrangements","code":null,"latitude":42.427031,"longitude":-71.010852,"address":"339 Squire Rd, Revere MA","chain_name":null,"distance":0},{"name":"Edible Arrangements","code":null,"latitude":40.5777622,"longitude":-105.0769435,"address":"706 S College Ave, Fort Collins CO","chain_name":null,"distance":0},{"name":"Edible Arrangements","code":null,"latitude":33.7278834,"longitude":-84.7554803,"address":"6880 Douglas Boulevard Suite A, Douglasville GA","chain_name":null,"distance":0},{"name":"Edible Arrangements","code":null,"latitude":36.8069765,"longitude":-76.1343669,"address":"4540 Princess Anne Rd, Virginia Beach VA","chain_name":null,"distance":0},{"name":"Edible Arrangements","code":null,"latitude":41.9496152,"longitude":-87.6642281,"address":"3722 N Southport Ave, Chicago IL","chain_name":null,"distance":0},{"name":"Edible Arrangements","code":null,"latitude":42.547941,"longitude":-70.9788369,"address":"7A Bourbon St, Peabody MA","chain_name":null,"distance":0},{"name":"Edible Arrangements","code":null,"latitude":36.0447447,"longitude":-115.046726,"address":"213 North Stephanie #A, Henderson NV","chain_name":null,"distance":0},{"name":"Edible Arrangements","code":null,"latitude":44.057454,"longitude":-92.4514109,"address":"3169 Wellner Dr NE, Rochester MN","chain_name":null,"distance":0},{"name":"Edible Arrangements","code":null,"latitude":52.267308,"longitude":-113.8186902,"address":"#2 A101 5212 48 Street, Red Deer AB","chain_name":null,"distance":0},{"name":"Edible Arrangements","code":null,"latitude":35.0747617,"longitude":-78.9631325,"address":"1800 Skibo Rd, Fayetteville NC","chain_name":null,"distance":0},{"name":"Edible Arrangements","code":null,"latitude":25.6851696,"longitude":-80.4184171,"address":"13746 N Kendall Dr, Miami FL","chain_name":null,"distance":0},{"name":"Edible Arrangements","code":null,"latitude":39.7461187,"longitude":-104.9934283,"address":"820 16th St Mall, Denver CO","chain_name":null,"distance":0},{"name":"Edible Arrangements","code":null,"latitude":27.5032247,"longitude":-81.3509416,"address":"Fountain Plaza, Sebring FL","chain_name":null,"distance":0},{"name":"Edible Arrangements","code":null,"latitude":34.6018141,"longitude":-118.1419364,"address":"820 W Rancho Vista Blvd, Palmdale CA","chain_name":null,"distance":0},{"name":"Edible Arrangements","code":null,"latitude":40.458013,"longitude":-79.917439,"address":"6401 Penn Avenue, Pittsburgh PA","chain_name":null,"distance":0},{"name":"Edible Arrangements","code":null,"latitude":27.960631,"longitude":-82.7522529,"address":"2082 Gulf to Bay Blvd, Clearwater FL","chain_name":null,"distance":0},{"name":"Edible Arrangements","code":null,"latitude":37.2698096,"longitude":-76.7564428,"address":"4655 - 104 Monticello Ave, Williamsburg VA","chain_name":null,"distance":0},{"name":"Edible Arrangements","code":null,"latitude":40.556443,"longitude":-75.581473,"address":"6379 Hamilton Blvd, Allentown PA","chain_name":null,"distance":0},{"name":"Edible Arrangements","code":null,"latitude":41.05899,"longitude":-74.019162,"address":"46A East Central Ave, Pearl River NY","chain_name":null,"distance":0},{"name":"Edible Arrangements","code":null,"latitude":36.1153752,"longitude":-115.0932942,"address":"3754 East Flamingo Rd, Las Vegas NV","chain_name":null,"distance":0},{"name":"Edible Arrangments","code":null,"latitude":42.2331328,"longitude":-83.4864972,"address":"9588Belliville Rd, Belleville MI","chain_name":null,"distance":0},{"name":"Edible Arrangements","code":null,"latitude":33.9255183,"longitude":-83.9214896,"address":"Sugarloaf Pointe, Lawrenceville GA","chain_name":null,"distance":0},{"name":"Edible Arrangements","code":null,"latitude":37.9545873,"longitude":-121.2889464,"address":"135 N Hunter St, Stockton CA","chain_name":null,"distance":0},{"name":"Edible Arrangements","code":null,"latitude":29.3567294,"longitude":-98.5355451,"address":"2535 SW Military Dr, San Antonio TX","chain_name":null,"distance":0},{"name":"Edible Arrangements","code":null,"latitude":46.852803,"longitude":-96.863694,"address":"1801 45th St S, Fargo ND","chain_name":null,"distance":0},{"name":"Edible Arrangements","code":null,"latitude":25.944328,"longitude":-80.1489998,"address":"18280 W Dixie Hwy, North Miami Beach FL","chain_name":null,"distance":0},{"name":"Edible Arrangements","code":null,"latitude":38.6206262,"longitude":-76.9163094,"address":"3332-A Crain Hwy, Waldorf MD","chain_name":null,"distance":0},{"name":"Edible Arrangements","code":null,"latitude":40.2089047,"longitude":-74.7741796,"address":"54B East Bridge St, Morrisville PA","chain_name":null,"distance":0},{"name":"Edible Arrangements","code":null,"latitude":42.720424,"longitude":-73.801588,"address":"155 Wolf Rd, Albany NY","chain_name":null,"distance":0},{"name":"Edible Arrangements","code":null,"latitude":38.9710854,"longitude":-94.7393345,"address":"13246 W 87th St, Lenexa KS","chain_name":null,"distance":0},{"name":"Edible Arrangements","code":null,"latitude":41.7149099,"longitude":-87.5593613,"address":"95th and Jeffery Shopping Center, Chicago IL","chain_name":null,"distance":0},{"name":"Edible Arrangements","code":null,"latitude":41.3066949,"longitude":-72.9272563,"address":"935 Chapel St, New Haven CT","chain_name":null,"distance":0},{"name":"Edible Arrangements","code":null,"latitude":36.858551,"longitude":-76.207502,"address":"5802 E Virginia Beach Blvd, Norfolk VA","chain_name":null,"distance":0},{"name":"Edible Arrangements","code":null,"latitude":40.3764373,"longitude":-76.7567368,"address":"Colonial Crossings, Harrisburg PA","chain_name":null,"distance":0},{"name":"Edible Arrangements","code":null,"latitude":38.752425,"longitude":-75.1695574,"address":"17314 N Village Main Blvd, Lewes DE","chain_name":null,"distance":0},{"name":"Edible Arrangements","code":null,"latitude":45.5159238,"longitude":-122.7523214,"address":"7329 SW Barnes Rd, Portland OR","chain_name":null,"distance":0},{"name":"Edible Arrangements","code":null,"latitude":29.6004185,"longitude":-82.4186601,"address":"7050 SW Archer Rd, Gainesville FL","chain_name":null,"distance":0},{"name":"Edible Arrangements","code":null,"latitude":38.6148226,"longitude":-90.3488497,"address":"2550 S Brentwood Blvd, Saint Louis MO","chain_name":null,"distance":0},{"name":"Edible Arrangements","code":null,"latitude":41.2794893,"longitude":-72.9411044,"address":"39 Elm St, West Haven CT","chain_name":null,"distance":0},{"name":"Edible Arrangements","code":null,"latitude":45.1041914,"longitude":-93.4542204,"address":"13712 Grove Dr, Maple Grove MN","chain_name":null,"distance":0},{"name":"Edible Arrangements","code":null,"latitude":34.076794,"longitude":-118.148131,"address":"2200 W Valley Blvd, Alhambra CA","chain_name":null,"distance":0},{"name":"Edible Arrangements","code":null,"latitude":33.927845,"longitude":-83.337296,"address":"1040 Gaines School Rd, Athens GA","chain_name":null,"distance":0},{"name":"Edible Arrangements","code":null,"latitude":37.3703265,"longitude":-122.0422468,"address":"820 W El Camino Real, Sunnyvale CA","chain_name":null,"distance":0},{"name":"Edible Arrangements","code":null,"latitude":41.954257,"longitude":-73.99341,"address":"900 Ulster Ave, Kingston NY","chain_name":null,"distance":0},{"name":"Edible Arrangements","code":null,"latitude":33.8579099,"longitude":-118.079532,"address":"11900 South St, Cerritos CA","chain_name":null,"distance":0},{"name":"Edible Arrangements","code":null,"latitude":38.9383463,"longitude":-94.3783296,"address":"1415 NE Douglas St, Lees Summit MO","chain_name":null,"distance":0},{"name":"Edible Arrangements","code":null,"latitude":33.5773452,"longitude":-117.7024361,"address":"26548 Moulton Pkwy, Laguna Hills CA","chain_name":null,"distance":0},{"name":"Edible Arrangements","code":null,"latitude":42.25082,"longitude":-71.770069,"address":"691 Grafton St, Worcester MA","chain_name":null,"distance":0},{"name":"Edible Arrangements","code":null,"latitude":26.3962248,"longitude":-80.2127581,"address":"Mission Bay Plaza, Boca Raton FL","chain_name":null,"distance":0},{"name":"Edible Arrangements","code":null,"latitude":43.8685726,"longitude":-79.3121122,"address":"209 Main Street, Markham ON","chain_name":null,"distance":0},{"name":"Edible Arrangements","code":null,"latitude":26.685723,"longitude":-81.903784,"address":"15201 N Cleveland Ave, North Fort Myers FL","chain_name":null,"distance":0},{"name":"Edible Arrangements","code":null,"latitude":40.961986,"longitude":-74.597159,"address":"5 Bowling Green Pkwy, Lake Hopatcong NJ","chain_name":null,"distance":0},{"name":"Edible Arrangements","code":null,"latitude":29.5720772,"longitude":-98.3271901,"address":"The Forum, Selma TX","chain_name":null,"distance":0},{"name":"Edible Arrangements","code":null,"latitude":32.7642178,"longitude":-117.0206044,"address":"8237 La Mesa Blvd, La Mesa CA","chain_name":null,"distance":0},{"name":"Edible Arrangements","code":null,"latitude":37.21581,"longitude":-80.40078,"address":"Gables Shopping Center, Blacksburg VA","chain_name":null,"distance":0},{"name":"Edible Arrangements","code":null,"latitude":43.1466452,"longitude":-86.2059653,"address":"5851 South Harvey St, Muskegon MI","chain_name":null,"distance":0},{"name":"Edible Arrangements","code":null,"latitude":33.0861619,"longitude":-97.0767365,"address":"Lewisville Highland Village, Lewisville TX","chain_name":null,"distance":0},{"name":"Edible Arrangements","code":null,"latitude":42.72611,"longitude":-71.150022,"address":"167 East St, Methuen MA","chain_name":null,"distance":0},{"name":"Edible Arrangements","code":null,"latitude":41.126883,"longitude":-81.605555,"address":"2855 W Market St, Fairlawn OH","chain_name":null,"distance":0},{"name":"Edible Arrangements","code":null,"latitude":29.764703,"longitude":-95.479826,"address":"5750 Woodway Dr, Houston TX","chain_name":null,"distance":0},{"name":"Edible Arrangements","code":null,"latitude":30.141448,"longitude":-81.55199,"address":"13760 Old St Augustine Rd, Jacksonville FL","chain_name":null,"distance":0},{"name":"Edible Arrangements","code":null,"latitude":37.5998925,"longitude":-77.3483686,"address":"7225 Bell Creek Rd, Mechanicsville VA","chain_name":null,"distance":0},{"name":"Edible Arrangements","code":null,"latitude":27.7906732,"longitude":-82.6163759,"address":"Bay Pointe Plaza, Saint Petersburg FL","chain_name":null,"distance":0},{"name":"Edible Arrangements","code":null,"latitude":39.9372122,"longitude":-77.6332286,"address":"452 Gateway Ave, Chambersburg PA","chain_name":null,"distance":0},{"name":"Edible Arrangements","code":null,"latitude":41.6701295,"longitude":-81.3315042,"address":"8644 Mentor Ave, Mentor OH","chain_name":null,"distance":0},{"name":"Edible Arrangements","code":null,"latitude":36.850444,"longitude":-76.015908,"address":"1577 Laskin Rd, Virginia Beach VA","chain_name":null,"distance":0},{"name":"Edible Arrangements","code":null,"latitude":40.7580489,"longitude":-73.8742998,"address":"32-19 Junction Boulevard, East Elmhurst NY","chain_name":null,"distance":0},{"name":"Edible Arrangements","code":null,"latitude":37.4463558,"longitude":-121.9040753,"address":"283 Jacklin Rd, Milpitas CA","chain_name":null,"distance":0},{"name":"Edible Arrangements","code":null,"latitude":39.148069,"longitude":-76.64067,"address":"801 Landmark Dr, Glen Burnie MD","chain_name":null,"distance":0},{"name":"Edible Arrangements","code":null,"latitude":39.9841448,"longitude":-74.2101786,"address":"1248 Route 166, Toms River NJ","chain_name":null,"distance":0},{"name":"Edible Arrangements","code":null,"latitude":40.6913635,"longitude":-75.2066825,"address":"155 Northampton St, Easton PA","chain_name":null,"distance":0},{"name":"Edible Arrangements","code":null,"latitude":41.7263306,"longitude":-71.1151431,"address":"Executive Plaza, Fall River MA","chain_name":null,"distance":0},{"name":"Edible Arrangements","code":null,"latitude":38.409628,"longitude":-121.41918,"address":"7119 Elk Grove Blvd, Elk Grove CA","chain_name":null,"distance":0},{"name":"Edible Arrangements","code":null,"latitude":44.0677224,"longitude":-123.1027967,"address":"1011 Valley River Way, Eugene OR","chain_name":null,"distance":0},{"name":"Edible Arrangements","code":null,"latitude":41.985126,"longitude":-71.515021,"address":"34 Fournier St, Woonsocket RI","chain_name":null,"distance":0},{"name":"Edible Arrangements","code":null,"latitude":39.7622516,"longitude":-75.1195107,"address":"Point Plaza Shopping Center, Sewell NJ","chain_name":null,"distance":0},{"name":"Edible Arrangements","code":null,"latitude":33.953097,"longitude":-80.373573,"address":"105 E Wesmark Blvd, Sumter SC","chain_name":null,"distance":0},{"name":"Edible Arrangements","code":null,"latitude":26.0328866,"longitude":-80.1727691,"address":"Sheridan Plaza, Hollywood FL","chain_name":null,"distance":0},{"name":"Edible Arrangements","code":null,"latitude":33.9661542,"longitude":-84.4101419,"address":"4880 Lower Roswell Rd, Marietta GA","chain_name":null,"distance":0},{"name":"Edible Arrangements","code":null,"latitude":33.364352,"longitude":-86.825101,"address":"2801 John Hawkins Pkwy, Hoover AL","chain_name":null,"distance":0},{"name":"Edible Arrangements","code":null,"latitude":35.7612774,"longitude":-78.741315,"address":"207 CrossRds Blvd, Cary NC","chain_name":null,"distance":0},{"name":"Edible Arrangements","code":null,"latitude":33.958822,"longitude":-84.137381,"address":"3675 Satellite Boulevard #1010, Duluth GA","chain_name":null,"distance":0},{"name":"Edible Arrangements","code":null,"latitude":43.6517615,"longitude":-79.3727388,"address":"140 Adelaide St, Toronto ON","chain_name":null,"distance":0},{"name":"Edible Arrangements","code":null,"latitude":35.6145169,"longitude":-88.8139469,"address":"The Columns of Jackson, Jackson TN","chain_name":null,"distance":0},{"name":"Edible Arrangements","code":null,"latitude":37.9789421,"longitude":-87.4741609,"address":"240 N Burkhardt Rd, Evansville IN","chain_name":null,"distance":0},{"name":"Edible Arrangements","code":null,"latitude":37.6474638,"longitude":-77.6249734,"address":"The Promenade Shops, Richmond VA","chain_name":null,"distance":0},{"name":"Edible Arrangements","code":null,"latitude":37.502023,"longitude":-77.5738139,"address":"9736 Midlothian Tpke, Richmond VA","chain_name":null,"distance":0},{"name":"Edible Arrangements","code":null,"latitude":39.333008,"longitude":-74.593621,"address":"Ocean Heights Plaza, Somers Point NJ","chain_name":null,"distance":0},{"name":"Edible Arrangements","code":null,"latitude":39.4524708,"longitude":-77.9812452,"address":"North Mall Plaza, Martinsburg WV","chain_name":null,"distance":0},{"name":"Edible Arrangements","code":null,"latitude":34.0617562,"longitude":-118.3086857,"address":"3785 Wilshire Blvd, Los Angeles CA","chain_name":null,"distance":0},{"name":"Edible Arrangements","code":null,"latitude":42.7915948,"longitude":-71.2356485,"address":"236 N BRdway, Salem NH","chain_name":null,"distance":0},{"name":"Edible Arrangements","code":null,"latitude":43.037664,"longitude":-88.147951,"address":"18900 West Bluemound Rd, Brookfield WI","chain_name":null,"distance":0},{"name":"Edible Arrangements","code":null,"latitude":33.77983,"longitude":-116.4632185,"address":"68718 E Palm Canyon Dr, Cathedral City CA","chain_name":null,"distance":0},{"name":"Edible Arrangements","code":null,"latitude":28.0715767,"longitude":-82.723924,"address":"Coral Landings Shopping Center, Palm Harbor FL","chain_name":null,"distance":0},{"name":"Edible Arrangements","code":null,"latitude":40.6821333,"longitude":-73.7518182,"address":"133-22 Springfield Blvd, Springfield Gardens NY","chain_name":null,"distance":0},{"name":"Edible Arrangements","code":null,"latitude":32.8426648,"longitude":-96.9923709,"address":"2654 N Beltline Rd, Irving TX","chain_name":null,"distance":0},{"name":"Edible Arrangements","code":null,"latitude":40.2778478,"longitude":-80.0839431,"address":"Waterdam Centre, Mc Murray PA","chain_name":null,"distance":0},{"name":"Edible Arrangements","code":null,"latitude":36.8364429,"longitude":-119.879274,"address":"6721 N Milburn Ave, Fresno CA","chain_name":null,"distance":0},{"name":"Edible Arrangements","code":null,"latitude":35.027728,"longitude":-80.586743,"address":"3306-A Highway 74 West, Monroe NC","chain_name":null,"distance":0},{"name":"Edible Arrangements","code":null,"latitude":27.697295,"longitude":-97.375703,"address":"5702 South Staples Suite A-4, Corpus Christi TX","chain_name":null,"distance":0},{"name":"Edible Arrangements","code":null,"latitude":39.3870686,"longitude":-76.482335,"address":"Festival at Perry Hall, Nottingham MD","chain_name":null,"distance":0},{"name":"Edible Arrangements","code":null,"latitude":32.01188,"longitude":-102.154157,"address":"5109 W Wadley Ave, Midland TX","chain_name":null,"distance":0},{"name":"Edible Arrangements","code":null,"latitude":41.549938,"longitude":-88.160363,"address":"1508 Essington Rd, Joliet IL","chain_name":null,"distance":0},{"name":"Edible Arrangements","code":null,"latitude":36.032805,"longitude":-95.889051,"address":"7731 E. 91st Street, Tulsa OK","chain_name":null,"distance":0},{"name":"Edible Arrangements","code":null,"latitude":33.8318183,"longitude":-118.2669799,"address":"531 E Carson St, Carson CA","chain_name":null,"distance":0},{"name":"Edible Arrangements","code":null,"latitude":33.8329158,"longitude":-118.1762114,"address":"4102 Orange Ave, Long Beach CA","chain_name":null,"distance":0},{"name":"Edible Arrangements","code":null,"latitude":43.1586786,"longitude":-76.3327095,"address":"Kimbrook Village Square, Baldwinsville NY","chain_name":null,"distance":0},{"name":"Edible Arrangements","code":null,"latitude":40.8536197,"longitude":-81.4385787,"address":"4824 Everhard Rd NW, Canton OH","chain_name":null,"distance":0},{"name":"Edible Arrangements","code":null,"latitude":27.2483831,"longitude":-80.3618313,"address":"East Port Plaza, Port Saint Lucie FL","chain_name":null,"distance":0},{"name":"Edible Arrangements","code":null,"latitude":41.3405617,"longitude":-73.2175571,"address":"525 Main Street, Route 25, Monroe CT","chain_name":null,"distance":0},{"name":"Edible Arrangements","code":null,"latitude":42.079168,"longitude":-72.5309523,"address":"430 N Main Street, East Longmeadow MA","chain_name":null,"distance":0},{"name":"Edible Arrangements","code":null,"latitude":40.6620696,"longitude":-111.8866683,"address":"The Point at 53rd, Murray UT","chain_name":null,"distance":0},{"name":"Edible Arrangements","code":null,"latitude":40.7626462,"longitude":-73.771508,"address":"213-02 42nd Ave, Bayside NY","chain_name":null,"distance":0},{"name":"Edible Arrangements","code":null,"latitude":34.0785315,"longitude":-117.9078051,"address":"411 N Azusa Ave, West Covina CA","chain_name":null,"distance":0},{"name":"Edible Arrangements","code":null,"latitude":33.9594559,"longitude":-84.739379,"address":"8651 Hiram-Acworth Highway Suite #119, Dallas GA","chain_name":null,"distance":0},{"name":"Edible Arrangements","code":null,"latitude":28.0520039,"longitude":-82.3935346,"address":"11401 N 56th St, Tampa FL","chain_name":null,"distance":0},{"name":"Edible Arrangements","code":null,"latitude":39.651715,"longitude":-104.773057,"address":"3571 S Tower Rd, Aurora CO","chain_name":null,"distance":0},{"name":"Edible Arrangements","code":null,"latitude":39.5951571,"longitude":-104.9599634,"address":"2370 E Arapahoe Road, Centennial CO","chain_name":null,"distance":0},{"name":"Edible Arrangements","code":null,"latitude":34.0010027,"longitude":-118.3946208,"address":"10814 Jefferson Blvd, Culver City CA","chain_name":null,"distance":0},{"name":"Edible Arrangements","code":null,"latitude":53.4754253,"longitude":-113.5054415,"address":"4027 - 106 Street, Edmonton AB","chain_name":null,"distance":0},{"name":"Edible Arrangements","code":null,"latitude":34.1778283,"longitude":-118.3408014,"address":"2720 W Burbank Blvd, Burbank CA","chain_name":null,"distance":0},{"name":"Edible Arrangements","code":null,"latitude":33.6386896,"longitude":-112.4046164,"address":"15557 W Bell, Surprise AZ","chain_name":null,"distance":0},{"name":"Edible Arrangements","code":null,"latitude":34.769336,"longitude":-84.967495,"address":"311 S Hamilton St, Dalton GA","chain_name":null,"distance":0},{"name":"Edible Arrangements","code":null,"latitude":36.3033521,"longitude":-119.3831026,"address":"Packwood Creek, Visalia CA","chain_name":null,"distance":0},{"name":"Edible Arrangements","code":null,"latitude":28.3675319,"longitude":-81.4169093,"address":"Deerfield Plaza Shopping Center, Orlando FL","chain_name":null,"distance":0},{"name":"Edible Arrangements","code":null,"latitude":41.1596669,"longitude":-87.8868149,"address":"553 Main St NW, Bourbonnais IL","chain_name":null,"distance":0},{"name":"Edible Arrangements","code":null,"latitude":35.183641,"longitude":-101.934802,"address":"121 Westgate Pkwy, Amarillo TX","chain_name":null,"distance":0},{"name":"Edible Arrangements","code":null,"latitude":42.171978,"longitude":-70.954326,"address":"Pleasant Shops, South Weymouth MA","chain_name":null,"distance":0},{"name":"Edible Arrangements","code":null,"latitude":41.9534732,"longitude":-87.7369222,"address":"4333 W Irving Park Rd, Chicago IL","chain_name":null,"distance":0},{"name":"Edible Arrangements","code":null,"latitude":40.638024,"longitude":-74.07684,"address":"39 Victory Blvd, Staten Island NY","chain_name":null,"distance":0},{"name":"Edible Arrangements","code":null,"latitude":34.04897,"longitude":-117.433842,"address":"11201 Sierra Ave, Fontana CA","chain_name":null,"distance":0},{"name":"Edible Arrangements","code":null,"latitude":42.5761992,"longitude":-88.2050823,"address":"At I94 & Hwy 50, Kenosha WI","chain_name":null,"distance":0},{"name":"Edible Arrangements","code":null,"latitude":39.973133,"longitude":-76.681485,"address":"2300 East Market St, York PA","chain_name":null,"distance":0},{"name":"Edible Arrangements","code":null,"latitude":42.1980987,"longitude":-71.2039657,"address":"Nahatan Place, Norwood MA","chain_name":null,"distance":0},{"name":"Edible Arrangements","code":null,"latitude":25.978762,"longitude":-80.3380241,"address":"14457 Miramar Pkwy, Miramar FL","chain_name":null,"distance":0},{"name":"Edible Arrangements","code":null,"latitude":35.596419,"longitude":-80.875289,"address":"638 River Hwy, Mooresville NC","chain_name":null,"distance":0},{"name":"Edible Arrangements","code":null,"latitude":26.526712,"longitude":-80.163631,"address":"7460 W Boynton Beach Blvd, Boynton Beach FL","chain_name":null,"distance":0},{"name":"Edible Arrangements","code":null,"latitude":42.6455443,"longitude":-71.3083627,"address":"60 Merrimack St, Lowell MA","chain_name":null,"distance":0},{"name":"Edible Arrangements","code":null,"latitude":40.2632649,"longitude":-74.0464486,"address":"879 West Park Ave, Ocean NJ","chain_name":null,"distance":0},{"name":"Edible Arrangements","code":null,"latitude":38.536647,"longitude":-90.497167,"address":"912 Meramec Station Rd, Valley Park MO","chain_name":null,"distance":0},{"name":"Edible Arrangements","code":null,"latitude":38.3746925,"longitude":-76.4344826,"address":"Lusby Town Center, Lusby MD","chain_name":null,"distance":0},{"name":"Edible Arrangements","code":null,"latitude":42.0476237,"longitude":-87.6849894,"address":"1630 Maple Ave, Evanston IL","chain_name":null,"distance":0},{"name":"Edible Arrangements","code":null,"latitude":44.0699583,"longitude":-79.4329366,"address":"17665 Leslie Street, Newmarket ON","chain_name":null,"distance":0},{"name":"Edible Arrangements","code":null,"latitude":43.0006123,"longitude":-78.7411446,"address":"194 Plaza Dr, Williamsville NY","chain_name":null,"distance":0},{"name":"Edible Arrangements","code":null,"latitude":35.1367694,"longitude":-90.0137475,"address":"1430 Union Ave, Memphis TN","chain_name":null,"distance":0},{"name":"Edible Arrangements","code":null,"latitude":40.8290907,"longitude":-77.8056448,"address":"337 Benner Pike, State College PA","chain_name":null,"distance":0},{"name":"Edible Arrangements","code":null,"latitude":38.3528077,"longitude":-81.6856808,"address":"Riverwalk Shopping Center, Charleston WV","chain_name":null,"distance":0},{"name":"Edible Arrangements","code":null,"latitude":40.6071976,"longitude":-74.1625265,"address":"1652 Richmond Ave, Staten Island NY","chain_name":null,"distance":0},{"name":"Edible Arrangements","code":null,"latitude":39.817642,"longitude":-75.5101999,"address":"Lancashire Shopping Center, Wilmington DE","chain_name":null,"distance":0},{"name":"Edible Arrangements","code":null,"latitude":42.1398188,"longitude":-71.516174,"address":"Quarry Square Plaza, Milford MA","chain_name":null,"distance":0},{"name":"Edible Arrangements","code":null,"latitude":34.220089,"longitude":-77.825453,"address":"6766 Wrightsville Ave, Wilmington NC","chain_name":null,"distance":0},{"name":"Edible Arrangements","code":null,"latitude":41.865309,"longitude":-88.105514,"address":"123 East Front St, Wheaton IL","chain_name":null,"distance":0},{"name":"Edible Arrangements","code":null,"latitude":33.3209897,"longitude":-111.7898954,"address":"2487 S Gilbert Road Suite 114, Gilbert AZ","chain_name":null,"distance":0},{"name":"Edible Arrangements","code":null,"latitude":39.2811847,"longitude":-80.2755775,"address":"1222 W Main Street, Bridgeport WV","chain_name":null,"distance":0},{"name":"Edible Arrangements","code":null,"latitude":41.468305,"longitude":-82.015544,"address":"35840 Chester Rd, Avon OH","chain_name":null,"distance":0},{"name":"Edible Arrangements","code":null,"latitude":33.832369,"longitude":-83.882418,"address":"4763 Atlanta Hwy, Loganville GA","chain_name":null,"distance":0},{"name":"Edible Arrangements","code":null,"latitude":41.1388545,"longitude":-73.3210041,"address":"1258 Post Rd E, Westport CT","chain_name":null,"distance":0},{"name":"Edible Arrangements","code":null,"latitude":38.794108,"longitude":-121.269981,"address":"6160 Stanford Ranch Rd, Rocklin CA","chain_name":null,"distance":0},{"name":"Edible Arrangements","code":null,"latitude":38.9866493,"longitude":-77.5342243,"address":"42395 Ryan Rd, Ashburn VA","chain_name":null,"distance":0},{"name":"Edible Arrangements","code":null,"latitude":38.049017,"longitude":-121.373088,"address":"10318 Trinity Pkwy, Stockton CA","chain_name":null,"distance":0},{"name":"Edible Arrangements","code":null,"latitude":35.1704255,"longitude":-78.9739927,"address":"251 Skyland Plaza, Spring Lake NC","chain_name":null,"distance":0},{"name":"Edible Arrangements","code":null,"latitude":40.58379,"longitude":-74.094716,"address":"1854 Hylan Blvd, Staten Island NY","chain_name":null,"distance":0},{"name":"Edible Arrangements","code":null,"latitude":41.9653894,"longitude":-87.8363638,"address":"4731 N Cumberland Ave, Norridge IL","chain_name":null,"distance":0},{"name":"Edible Arrangements","code":null,"latitude":31.9858113,"longitude":-81.0865035,"address":"Piccadilly Square, Savannah GA","chain_name":null,"distance":0},{"name":"Edible Arrangements","code":null,"latitude":42.4976979,"longitude":-71.1241752,"address":"71 Cummings Park, Woburn MA","chain_name":null,"distance":0},{"name":"Edible Arrangements","code":null,"latitude":32.920615,"longitude":-117.213487,"address":"4653 Carmel mountain Rd. Suite 304, San Diego CA","chain_name":null,"distance":0},{"name":"Edible Arrangements","code":null,"latitude":40.667344,"longitude":-73.988138,"address":"500A 5th Ave, Brooklyn NY","chain_name":null,"distance":0},{"name":"Edible Arrangements","code":null,"latitude":33.9972247,"longitude":-117.7154529,"address":"4036 Grand Ave, Chino CA","chain_name":null,"distance":0},{"name":"Edible Arrangements","code":null,"latitude":34.1822938,"longitude":-118.8758649,"address":"235 N Moorpark Rd, Thousand Oaks CA","chain_name":null,"distance":0},{"name":"Edible Arrangements","code":null,"latitude":49.85843,"longitude":-119.491063,"address":"Mission Park Shopping Centre, Kelowna BC","chain_name":null,"distance":0},{"name":"Edible Arrangements","code":null,"latitude":35.415429,"longitude":-80.669888,"address":"5345 Vining St, Concord NC","chain_name":null,"distance":0},{"name":"Edible Arrangements","code":null,"latitude":32.596637,"longitude":-96.945341,"address":"617 Uptown Blvd, Cedar Hill TX","chain_name":null,"distance":0},{"name":"Edible Arrangements","code":null,"latitude":30.178759,"longitude":-95.538203,"address":"6777 Woodlands Pkwy, The Woodlands TX","chain_name":null,"distance":0},{"name":"Edible Arrangements","code":null,"latitude":29.73294,"longitude":-95.754123,"address":"22167 Westheimer Pkwy, Katy TX","chain_name":null,"distance":0},{"name":"Edible Arrangements","code":null,"latitude":27.8362411,"longitude":-82.6818307,"address":"7056 US Hwy 19 N, Pinellas Park FL","chain_name":null,"distance":0},{"name":"Edible Arrangements","code":null,"latitude":42.868618,"longitude":-78.694387,"address":"4779 Transit Rd, Depew NY","chain_name":null,"distance":0},{"name":"Edible Arrangements","code":null,"latitude":35.098599,"longitude":-89.841642,"address":"6641 Poplar Ave, Germantown TN","chain_name":null,"distance":0},{"name":"Edible Arrangements","code":null,"latitude":30.1934925,"longitude":-81.7408708,"address":"6001 Argyle Forest Blvd, Jacksonville FL","chain_name":null,"distance":0},{"name":"Edible Arrangements","code":null,"latitude":33.9554039,"longitude":-117.3897967,"address":"3540 Riverside Plaza Dr, Riverside CA","chain_name":null,"distance":0},{"name":"Edible Arrangements","code":null,"latitude":35.068652,"longitude":-80.8414279,"address":"12239 North Community House Rd, Charlotte NC","chain_name":null,"distance":0},{"name":"Edible Arrangements","code":null,"latitude":38.796412,"longitude":-77.2737272,"address":"9570 Burke Rd, Burke VA","chain_name":null,"distance":0},{"name":"Edible Arrangements","code":null,"latitude":34.0761747,"longitude":-118.3750715,"address":"8453 Beverly Blvd, Los Angeles CA","chain_name":null,"distance":0},{"name":"Edible Arrangements","code":null,"latitude":39.850171,"longitude":-74.198003,"address":"442 Lacey Rd, Forked River NJ","chain_name":null,"distance":0},{"name":"Edible Arrangements","code":null,"latitude":33.3203031,"longitude":-111.8905784,"address":"2875 W Ray Rd, Chandler AZ","chain_name":null,"distance":0},{"name":"Edible Arrangements","code":null,"latitude":41.4737924,"longitude":-73.6608844,"address":"Putnam Plaza, Carmel NY","chain_name":null,"distance":0},{"name":"Edible Arrangements","code":null,"latitude":41.78259,"longitude":-87.872122,"address":"90 Countryside Plaza, Countryside IL","chain_name":null,"distance":0},{"name":"Edible Arrangements","code":null,"latitude":43.1035169,"longitude":-73.747214,"address":"6 Lowe's Drive, Suite 2, Saratoga Springs NY","chain_name":null,"distance":0},{"name":"Edible Arrangements","code":null,"latitude":43.1567252,"longitude":-79.2606512,"address":"111 4th Ave, St Catharines ON","chain_name":null,"distance":0},{"name":"Edible Arrangements","code":null,"latitude":42.412653,"longitude":-71.1483407,"address":"342 Massachusetts Ave, Arlington MA","chain_name":null,"distance":0},{"name":"Edible Arrangements","code":null,"latitude":33.8029725,"longitude":-118.0592594,"address":"4230 Katella Ave, Los Alamitos CA","chain_name":null,"distance":0},{"name":"Edible Arrangements","code":null,"latitude":41.8140942,"longitude":-72.8577425,"address":"304 West Main St, Avon CT","chain_name":null,"distance":0},{"name":"Edible Arrangements","code":null,"latitude":41.8694894,"longitude":-87.6573242,"address":"1212 W Taylor St, Chicago IL","chain_name":null,"distance":0},{"name":"Edible Arrangements","code":null,"latitude":33.6403802,"longitude":-112.0677452,"address":"420 E Bell Rd, Phoenix AZ","chain_name":null,"distance":0},{"name":"Edible Arrangements","code":null,"latitude":42.4629344,"longitude":-83.370607,"address":"32730 Grand River Ave, Farmington MI","chain_name":null,"distance":0},{"name":"Edible Arrangements","code":null,"latitude":42.5333529,"longitude":-83.7826418,"address":"533 West Grand River Ave, Brighton MI","chain_name":null,"distance":0},{"name":"Edible Arrangements","code":null,"latitude":38.773441,"longitude":-77.182925,"address":"Backlick Shopping Center, Springfield VA","chain_name":null,"distance":0},{"name":"Edible Arrangements","code":null,"latitude":42.3689149,"longitude":-71.0950205,"address":"94 Hampshire St, Cambridge MA","chain_name":null,"distance":0},{"name":"Edible Arrangements","code":null,"latitude":35.9540362,"longitude":-86.8026796,"address":"330 Mayfield Dr, Franklin TN","chain_name":null,"distance":0},{"name":"Edible Arrangements","code":null,"latitude":41.922266,"longitude":-87.664775,"address":"2223 N Clybourn Ave, Chicago IL","chain_name":null,"distance":0},{"name":"Edible Arrangements","code":null,"latitude":40.618773,"longitude":-73.925189,"address":"5114 Ave N, Brooklyn NY","chain_name":null,"distance":0},{"name":"Edible Arrangements","code":null,"latitude":39.042809,"longitude":-76.9915763,"address":"11275 New Hampshire Ave, Silver Spring MD","chain_name":null,"distance":0},{"name":"Edible Arrangements","code":null,"latitude":41.0744785,"longitude":-85.2276649,"address":"Shops on Illinois Road, Fort Wayne IN","chain_name":null,"distance":0},{"name":"Edible Arrangements","code":null,"latitude":40.9448446,"longitude":-72.9433907,"address":"346 Route 25A, Rocky Point NY","chain_name":null,"distance":0},{"name":"Edible Arrangements","code":null,"latitude":32.796081,"longitude":-79.884074,"address":"426 W Coleman Blvd, Mount Pleasant SC","chain_name":null,"distance":0},{"name":"Edible Arrangements","code":null,"latitude":34.74527,"longitude":-86.681939,"address":"Waddell Plaza, Huntsville AL","chain_name":null,"distance":0},{"name":"Edible Arrangements","code":null,"latitude":40.9521133,"longitude":-73.7274433,"address":"621 East Boston Post Rd, Mamaroneck NY","chain_name":null,"distance":0},{"name":"Edible Arrangements","code":null,"latitude":26.2106296,"longitude":-80.2042052,"address":"1339 S State Rd 7, North Lauderdale FL","chain_name":null,"distance":0},{"name":"Edible Arrangements","code":null,"latitude":34.4221378,"longitude":-118.5375633,"address":"23023 Soledad Canyon Rd, Saugus CA","chain_name":null,"distance":0},{"name":"Edible Arrangements","code":null,"latitude":30.3881402,"longitude":-91.0623968,"address":"6725 Siegen Lane Ste H, Baton Rouge LA","chain_name":null,"distance":0},{"name":"Edible Arrangements","code":null,"latitude":43.7041384,"longitude":-79.388611,"address":"620 Mount Pleasant Rd, Toronto ON","chain_name":null,"distance":0},{"name":"Edible Arrangements","code":null,"latitude":42.2190247,"longitude":-85.586404,"address":"6749 S Westnedge Ave, Portage MI","chain_name":null,"distance":0},{"name":"Edible Arrangements","code":null,"latitude":42.5937912,"longitude":-71.2102819,"address":"1768 Main St, Tewksbury MA","chain_name":null,"distance":0},{"name":"Edible Arrangements","code":null,"latitude":45.4863872,"longitude":-73.5874332,"address":"4156B Ste. Catherine Street West, Westmount QC","chain_name":null,"distance":0},{"name":"Edible Arrangements","code":null,"latitude":40.7627201,"longitude":-73.9161249,"address":"30-47 Steinway St, Astoria NY","chain_name":null,"distance":0},{"name":"Edible Arrangements","code":null,"latitude":33.5271883,"longitude":-82.1216332,"address":"4216 Washington Rd, Evans GA","chain_name":null,"distance":0},{"name":"Edible Arrangements","code":null,"latitude":34.1482162,"longitude":-118.2565285,"address":"201 N Orange Str, Glendale CA","chain_name":null,"distance":0},{"name":"Edible Arrangements","code":null,"latitude":40.5818185,"longitude":-74.4912862,"address":"647 Bound Brook Rd, Middlesex NJ","chain_name":null,"distance":0},{"name":"Edible Arrangements","code":null,"latitude":41.730419,"longitude":-71.2803404,"address":"8 Turner St, Warren RI","chain_name":null,"distance":0},{"name":"Edible Arrangements","code":null,"latitude":44.7368996,"longitude":-85.5954044,"address":"1704 S Garfield Ave, Traverse City MI","chain_name":null,"distance":0},{"name":"Edible Arrangements","code":null,"latitude":36.825138,"longitude":-76.402947,"address":"3916 Portsmouth Blvd. Ste B-2, Chesapeake VA","chain_name":null,"distance":0},{"name":"Edible Arrangements","code":null,"latitude":43.2092192,"longitude":-77.7039521,"address":"2833 Ridge Road West, Greece NY","chain_name":null,"distance":0},{"name":"Edible Arrangements","code":null,"latitude":34.2620685,"longitude":-85.1694365,"address":"315 Riverside Pkwy, Rome GA","chain_name":null,"distance":0},{"name":"Edible Arrangements","code":null,"latitude":37.0486798,"longitude":-76.3924728,"address":"Coliseum Crossing Shopping Center, Hampton VA","chain_name":null,"distance":0},{"name":"Edible Arrangements","code":null,"latitude":36.1300389,"longitude":-115.277064,"address":"8520 West Desert Inn Rd, Las Vegas NV","chain_name":null,"distance":0},{"name":"Edible Arrangements","code":null,"latitude":38.1377691,"longitude":-121.2882319,"address":"224 N Ham Ln, Lodi CA","chain_name":null,"distance":0},{"name":"Edible Arrangements","code":null,"latitude":39.142499,"longitude":-121.645647,"address":"1641 Colusa Hwy, Yuba City CA","chain_name":null,"distance":0},{"name":"Edible Arrangements","code":null,"latitude":28.0629768,"longitude":-82.5038669,"address":"Dale Mabry Shopping Center, Tampa FL","chain_name":null,"distance":0},{"name":"Edible Arrangements","code":null,"latitude":40.8837509,"longitude":-74.478367,"address":"276 East Main St, Denville NJ","chain_name":null,"distance":0},{"name":"Edible Arrangements","code":null,"latitude":34.958546,"longitude":-81.043554,"address":"305 Herlong Avenue, Rock Hill SC","chain_name":null,"distance":0},{"name":"Edible Arrangements","code":null,"latitude":40.002368,"longitude":-75.2744589,"address":"31 East Wynnewood Rd, Wynnewood PA","chain_name":null,"distance":0},{"name":"Edible Arrangements","code":null,"latitude":40.994484,"longitude":-73.672543,"address":"262 Boston Post Rd, Port Chester NY","chain_name":null,"distance":0},{"name":"Edible Arrangements","code":null,"latitude":39.3692853,"longitude":-76.7862024,"address":"Brenbrook Plaza, Randallstown MD","chain_name":null,"distance":0},{"name":"Edible Arrangements","code":null,"latitude":38.794274,"longitude":-90.698139,"address":"1308 Highway K, O Fallon MO","chain_name":null,"distance":0},{"name":"Edible Arrangements","code":null,"latitude":43.0746135,"longitude":-89.4375292,"address":"2850 University Ave, Madison WI","chain_name":null,"distance":0},{"name":"Edible Arrangements","code":null,"latitude":38.933692,"longitude":-104.802261,"address":"1234 E Woodmen Rd, Colorado Springs CO","chain_name":null,"distance":0},{"name":"Edible Arrangements","code":null,"latitude":40.7934322,"longitude":-73.4151214,"address":"522 Walt Whitman Rd (Rte 110), Melville NY","chain_name":null,"distance":0},{"name":"Edible Arrangements","code":null,"latitude":34.1287421,"longitude":-117.8306782,"address":"1818A E Route 66, Glendora CA","chain_name":null,"distance":0},{"name":"Edible Arrangements","code":null,"latitude":39.8254976,"longitude":-76.9735434,"address":"490 Eisenhower Dr, Hanover PA","chain_name":null,"distance":0},{"name":"Edible Arrangements","code":null,"latitude":36.7983,"longitude":-119.8045,"address":"Fig Garden Village, Fresno CA","chain_name":null,"distance":0},{"name":"Edible Arrangements","code":null,"latitude":32.2359893,"longitude":-110.8606168,"address":"6176 E Speedway Blvd, Tucson AZ","chain_name":null,"distance":0},{"name":"Edible Arrangements","code":null,"latitude":40.9166338,"longitude":-74.1711468,"address":"171-175 Market Street, Paterson NJ","chain_name":null,"distance":0},{"name":"Edible Arrangements","code":null,"latitude":38.8836521,"longitude":-104.7169988,"address":"3622 New Center Pt, Colorado Springs CO","chain_name":null,"distance":0},{"name":"Edible Arrangements","code":null,"latitude":35.6405908,"longitude":-78.8386505,"address":"416 Village Walk Drive, Holly Springs NC","chain_name":null,"distance":0},{"name":"Edible Arrangements","code":null,"latitude":27.4959121,"longitude":-82.6267415,"address":"6419 Manatee Ave W, Bradenton FL","chain_name":null,"distance":0},{"name":"Edible Arrangements","code":null,"latitude":28.511219,"longitude":-81.729419,"address":"4355 S Hwy 27, Clermont FL","chain_name":null,"distance":0},{"name":"Edible Arrangements","code":null,"latitude":32.752131,"longitude":-97.353376,"address":"2600 West 7th St, Fort Worth TX","chain_name":null,"distance":0}]