[{"name":"Einstein Bros Bagel","code":null,"latitude":42.38944,"longitude":-82.9177,"address":"16828 Kercheval Avenue, Grosse Pointe Park MI","chain_name":null,"distance":0},{"name":"Einstein Bros Bagel","code":null,"latitude":27.29932,"longitude":-82.5306,"address":"3800 South Tamiami Trail, Sarasota FL","chain_name":null,"distance":0},{"name":"Einstein Bros Bagel","code":null,"latitude":38.96261,"longitude":-77.3994,"address":"1230 Elden Street, Herndon VA","chain_name":null,"distance":0},{"name":"Einstein Bros Bagel","code":null,"latitude":38.5773,"longitude":-90.4064,"address":"338 South Kirkwood Road, Saint Louis MO","chain_name":null,"distance":0},{"name":"Einstein Bros Bagel","code":null,"latitude":33.91894,"longitude":-84.3512,"address":"1100 Hammond Drive Northeast Suite 600, Atlanta GA","chain_name":null,"distance":0},{"name":"Einstein Bros Bagel","code":null,"latitude":30.28796,"longitude":-97.7416,"address":"Austin TX","chain_name":null,"distance":0},{"name":"Einstein Bros Bagel","code":null,"latitude":39.65305,"longitude":-104.9036,"address":"7350 East Hampden Avenue, Denver CO","chain_name":null,"distance":0},{"name":"Einstein Bros Bagel","code":null,"latitude":40.10221,"longitude":-75.0286,"address":"9997 Bustleton Avenue, Philadelphia PA","chain_name":null,"distance":0},{"name":"Einstein Bros Bagel","code":null,"latitude":33.4464,"longitude":-112.0455,"address":"Phoenix AZ","chain_name":null,"distance":0},{"name":"Einstein Bros Bagel","code":null,"latitude":32.81215,"longitude":-96.8061,"address":"3827 Lemmon Avenue, Dallas TX","chain_name":null,"distance":0},{"name":"Einstein Bros Bagel","code":null,"latitude":32.33688,"longitude":-110.9777,"address":"7151 North Oracle Road, Tucson AZ","chain_name":null,"distance":0},{"name":"Einstein Bros Bagel","code":null,"latitude":38.62075,"longitude":-76.9164,"address":"3310 Crain Highway, Waldorf MD","chain_name":null,"distance":0},{"name":"Einstein Bros Bagel","code":null,"latitude":44.86105,"longitude":-93.5382,"address":"7824 Market Boulevard, Chanhassen MN","chain_name":null,"distance":0},{"name":"Einstein Bros Bagel","code":null,"latitude":39.79717,"longitude":-105.0771,"address":"5545 Wadsworth Bypass, Arvada CO","chain_name":null,"distance":0},{"name":"Einstein Bros Bagel","code":null,"latitude":32.99804,"longitude":-96.8271,"address":"4727 Frankford Road, Dallas TX","chain_name":null,"distance":0},{"name":"Einstein Bros Bagel","code":null,"latitude":44.98363,"longitude":-93.3788,"address":"7752 Highway 55, Minneapolis MN","chain_name":null,"distance":0},{"name":"Einstein Bros Bagel","code":null,"latitude":33.58264,"longitude":-111.9757,"address":"4912 East Shea Boulevard, Phoenix AZ","chain_name":null,"distance":0},{"name":"Einstein Bros Bagel","code":null,"latitude":39.5238,"longitude":-76.3505,"address":"600 Marketplace Drive, Bel Air MD","chain_name":null,"distance":0},{"name":"Einstein Bros Bagel","code":null,"latitude":32.78779,"longitude":-96.8003,"address":"Forest Preston, Dallas TX","chain_name":null,"distance":0},{"name":"Einstein Bros Bagel","code":null,"latitude":35.10552,"longitude":-106.5895,"address":"5010 Cutler Avenue Northeast, Albuquerque NM","chain_name":null,"distance":0},{"name":"Einstein Bros Bagel","code":null,"latitude":33.47968,"longitude":-111.9261,"address":"2825 North Scottsdale Road, Scottsdale AZ","chain_name":null,"distance":0},{"name":"Einstein Bros Bagel","code":null,"latitude":39.24667,"longitude":-94.6552,"address":"6507 Northwest Barry Road, Kansas City MO","chain_name":null,"distance":0},{"name":"Einstein Bros Bagel","code":null,"latitude":39.66774,"longitude":-104.9407,"address":"2730 South Colorado Boulevard, Denver CO","chain_name":null,"distance":0},{"name":"Einstein Bros Bagel","code":null,"latitude":31.12399,"longitude":-97.7697,"address":"Hood Road, Killeen TX","chain_name":null,"distance":0},{"name":"Einstein Bros Bagel","code":null,"latitude":39.56528,"longitude":-104.8875,"address":"8331 Willow Street, Lone Tree CO","chain_name":null,"distance":0},{"name":"Einstein Bros Bagel","code":null,"latitude":33.49496,"longitude":-111.9864,"address":"4401 East Indian School Road, Phoenix AZ","chain_name":null,"distance":0},{"name":"Einstein Bros Bagel","code":null,"latitude":29.72309,"longitude":-95.4411,"address":"5525 Weslayan Street, Houston TX","chain_name":null,"distance":0},{"name":"Einstein Bros Bagel","code":null,"latitude":42.33065,"longitude":-83.2042,"address":"5700 Mercury Drive, Dearborn MI","chain_name":null,"distance":0},{"name":"Einstein Bros Bagel","code":null,"latitude":38.30551,"longitude":-77.48,"address":"1111 Jefferson Davis Highway, Fredericksburg VA","chain_name":null,"distance":0},{"name":"Einstein Bros Bagel","code":null,"latitude":29.72543,"longitude":-95.4186,"address":"5300 Kirby Drive, Houston TX","chain_name":null,"distance":0},{"name":"Einstein Bros Bagel","code":null,"latitude":38.79751,"longitude":-77.0547,"address":"3556 South Jefferson Street, Alexandria VA","chain_name":null,"distance":0},{"name":"Einstein Bros Bagel","code":null,"latitude":39.54857,"longitude":-104.9918,"address":"9249 South Broadway, Highlands Ranch CO","chain_name":null,"distance":0},{"name":"Einstein Bros Bagel","code":null,"latitude":39.91438,"longitude":-105.0531,"address":"5180 West 120th Avenue, Westminster CO","chain_name":null,"distance":0},{"name":"Einstein Bros Bagel","code":null,"latitude":40.2217,"longitude":-74.9097,"address":"Doublewoods Road, Langhorne PA","chain_name":null,"distance":0},{"name":"Einstein Bros Bagel","code":null,"latitude":41.62766,"longitude":-81.4273,"address":"36099 Euclid Avenue, Willoughby OH","chain_name":null,"distance":0},{"name":"Einstein Bros Bagel","code":null,"latitude":33.42245,"longitude":-111.9263,"address":"725 South Rural Road, Tempe AZ","chain_name":null,"distance":0},{"name":"Einstein Bros Bagel","code":null,"latitude":39.86711,"longitude":-105.0529,"address":"9392 Sheridan Boulevard, Westminster CO","chain_name":null,"distance":0},{"name":"Einstein Bros Bagel","code":null,"latitude":36.62128,"longitude":-87.44,"address":"2840 Bastogne Avenue, Fort Campbell KY","chain_name":null,"distance":0},{"name":"Einstein Bros Bagel","code":null,"latitude":33.01636,"longitude":-96.7089,"address":"1201 North Central Expressway Suite 1, Plano TX","chain_name":null,"distance":0},{"name":"Einstein Bros Bagel","code":null,"latitude":39.96129,"longitude":-83.0003,"address":"41 South High Street, Columbus OH","chain_name":null,"distance":0},{"name":"Einstein Bros Bagel","code":null,"latitude":41.72945,"longitude":-111.8288,"address":"Logan UT","chain_name":null,"distance":0},{"name":"Einstein Bros Bagel","code":null,"latitude":33.38006,"longitude":-111.7885,"address":"1919 South Gilbert Road, Mesa AZ","chain_name":null,"distance":0},{"name":"Einstein Bros Bagel","code":null,"latitude":38.93249,"longitude":-104.7963,"address":"6988 North Academy Boulevard, Colorado Springs CO","chain_name":null,"distance":0},{"name":"Einstein Bros Bagel","code":null,"latitude":41.10872,"longitude":-81.5688,"address":"1751 West Exchange Street, Akron OH","chain_name":null,"distance":0},{"name":"Einstein Bros Bagel","code":null,"latitude":41.43082,"longitude":-81.3918,"address":"54 Shopping Plaza, Chagrin Falls OH","chain_name":null,"distance":0},{"name":"Einstein Bros Bagel","code":null,"latitude":33.82265,"longitude":-116.5466,"address":"109 South Palm Canyon Drive, Palm Springs CA","chain_name":null,"distance":0},{"name":"Einstein Bros Bagel","code":null,"latitude":41.18209,"longitude":-73.2532,"address":"2205 Black Rock Turnpike, Fairfield CT","chain_name":null,"distance":0},{"name":"Einstein Bros Bagel","code":null,"latitude":38.91269,"longitude":-94.6422,"address":"4949 West 119th Street, Shawnee Mission KS","chain_name":null,"distance":0},{"name":"Einstein Bros Bagel","code":null,"latitude":39.59509,"longitude":-104.8477,"address":"12073 East Arapahoe Road, Englewood CO","chain_name":null,"distance":0},{"name":"Einstein Bros Bagel","code":null,"latitude":33.63918,"longitude":-112.0656,"address":"16842 North 7th Street, Phoenix AZ","chain_name":null,"distance":0},{"name":"Einstein Bros Bagel","code":null,"latitude":41.48512,"longitude":-81.7975,"address":"14615 Detroit Avenue, Lakewood OH","chain_name":null,"distance":0},{"name":"Einstein Bros Bagel","code":null,"latitude":33.58276,"longitude":-111.9751,"address":"4912 East Shea Boulevard, Scottsdale AZ","chain_name":null,"distance":0},{"name":"Einstein Bros Bagel","code":null,"latitude":32.83662,"longitude":-97.1349,"address":"2000 Airport Frwy Suite 500-A, Bedford TX","chain_name":null,"distance":0},{"name":"Einstein Bros Bagel","code":null,"latitude":26.35061,"longitude":-80.0875,"address":"10 East Palmetto Park Road, Boca Raton FL","chain_name":null,"distance":0},{"name":"Einstein Bros Bagel","code":null,"latitude":42.30539,"longitude":-83.247,"address":"22171 Michigan Avenue, Dearborn MI","chain_name":null,"distance":0},{"name":"Einstein Bros Bagel","code":null,"latitude":38.97125,"longitude":-94.744,"address":"13624 West 87th Street Parkway, Shawnee Mission KS","chain_name":null,"distance":0},{"name":"Einstein Bros Bagel","code":null,"latitude":40.87889,"longitude":-81.4323,"address":"6736 Strip Avenue Northwest, North Canton OH","chain_name":null,"distance":0},{"name":"Einstein Bros Bagel","code":null,"latitude":29.73772,"longitude":-95.4973,"address":"6383 Westheimer Road, Houston TX","chain_name":null,"distance":0},{"name":"Einstein Bros Bagel","code":null,"latitude":40.01531,"longitude":-105.2582,"address":"1693 28th Street, Boulder CO","chain_name":null,"distance":0},{"name":"Einstein Bros Bagel","code":null,"latitude":39.94696,"longitude":-82.9975,"address":"743 South High Street, Columbus OH","chain_name":null,"distance":0},{"name":"Einstein Bros Bagel","code":null,"latitude":26.34879,"longitude":-80.1538,"address":"22107 Powerline Road, Boca Raton FL","chain_name":null,"distance":0},{"name":"Einstein Bros Bagel","code":null,"latitude":28.01274,"longitude":-82.7088,"address":"2519 North McMullen Booth Road, Clearwater FL","chain_name":null,"distance":0},{"name":"Einstein Bros Bagel","code":null,"latitude":29.55455,"longitude":-95.1209,"address":"923 Bay Area Boulevard, Houston TX","chain_name":null,"distance":0},{"name":"Einstein Bros Bagel","code":null,"latitude":39.5816,"longitude":-105.1289,"address":"7456 South Simms Street, Littleton CO","chain_name":null,"distance":0},{"name":"Einstein Bros Bagel","code":null,"latitude":41.37959,"longitude":-81.7866,"address":"6799 Pearl Road, Cleveland OH","chain_name":null,"distance":0},{"name":"Einstein Bros Bagel","code":null,"latitude":39.08289,"longitude":-94.5817,"address":"2450 Grand Boulevard, Kansas City MO","chain_name":null,"distance":0},{"name":"Einstein Bros Bagel","code":null,"latitude":40.06336,"longitude":-83.0428,"address":"876 Bethel Road, Columbus OH","chain_name":null,"distance":0},{"name":"Einstein Bros Bagel","code":null,"latitude":38.59167,"longitude":-90.3381,"address":"8127 Big Bend Boulevard, Saint Louis MO","chain_name":null,"distance":0},{"name":"Einstein Bros Bagel","code":null,"latitude":39.54533,"longitude":-104.9443,"address":"9385 South Colorado Boulevard, Littleton CO","chain_name":null,"distance":0},{"name":"Einstein Bros Bagel","code":null,"latitude":32.77589,"longitude":-117.154,"address":"5638 Mission Center Road, San Diego CA","chain_name":null,"distance":0},{"name":"Einstein Bros Bagel","code":null,"latitude":39.78958,"longitude":-105.1093,"address":"5131 Kipling Street, Arvada CO","chain_name":null,"distance":0},{"name":"Einstein Bros Bagel","code":null,"latitude":42.49936,"longitude":-83.3588,"address":"27841 Orchard Lake Road, Farmington Hills MI","chain_name":null,"distance":0},{"name":"Einstein Bros Bagel","code":null,"latitude":38.67112,"longitude":-90.4342,"address":"11423 Olive Boulevard, Saint Louis MO","chain_name":null,"distance":0},{"name":"Einstein Bros Bagel","code":null,"latitude":42.3589,"longitude":-83.4668,"address":"640 Ann Arbor Road West, Plymouth MI","chain_name":null,"distance":0},{"name":"Einstein Bros Bagel","code":null,"latitude":29.77279,"longitude":-95.5624,"address":"600 West Sam Houston Parkway North, Houston TX","chain_name":null,"distance":0},{"name":"Einstein Bros Bagel","code":null,"latitude":40.00008,"longitude":-105.2624,"address":"2400 Baseline Road, Boulder CO","chain_name":null,"distance":0},{"name":"Einstein Bros Bagel","code":null,"latitude":39.73909,"longitude":-105.1472,"address":"14401 West Colfax Avenue, Lakewood CO","chain_name":null,"distance":0},{"name":"Einstein Bros Bagel","code":null,"latitude":33.55309,"longitude":-112.0981,"address":"1820 West Northern Avenue, Phoenix AZ","chain_name":null,"distance":0},{"name":"Einstein Bros Bagel","code":null,"latitude":38.88383,"longitude":-94.7727,"address":"16180 West 135th Street, Olathe KS","chain_name":null,"distance":0},{"name":"Einstein Bros Bagel","code":null,"latitude":39.00221,"longitude":-94.6314,"address":"3939 West 69th Terrace, Shawnee Mission KS","chain_name":null,"distance":0},{"name":"Einstein Bros Bagel","code":null,"latitude":41.48197,"longitude":-81.8353,"address":"19234 Detroit Road, Rocky River OH","chain_name":null,"distance":0},{"name":"Einstein Bros Bagel","code":null,"latitude":33.61089,"longitude":-112.1853,"address":"5890 West Thunderbird Road, Glendale AZ","chain_name":null,"distance":0},{"name":"Einstein Bros Bagel","code":null,"latitude":38.87784,"longitude":-94.691,"address":"8700 West 135th Street, Shawnee Mission KS","chain_name":null,"distance":0},{"name":"Einstein Bros Bagel","code":null,"latitude":39.74508,"longitude":-104.9923,"address":"1600 California Street, Denver CO","chain_name":null,"distance":0},{"name":"Einstein Bros Bagel","code":null,"latitude":33.36409,"longitude":-111.9112,"address":"6350 South McClintock Drive, Tempe AZ","chain_name":null,"distance":0},{"name":"Einstein Bros Bagel","code":null,"latitude":40.10332,"longitude":-83.0907,"address":"6700 Sawmill Road, Columbus OH","chain_name":null,"distance":0},{"name":"Einstein Bros Bagel","code":null,"latitude":39.02956,"longitude":-94.6326,"address":"4050 Shawnee Mission Parkway, Shawnee Mission KS","chain_name":null,"distance":0},{"name":"Einstein Bros Bagel","code":null,"latitude":30.28791,"longitude":-97.7414,"address":"2404 Guadalupe Street, Austin TX","chain_name":null,"distance":0},{"name":"Einstein Bros Bagel","code":null,"latitude":38.62415,"longitude":-90.5149,"address":"14173 Clayton Road, Chesterfield MO","chain_name":null,"distance":0},{"name":"Einstein Bros Bagel","code":null,"latitude":39.60978,"longitude":-105.09,"address":"8246 West Bowles Avenue, Littleton CO","chain_name":null,"distance":0},{"name":"Einstein Bros Bagel","code":null,"latitude":39.62696,"longitude":-104.8852,"address":"4920 South Yosemite Street, Englewood CO","chain_name":null,"distance":0},{"name":"Einstein Bros Bagel","code":null,"latitude":32.30821,"longitude":-110.8917,"address":"4708 East Sunrise Drive, Tucson AZ","chain_name":null,"distance":0},{"name":"Einstein Bros Bagel","code":null,"latitude":41.79255,"longitude":-88.1276,"address":"1120 East Ogden Avenue, Naperville IL","chain_name":null,"distance":0},{"name":"Einstein Bros Bagel","code":null,"latitude":38.59276,"longitude":-90.5827,"address":"15828 Manchester Road, Ellisville MO","chain_name":null,"distance":0},{"name":"Einstein Bros Bagel","code":null,"latitude":38.65027,"longitude":-90.3373,"address":"7810 Forsyth Boulevard, Saint Louis MO","chain_name":null,"distance":0},{"name":"Einstein Bros Bagel","code":null,"latitude":39.01458,"longitude":-94.7286,"address":"12221 Shawnee Mission Parkway, Shawnee Mission KS","chain_name":null,"distance":0},{"name":"Einstein Bros Bagel","code":null,"latitude":41.94405,"longitude":-87.6637,"address":"3420 North Southport Avenue, Chicago IL","chain_name":null,"distance":0},{"name":"Einstein Bros Bagel","code":null,"latitude":38.87423,"longitude":-104.7199,"address":"2848 North Powers Boulevard, Colorado Springs CO","chain_name":null,"distance":0},{"name":"Einstein Bros Bagel","code":null,"latitude":32.87262,"longitude":-117.2173,"address":"4150 Regents Park Row, La Jolla CA","chain_name":null,"distance":0},{"name":"Einstein Bros Bagel","code":null,"latitude":30.36051,"longitude":-97.7396,"address":"3010 West Anderson Lane, Austin TX","chain_name":null,"distance":0},{"name":"Einstein Bros Bagel","code":null,"latitude":33.87837,"longitude":-84.3796,"address":"4502 Roswell Road Northeast, Atlanta GA","chain_name":null,"distance":0},{"name":"Einstein Bros Bagel","code":null,"latitude":42.317,"longitude":-71.3635,"address":"44 Main Street, Wayland MA","chain_name":null,"distance":0},{"name":"Einstein Bros Bagel","code":null,"latitude":42.31706,"longitude":-83.2718,"address":"750 North Telegraph Road, Dearborn MI","chain_name":null,"distance":0},{"name":"Einstein Bros Bagel","code":null,"latitude":33.0581,"longitude":-96.7273,"address":"Plano TX","chain_name":null,"distance":0},{"name":"Einstein Bros Bagel","code":null,"latitude":33.6756,"longitude":-117.8315,"address":"17675 Harvard Avenue, Irvine CA","chain_name":null,"distance":0},{"name":"Einstein Bros Bagel","code":null,"latitude":32.81978,"longitude":-117.1796,"address":"5650 Balboa Avenue, San Diego CA","chain_name":null,"distance":0},{"name":"Einstein Bros Bagel","code":null,"latitude":28.05444,"longitude":-82.4014,"address":"5003 East Fowler Avenue, Tampa FL","chain_name":null,"distance":0},{"name":"Einstein Bros Bagel","code":null,"latitude":30.27609,"longitude":-97.7517,"address":"1112 North Lamar Boulevard, Austin TX","chain_name":null,"distance":0},{"name":"Einstein Bros Bagel","code":null,"latitude":33.62959,"longitude":-111.8875,"address":"15768 North Frank Lloyd Wright B, Scottsdale AZ","chain_name":null,"distance":0},{"name":"Einstein Bros Bagel","code":null,"latitude":33.07193,"longitude":-96.75,"address":"7000 Independence Parkway, Plano TX","chain_name":null,"distance":0},{"name":"Einstein Bros Bagel","code":null,"latitude":40.27332,"longitude":-111.6832,"address":"556 University Parkway, Orem UT","chain_name":null,"distance":0},{"name":"Einstein Bros Bagel","code":null,"latitude":40.42583,"longitude":-86.908,"address":"201 Northwestern Avenue, West Lafayette IN","chain_name":null,"distance":0},{"name":"Einstein Bros Bagel","code":null,"latitude":42.42471,"longitude":-71.0691,"address":"69 Middlesex Street, Malden MA","chain_name":null,"distance":0},{"name":"Einstein Bros Bagel","code":null,"latitude":26.00763,"longitude":-80.3913,"address":"18301 Pines Boulevard, Pembroke Pines FL","chain_name":null,"distance":0},{"name":"Einstein Bros Bagel","code":null,"latitude":42.50382,"longitude":-83.2227,"address":"29191 Southfield Road, Southfield MI","chain_name":null,"distance":0},{"name":"Einstein Bros Bagel","code":null,"latitude":30.40036,"longitude":-97.7434,"address":"4501 West Braker Lane, Austin TX","chain_name":null,"distance":0},{"name":"Einstein Bros Bagel","code":null,"latitude":33.04521,"longitude":-96.8275,"address":"5976 West Parker Road, Plano TX","chain_name":null,"distance":0},{"name":"Einstein Bros Bagel","code":null,"latitude":40.62054,"longitude":-111.8561,"address":"7176 Union Park Avenue, Midvale UT","chain_name":null,"distance":0},{"name":"Einstein Bros Bagel","code":null,"latitude":41.8603,"longitude":-88.0051,"address":"440 East Roosevelt Road, Lombard IL","chain_name":null,"distance":0},{"name":"Einstein Bros Bagel","code":null,"latitude":32.70685,"longitude":-97.3606,"address":"3050 South University Drive, Fort Worth TX","chain_name":null,"distance":0},{"name":"Einstein Bros Bagel","code":null,"latitude":27.85722,"longitude":-82.6387,"address":"9346 4th Street North, Saint Petersburg FL","chain_name":null,"distance":0},{"name":"Einstein Bros Bagel","code":null,"latitude":33.306,"longitude":-111.8876,"address":"2560 West Chandler Boulevard, Chandler AZ","chain_name":null,"distance":0},{"name":"Einstein Bros Bagel","code":null,"latitude":41.80235,"longitude":-87.9292,"address":"54 South Washington Street, Hinsdale IL","chain_name":null,"distance":0},{"name":"Einstein Bros Bagel","code":null,"latitude":43.06085,"longitude":-89.5049,"address":"7062 Mineral Point Road, Madison WI","chain_name":null,"distance":0},{"name":"Einstein Bros Bagel","code":null,"latitude":33.32599,"longitude":-111.9284,"address":"9900 South Rural Road, Tempe AZ","chain_name":null,"distance":0},{"name":"Einstein Bros Bagel","code":null,"latitude":40.32426,"longitude":-111.7067,"address":"1470 North State Street, Orem UT","chain_name":null,"distance":0},{"name":"Einstein Bros Bagel","code":null,"latitude":35.14761,"longitude":-106.55,"address":"8060 Academy Road Northeast, Albuquerque NM","chain_name":null,"distance":0},{"name":"Einstein Bros Bagel","code":null,"latitude":43.2131,"longitude":-71.5302,"address":"10 Fort Eddy Road, Concord NH","chain_name":null,"distance":0},{"name":"Einstein Bros Bagel","code":null,"latitude":41.80198,"longitude":-87.9294,"address":"54 S Washington Street, Hinsdale IL","chain_name":null,"distance":0},{"name":"Einstein Bros Bagel","code":null,"latitude":43.21684,"longitude":-87.9238,"address":"10950 North Port Washington Road, Mequon WI","chain_name":null,"distance":0},{"name":"Einstein Bros Bagel","code":null,"latitude":32.96754,"longitude":-96.7387,"address":"2403 Promenade Shopping Centre, Richardson TX","chain_name":null,"distance":0},{"name":"Einstein Bros Bagel","code":null,"latitude":33.50912,"longitude":-112.0462,"address":"1641 East Camelback Road, Phoenix AZ","chain_name":null,"distance":0},{"name":"Einstein Bros Bagel","code":null,"latitude":40.62406,"longitude":-111.8235,"address":"2353 Fort Union Boulevard, Salt Lake City UT","chain_name":null,"distance":0},{"name":"Einstein Bros Bagel","code":null,"latitude":26.39425,"longitude":-80.0973,"address":"690 Northwest 51st Street, Boca Raton FL","chain_name":null,"distance":0},{"name":"Einstein Bros Bagel","code":null,"latitude":32.96102,"longitude":-96.769,"address":"15645 Coit Road, Dallas TX","chain_name":null,"distance":0},{"name":"Einstein Bros Bagel","code":null,"latitude":41.77198,"longitude":-88.1485,"address":"22 Jackson Avenue, Naperville IL","chain_name":null,"distance":0},{"name":"Einstein Bros Bagel","code":null,"latitude":27.96054,"longitude":-82.7578,"address":"1916 Gulf To Bay Boulevard, Clearwater FL","chain_name":null,"distance":0},{"name":"Einstein Bros Bagel","code":null,"latitude":32.88121,"longitude":-96.9634,"address":"5330 North Macarthur, Irving TX","chain_name":null,"distance":0},{"name":"Einstein Bros Bagel","code":null,"latitude":26.21191,"longitude":-81.7686,"address":"5311 Airport Pulling Road North, Naples FL","chain_name":null,"distance":0},{"name":"Einstein Bros Bagel","code":null,"latitude":33.61183,"longitude":-111.9948,"address":"4030 East Thunderbird Road, Phoenix AZ","chain_name":null,"distance":0},{"name":"Einstein Bros Bagel","code":null,"latitude":35.08087,"longitude":-106.6179,"address":"2510 Central Avenue Southeast, Albuquerque NM","chain_name":null,"distance":0},{"name":"Einstein Bros Bagel","code":null,"latitude":37.58936,"longitude":-77.5032,"address":"5701 West Broad Street, Richmond VA","chain_name":null,"distance":0},{"name":"Einstein Bros Bagel","code":null,"latitude":43.17778,"longitude":-88.0106,"address":"8301 W Brown Deer Road, Milwaukee WI","chain_name":null,"distance":0},{"name":"Einstein Bros Bagel","code":null,"latitude":33.63938,"longitude":-112.1521,"address":"4304 West Bell Road, Phoenix AZ","chain_name":null,"distance":0},{"name":"Einstein Bros Bagel","code":null,"latitude":28.07304,"longitude":-82.7389,"address":"33119 US Highway 19 North, Palm Harbor FL","chain_name":null,"distance":0},{"name":"Einstein Bros Bagel","code":null,"latitude":43.09495,"longitude":-87.8875,"address":"4301 North Oakland Avenue, Milwaukee WI","chain_name":null,"distance":0},{"name":"Einstein Bros Bagel","code":null,"latitude":40.68685,"longitude":-111.7958,"address":"3923 Wasatch Boulevard, Salt Lake City UT","chain_name":null,"distance":0},{"name":"Einstein Bros Bagel","code":null,"latitude":42.29264,"longitude":-71.235,"address":"946 Highland Avenue, Needham MA","chain_name":null,"distance":0},{"name":"Einstein Bros Bagel","code":null,"latitude":33.46573,"longitude":-112.0657,"address":"530 East McDowell Road, Phoenix AZ","chain_name":null,"distance":0},{"name":"Einstein Bros Bagel","code":null,"latitude":28.60066,"longitude":-81.326,"address":"1965 Aloma Avenue, Winter Park FL","chain_name":null,"distance":0},{"name":"Einstein Bros Bagel","code":null,"latitude":35.10902,"longitude":-106.5158,"address":"11255 Menaul Boulevard Northeast, Albuquerque NM","chain_name":null,"distance":0},{"name":"Einstein Bros Bagel","code":null,"latitude":32.86497,"longitude":-96.8063,"address":"6109 Berkshire Lane, Dallas TX","chain_name":null,"distance":0},{"name":"Einstein Bros Bagel","code":null,"latitude":39.0535,"longitude":-94.2706,"address":"210 Northwest State Route 7, Blue Springs MO","chain_name":null,"distance":0},{"name":"Einstein Bros Bagel","code":null,"latitude":44.89416,"longitude":-93.4202,"address":"10999 Red Circle Drive, Hopkins MN","chain_name":null,"distance":0},{"name":"Einstein Bros Bagel","code":null,"latitude":28.58667,"longitude":-81.365,"address":"1200 South Orlando Avenue, Winter Park FL","chain_name":null,"distance":0},{"name":"Einstein Bros Bagel","code":null,"latitude":40.663,"longitude":-111.5006,"address":"1890 Bonanza Drive, Park City UT","chain_name":null,"distance":0},{"name":"Einstein Bros Bagel","code":null,"latitude":40.76904,"longitude":-111.8768,"address":"481 East South Temple, Salt Lake City UT","chain_name":null,"distance":0},{"name":"Einstein Bros Bagel","code":null,"latitude":40.75056,"longitude":-73.9962,"address":"1695 3rd Avenue At E 96th Street, New York NY","chain_name":null,"distance":0},{"name":"Einstein Bros Bagel","code":null,"latitude":43.0653,"longitude":-87.8782,"address":"2567 North Downer Avenue, Milwaukee WI","chain_name":null,"distance":0},{"name":"Einstein Bros Bagel","code":null,"latitude":38.92765,"longitude":-94.6841,"address":"8600 College Boulevard, Shawnee Mission KS","chain_name":null,"distance":0},{"name":"Einstein Bros Bagel","code":null,"latitude":40.64976,"longitude":-111.9389,"address":"5588 South Redwood Road, Salt Lake Cty UT","chain_name":null,"distance":0},{"name":"Einstein Bros Bagel","code":null,"latitude":32.85454,"longitude":-97.1876,"address":"9159 Boulevard 26, North Richland Hills TX","chain_name":null,"distance":0},{"name":"Einstein Bros Bagel","code":null,"latitude":26.3679,"longitude":-80.1999,"address":"9795 Glades Road, Boca Raton FL","chain_name":null,"distance":0},{"name":"Einstein Bros Bagel","code":null,"latitude":45.19745,"longitude":-93.3497,"address":"3536 Main Street Northwest, Minneapolis MN","chain_name":null,"distance":0},{"name":"Einstein Bros Bagel","code":null,"latitude":38.92139,"longitude":-94.7086,"address":"Shawnee Mission KS","chain_name":null,"distance":0},{"name":"Einstein Bros Bagel","code":null,"latitude":28.66671,"longitude":-81.419,"address":"340 North State Road 434, Altamonte Springs FL","chain_name":null,"distance":0},{"name":"Einstein Bros Bagel","code":null,"latitude":43.07502,"longitude":-89.3963,"address":"652 State Street, Madison WI","chain_name":null,"distance":0},{"name":"Einstein Bros Bagel","code":null,"latitude":40.14522,"longitude":-105.1304,"address":"2311 Clover Basin Drive, Longmont CO","chain_name":null,"distance":0},{"name":"Einstein Bros Bagel","code":null,"latitude":40.23388,"longitude":-111.6583,"address":"43 East Center Street, Provo UT","chain_name":null,"distance":0},{"name":"Einstein Bros Bagel","code":null,"latitude":27.84123,"longitude":-82.7944,"address":"11234 Park Boulevard, Seminole FL","chain_name":null,"distance":0},{"name":"Einstein Bros Bagel","code":null,"latitude":38.94415,"longitude":-94.6079,"address":"10215 State Line Road, Kansas City MO","chain_name":null,"distance":0},{"name":"Einstein Bros Bagel","code":null,"latitude":43.03697,"longitude":-88.125,"address":"17000 West Bluemound Road, Brookfield WI","chain_name":null,"distance":0},{"name":"Einstein Bros Bagel","code":null,"latitude":40.55872,"longitude":-111.889,"address":"72 East 10600 South, Sandy UT","chain_name":null,"distance":0},{"name":"Einstein Bros Bagel","code":null,"latitude":39.71928,"longitude":-104.9535,"address":"200 Fillmore Street, Denver CO","chain_name":null,"distance":0},{"name":"Einstein Bros Bagel","code":null,"latitude":39.73093,"longitude":-104.9407,"address":"895 Colorado Boulevard, Denver CO","chain_name":null,"distance":0},{"name":"Einstein Bros Bagel","code":null,"latitude":42.29,"longitude":-71.0456,"address":"1010 William T Morrissey, Dorchester MA","chain_name":null,"distance":0},{"name":"Einstein Bros Bagel","code":null,"latitude":39.78934,"longitude":-75.0587,"address":"880 South Black Horse Pike, Blackwood NJ","chain_name":null,"distance":0},{"name":"Einstein Bros Bagel","code":null,"latitude":40.68796,"longitude":-80.1023,"address":"20263 Route 19, Cranberry Twp PA","chain_name":null,"distance":0},{"name":"Einstein Bros Bagel","code":null,"latitude":40.76407,"longitude":-111.854,"address":"240 South 1300 East, Salt Lake City UT","chain_name":null,"distance":0},{"name":"Einstein Bros Bagel","code":null,"latitude":43.03531,"longitude":-89.4538,"address":"4515 Verona Road, Madison WI","chain_name":null,"distance":0},{"name":"Einstein Bros Bagel","code":null,"latitude":38.64419,"longitude":-90.5658,"address":"1682 Clarkson Road, Chesterfield MO","chain_name":null,"distance":0},{"name":"Einstein Bros Bagel","code":null,"latitude":40.52829,"longitude":-111.8549,"address":"1297 Draper Parkway, Draper UT","chain_name":null,"distance":0},{"name":"Einstein Bros Bagel","code":null,"latitude":29.75546,"longitude":-95.3661,"address":"Houston TX","chain_name":null,"distance":0},{"name":"Einstein Bros Bagel","code":null,"latitude":41.07402,"longitude":-111.9803,"address":"897 North Main Street, Layton UT","chain_name":null,"distance":0},{"name":"Einstein Bros Bagel","code":null,"latitude":40.29507,"longitude":-74.6816,"address":"3340 US Highway 1, Trenton NJ","chain_name":null,"distance":0},{"name":"Einstein Bros Bagel","code":null,"latitude":40.73628,"longitude":-111.8479,"address":"1520 South 1500 East, Salt Lake City UT","chain_name":null,"distance":0},{"name":"Einstein Bros Bagel","code":null,"latitude":39.67858,"longitude":-104.9732,"address":"1213 East Evans Avenue, Denver CO","chain_name":null,"distance":0},{"name":"Einstein Bros Bagel","code":null,"latitude":40.15741,"longitude":-74.0534,"address":"1933 State Route 35, Wall Township NJ","chain_name":null,"distance":0},{"name":"Einstein Bros Bagel","code":null,"latitude":38.96396,"longitude":-95.2361,"address":"1026 Massachusetts Street, Lawrence KS","chain_name":null,"distance":0},{"name":"Einstein Bros Bagel","code":null,"latitude":40.88457,"longitude":-111.8807,"address":"498 South Main Street, Bountiful UT","chain_name":null,"distance":0},{"name":"Einstein Bros Bagel","code":null,"latitude":42.98851,"longitude":-87.9481,"address":"3129 South 27th Street, Milwaukee WI","chain_name":null,"distance":0},{"name":"Einstein Bros Bagel","code":null,"latitude":38.64041,"longitude":-90.262,"address":"2 North Euclid Avenue, Saint Louis MO","chain_name":null,"distance":0},{"name":"Einstein Bros Bagel","code":null,"latitude":39.90534,"longitude":-74.9368,"address":"882 Route 73 North, Marlton NJ","chain_name":null,"distance":0},{"name":"Einstein Bros Bagel","code":null,"latitude":38.89395,"longitude":-104.8496,"address":"4325 Centennial Boulevard, Colorado Springs CO","chain_name":null,"distance":0},{"name":"Einstein Bros Bagel","code":null,"latitude":32.75122,"longitude":-97.3318,"address":"Fort Worth TX","chain_name":null,"distance":0},{"name":"Einstein Bros Bagel","code":null,"latitude":37.54029,"longitude":-77.5642,"address":"3058 Stony Point Road, Richmond VA","chain_name":null,"distance":0},{"name":"Einstein Bros Bagel","code":null,"latitude":39.59583,"longitude":-104.8887,"address":"6650 South Yosemite Street, Englewood CO","chain_name":null,"distance":0},{"name":"Einstein Bros Bagel","code":null,"latitude":45.23589,"longitude":-93.4084,"address":"Minneapolis MN","chain_name":null,"distance":0},{"name":"Einstein Bros Bagel","code":null,"latitude":40.66651,"longitude":-111.8394,"address":"4764 Highland Drive, Salt Lake City UT","chain_name":null,"distance":0},{"name":"Einstein Bros Bagel","code":null,"latitude":43.04819,"longitude":-87.9054,"address":"544 East Ogden Avenue, Milwaukee WI","chain_name":null,"distance":0},{"name":"Einstein Bros Bagel","code":null,"latitude":32.95407,"longitude":-96.834,"address":"Dallas TX","chain_name":null,"distance":0},{"name":"Einstein Bros Bagel","code":null,"latitude":39.75848,"longitude":-104.9036,"address":"7300 East 29th Avenue, Denver CO","chain_name":null,"distance":0},{"name":"Einstein Bros Bagel","code":null,"latitude":43.12118,"longitude":-89.3179,"address":"3904 East Washington Avenue, Madison WI","chain_name":null,"distance":0},{"name":"Einstein Bros Bagel","code":null,"latitude":45.48083,"longitude":-122.688,"address":"Portland OR","chain_name":null,"distance":0},{"name":"Einstein Bros Bagel","code":null,"latitude":29.87913,"longitude":-95.6461,"address":"15745 Fm 529 Road, Houston TX","chain_name":null,"distance":0},{"name":"Einstein Bros Bagel","code":null,"latitude":39.74975,"longitude":-104.9957,"address":"Denver CO","chain_name":null,"distance":0},{"name":"Einstein Bros Bagel","code":null,"latitude":41.18306,"longitude":-111.9491,"address":"4387 Harrison Boulevard, Ogden UT","chain_name":null,"distance":0},{"name":"Einstein Bros Bagel","code":null,"latitude":43.09565,"longitude":-89.3632,"address":"1738 Fordem Avenue, Madison WI","chain_name":null,"distance":0},{"name":"Einstein Bros Bagel","code":null,"latitude":39.58021,"longitude":-104.9603,"address":"7523 South University Boulevard, Littleton CO","chain_name":null,"distance":0},{"name":"Einstein Bros Bagel","code":null,"latitude":39.77327,"longitude":-104.7946,"address":"16495 East 40th Circle, Aurora CO","chain_name":null,"distance":0},{"name":"Einstein Bros Bagel","code":null,"latitude":40.14539,"longitude":-75.3936,"address":"2732 Avenue, Norristown PA","chain_name":null,"distance":0},{"name":"Einstein Bros Bagel","code":null,"latitude":33.67747,"longitude":-111.9773,"address":"21001 North Tatum Boulevard Suite 1630, Phoenix AZ","chain_name":null,"distance":0},{"name":"Einstein Bros Bagel","code":null,"latitude":39.80211,"longitude":-75.5048,"address":"1732 Marsh Road, Wilmington DE","chain_name":null,"distance":0},{"name":"Einstein Bros Bagel","code":null,"latitude":32.95345,"longitude":-96.804,"address":"14999 Preston Road Suite 108, Dallas TX","chain_name":null,"distance":0},{"name":"Einstein Bros Bagel","code":null,"latitude":35.0684,"longitude":-106.5009,"address":"13170 Central Avenue Southeast, Albuquerque NM","chain_name":null,"distance":0},{"name":"Einstein Bros Bagel","code":null,"latitude":39.60818,"longitude":-104.8867,"address":"Greenwood Village CO","chain_name":null,"distance":0},{"name":"Einstein Bros Bagel","code":null,"latitude":39.72335,"longitude":-105.0812,"address":"490 Wadsworth Boulevard, Lakewood CO","chain_name":null,"distance":0},{"name":"Einstein Bros Bagel","code":null,"latitude":37.64677,"longitude":-77.6151,"address":"3320 Pump Road, Richmond VA","chain_name":null,"distance":0},{"name":"Einstein Bros Bagel","code":null,"latitude":39.71108,"longitude":-104.984,"address":"300 East Alameda Avenue, Denver CO","chain_name":null,"distance":0},{"name":"Einstein Bros Bagel","code":null,"latitude":42.27883,"longitude":-83.7407,"address":"307 S State Street, Ann Arbor MI","chain_name":null,"distance":0},{"name":"Einstein Bros Bagel","code":null,"latitude":37.63957,"longitude":-77.557,"address":"9480 West Broad Street, Richmond VA","chain_name":null,"distance":0},{"name":"Einstein Bros Bagel","code":null,"latitude":37.60445,"longitude":-77.5908,"address":"1368 Gaskins Road, Richmond VA","chain_name":null,"distance":0},{"name":"Einstein Bros Bagel","code":null,"latitude":42.41278,"longitude":-83.4325,"address":"17101 Haggerty Road, Northville MI","chain_name":null,"distance":0},{"name":"Einstein Bros Bagel","code":null,"latitude":42.39368,"longitude":-83.4816,"address":"15077 North Sheldon Road, Plymouth MI","chain_name":null,"distance":0},{"name":"Einstein Bros Bagel","code":null,"latitude":32.83655,"longitude":-96.7544,"address":"6333 East Mockingbird Lane, Dallas TX","chain_name":null,"distance":0},{"name":"Einstein Bros Bagel","code":null,"latitude":40.75056,"longitude":-73.9962,"address":"1336 1st Avenue At E 72nd Street, New York NY","chain_name":null,"distance":0},{"name":"Einstein Bros Bagel","code":null,"latitude":39.73041,"longitude":-104.9751,"address":"1025 East 9th Avenue, Denver CO","chain_name":null,"distance":0},{"name":"Einstein Bros Bagel","code":null,"latitude":44.93756,"longitude":-92.938,"address":"8362 Tamarack Village, Saint Paul MN","chain_name":null,"distance":0},{"name":"Einstein Bros Bagel","code":null,"latitude":40.44243,"longitude":-80.0046,"address":"3 Ppg Place, Pittsburgh PA","chain_name":null,"distance":0},{"name":"Einstein Bros Bagel","code":null,"latitude":33.31986,"longitude":-111.9799,"address":"4803 East Ray Road, Phoenix AZ","chain_name":null,"distance":0},{"name":"Einstein Bros Bagel","code":null,"latitude":29.74062,"longitude":-95.4105,"address":"2801 S Shepherd Drive, Houston TX","chain_name":null,"distance":0},{"name":"Einstein Bros Bagel","code":null,"latitude":33.36672,"longitude":-111.7561,"address":"899 North Val Vista Drive, Gilbert AZ","chain_name":null,"distance":0},{"name":"Einstein Bros Bagel","code":null,"latitude":40.43622,"longitude":-80.1097,"address":"979 Greentree Road, Pgh PA","chain_name":null,"distance":0},{"name":"Einstein Bros Bagel","code":null,"latitude":40.1981,"longitude":-74.8675,"address":"1615 Big Oak Road, Yardley PA","chain_name":null,"distance":0},{"name":"Einstein Bros Bagel","code":null,"latitude":39.74471,"longitude":-104.9681,"address":"1600 East 18th Avenue, Denver CO","chain_name":null,"distance":0},{"name":"Einstein Bros Bagel","code":null,"latitude":33.01848,"longitude":-96.9914,"address":"500 East Fm 3040, Lewisville TX","chain_name":null,"distance":0},{"name":"Einstein Bros Bagel","code":null,"latitude":33.43391,"longitude":-111.8515,"address":"Gilbert AZ","chain_name":null,"distance":0},{"name":"Einstein Bros Bagel","code":null,"latitude":38.60247,"longitude":-90.4387,"address":"12139 Manchester Road, Saint Louis MO","chain_name":null,"distance":0},{"name":"Einstein Bros Bagel","code":null,"latitude":45.08444,"longitude":-93.0108,"address":"4735 Highway 61 North, Saint Paul MN","chain_name":null,"distance":0},{"name":"Einstein Bros Bagel","code":null,"latitude":29.7423,"longitude":-95.3912,"address":"3407 Montrose Boulevard, Houston TX","chain_name":null,"distance":0},{"name":"Einstein Bros Bagel","code":null,"latitude":39.91434,"longitude":-75.3433,"address":"1056 Baltimore Pike, Springfield PA","chain_name":null,"distance":0},{"name":"Einstein Bros Bagel","code":null,"latitude":40.42977,"longitude":-79.8113,"address":"3462 William Penn Highway, Pittsburgh PA","chain_name":null,"distance":0},{"name":"Einstein Bros Bagel","code":null,"latitude":33.63203,"longitude":-111.9279,"address":"15849 North 71st Street, Scottsdale AZ","chain_name":null,"distance":0},{"name":"Einstein Bros Bagel","code":null,"latitude":38.96219,"longitude":-77.3565,"address":"1829 Fountain Drive, Reston VA","chain_name":null,"distance":0},{"name":"Einstein Bros Bagel","code":null,"latitude":44.98322,"longitude":-93.457,"address":"187 Cheshire Lane North, Minneapolis MN","chain_name":null,"distance":0},{"name":"Einstein Bros Bagel","code":null,"latitude":40.44321,"longitude":-79.9553,"address":"4906 Baum Boulevard, Pgh PA","chain_name":null,"distance":0},{"name":"Einstein Bros Bagel","code":null,"latitude":38.8175,"longitude":-77.141,"address":"6244 Little River Turnpike, Alexandria VA","chain_name":null,"distance":0},{"name":"Einstein Bros Bagel","code":null,"latitude":39.80513,"longitude":-84.0352,"address":"4881 Sugar Maple Drive, Dayton OH","chain_name":null,"distance":0},{"name":"Einstein Bros Bagel","code":null,"latitude":44.94826,"longitude":-93.3014,"address":"1513 West Lake Street, Minneapolis MN","chain_name":null,"distance":0},{"name":"Einstein Bros Bagel","code":null,"latitude":44.86227,"longitude":-93.2927,"address":"700 West 78th Street, Minneapolis MN","chain_name":null,"distance":0},{"name":"einstein bagels","code":null,"latitude":33.1971682188985,"longitude":-117.380541181423,"address":"oceanside CA","chain_name":null,"distance":0},{"name":"Einsteins","code":null,"latitude":31.7761855,"longitude":-106.4694687,"address":"2121 Wyoming avenue, El Paso TX","chain_name":null,"distance":0},{"name":"Einstein Bros.Bagels","code":null,"latitude":26.1224386,"longitude":-80.1373174,"address":"17th St. Causeway, Ft. Lauderdale FL","chain_name":null,"distance":0}]