[{"name":"Express, Inc.","code":null,"latitude":42.4850822,"longitude":-71.2165674,"address":"95 Burlington Mall Road, Burlington MA","chain_name":null,"distance":0},{"name":"Express, Inc.","code":null,"latitude":42.2429895,"longitude":-87.9464064,"address":"705 Hawthorne Ctr, Vernon Hills IL","chain_name":null,"distance":0},{"name":"Express, Inc.","code":null,"latitude":30.198257,"longitude":-93.2285779,"address":"604 West Prien Lake Rd., Lake Charles LA","chain_name":null,"distance":0},{"name":"Express, Inc.","code":null,"latitude":37.2525161,"longitude":-121.8630003,"address":"925 Blossom Hill Road, San Jose CA","chain_name":null,"distance":0},{"name":"Express, Inc.","code":null,"latitude":39.3107842,"longitude":-85.9601259,"address":"11622 NE Executive Drive, Edinburgh IN","chain_name":null,"distance":0},{"name":"Express, Inc.","code":null,"latitude":41.8947067,"longitude":-87.6249129,"address":"676 N. Michigan Ave, Chicago IL","chain_name":null,"distance":0},{"name":"Express, Inc.","code":null,"latitude":41.6908901,"longitude":-91.601858,"address":"1451 Coral Ridge Ave, Coralville IA","chain_name":null,"distance":0},{"name":"Express, Inc.","code":null,"latitude":32.4029852,"longitude":-90.1290921,"address":"1200 E County Line Rd, Ridgeland MS","chain_name":null,"distance":0},{"name":"Express, Inc.","code":null,"latitude":35.1699368,"longitude":-80.9702407,"address":"5422 New Fashion Way, Charlotte NC","chain_name":null,"distance":0},{"name":"Express, Inc.","code":null,"latitude":41.5995333,"longitude":-93.7489766,"address":"1551 Valley West Dr., West Des Moines IA","chain_name":null,"distance":0},{"name":"Express, Inc.","code":null,"latitude":29.4238014,"longitude":-98.4852742,"address":"849 E. Commerce St., San Antonio TX","chain_name":null,"distance":0},{"name":"Express, Inc.","code":null,"latitude":36.814369,"longitude":-76.071917,"address":"701 Lynnhaven Pkwy, Virginia Beach VA","chain_name":null,"distance":0},{"name":"Express, Inc.","code":null,"latitude":39.5592847,"longitude":-104.8766218,"address":"8505 Park Meadows Center, Littleton CO","chain_name":null,"distance":0},{"name":"Express, Inc.","code":null,"latitude":42.3408466,"longitude":-83.3893383,"address":"35000 Warren Rd., Westland MI","chain_name":null,"distance":0},{"name":"Express, Inc.","code":null,"latitude":41.8344077,"longitude":-88.0999266,"address":"161 E Loop Road, Wheaton IL","chain_name":null,"distance":0},{"name":"Express, Inc.","code":null,"latitude":29.7156188,"longitude":-95.4162634,"address":"2414 University Blvd., Houston TX","chain_name":null,"distance":0},{"name":"Express, Inc.","code":null,"latitude":40.5566642,"longitude":-74.2988416,"address":"250 Woodbridge Center Dr., Woodbridge NJ","chain_name":null,"distance":0},{"name":"Express, Inc.","code":null,"latitude":38.9130417,"longitude":-94.6430827,"address":"5020 West 119th St, Leawood KS","chain_name":null,"distance":0},{"name":"Express, Inc.","code":null,"latitude":40.7270587,"longitude":-74.0385465,"address":"30 Mall Dr W, Jersey City NJ","chain_name":null,"distance":0},{"name":"Express, Inc.","code":null,"latitude":41.8826609,"longitude":-87.6267498,"address":"17 N State Street, Chicago IL","chain_name":null,"distance":0},{"name":"Express, Inc.","code":null,"latitude":25.8678271,"longitude":-80.3189269,"address":"1675 W. 49th Street, Hialeah FL","chain_name":null,"distance":0},{"name":"Express, Inc.","code":null,"latitude":42.2001115,"longitude":-83.2542158,"address":"23000 Eureka Road, Taylor MI","chain_name":null,"distance":0},{"name":"Express, Inc.","code":null,"latitude":32.873221,"longitude":-80.018178,"address":"4840 Tanger Outlet Blvd, North Charleston SC","chain_name":null,"distance":0},{"name":"Express, Inc.","code":null,"latitude":32.3106212,"longitude":-106.7434388,"address":"700 S Telshor Blvd, Las Cruces NM","chain_name":null,"distance":0},{"name":"Express, Inc.","code":null,"latitude":38.353762,"longitude":-81.6378934,"address":"3000 Charleston Town Center, Charleston WV","chain_name":null,"distance":0},{"name":"Express, Inc.","code":null,"latitude":31.7827485,"longitude":-106.4141337,"address":"6101 Gateway Blvd. W., El Paso TX","chain_name":null,"distance":0},{"name":"Express, Inc.","code":null,"latitude":27.7124879,"longitude":-97.3725361,"address":"5488 S. Padre Island Dr., Corpus Christi TX","chain_name":null,"distance":0},{"name":"Express, Inc.","code":null,"latitude":30.6733387,"longitude":-88.1253164,"address":"3277 Bel Air Mall, Mobile AL","chain_name":null,"distance":0},{"name":"Express, Inc.","code":null,"latitude":40.2164404,"longitude":-80.2112921,"address":"2200 Tanger Blvd., Washington PA","chain_name":null,"distance":0},{"name":"Express, Inc.","code":null,"latitude":32.5432045,"longitude":-117.0379429,"address":"4463 Camino De La Plz, San Ysidro CA","chain_name":null,"distance":0},{"name":"Express, Inc.","code":null,"latitude":43.0886418,"longitude":-77.6359782,"address":"34000 W. Henrietta Road, Rochester NY","chain_name":null,"distance":0},{"name":"Express, Inc.","code":null,"latitude":35.2802462,"longitude":-120.6618996,"address":"887 Higuera St, San Luis Obispo CA","chain_name":null,"distance":0},{"name":"Express, Inc.","code":null,"latitude":26.4030996,"longitude":-81.806883,"address":"23131 Fashion Dr, Estero FL","chain_name":null,"distance":0},{"name":"Express, Inc.","code":null,"latitude":35.5291306,"longitude":-82.603449,"address":"800 Brevard Rd, Asheville NC","chain_name":null,"distance":0},{"name":"Express, Inc.","code":null,"latitude":36.1722542,"longitude":-115.1963237,"address":"4300 Meadows Lane, Las Vegas NV","chain_name":null,"distance":0},{"name":"Express, Inc.","code":null,"latitude":47.1581386,"longitude":-122.2958604,"address":"3500 South Meridian, Puyallup WA","chain_name":null,"distance":0},{"name":"Express, Inc.","code":null,"latitude":39.7323486,"longitude":-105.1588137,"address":"14520 W. Colfax Ave, Lakewood CO","chain_name":null,"distance":0},{"name":"Express, Inc.","code":null,"latitude":43.5731806,"longitude":-89.7860987,"address":"210 N. Gasser Rd., Baraboo WI","chain_name":null,"distance":0},{"name":"Express, Inc.","code":null,"latitude":40.0732776,"longitude":-83.1323201,"address":"5043 Tuttle Crossing Blvd, Dublin OH","chain_name":null,"distance":0},{"name":"Express, Inc.","code":null,"latitude":34.018009,"longitude":-84.5642655,"address":"400 Ernest W. Barrett Pkwy., Kennesaw GA","chain_name":null,"distance":0},{"name":"Express, Inc.","code":null,"latitude":33.1783241,"longitude":-117.3323419,"address":"2525 El Camino Real, Carlsbad CA","chain_name":null,"distance":0},{"name":"Express, Inc.","code":null,"latitude":43.1229336,"longitude":-87.9140687,"address":"5800 North Bayshore Dr., Glendale WI","chain_name":null,"distance":0},{"name":"Express, Inc.","code":null,"latitude":39.9418533,"longitude":-75.0261976,"address":"2000 Route 38, Cherry Hill NJ","chain_name":null,"distance":0},{"name":"Express, Inc.","code":null,"latitude":34.0788175,"longitude":-81.1570604,"address":"100 Columbiana Circle, Columbia SC","chain_name":null,"distance":0},{"name":"Express, Inc.","code":null,"latitude":39.0241209,"longitude":-77.1459575,"address":"7101 Democracy Blvd., Bethesda MD","chain_name":null,"distance":0},{"name":"Express, Inc.","code":null,"latitude":34.4156571,"longitude":-118.5576289,"address":"24201 Valencia Blvd., Valencia CA","chain_name":null,"distance":0},{"name":"Express, Inc.","code":null,"latitude":38.6024545,"longitude":-90.4485852,"address":"158 West County Center, Des Peres MO","chain_name":null,"distance":0},{"name":"Express, Inc.","code":null,"latitude":26.0105739,"longitude":-80.3046137,"address":"11401 Pines Blvd., Pembroke Pines FL","chain_name":null,"distance":0},{"name":"Express, Inc.","code":null,"latitude":42.5411047,"longitude":-70.9442999,"address":"210 Andover St., Peabody MA","chain_name":null,"distance":0},{"name":"Express, Inc.","code":null,"latitude":40.1381317,"longitude":-74.9490242,"address":"638 Neshaminy Blvd., Bensalem PA","chain_name":null,"distance":0},{"name":"Express, Inc.","code":null,"latitude":40.4546823,"longitude":-80.1573664,"address":"100 Robinson Center Drive, Pittsburgh PA","chain_name":null,"distance":0},{"name":"Express, Inc.","code":null,"latitude":39.2027663,"longitude":-84.3774247,"address":"7875 Montgomery Road, Cincinnati OH","chain_name":null,"distance":0},{"name":"Express, Inc.","code":null,"latitude":34.156972,"longitude":-118.437235,"address":"14006 Riverside Dr, Sherman Oaks CA","chain_name":null,"distance":0},{"name":"Express, Inc.","code":null,"latitude":40.7491311,"longitude":-73.985203,"address":"7 West 34th Street, New York NY","chain_name":null,"distance":0},{"name":"Express, Inc.","code":null,"latitude":40.9643119,"longitude":-73.8558069,"address":"18 Second Street, Yonkers NY","chain_name":null,"distance":0},{"name":"Express, Inc.","code":null,"latitude":28.188145,"longitude":-82.349736,"address":"28210 Paseo Dr., Wesley Chapel FL","chain_name":null,"distance":0},{"name":"Express, Inc.","code":null,"latitude":42.167247,"longitude":-72.6413271,"address":"50 Holyoke Street, Holyoke MA","chain_name":null,"distance":0},{"name":"Express, Inc.","code":null,"latitude":42.3681336,"longitude":-71.0763184,"address":"100 CambridgeSide Plaza, Cambridge MA","chain_name":null,"distance":0},{"name":"Express, Inc.","code":null,"latitude":33.4469529,"longitude":-86.732927,"address":"216 Summit Blvd, Birmingham AL","chain_name":null,"distance":0},{"name":"Express, Inc.","code":null,"latitude":40.9177699,"longitude":-72.7129027,"address":"1016 Tanger Mall Dr., Riverhead NY","chain_name":null,"distance":0},{"name":"Express, Inc.","code":null,"latitude":37.9675707,"longitude":-122.0606591,"address":"1 Sunvalley Mall, Concord CA","chain_name":null,"distance":0},{"name":"Express, Inc.","code":null,"latitude":32.656186,"longitude":-117.065741,"address":"3030 Plaza Bonita Rd., National City CA","chain_name":null,"distance":0},{"name":"Express, Inc.","code":null,"latitude":44.8805653,"longitude":-93.3252634,"address":"2165 Southdale Center, Edina MN","chain_name":null,"distance":0},{"name":"Express, Inc.","code":null,"latitude":43.6402725,"longitude":-70.3342655,"address":"214 Maine Mall, South Portland ME","chain_name":null,"distance":0},{"name":"Express, Inc.","code":null,"latitude":47.7069872,"longitude":-122.3261615,"address":"401 Ne Northgate Way, Seattle WA","chain_name":null,"distance":0},{"name":"Express, Inc.","code":null,"latitude":43.1280801,"longitude":-89.3043221,"address":"89 East Towne Mall, Madison WI","chain_name":null,"distance":0},{"name":"Express, Inc.","code":null,"latitude":39.3827373,"longitude":-77.4060411,"address":"5500 Buckeystown Pike, Frederick MD","chain_name":null,"distance":0},{"name":"Express, Inc.","code":null,"latitude":41.7245375,"longitude":-71.4763504,"address":"400 Bald Hill Rd, Warwick RI","chain_name":null,"distance":0},{"name":"Express, Inc.","code":null,"latitude":36.8494928,"longitude":-76.2893703,"address":"300 Monticello Ave, Norfolk VA","chain_name":null,"distance":0},{"name":"Express, Inc.","code":null,"latitude":29.5528923,"longitude":-95.3923575,"address":"11200 Broadway Suite 1130, Pearland TX","chain_name":null,"distance":0},{"name":"Express, Inc.","code":null,"latitude":42.3957314,"longitude":-71.0810221,"address":"301 Artisan Way, Somerville MA","chain_name":null,"distance":0},{"name":"Express, Inc.","code":null,"latitude":41.6947913,"longitude":-83.6405727,"address":"5001 Monroe, Toledo OH","chain_name":null,"distance":0},{"name":"Express, Inc.","code":null,"latitude":26.7217381,"longitude":-80.0876735,"address":"1801 Palm Beach Lakes Blvd., West Palm Beach FL","chain_name":null,"distance":0},{"name":"Express, Inc.","code":null,"latitude":40.2995221,"longitude":-76.8194439,"address":"4400 Jonestown Road, Harrisburg PA","chain_name":null,"distance":0},{"name":"Express, Inc.","code":null,"latitude":33.9363503,"longitude":-118.1224429,"address":"234 Stonewood Street, Downey CA","chain_name":null,"distance":0},{"name":"Express, Inc.","code":null,"latitude":30.2570336,"longitude":-81.5249626,"address":"4711 River City Drive, Jacksonville FL","chain_name":null,"distance":0},{"name":"Express, Inc.","code":null,"latitude":42.0681078,"longitude":-80.1039467,"address":"Millcreek Mall, Erie PA","chain_name":null,"distance":0},{"name":"Express, Inc.","code":null,"latitude":47.2991922,"longitude":-122.2455457,"address":"1101 Outlet Collection Way, Auburn WA","chain_name":null,"distance":0},{"name":"Express, Inc.","code":null,"latitude":38.8608659,"longitude":-77.3573912,"address":"11825 Fair Oaks, Fairfax VA","chain_name":null,"distance":0},{"name":"Express, Inc.","code":null,"latitude":43.4768461,"longitude":-83.9744994,"address":"4845 Fashion Sq Mall, Saginaw MI","chain_name":null,"distance":0},{"name":"Express, Inc.","code":null,"latitude":43.0293176,"longitude":-77.4448788,"address":"7979 Victor-Pittsford Rd, Victor NY","chain_name":null,"distance":0},{"name":"Express, Inc.","code":null,"latitude":42.4610998,"longitude":-71.0269103,"address":"1277 Broadway, Saugus MA","chain_name":null,"distance":0},{"name":"Express, Inc.","code":null,"latitude":35.3688916,"longitude":-80.7223703,"address":"8111 Concord Mills Road, Concord NC","chain_name":null,"distance":0},{"name":"Express, Inc.","code":null,"latitude":41.236614,"longitude":-73.0362329,"address":"1201 Boston Post Rd, Milford CT","chain_name":null,"distance":0},{"name":"Express, Inc.","code":null,"latitude":29.7328654,"longitude":-95.6470341,"address":"1000 W Oaks Mall, Houston TX","chain_name":null,"distance":0},{"name":"Express, Inc.","code":null,"latitude":40.2915834,"longitude":-74.6861183,"address":"3320 Brunswick Pike, Lawrenceville NJ","chain_name":null,"distance":0},{"name":"Express, Inc.","code":null,"latitude":35.185246,"longitude":-101.9281247,"address":"7701 West Interstate 40, Amarillo TX","chain_name":null,"distance":0},{"name":"Express, Inc.","code":null,"latitude":44.465249,"longitude":-73.1835,"address":"155 Dorset St, South Burlington VT","chain_name":null,"distance":0},{"name":"Express, Inc.","code":null,"latitude":32.9299455,"longitude":-96.8198347,"address":"13350 Dallas Pkwy, Dallas TX","chain_name":null,"distance":0},{"name":"Express, Inc.","code":null,"latitude":28.8023906,"longitude":-81.3376958,"address":"130 Town Center Circle, Sanford FL","chain_name":null,"distance":0},{"name":"Express, Inc.","code":null,"latitude":40.2536455,"longitude":-74.3001769,"address":"3710 Route 9, Freehold NJ","chain_name":null,"distance":0},{"name":"Express, Inc.","code":null,"latitude":40.2882233,"longitude":-74.0535157,"address":"180 State Route 35 South, Eatontown NJ","chain_name":null,"distance":0},{"name":"Express, Inc.","code":null,"latitude":33.8809537,"longitude":-84.4700311,"address":"1441 Cumberland Mall, Atlanta GA","chain_name":null,"distance":0},{"name":"Express, Inc.","code":null,"latitude":35.192866,"longitude":-106.6564349,"address":"10000 Coors Blvd., Albuquerque NM","chain_name":null,"distance":0},{"name":"Express, Inc.","code":null,"latitude":25.790157,"longitude":-80.1395248,"address":"1036 Lincoln Rd., Miami Beach FL","chain_name":null,"distance":0},{"name":"Express, Inc.","code":null,"latitude":40.5445685,"longitude":-80.0087509,"address":"1000 Ross Park Mall Dr., Pittsburgh PA","chain_name":null,"distance":0},{"name":"Express, Inc.","code":null,"latitude":40.2224268,"longitude":-76.9323148,"address":"3506 Capital City Mall, Camp Hill PA","chain_name":null,"distance":0},{"name":"Express, Inc.","code":null,"latitude":40.6819168,"longitude":-73.4354282,"address":"355 Sunrise Mall, Massapequa NY","chain_name":null,"distance":0},{"name":"Express, Inc.","code":null,"latitude":32.7981724,"longitude":-80.0318778,"address":"2070 Sam Rittenberg Blvd, Charleston SC","chain_name":null,"distance":0},{"name":"Express, Inc.","code":null,"latitude":40.8140119,"longitude":-96.6418261,"address":"414 Gateway Mall, Lincoln NE","chain_name":null,"distance":0},{"name":"Express, Inc.","code":null,"latitude":42.5113886,"longitude":-92.4345707,"address":"6301 University Ave., Cedar Falls IA","chain_name":null,"distance":0},{"name":"Express, Inc.","code":null,"latitude":30.0159834,"longitude":-90.2492498,"address":"1401 West Esplanade Ave, Kenner LA","chain_name":null,"distance":0},{"name":"Express, Inc.","code":null,"latitude":36.3026299,"longitude":-86.6975705,"address":"1000 Rivergate Parkway, Goodlettsville TN","chain_name":null,"distance":0},{"name":"Express, Inc.","code":null,"latitude":41.498545,"longitude":-81.4939346,"address":"26300 Cedar Rd, Beachwood OH","chain_name":null,"distance":0},{"name":"Express, Inc.","code":null,"latitude":30.0112362,"longitude":-95.2693699,"address":"20131 Highway 59 N, Humble TX","chain_name":null,"distance":0},{"name":"Express, Inc.","code":null,"latitude":34.0736912,"longitude":-117.5503915,"address":"1 Mills Circle, Ontario CA","chain_name":null,"distance":0},{"name":"Express, Inc.","code":null,"latitude":30.0060907,"longitude":-90.1573392,"address":"3301 Veterans Memorial Blvd., Metairie LA","chain_name":null,"distance":0},{"name":"Express, Inc.","code":null,"latitude":36.0632284,"longitude":-95.8818735,"address":"7021 S. Memorial Drive, Tulsa OK","chain_name":null,"distance":0},{"name":"Express, Inc.","code":null,"latitude":33.8324138,"longitude":-118.3475912,"address":"3525 W Carson St, Torrance CA","chain_name":null,"distance":0},{"name":"Express, Inc.","code":null,"latitude":34.849955,"longitude":-82.3330837,"address":"700 Haywood Road, Greenville SC","chain_name":null,"distance":0},{"name":"Express, Inc.","code":null,"latitude":26.2396082,"longitude":-80.2509709,"address":"9059 West Atlantic Blvd., Coral Springs FL","chain_name":null,"distance":0},{"name":"Express, Inc.","code":null,"latitude":29.5190183,"longitude":-98.4961695,"address":"7400 San Pedro Avenue, San Antonio TX","chain_name":null,"distance":0},{"name":"Express, Inc.","code":null,"latitude":33.5347482,"longitude":-112.2667391,"address":"6800 North 95th Ave., Glendale AZ","chain_name":null,"distance":0},{"name":"Express, Inc.","code":null,"latitude":38.8649611,"longitude":-77.0631571,"address":"1100 South Joyce Street, Arlington VA","chain_name":null,"distance":0},{"name":"Express, Inc.","code":null,"latitude":36.107504,"longitude":-86.814796,"address":"2126 Abbott Martin Rd., Nashville TN","chain_name":null,"distance":0},{"name":"Express, Inc.","code":null,"latitude":26.3659037,"longitude":-80.1343444,"address":"6000 Glades Road, Boca Raton FL","chain_name":null,"distance":0},{"name":"Express, Inc.","code":null,"latitude":42.0924944,"longitude":-71.2673289,"address":"249 Patriot Place, Foxborough MA","chain_name":null,"distance":0},{"name":"Express, Inc.","code":null,"latitude":34.1460878,"longitude":-118.2561731,"address":"100 West Broadway, Glendale CA","chain_name":null,"distance":0},{"name":"Express, Inc.","code":null,"latitude":43.0638464,"longitude":-88.0443984,"address":"2500 N. Mayfair Rd., Wauwatosa WI","chain_name":null,"distance":0},{"name":"Express, Inc.","code":null,"latitude":37.4430322,"longitude":-122.171446,"address":"660 Stanford Shopping Ctr, Palo Alto CA","chain_name":null,"distance":0},{"name":"Express, Inc.","code":null,"latitude":44.2692534,"longitude":-88.4705139,"address":"4301 W. Wisconsin Ave., Grand Chute WI","chain_name":null,"distance":0},{"name":"Express, Inc.","code":null,"latitude":28.5570233,"longitude":-81.3400239,"address":"3201 East Colonial Dr., Orlando FL","chain_name":null,"distance":0},{"name":"Express, Inc.","code":null,"latitude":43.8675828,"longitude":-91.1972466,"address":"3800 U.S. Highway 16, La Crosse WI","chain_name":null,"distance":0},{"name":"Express, Inc.","code":null,"latitude":34.190364,"longitude":-118.6038405,"address":"6600 Topanga Canyon Blvd., Canoga Park CA","chain_name":null,"distance":0},{"name":"Express, Inc.","code":null,"latitude":33.7757578,"longitude":-117.8698542,"address":"2800 N Main St, Santa Ana CA","chain_name":null,"distance":0},{"name":"Express, Inc.","code":null,"latitude":41.8394632,"longitude":-88.007161,"address":"203 Yorktown Shopping Ctr, Lombard IL","chain_name":null,"distance":0},{"name":"Express, Inc.","code":null,"latitude":44.0035352,"longitude":-92.4818954,"address":"418 Apache Mall, Rochester MN","chain_name":null,"distance":0},{"name":"Express, Inc.","code":null,"latitude":41.1152164,"longitude":-85.1392043,"address":"4201 Coldwater Blvd, Ft. Wayne IN","chain_name":null,"distance":0},{"name":"Express, Inc.","code":null,"latitude":32.9249452,"longitude":-83.7151885,"address":"5080 Riverside Dr., Macon GA","chain_name":null,"distance":0},{"name":"Express, Inc.","code":null,"latitude":41.5636895,"longitude":-90.5747185,"address":"320 W. Kimberly Rd., Davenport IA","chain_name":null,"distance":0},{"name":"Express, Inc.","code":null,"latitude":34.181108,"longitude":-118.8711756,"address":"202 W Hillcrest Dr., Thousand Oaks CA","chain_name":null,"distance":0},{"name":"Express, Inc.","code":null,"latitude":41.5461984,"longitude":-83.7059272,"address":"3100 Main St., Maumee OH","chain_name":null,"distance":0},{"name":"Express, Inc.","code":null,"latitude":37.3253266,"longitude":-121.9453801,"address":"2855 Stevens Creek Blvd, Santa Clara CA","chain_name":null,"distance":0},{"name":"Express, Inc.","code":null,"latitude":33.0060967,"longitude":-96.9717907,"address":"2401 S. I-35 East, Lewisville TX","chain_name":null,"distance":0},{"name":"Express, Inc.","code":null,"latitude":33.9854413,"longitude":-118.395128,"address":"6000 Sepulveda Boulevard, Culver City CA","chain_name":null,"distance":0},{"name":"Express, Inc.","code":null,"latitude":41.3285755,"longitude":-73.8076819,"address":"650 Lee Blvd, Yorktown Heights NY","chain_name":null,"distance":0},{"name":"Express, Inc.","code":null,"latitude":38.9625618,"longitude":-104.7942916,"address":"1845 Briargate Pkwy, Colorado Springs CO","chain_name":null,"distance":0},{"name":"Express, Inc.","code":null,"latitude":41.4164446,"longitude":-81.9056175,"address":"4954 Great Northern Boulevard, North Olmsted OH","chain_name":null,"distance":0},{"name":"Express, Inc.","code":null,"latitude":42.9157717,"longitude":-85.5884482,"address":"3135 28Th St S.E., Grand Rapids MI","chain_name":null,"distance":0},{"name":"Express, Inc.","code":null,"latitude":33.6907403,"longitude":-117.888973,"address":"3333 Bristol St., Costa Mesa CA","chain_name":null,"distance":0},{"name":"Express, Inc.","code":null,"latitude":38.7723597,"longitude":-77.1800004,"address":"6847 Springfield Mall, Springfield VA","chain_name":null,"distance":0},{"name":"Express, Inc.","code":null,"latitude":32.361365,"longitude":-86.1640363,"address":"7274 Eastchase Parkway, Montgomery AL","chain_name":null,"distance":0},{"name":"Express, Inc.","code":null,"latitude":45.1280124,"longitude":-93.2588476,"address":"194 Northtown Dr. N.E., Blaine MN","chain_name":null,"distance":0},{"name":"Express, Inc.","code":null,"latitude":38.7945102,"longitude":-77.0010248,"address":"6800 Oxon Hill Rd., National Harbor MD","chain_name":null,"distance":0},{"name":"Express, Inc.","code":null,"latitude":40.7729305,"longitude":-73.528687,"address":"358 B Broadway Mall, Hicksville NY","chain_name":null,"distance":0},{"name":"Express, Inc.","code":null,"latitude":40.6370043,"longitude":-111.8872273,"address":"6191 South Street, Murry UT","chain_name":null,"distance":0},{"name":"Express, Inc.","code":null,"latitude":32.1344567,"longitude":-81.243313,"address":"200 Tanger Outlet Blvd, Pooler GA","chain_name":null,"distance":0},{"name":"Express, Inc.","code":null,"latitude":45.55603,"longitude":-94.2101183,"address":"4101 W Division St, St. Cloud MN","chain_name":null,"distance":0},{"name":"Express, Inc.","code":null,"latitude":41.0530774,"longitude":-73.5371438,"address":"100 Greyrock Place, Stamford CT","chain_name":null,"distance":0},{"name":"Express, Inc.","code":null,"latitude":40.8270293,"longitude":-73.9757629,"address":"35 The Promenade, Edgewater NJ","chain_name":null,"distance":0},{"name":"Express, Inc.","code":null,"latitude":38.9440001,"longitude":-76.7337544,"address":"15524 Emerald Way, Bowie MD","chain_name":null,"distance":0},{"name":"Express, Inc.","code":null,"latitude":34.0706719,"longitude":-117.930487,"address":"1526 Plaza Dr., West Covina CA","chain_name":null,"distance":0},{"name":"Express, Inc.","code":null,"latitude":42.5341979,"longitude":-83.1128848,"address":"432 West 14 Mile Rd, Troy MI","chain_name":null,"distance":0},{"name":"Express, Inc.","code":null,"latitude":33.558423,"longitude":-117.668869,"address":"27000 Crown Valley Pkwy, Mission Viejo CA","chain_name":null,"distance":0},{"name":"Express, Inc.","code":null,"latitude":40.0890244,"longitude":-75.3858666,"address":"160 N. Gulph Road, King of Prussia PA","chain_name":null,"distance":0},{"name":"Express, Inc.","code":null,"latitude":39.9332181,"longitude":-105.1329803,"address":"1 W. Flatiron Crossing, Broomfield CO","chain_name":null,"distance":0},{"name":"Express, Inc.","code":null,"latitude":30.3923419,"longitude":-88.9903816,"address":"2800 Beach Blvd, Biloxi MS","chain_name":null,"distance":0},{"name":"Express, Inc.","code":null,"latitude":41.0211971,"longitude":-80.6587878,"address":"7401 Market Street, Youngstown OH","chain_name":null,"distance":0},{"name":"Express, Inc.","code":null,"latitude":40.7483499,"longitude":-74.3232194,"address":"Rt. 24 & JFK Parkway, Short Hills NJ","chain_name":null,"distance":0},{"name":"Express, Inc.","code":null,"latitude":42.7252452,"longitude":-84.4195536,"address":"1982 Grand River Ave., Okemos MI","chain_name":null,"distance":0},{"name":"Express, Inc.","code":null,"latitude":28.4747746,"longitude":-81.4519078,"address":"4951 International Drive, Orlando FL","chain_name":null,"distance":0},{"name":"Express, Inc.","code":null,"latitude":34.7534383,"longitude":-92.3431155,"address":"6000 West Markham, Little Rock AR","chain_name":null,"distance":0},{"name":"Express, Inc.","code":null,"latitude":33.030978,"longitude":-96.832795,"address":"6121 West Park Blvd, Plano TX","chain_name":null,"distance":0},{"name":"Express, Inc.","code":null,"latitude":43.097779,"longitude":-78.9791289,"address":"1900 Military Rd, Niagara Falls NY","chain_name":null,"distance":0},{"name":"Express, Inc.","code":null,"latitude":45.0921401,"longitude":-93.4364817,"address":"12261 Elm Creek Blvd, Maple Grove MN","chain_name":null,"distance":0},{"name":"Express, Inc.","code":null,"latitude":42.301113,"longitude":-71.3819171,"address":"1245 Worcester Road, Natick MA","chain_name":null,"distance":0},{"name":"Express, Inc.","code":null,"latitude":39.7428701,"longitude":-104.9905083,"address":"500 16th St, Denver CO","chain_name":null,"distance":0},{"name":"Express, Inc.","code":null,"latitude":38.9564535,"longitude":-94.7170027,"address":"11291 West 95th Street, Shawnee Mission KS","chain_name":null,"distance":0},{"name":"Express, Inc.","code":null,"latitude":41.2296986,"longitude":-96.1348419,"address":"3001 S 144th St, Omaha NE","chain_name":null,"distance":0},{"name":"Express, Inc.","code":null,"latitude":29.5431014,"longitude":-95.1526933,"address":"1220 Baybrook Mall, Friendswood TX","chain_name":null,"distance":0},{"name":"Express, Inc.","code":null,"latitude":42.1774601,"longitude":-70.9087745,"address":"94 Derby Street, Hingham MA","chain_name":null,"distance":0},{"name":"Express, Inc.","code":null,"latitude":32.8286764,"longitude":-97.197272,"address":"1100 Melbourne Rd, Hurst TX","chain_name":null,"distance":0},{"name":"Express, Inc.","code":null,"latitude":29.9628334,"longitude":-95.5439693,"address":"1472 Willowbrook Mall, Houston TX","chain_name":null,"distance":0},{"name":"Express, Inc.","code":null,"latitude":32.9532003,"longitude":-96.6112325,"address":"340 Cedar Sage Dr, Garland TX","chain_name":null,"distance":0},{"name":"Express, Inc.","code":null,"latitude":31.2774645,"longitude":-92.4613055,"address":"3437 Masonic Dr., Alexandria LA","chain_name":null,"distance":0},{"name":"Express, Inc.","code":null,"latitude":30.1642343,"longitude":-95.4553336,"address":"1201 Lake Woodlands Dr, Spring TX","chain_name":null,"distance":0},{"name":"Express, Inc.","code":null,"latitude":31.8149873,"longitude":-106.5444562,"address":"750 Sunland Park Dr, El Paso TX","chain_name":null,"distance":0},{"name":"Express, Inc.","code":null,"latitude":40.391539,"longitude":-86.8505176,"address":"2415 Sagamore Pkwy, Lafayette IN","chain_name":null,"distance":0},{"name":"Express, Inc.","code":null,"latitude":32.2191984,"longitude":-110.8655885,"address":"5870 East Broadway Blvd., Tucson AZ","chain_name":null,"distance":0},{"name":"Express, Inc.","code":null,"latitude":25.9569405,"longitude":-80.1430777,"address":"19501 Biscayne Blvd., Miami FL","chain_name":null,"distance":0},{"name":"Express, Inc.","code":null,"latitude":46.8586945,"longitude":-96.8463539,"address":"3902 13Th Ave S, Fargo ND","chain_name":null,"distance":0},{"name":"Express, Inc.","code":null,"latitude":32.5196508,"longitude":-93.7409252,"address":"540 Boardwalk Blvd, Bossier City LA","chain_name":null,"distance":0},{"name":"Express, Inc.","code":null,"latitude":33.7234218,"longitude":-116.3926205,"address":"72840 Highway 111, Palm Desert CA","chain_name":null,"distance":0},{"name":"Express, Inc.","code":null,"latitude":38.596603,"longitude":-89.978423,"address":"134 St. Clair Square, Fairview Heights IL","chain_name":null,"distance":0},{"name":"Express, Inc.","code":null,"latitude":40.3413868,"longitude":-75.9703538,"address":"1665 State Hill Rd, Wyomissing PA","chain_name":null,"distance":0},{"name":"Express, Inc.","code":null,"latitude":46.804569,"longitude":-92.159865,"address":"1600 Miller Trunk Highway, Duluth MN","chain_name":null,"distance":0},{"name":"Express, Inc.","code":null,"latitude":33.6151895,"longitude":-117.8751768,"address":"367 Newport Ctr Dr, Newport Beach CA","chain_name":null,"distance":0},{"name":"Express, Inc.","code":null,"latitude":40.0671623,"longitude":-76.3390039,"address":"142 Park City Center, Lancaster PA","chain_name":null,"distance":0},{"name":"Express, Inc.","code":null,"latitude":32.6783369,"longitude":-97.3984869,"address":"4800 S. Hulen St, Fort Worth TX","chain_name":null,"distance":0},{"name":"Express, Inc.","code":null,"latitude":39.0411137,"longitude":-94.5929041,"address":"429 Nichols Rd., Kansas City MO","chain_name":null,"distance":0},{"name":"Express, Inc.","code":null,"latitude":40.6103496,"longitude":-73.9210396,"address":"5036 Kings Plaza, Brooklyn NY","chain_name":null,"distance":0},{"name":"Express, Inc.","code":null,"latitude":40.8629845,"longitude":-73.1297371,"address":"251 Smith Haven Mall, Lake Grove NY","chain_name":null,"distance":0},{"name":"Express, Inc.","code":null,"latitude":31.516242,"longitude":-97.1887295,"address":"6001 W. Waco Dr, Waco TX","chain_name":null,"distance":0},{"name":"Express, Inc.","code":null,"latitude":30.475326,"longitude":-87.207522,"address":"5100 North 9Th Ave, Pensacola FL","chain_name":null,"distance":0},{"name":"Express, Inc.","code":null,"latitude":40.8540649,"longitude":-81.460856,"address":"4360 Belden Mall, Canton OH","chain_name":null,"distance":0},{"name":"Express, Inc.","code":null,"latitude":33.5248311,"longitude":-117.1541815,"address":"40820 Winchester Road, Temecula CA","chain_name":null,"distance":0},{"name":"Express, Inc.","code":null,"latitude":47.2164165,"longitude":-122.4678568,"address":"4502 South Steele St., Tacoma WA","chain_name":null,"distance":0},{"name":"Express, Inc.","code":null,"latitude":42.6256152,"longitude":-82.9445943,"address":"17420 Hall Road, Clinton Township MI","chain_name":null,"distance":0},{"name":"Express, Inc.","code":null,"latitude":32.8404735,"longitude":-96.9950129,"address":"3880 Irving Mall, Irving TX","chain_name":null,"distance":0},{"name":"Express, Inc.","code":null,"latitude":39.4715273,"longitude":-119.7828852,"address":"5443 Meadowood Mall Cir, Reno NV","chain_name":null,"distance":0},{"name":"Express, Inc.","code":null,"latitude":42.8794012,"longitude":-85.7561264,"address":"3700 Rivertown Pkwy, Grandville MI","chain_name":null,"distance":0},{"name":"Express, Inc.","code":null,"latitude":34.2130425,"longitude":-77.9057715,"address":"3500 Oleander Dr, Wilmington NC","chain_name":null,"distance":0},{"name":"Express, Inc.","code":null,"latitude":30.3963153,"longitude":-97.726808,"address":"11010 Domain Dr., Austin TX","chain_name":null,"distance":0},{"name":"Express, Inc.","code":null,"latitude":39.9521081,"longitude":-75.1678756,"address":"1625 Chestnut Street, Philadelphia PA","chain_name":null,"distance":0},{"name":"Express, Inc.","code":null,"latitude":34.1825766,"longitude":-85.2051659,"address":"2770 Martha Berry Hwy, Rome GA","chain_name":null,"distance":0},{"name":"Express, Inc.","code":null,"latitude":41.1147463,"longitude":-81.4686912,"address":"2000 Brittain Rd, Akron OH","chain_name":null,"distance":0},{"name":"Express, Inc.","code":null,"latitude":40.8329408,"longitude":-77.8007577,"address":"2900 E. College Ave, State College PA","chain_name":null,"distance":0},{"name":"Express, Inc.","code":null,"latitude":43.0324594,"longitude":-88.1088026,"address":"95 N. Moorland Rd, Brookfield WI","chain_name":null,"distance":0},{"name":"Express, Inc.","code":null,"latitude":42.622964,"longitude":-82.985815,"address":"14600 Lakeside Circle, Sterling Heights MI","chain_name":null,"distance":0},{"name":"Express, Inc.","code":null,"latitude":42.3484845,"longitude":-71.082457,"address":"800 Bolyston Street, Boston MA","chain_name":null,"distance":0},{"name":"Express, Inc.","code":null,"latitude":33.3765573,"longitude":-86.807273,"address":"River Chase Galleria, Hoover AL","chain_name":null,"distance":0},{"name":"Express, Inc.","code":null,"latitude":36.0718123,"longitude":-80.2993359,"address":"3320 Silas Creek Pkwy, Winston Salem NC","chain_name":null,"distance":0},{"name":"Express, Inc.","code":null,"latitude":35.6123722,"longitude":-97.5604403,"address":"2501 W. Memorial Rd, Oklahoma City OK","chain_name":null,"distance":0},{"name":"Express, Inc.","code":null,"latitude":39.0367841,"longitude":-77.0549716,"address":"11160 Veirs Mill Rd., Wheaton MD","chain_name":null,"distance":0},{"name":"Express, Inc.","code":null,"latitude":39.9977791,"longitude":-86.1301323,"address":"14400 Clay Terrace Blvd, Carmel IN","chain_name":null,"distance":0},{"name":"Express, Inc.","code":null,"latitude":40.7491669,"longitude":-73.9891134,"address":"901 Avenue of the Americas, New York NY","chain_name":null,"distance":0},{"name":"Express, Inc.","code":null,"latitude":33.0991489,"longitude":-96.8113749,"address":"2601 Preston Rd., Frisco TX","chain_name":null,"distance":0},{"name":"Express, Inc.","code":null,"latitude":42.7099619,"longitude":-73.8184194,"address":"Colonie Center, Albany NY","chain_name":null,"distance":0},{"name":"Express, Inc.","code":null,"latitude":33.8466715,"longitude":-84.3619433,"address":"3393 Peachtree Road, Atlanta GA","chain_name":null,"distance":0},{"name":"Express, Inc.","code":null,"latitude":40.485889,"longitude":-88.956401,"address":"1615 East Empire St, Bloomington IL","chain_name":null,"distance":0},{"name":"Express, Inc.","code":null,"latitude":32.68016,"longitude":-97.1290569,"address":"3811 South Cooper St., Arlington TX","chain_name":null,"distance":0},{"name":"Express, Inc.","code":null,"latitude":26.3659037,"longitude":-80.1343444,"address":"6000 Glades Road, Boca Raton FL","chain_name":null,"distance":0},{"name":"Express, Inc.","code":null,"latitude":38.643548,"longitude":-77.2953745,"address":"2700 Potomac Mills Circle, Woodbridge VA","chain_name":null,"distance":0},{"name":"Express, Inc.","code":null,"latitude":40.7585933,"longitude":-73.9848009,"address":"1552 North Broadway, New York NY","chain_name":null,"distance":0},{"name":"Express, Inc.","code":null,"latitude":41.5508898,"longitude":-72.8078576,"address":"470 Lewis Ave, Meriden CT","chain_name":null,"distance":0},{"name":"Express, Inc.","code":null,"latitude":41.8069521,"longitude":-72.5453979,"address":"194 Buckland Hills Dr, Manchester CT","chain_name":null,"distance":0},{"name":"Express, Inc.","code":null,"latitude":32.7135249,"longitude":-117.1621361,"address":"324 Horton Plaza, San Diego CA","chain_name":null,"distance":0},{"name":"Express, Inc.","code":null,"latitude":38.0239136,"longitude":-84.4215712,"address":"2308 Sir Barton Dr, Lexington KY","chain_name":null,"distance":0},{"name":"Express, Inc.","code":null,"latitude":39.0473389,"longitude":-94.3579065,"address":"2066 Independence Ctr, Independence MO","chain_name":null,"distance":0},{"name":"Express, Inc.","code":null,"latitude":40.9182278,"longitude":-74.07815,"address":"110 Garden State Plaza, Paramus NJ","chain_name":null,"distance":0},{"name":"Express, Inc.","code":null,"latitude":41.9476524,"longitude":-88.1137224,"address":"104 Stratford Sq, Bloomingdale IL","chain_name":null,"distance":0},{"name":"Express, Inc.","code":null,"latitude":35.0467635,"longitude":-78.9321772,"address":"119 Cross Creek Mall, Fayetteville NC","chain_name":null,"distance":0},{"name":"Express, Inc.","code":null,"latitude":40.6609688,"longitude":-73.7198739,"address":"1075 Green Acres, Valley Stream NY","chain_name":null,"distance":0},{"name":"Express, Inc.","code":null,"latitude":42.91495,"longitude":-78.7637587,"address":"1 Galleria Drive, Buffalo NY","chain_name":null,"distance":0},{"name":"Express, Inc.","code":null,"latitude":32.6301255,"longitude":-117.0876526,"address":"555 Broadway, Chula Vista CA","chain_name":null,"distance":0},{"name":"Express, Inc.","code":null,"latitude":40.7532383,"longitude":-73.6936731,"address":"1526A Union Turnpike, New Hyde Park NY","chain_name":null,"distance":0},{"name":"Express, Inc.","code":null,"latitude":37.11249,"longitude":-76.4958795,"address":"12300 Jefferson Ave., Newport News VA","chain_name":null,"distance":0},{"name":"Express, Inc.","code":null,"latitude":41.4762068,"longitude":-71.9627331,"address":"455 Trolley Line Blvd, Mashantucket CT","chain_name":null,"distance":0},{"name":"Express, Inc.","code":null,"latitude":33.9139094,"longitude":-117.8890946,"address":"2041 Brea Mall, Brea CA","chain_name":null,"distance":0},{"name":"Express, Inc.","code":null,"latitude":37.787186,"longitude":-122.4084086,"address":"301 Geary Street, San Francisco CA","chain_name":null,"distance":0},{"name":"Express, Inc.","code":null,"latitude":34.2684836,"longitude":-119.2486555,"address":"3301-1 E. Main St., Ventura CA","chain_name":null,"distance":0},{"name":"Express, Inc.","code":null,"latitude":47.6128769,"longitude":-122.3352681,"address":"600 Pine St, Seattle WA","chain_name":null,"distance":0},{"name":"Express, Inc.","code":null,"latitude":42.2313003,"longitude":-71.1792491,"address":"950 Providence Hwy, Dedham MA","chain_name":null,"distance":0},{"name":"Express, Inc.","code":null,"latitude":39.8315312,"longitude":-75.0983168,"address":"1750 Deptford Center Rd., Deptford NJ","chain_name":null,"distance":0},{"name":"Express, Inc.","code":null,"latitude":31.8937658,"longitude":-102.335437,"address":"4101 East 42Nd St, Odessa TX","chain_name":null,"distance":0},{"name":"Express, Inc.","code":null,"latitude":40.7380572,"longitude":-73.6128962,"address":"630 Old Country Rd, Garden City NY","chain_name":null,"distance":0},{"name":"Express, Inc.","code":null,"latitude":32.4005839,"longitude":-99.7616553,"address":"4310 Buffalo Gap Rd, Abilene TX","chain_name":null,"distance":0},{"name":"Express, Inc.","code":null,"latitude":42.9719318,"longitude":-78.6931906,"address":"4545 Transit Rd, Buffalo NY","chain_name":null,"distance":0},{"name":"Express, Inc.","code":null,"latitude":37.9890031,"longitude":-84.5271844,"address":"3401 Nicholasville Rd., Lexington KY","chain_name":null,"distance":0},{"name":"Express, Inc.","code":null,"latitude":42.5630759,"longitude":-83.184354,"address":"2800 W. Big Beaver Rd., Troy MI","chain_name":null,"distance":0},{"name":"Express, Inc.","code":null,"latitude":33.9238569,"longitude":-84.3405724,"address":"4400 Ashford Dunwoody Rd., Atlanta GA","chain_name":null,"distance":0},{"name":"Express, Inc.","code":null,"latitude":41.264081,"longitude":-111.9778122,"address":"245 Wall Ave, Ogden UT","chain_name":null,"distance":0},{"name":"Express, Inc.","code":null,"latitude":36.948306,"longitude":-86.4274715,"address":"2625 Scottsville Road, Bowling Green KY","chain_name":null,"distance":0},{"name":"Express, Inc.","code":null,"latitude":32.2891242,"longitude":-110.9741657,"address":"4500 N Oracle Rd, Tucson AZ","chain_name":null,"distance":0},{"name":"Express, Inc.","code":null,"latitude":38.9877712,"longitude":-76.5446263,"address":"123 Annapolis Mall, Annapolis MD","chain_name":null,"distance":0},{"name":"Express, Inc.","code":null,"latitude":26.168699,"longitude":-81.7978402,"address":"1764 Tamiami Trail N, Naples FL","chain_name":null,"distance":0},{"name":"Express, Inc.","code":null,"latitude":33.8605243,"longitude":-118.0929272,"address":"448 Los Cerritos, Cerritos CA","chain_name":null,"distance":0},{"name":"Express, Inc.","code":null,"latitude":41.6669857,"longitude":-70.2969628,"address":"769 Iyannough Road, Hyannis MA","chain_name":null,"distance":0},{"name":"Express, Inc.","code":null,"latitude":33.6421362,"longitude":-112.2252174,"address":"7700 W Arrowhead Towne, Glendale AZ","chain_name":null,"distance":0},{"name":"Express, Inc.","code":null,"latitude":29.7395485,"longitude":-95.462716,"address":"5015 Westheimer Road, Houston TX","chain_name":null,"distance":0},{"name":"Express, Inc.","code":null,"latitude":39.9443947,"longitude":-74.9591866,"address":"400 Route 38, Moorestown NJ","chain_name":null,"distance":0},{"name":"Express, Inc.","code":null,"latitude":38.4274842,"longitude":-78.8428225,"address":"1925 E. Market St, Harrisonburg VA","chain_name":null,"distance":0},{"name":"Express, Inc.","code":null,"latitude":32.0026394,"longitude":-81.1170305,"address":"7804 Abercorn St, Savannah GA","chain_name":null,"distance":0},{"name":"Express, Inc.","code":null,"latitude":30.5104753,"longitude":-97.8368521,"address":"11200 Lakestop Blvd., Cedar Park TX","chain_name":null,"distance":0},{"name":"Express, Inc.","code":null,"latitude":47.6293681,"longitude":-122.2016441,"address":"2070 Bellevue Sq, Bellevue WA","chain_name":null,"distance":0},{"name":"Express, Inc.","code":null,"latitude":40.9568947,"longitude":-74.0693002,"address":"700 Paramus Park, Paramus NJ","chain_name":null,"distance":0},{"name":"Express, Inc.","code":null,"latitude":40.7610584,"longitude":-73.916924,"address":"3101 Steinway Street, Astoria NY","chain_name":null,"distance":0},{"name":"Express, Inc.","code":null,"latitude":35.8400006,"longitude":-78.6799785,"address":"4325 Glenwood Ave, Raleigh NC","chain_name":null,"distance":0},{"name":"Express, Inc.","code":null,"latitude":36.2047589,"longitude":-86.6942061,"address":"178 Opry Mills Drive, Nashville TN","chain_name":null,"distance":0},{"name":"Express, Inc.","code":null,"latitude":33.5028371,"longitude":-111.9294198,"address":"7014 E. Camelback Road, Scottsdale AZ","chain_name":null,"distance":0},{"name":"Express, Inc.","code":null,"latitude":34.1108398,"longitude":-117.5326808,"address":"12559 South Mainstreet, Rancho Cocamonga CA","chain_name":null,"distance":0},{"name":"Express, Inc.","code":null,"latitude":34.0401391,"longitude":-118.4274689,"address":"10800 W. Pico Blvd., Los Angeles CA","chain_name":null,"distance":0},{"name":"Express, Inc.","code":null,"latitude":41.6166698,"longitude":-87.845938,"address":"1724 Orland Square, Orland Park IL","chain_name":null,"distance":0},{"name":"Express, Inc.","code":null,"latitude":37.6568884,"longitude":-77.6201591,"address":"11800 West Broad Street, Short Pump VA","chain_name":null,"distance":0},{"name":"Express, Inc.","code":null,"latitude":45.0351731,"longitude":-93.0220503,"address":"1118 Maplewood Mall, St. Paul MN","chain_name":null,"distance":0},{"name":"Express, Inc.","code":null,"latitude":39.9811904,"longitude":-74.1778074,"address":"1201 Hooper Ave., Toms River NJ","chain_name":null,"distance":0},{"name":"Express, Inc.","code":null,"latitude":40.0528925,"longitude":-82.9146267,"address":"4230 The Strand East, Columbus OH","chain_name":null,"distance":0},{"name":"Express, Inc.","code":null,"latitude":31.7754938,"longitude":-106.3793949,"address":"8401 Gateway West, El Paso TX","chain_name":null,"distance":0},{"name":"Express, Inc.","code":null,"latitude":38.923778,"longitude":-77.229813,"address":"801 1L Tysons Corner Ctr., McLean VA","chain_name":null,"distance":0},{"name":"Express, Inc.","code":null,"latitude":28.0814255,"longitude":-80.6496176,"address":"1700 W. New Haven RD., Melbourne FL","chain_name":null,"distance":0},{"name":"Express, Inc.","code":null,"latitude":42.3892729,"longitude":-87.957284,"address":"6170 W. Grand Avenue, Gurnee IL","chain_name":null,"distance":0},{"name":"Express, Inc.","code":null,"latitude":34.0165308,"longitude":-118.4970153,"address":"1337 Third Street Promenade, Santa Monica CA","chain_name":null,"distance":0},{"name":"Express, Inc.","code":null,"latitude":38.782022,"longitude":-90.363008,"address":"85 South County Ctr Way, St. Louis MO","chain_name":null,"distance":0},{"name":"Express, Inc.","code":null,"latitude":41.3740925,"longitude":-72.1445057,"address":"850 Hartford Turnpike, Waterford CT","chain_name":null,"distance":0},{"name":"Express, Inc.","code":null,"latitude":40.1401961,"longitude":-75.1235037,"address":"2500 Moreland Rd, Willow Grove PA","chain_name":null,"distance":0},{"name":"Express, Inc.","code":null,"latitude":44.8306219,"longitude":-68.7492035,"address":"663 Stillwater Ave, Bangor ME","chain_name":null,"distance":0},{"name":"Express, Inc.","code":null,"latitude":40.1456984,"longitude":-82.9812948,"address":"1500 Polaris Parkway, Columbus OH","chain_name":null,"distance":0},{"name":"Express, Inc.","code":null,"latitude":33.9387698,"longitude":-117.2716062,"address":"22500 Towngate Circle, Moreno Valley CA","chain_name":null,"distance":0},{"name":"Express, Inc.","code":null,"latitude":32.8048081,"longitude":-116.9676624,"address":"415 Parkway Plaza, El Cajon CA","chain_name":null,"distance":0},{"name":"Express, Inc.","code":null,"latitude":35.8232943,"longitude":-90.6641677,"address":"3000 East Highland Drive, Jonesboro AR","chain_name":null,"distance":0},{"name":"Express, Inc.","code":null,"latitude":39.9924415,"longitude":-85.9319071,"address":"13971 Town Center Blvd, Noblesville IN","chain_name":null,"distance":0},{"name":"Express, Inc.","code":null,"latitude":28.0685039,"longitude":-82.5756184,"address":"7926 Citrus Park Town Center, Tampa FL","chain_name":null,"distance":0},{"name":"Express, Inc.","code":null,"latitude":41.4592263,"longitude":-75.6543304,"address":"100 Viewmont Mall, Scranton PA","chain_name":null,"distance":0},{"name":"Express, Inc.","code":null,"latitude":42.4109522,"longitude":-83.4156174,"address":"37608 Six Mile Rd, Livonia MI","chain_name":null,"distance":0},{"name":"Express, Inc.","code":null,"latitude":31.2536055,"longitude":-85.4248631,"address":"900 Commons Dr, Dothan AL","chain_name":null,"distance":0},{"name":"Express, Inc.","code":null,"latitude":34.4189482,"longitude":-119.69974,"address":"621 Paseo Nuevo, Santa Barbara CA","chain_name":null,"distance":0},{"name":"Express, Inc.","code":null,"latitude":30.2576953,"longitude":-97.8069052,"address":"2901 S Capital of Texas Highway, Austin TX","chain_name":null,"distance":0},{"name":"Express, Inc.","code":null,"latitude":40.5620565,"longitude":-111.8950438,"address":"10450 S. State St., Sandy UT","chain_name":null,"distance":0},{"name":"Express, Inc.","code":null,"latitude":25.7773554,"longitude":-80.1855725,"address":"401 Biscayne Blvd., Miami FL","chain_name":null,"distance":0},{"name":"Express, Inc.","code":null,"latitude":36.0396046,"longitude":-79.8380146,"address":"123 Four Seasons Town Centre, Greensboro NC","chain_name":null,"distance":0},{"name":"Express, Inc.","code":null,"latitude":35.5246909,"longitude":-97.5440106,"address":"1901 NW Expresaway, Oklahoma City OK","chain_name":null,"distance":0},{"name":"Express, Inc.","code":null,"latitude":40.4083578,"longitude":-79.9166489,"address":"125 West Bridge St, Homestead PA","chain_name":null,"distance":0},{"name":"Express, Inc.","code":null,"latitude":32.6023238,"longitude":-96.9424976,"address":"305 W. FM 1382, Cedar Hill TX","chain_name":null,"distance":0},{"name":"Express, Inc.","code":null,"latitude":25.7867988,"longitude":-80.3650347,"address":"1455 NW 107th Avenue, Miami FL","chain_name":null,"distance":0},{"name":"Express, Inc.","code":null,"latitude":34.1906045,"longitude":-79.8294873,"address":"2701 David Mcleod Blvd, Florence SC","chain_name":null,"distance":0},{"name":"Express, Inc.","code":null,"latitude":45.014816,"longitude":-93.1729653,"address":"206 Rosedale Center, Roseville MN","chain_name":null,"distance":0},{"name":"Express, Inc.","code":null,"latitude":42.9757146,"longitude":-83.7719266,"address":"3425 S. Linden Rd., Flint MI","chain_name":null,"distance":0},{"name":"Express, Inc.","code":null,"latitude":41.9324943,"longitude":-87.6459395,"address":"659 W. Diversey Parkway, Chicago IL","chain_name":null,"distance":0},{"name":"Express, Inc.","code":null,"latitude":41.4703086,"longitude":-87.3069809,"address":"2121 Southlake Mall, Merrillville IN","chain_name":null,"distance":0},{"name":"Express, Inc.","code":null,"latitude":42.049311,"longitude":-93.6225906,"address":"2801 Grand Ave, Ames IA","chain_name":null,"distance":0},{"name":"Express, Inc.","code":null,"latitude":39.6759758,"longitude":-75.6536851,"address":"715 Christiana Mall, Newark DE","chain_name":null,"distance":0},{"name":"Express, Inc.","code":null,"latitude":34.0883653,"longitude":-117.696378,"address":"2149 Montclair Plaza, Montclair CA","chain_name":null,"distance":0},{"name":"Express, Inc.","code":null,"latitude":41.9106582,"longitude":-87.6521323,"address":"913-49 W. North Avenue, Chicago IL","chain_name":null,"distance":0},{"name":"Express, Inc.","code":null,"latitude":34.0366286,"longitude":-118.0872897,"address":"2131 Montebello Town Center, Montebello CA","chain_name":null,"distance":0},{"name":"Express, Inc.","code":null,"latitude":47.702412,"longitude":-117.4088537,"address":"4750 Division St, Spokane WA","chain_name":null,"distance":0},{"name":"Express, Inc.","code":null,"latitude":28.4855897,"longitude":-81.4316837,"address":"4200 Conroy Rd, Orlando FL","chain_name":null,"distance":0},{"name":"Express, Inc.","code":null,"latitude":43.0842487,"longitude":-73.7502951,"address":"417 Wilton Rd, Saratoga NY","chain_name":null,"distance":0},{"name":"Express, Inc.","code":null,"latitude":37.6778143,"longitude":-97.398623,"address":"4600 West Kellogg, Wichita KS","chain_name":null,"distance":0},{"name":"Express, Inc.","code":null,"latitude":39.1576169,"longitude":-76.7248108,"address":"7000 Arundel Mills Circle, Hanover MD","chain_name":null,"distance":0},{"name":"Express, Inc.","code":null,"latitude":33.8118602,"longitude":-117.5068516,"address":"2790 Cabot Dr, Corona CA","chain_name":null,"distance":0},{"name":"Express, Inc.","code":null,"latitude":42.1274837,"longitude":-75.9732028,"address":"223 Reynolds Rd, Johnson City NY","chain_name":null,"distance":0},{"name":"Express, Inc.","code":null,"latitude":32.498433,"longitude":-92.0587345,"address":"4700 Miilhaven Rd, Monroe LA","chain_name":null,"distance":0},{"name":"Express, Inc.","code":null,"latitude":34.2393118,"longitude":-118.556196,"address":"9301 Tampa Ave, Northridge CA","chain_name":null,"distance":0},{"name":"Express, Inc.","code":null,"latitude":33.3014704,"longitude":-111.8984059,"address":"3111 West Chandler Blvd, Chandler AZ","chain_name":null,"distance":0},{"name":"Express, Inc.","code":null,"latitude":41.2654737,"longitude":-96.0674861,"address":"10000 California St., Omaha NE","chain_name":null,"distance":0},{"name":"Express, Inc.","code":null,"latitude":33.8717488,"longitude":-118.3545844,"address":"1815 Hawthorne Blvd., Redondo Beach CA","chain_name":null,"distance":0},{"name":"Express, Inc.","code":null,"latitude":42.0481999,"longitude":-88.0391739,"address":"117 Woodfield Mall, Schaumburg IL","chain_name":null,"distance":0},{"name":"Express, Inc.","code":null,"latitude":41.0972597,"longitude":-73.9562743,"address":"1000 Palisades Ctr Dr, West Nyack NY","chain_name":null,"distance":0},{"name":"Express, Inc.","code":null,"latitude":32.767975,"longitude":-117.1487166,"address":"1640 Camino Del Rio N., San Diego CA","chain_name":null,"distance":0},{"name":"Express, Inc.","code":null,"latitude":38.6173496,"longitude":-76.9257502,"address":"11110 Mall Drive, Waldorf MD","chain_name":null,"distance":0},{"name":"Express, Inc.","code":null,"latitude":38.0034159,"longitude":-122.5441427,"address":"5800 Northgate Drive, San Rafael CA","chain_name":null,"distance":0},{"name":"Express, Inc.","code":null,"latitude":41.3802275,"longitude":-73.4809725,"address":"7 Backus Ave, Danbury CT","chain_name":null,"distance":0},{"name":"Express, Inc.","code":null,"latitude":32.8735286,"longitude":-117.2100626,"address":"4485 La Jolla Village Drive, San Diego CA","chain_name":null,"distance":0},{"name":"Express, Inc.","code":null,"latitude":42.948344,"longitude":-88.0042188,"address":"5300 South 76Th St, Greendale WI","chain_name":null,"distance":0},{"name":"Express, Inc.","code":null,"latitude":42.0118168,"longitude":-87.7142757,"address":"3401 West Touhy Ave., Lincolnwood IL","chain_name":null,"distance":0},{"name":"Express, Inc.","code":null,"latitude":40.76509,"longitude":-73.303344,"address":"152 The Arches Circle, Deer Park NY","chain_name":null,"distance":0},{"name":"Express, Inc.","code":null,"latitude":37.784118,"longitude":-122.4064352,"address":"865 Market Street, San Francisco CA","chain_name":null,"distance":0},{"name":"Express, Inc.","code":null,"latitude":39.0319523,"longitude":-77.423457,"address":"21100 Dulles Town Circle, Dulles VA","chain_name":null,"distance":0},{"name":"Express, Inc.","code":null,"latitude":30.4373197,"longitude":-84.2535477,"address":"1500 Apalachee Pkwy, Tallahassee FL","chain_name":null,"distance":0},{"name":"Express, Inc.","code":null,"latitude":40.73886,"longitude":-73.99223,"address":"130 Fifth Avenue, New York NY","chain_name":null,"distance":0},{"name":"Express, Inc.","code":null,"latitude":35.352549,"longitude":-80.851181,"address":"6801 Northlake Mall Dr, Charlotte NC","chain_name":null,"distance":0},{"name":"Express, Inc.","code":null,"latitude":36.0671229,"longitude":-115.0428251,"address":"1300 Sunset Rd, Henderson NV","chain_name":null,"distance":0},{"name":"Express, Inc.","code":null,"latitude":29.687176,"longitude":-95.4622844,"address":"112 Meyerland Plaza, Houston TX","chain_name":null,"distance":0},{"name":"Express, Inc.","code":null,"latitude":29.597689,"longitude":-98.350765,"address":"6909 N Loop 1604, San Antonio TX","chain_name":null,"distance":0},{"name":"Express, Inc.","code":null,"latitude":44.8543467,"longitude":-93.425001,"address":"8251 Flying Cloud Drive, Eden Prairie MN","chain_name":null,"distance":0},{"name":"Express, Inc.","code":null,"latitude":35.0352025,"longitude":-85.1582859,"address":"2100 Hamilton Blvd., Chattanooga TN","chain_name":null,"distance":0},{"name":"Express, Inc.","code":null,"latitude":35.2184743,"longitude":-97.4919175,"address":"3411 W. Main St, Norman OK","chain_name":null,"distance":0},{"name":"Express, Inc.","code":null,"latitude":32.944166,"longitude":-80.0444721,"address":"2150 Northwoods Blvd., North Charleston SC","chain_name":null,"distance":0},{"name":"Express, Inc.","code":null,"latitude":33.8496346,"longitude":-118.1404388,"address":"500 Lakewood Center Mall, Lakewood CA","chain_name":null,"distance":0},{"name":"Express, Inc.","code":null,"latitude":42.3096476,"longitude":-83.222269,"address":"18900 Michigan Ave, Dearborn MI","chain_name":null,"distance":0},{"name":"Express, Inc.","code":null,"latitude":44.8541243,"longitude":-93.2446807,"address":"206 West Market, Bloomington MN","chain_name":null,"distance":0},{"name":"Express, Inc.","code":null,"latitude":36.1272241,"longitude":-115.1715512,"address":"3200 Las Vegas Blvd. South, Las Vegas NV","chain_name":null,"distance":0},{"name":"Express, Inc.","code":null,"latitude":39.453853,"longitude":-74.6435064,"address":"4403 Black Horse Pike, Mays Landing NJ","chain_name":null,"distance":0},{"name":"Express, Inc.","code":null,"latitude":40.3410823,"longitude":-80.0579966,"address":"301 S Hills Village, Pittsburgh PA","chain_name":null,"distance":0},{"name":"Express, Inc.","code":null,"latitude":33.3831468,"longitude":-111.9647254,"address":"5000 Arizona Mills Circle, Tempe AZ","chain_name":null,"distance":0},{"name":"Express, Inc.","code":null,"latitude":26.5354302,"longitude":-80.0959762,"address":"801 N Congress Ave, Boynton Beach FL","chain_name":null,"distance":0},{"name":"Express, Inc.","code":null,"latitude":40.6600434,"longitude":-74.171557,"address":"651 Kapkowski Rd, Elizabeth NJ","chain_name":null,"distance":0},{"name":"Express, Inc.","code":null,"latitude":41.4587558,"longitude":-81.9519271,"address":"100 Main Street, Westlake OH","chain_name":null,"distance":0},{"name":"Express, Inc.","code":null,"latitude":42.689567,"longitude":-73.8495409,"address":"120 Washington Ave, Albany NY","chain_name":null,"distance":0},{"name":"Express, Inc.","code":null,"latitude":33.9606402,"longitude":-84.1256553,"address":"2100 Pleasant Hill Road, Duluth GA","chain_name":null,"distance":0},{"name":"Express, Inc.","code":null,"latitude":27.964536,"longitude":-82.520756,"address":"2223 N. West Shore Blvd., Tampa FL","chain_name":null,"distance":0},{"name":"Express, Inc.","code":null,"latitude":40.9035851,"longitude":-74.5523029,"address":"301 Mount Hope Road, Rockaway NJ","chain_name":null,"distance":0},{"name":"Express, Inc.","code":null,"latitude":36.0668167,"longitude":-115.1772848,"address":"6611 Las Vegas Blvd South, Las Vegas NV","chain_name":null,"distance":0},{"name":"Express, Inc.","code":null,"latitude":42.8133893,"longitude":-85.6691912,"address":"131 & 84th St SW, Byron Center MI","chain_name":null,"distance":0},{"name":"Express, Inc.","code":null,"latitude":35.957118,"longitude":-86.8135382,"address":"1800 Galleria Blvd., Franklin TN","chain_name":null,"distance":0},{"name":"Express, Inc.","code":null,"latitude":25.6903033,"longitude":-80.3124917,"address":"7535 SW 88TH Street, Miami FL","chain_name":null,"distance":0},{"name":"Express, Inc.","code":null,"latitude":41.0977985,"longitude":-74.0151213,"address":"75 West Route 59, Nanuet NY","chain_name":null,"distance":0},{"name":"Express, Inc.","code":null,"latitude":41.2476181,"longitude":-75.8405945,"address":"East End Blvd., Wilkes Barre PA","chain_name":null,"distance":0},{"name":"Express, Inc.","code":null,"latitude":40.0876473,"longitude":-74.9610288,"address":"1455 Franklin Mills Circle, Philadelphia PA","chain_name":null,"distance":0},{"name":"Express, Inc.","code":null,"latitude":27.641324,"longitude":-80.4575847,"address":"6200 20Th St, Vero Beach FL","chain_name":null,"distance":0},{"name":"Express, Inc.","code":null,"latitude":42.5183023,"longitude":-87.9466899,"address":"11211 120th Ave, Pleasant Prairie WI","chain_name":null,"distance":0},{"name":"Express, Inc.","code":null,"latitude":40.2337716,"longitude":-75.2421004,"address":"222 Montgomery Mall, North Wales PA","chain_name":null,"distance":0},{"name":"Express, Inc.","code":null,"latitude":43.6084177,"longitude":-116.2786148,"address":"350 N. Milwaukee, Boise ID","chain_name":null,"distance":0},{"name":"Express, Inc.","code":null,"latitude":29.6573607,"longitude":-82.411395,"address":"6419 Newberry Rd, Gainesville FL","chain_name":null,"distance":0},{"name":"Express, Inc.","code":null,"latitude":37.0253837,"longitude":-121.5644194,"address":"681 Leavesley Road, Gilroy CA","chain_name":null,"distance":0},{"name":"Express, Inc.","code":null,"latitude":42.0523286,"longitude":-87.8390526,"address":"382 Golf Mill Ctr, Niles IL","chain_name":null,"distance":0},{"name":"Express, Inc.","code":null,"latitude":34.7072886,"longitude":-86.5872707,"address":"2801 Memorial Parkway Sw, Huntsville AL","chain_name":null,"distance":0},{"name":"Express, Inc.","code":null,"latitude":36.9766173,"longitude":-121.9668716,"address":"1855 41St Ave, Capitola CA","chain_name":null,"distance":0},{"name":"Express, Inc.","code":null,"latitude":43.0572549,"longitude":-89.5063665,"address":"66 West Towne Mall, Madison WI","chain_name":null,"distance":0},{"name":"Express, Inc.","code":null,"latitude":40.7765921,"longitude":-74.353456,"address":"112 Eisenhower Pkwy, Livingston NJ","chain_name":null,"distance":0},{"name":"Express, Inc.","code":null,"latitude":39.1259839,"longitude":-94.8272243,"address":"1843 Village W Parkway, Kansas City KS","chain_name":null,"distance":0},{"name":"Express, Inc.","code":null,"latitude":39.7183365,"longitude":-104.9837706,"address":"300 East First Avenue, Denver CO","chain_name":null,"distance":0},{"name":"Express, Inc.","code":null,"latitude":34.2933608,"longitude":-83.8443485,"address":"150 Pearl Nix Pkwy, Gainesville GA","chain_name":null,"distance":0},{"name":"Express, Inc.","code":null,"latitude":38.9638389,"longitude":-92.3753894,"address":"2300 Bernadette Dr., Columbia MO","chain_name":null,"distance":0},{"name":"Express, Inc.","code":null,"latitude":35.7737833,"longitude":-78.7578434,"address":"1105 Walnut Street, Cary NC","chain_name":null,"distance":0},{"name":"Express, Inc.","code":null,"latitude":27.9316089,"longitude":-82.3253922,"address":"447 Brandon Town Ctr Mall, Brandon FL","chain_name":null,"distance":0},{"name":"Express, Inc.","code":null,"latitude":41.5702624,"longitude":-93.8070392,"address":"101 Jordan Creek Parkway, West Des Moines IA","chain_name":null,"distance":0},{"name":"Express, Inc.","code":null,"latitude":35.2046226,"longitude":-89.7919014,"address":"2760 N Germantown Pkwy, Bartlett TN","chain_name":null,"distance":0},{"name":"Express, Inc.","code":null,"latitude":37.30403,"longitude":-79.964281,"address":"4802 Valley View Blvd, Roanoke VA","chain_name":null,"distance":0},{"name":"Express, Inc.","code":null,"latitude":41.310926,"longitude":-81.818978,"address":"840 Southpark Center, Strongsville OH","chain_name":null,"distance":0},{"name":"Express, Inc.","code":null,"latitude":41.0311023,"longitude":-73.7599515,"address":"125 Westchester Avenue, White Plains NY","chain_name":null,"distance":0},{"name":"Express, Inc.","code":null,"latitude":37.5275418,"longitude":-122.0041055,"address":"2086 Newpark Mall, Newark CA","chain_name":null,"distance":0},{"name":"Express, Inc.","code":null,"latitude":38.3988567,"longitude":-75.5662773,"address":"2300 N Salisbury Blvd, Salisbury MD","chain_name":null,"distance":0},{"name":"Express, Inc.","code":null,"latitude":33.4654142,"longitude":-82.0805568,"address":"3450 Wrightsboro Rd, Augusta GA","chain_name":null,"distance":0},{"name":"Express, Inc.","code":null,"latitude":37.7278703,"longitude":-122.4770819,"address":"3251 20Th Ave., San Francisco CA","chain_name":null,"distance":0},{"name":"Express, Inc.","code":null,"latitude":42.8446356,"longitude":-78.821275,"address":"734 Mckinley Mall, Buffalo NY","chain_name":null,"distance":0},{"name":"Express, Inc.","code":null,"latitude":26.1490011,"longitude":-80.3249391,"address":"12801 West Sunrise Blvd, Sunrise FL","chain_name":null,"distance":0},{"name":"Express, Inc.","code":null,"latitude":42.2202087,"longitude":-85.5941737,"address":"6650 S Westnedge Ave, Portage MI","chain_name":null,"distance":0},{"name":"Express, Inc.","code":null,"latitude":43.0995475,"longitude":-70.8048167,"address":"Fox Run Rd, Newington NH","chain_name":null,"distance":0},{"name":"Express, Inc.","code":null,"latitude":34.0651493,"longitude":-83.9847659,"address":"3333 Buford Dr, Buford GA","chain_name":null,"distance":0},{"name":"Express, Inc.","code":null,"latitude":37.4142496,"longitude":-121.8935207,"address":"494 Great Mall Dr., Milpitas CA","chain_name":null,"distance":0},{"name":"Express, Inc.","code":null,"latitude":37.1627417,"longitude":-93.2656737,"address":"2825 S. Glenstone, Springfield MO","chain_name":null,"distance":0},{"name":"Express, Inc.","code":null,"latitude":26.1177929,"longitude":-80.2546669,"address":"8000 Broward Blvd., Plantation FL","chain_name":null,"distance":0},{"name":"Express, Inc.","code":null,"latitude":26.8473981,"longitude":-80.0853836,"address":"3101 PGA Blvd., Palm Beach FL","chain_name":null,"distance":0},{"name":"Express, Inc.","code":null,"latitude":32.7674839,"longitude":-117.1656617,"address":"7007 Friars Road, San Diego CA","chain_name":null,"distance":0},{"name":"Express, Inc.","code":null,"latitude":38.2501816,"longitude":-85.624202,"address":"5000 Shelbyville Rd, Louisville KY","chain_name":null,"distance":0},{"name":"Express, Inc.","code":null,"latitude":41.8472083,"longitude":-87.8107516,"address":"7501 W Cermak Rd, North Riverside IL","chain_name":null,"distance":0},{"name":"Express, Inc.","code":null,"latitude":28.6665743,"longitude":-81.3773794,"address":"451 East Altamonte Drive, Altamonte Springs FL","chain_name":null,"distance":0},{"name":"Express, Inc.","code":null,"latitude":42.202246,"longitude":-71.8353899,"address":"385 Southbridge St, Auburn MA","chain_name":null,"distance":0},{"name":"Express, Inc.","code":null,"latitude":39.9150986,"longitude":-75.3519958,"address":"1250 Baltimore Pike, Springfield PA","chain_name":null,"distance":0},{"name":"Express, Inc.","code":null,"latitude":39.785803,"longitude":-75.0507398,"address":"100 Premium Outlets Drive, Blackwood NJ","chain_name":null,"distance":0},{"name":"Express, Inc.","code":null,"latitude":28.0173286,"longitude":-82.7336129,"address":"27001 U.S. Highway 19 North, Clearwater FL","chain_name":null,"distance":0},{"name":"Express, Inc.","code":null,"latitude":34.0754772,"longitude":-118.3780415,"address":"8522 Beverly Blvd., Los Angeles CA","chain_name":null,"distance":0},{"name":"Express, Inc.","code":null,"latitude":26.6464009,"longitude":-80.208776,"address":"10300 West Forest Hill, Wellington FL","chain_name":null,"distance":0},{"name":"Express, Inc.","code":null,"latitude":32.8063259,"longitude":-96.62595,"address":"2078 Town East Mall, Mesquite TX","chain_name":null,"distance":0},{"name":"Express, Inc.","code":null,"latitude":41.9498185,"longitude":-87.807152,"address":"4122 N. Harlem Avenue, Norridge IL","chain_name":null,"distance":0},{"name":"Express, Inc.","code":null,"latitude":35.0822993,"longitude":-80.8765168,"address":"11025 Carolina Place Parkway, Pineville NC","chain_name":null,"distance":0},{"name":"Express, Inc.","code":null,"latitude":29.4692627,"longitude":-98.6207688,"address":"6301 N.W. Loop 410, San Antonio TX","chain_name":null,"distance":0},{"name":"Express, Inc.","code":null,"latitude":40.8638441,"longitude":-73.8276698,"address":"200 Baychester Avenue, Bronx NY","chain_name":null,"distance":0},{"name":"Express, Inc.","code":null,"latitude":40.5818776,"longitude":-74.1652624,"address":"2655 Richmond Avenue, Staten Island NY","chain_name":null,"distance":0},{"name":"Express, Inc.","code":null,"latitude":40.3008659,"longitude":-79.5334111,"address":"203 Westmoreland Avenue, Greensburg PA","chain_name":null,"distance":0},{"name":"Express, Inc.","code":null,"latitude":47.827814,"longitude":-122.2743576,"address":"3000 184Th St. S.W., Lynnwood WA","chain_name":null,"distance":0},{"name":"Express, Inc.","code":null,"latitude":30.184597,"longitude":-81.5535033,"address":"10300 Southside Blvd., Jacksonville FL","chain_name":null,"distance":0},{"name":"Express, Inc.","code":null,"latitude":38.7960762,"longitude":-90.6159688,"address":"1600 Mid Rivers Mall, Saint Peters MO","chain_name":null,"distance":0},{"name":"Express, Inc.","code":null,"latitude":44.9686557,"longitude":-93.4366462,"address":"12401 Wayzata Blvd., Minnetonka MN","chain_name":null,"distance":0},{"name":"Express, Inc.","code":null,"latitude":35.8672388,"longitude":-78.5755286,"address":"5959 Triangle Town Blvd, Raleigh NC","chain_name":null,"distance":0},{"name":"Express, Inc.","code":null,"latitude":33.3897632,"longitude":-111.8605311,"address":"1445 West Southern Ave, Mesa AZ","chain_name":null,"distance":0},{"name":"Express, Inc.","code":null,"latitude":37.5379931,"longitude":-122.3007947,"address":"115 Hillsdale Mall, San Mateo CA","chain_name":null,"distance":0},{"name":"Express, Inc.","code":null,"latitude":41.71949,"longitude":-86.1910125,"address":"6501 Grape Rd., Mishawaka IN","chain_name":null,"distance":0},{"name":"Express, Inc.","code":null,"latitude":42.5153582,"longitude":-71.032624,"address":"427 Walnut Street, Lynnfield MA","chain_name":null,"distance":0},{"name":"Express, Inc.","code":null,"latitude":33.070471,"longitude":-117.0649122,"address":"200 E Via Rancho Pkwy, Escondido CA","chain_name":null,"distance":0},{"name":"Express, Inc.","code":null,"latitude":29.5919665,"longitude":-95.6244816,"address":"16535 Southwest Freeway #940, Sugarland TX","chain_name":null,"distance":0},{"name":"Express, Inc.","code":null,"latitude":39.1618035,"longitude":-86.4945087,"address":"2894 E. Third Street, Bloomington IN","chain_name":null,"distance":0},{"name":"Express, Inc.","code":null,"latitude":40.7401014,"longitude":-73.2464836,"address":"1701 Sunrise Highway, Bayshore NY","chain_name":null,"distance":0},{"name":"Express, Inc.","code":null,"latitude":36.1493562,"longitude":-115.3332506,"address":"2120 Festival PlazaDr. Building O, Las Vegas NV","chain_name":null,"distance":0},{"name":"Express, Inc.","code":null,"latitude":42.0624575,"longitude":-87.7577223,"address":"153 Old Orchard Rd, Skokie IL","chain_name":null,"distance":0},{"name":"Express, Inc.","code":null,"latitude":32.8685135,"longitude":-96.7727999,"address":"620 NorthPark Center, Dallas TX","chain_name":null,"distance":0},{"name":"Express, Inc.","code":null,"latitude":40.7245417,"longitude":-73.9972306,"address":"584 Broadway, New York NY","chain_name":null,"distance":0},{"name":"Express, Inc.","code":null,"latitude":42.3616304,"longitude":-71.159123,"address":"485 Arsenal Street, Watertown MA","chain_name":null,"distance":0},{"name":"Express, Inc.","code":null,"latitude":41.966857,"longitude":-73.984031,"address":"1300 Ulster Ave, Kingston NY","chain_name":null,"distance":0},{"name":"Express, Inc.","code":null,"latitude":40.5861219,"longitude":-74.6193168,"address":"400 Commons Way, Bridgewater NJ","chain_name":null,"distance":0},{"name":"Express, Inc.","code":null,"latitude":40.2372296,"longitude":-75.5703523,"address":"18 Lightcap Rd., Pottstown PA","chain_name":null,"distance":0},{"name":"Express, Inc.","code":null,"latitude":43.0670666,"longitude":-76.1707181,"address":"9745 Carousel Ctr, Syracuse NY","chain_name":null,"distance":0},{"name":"Express, Inc.","code":null,"latitude":36.129475,"longitude":-94.1483367,"address":"4201 N. Shiloh Dr, Fayetteville AR","chain_name":null,"distance":0},{"name":"Express, Inc.","code":null,"latitude":38.6510606,"longitude":-90.567973,"address":"38 Chesterfield Mall, Chesterfield MO","chain_name":null,"distance":0},{"name":"Express, Inc.","code":null,"latitude":41.1341588,"longitude":-81.6178206,"address":"3265 West Market St., Akron OH","chain_name":null,"distance":0},{"name":"Express, Inc.","code":null,"latitude":39.9089327,"longitude":-86.0648858,"address":"6020 East 82Nd St, Indianapolis IN","chain_name":null,"distance":0},{"name":"Express, Inc.","code":null,"latitude":26.1378127,"longitude":-80.1153644,"address":"2362 E. Sunrise Blvd., Fort Lauderdale FL","chain_name":null,"distance":0},{"name":"Express, Inc.","code":null,"latitude":41.2142809,"longitude":-80.749104,"address":"5555 Youngstown Warren Rd, Niles OH","chain_name":null,"distance":0},{"name":"Express, Inc.","code":null,"latitude":33.9097475,"longitude":-117.4578357,"address":"2176 Galleria @ Tyler, Riverside CA","chain_name":null,"distance":0},{"name":"Express, Inc.","code":null,"latitude":28.6616367,"longitude":-81.2346667,"address":"1485 Oviedo Marketplace Blvd, Oviedo FL","chain_name":null,"distance":0},{"name":"Express, Inc.","code":null,"latitude":30.6241831,"longitude":-96.303395,"address":"1500 Harvey Rd, College Station TX","chain_name":null,"distance":0},{"name":"Express, Inc.","code":null,"latitude":40.7585388,"longitude":-73.9745871,"address":"477 Madison Avenue, New York NY","chain_name":null,"distance":0},{"name":"Express, Inc.","code":null,"latitude":35.1523851,"longitude":-80.8321252,"address":"4400 Sharon Rd, Charlotte NC","chain_name":null,"distance":0},{"name":"Express, Inc.","code":null,"latitude":37.6834039,"longitude":-97.2470994,"address":"7700 East Kellogg Dr., Wichita KS","chain_name":null,"distance":0},{"name":"Express, Inc.","code":null,"latitude":36.0549747,"longitude":-115.1690569,"address":"7400 Las Vegas Blvd. South, Las Vegas NV","chain_name":null,"distance":0},{"name":"Express, Inc.","code":null,"latitude":41.549215,"longitude":-73.0251061,"address":"495 Union Street, Waterbury CT","chain_name":null,"distance":0},{"name":"Express, Inc.","code":null,"latitude":38.2946685,"longitude":-77.515228,"address":"225 Spotsylvania Mall, Fredericksburg VA","chain_name":null,"distance":0},{"name":"Express, Inc.","code":null,"latitude":41.8980056,"longitude":-87.6232355,"address":"845 N.Michigan Avenue, Chicago IL","chain_name":null,"distance":0},{"name":"Express, Inc.","code":null,"latitude":38.423845,"longitude":-82.2636728,"address":"825 Mall Rd, Barboursville WV","chain_name":null,"distance":0},{"name":"Express, Inc.","code":null,"latitude":44.7421275,"longitude":-93.2892913,"address":"1039 Burnsville Ctr, Burnsville MN","chain_name":null,"distance":0},{"name":"Express, Inc.","code":null,"latitude":33.6246991,"longitude":-111.9241392,"address":"15257 N Scottsdale Blvd, Scottsdale AZ","chain_name":null,"distance":0},{"name":"Express, Inc.","code":null,"latitude":40.4161548,"longitude":-104.9901092,"address":"5879 Sky Pond Drive, Loveland CO","chain_name":null,"distance":0},{"name":"Express, Inc.","code":null,"latitude":44.9474115,"longitude":-92.9225367,"address":"9140 Hudson Rd, Woodbury MN","chain_name":null,"distance":0},{"name":"Express, Inc.","code":null,"latitude":33.7921239,"longitude":-84.3956151,"address":"230 18th Street, Atlanta GA","chain_name":null,"distance":0},{"name":"Express, Inc.","code":null,"latitude":40.8229235,"longitude":-73.4106894,"address":"160 Walt Whitman Road, Huntington NY","chain_name":null,"distance":0},{"name":"Express, Inc.","code":null,"latitude":37.8368844,"longitude":-122.2923806,"address":"5680 Bay Street, Emeryville CA","chain_name":null,"distance":0},{"name":"Express, Inc.","code":null,"latitude":42.7016049,"longitude":-71.4367899,"address":"310 Daniel Webster Highway, Nashua NH","chain_name":null,"distance":0},{"name":"Express, Inc.","code":null,"latitude":41.2293532,"longitude":-73.226474,"address":"5065 Main St, Trumbull CT","chain_name":null,"distance":0},{"name":"Express, Inc.","code":null,"latitude":30.385752,"longitude":-91.084348,"address":"6401 Bluebonnet Blvd., Baton Rouge LA","chain_name":null,"distance":0},{"name":"Express, Inc.","code":null,"latitude":40.4233713,"longitude":-74.3822779,"address":"755 State Highway 18, East Brunswick NJ","chain_name":null,"distance":0},{"name":"Express, Inc.","code":null,"latitude":47.4520356,"longitude":-122.2628767,"address":"1070 South Center Pkwy, Seattle WA","chain_name":null,"distance":0},{"name":"Express, Inc.","code":null,"latitude":42.760741,"longitude":-84.5150131,"address":"2501 Lake Lansing Road, Lansing MI","chain_name":null,"distance":0},{"name":"Express, Inc.","code":null,"latitude":40.9271326,"longitude":-73.8526348,"address":"5130 Xavier Drive, Yonkers NY","chain_name":null,"distance":0},{"name":"Express, Inc.","code":null,"latitude":28.4456895,"longitude":-81.395417,"address":"8001 South Blossom Trail, Orlando FL","chain_name":null,"distance":0},{"name":"Express, Inc.","code":null,"latitude":26.1854415,"longitude":-98.2365208,"address":"2200 South 10th Street, McAllen TX","chain_name":null,"distance":0},{"name":"Express, Inc.","code":null,"latitude":35.9244419,"longitude":-84.0390578,"address":"7600 Kingston Pike, Knoxville TN","chain_name":null,"distance":0},{"name":"Express, Inc.","code":null,"latitude":39.7073224,"longitude":-104.8228216,"address":"14200 E Alameda Ave, Aurora CO","chain_name":null,"distance":0},{"name":"Express, Inc.","code":null,"latitude":39.4030145,"longitude":-76.5959891,"address":"660 Fairmount Avenue, Baltimore MD","chain_name":null,"distance":0},{"name":"Express, Inc.","code":null,"latitude":39.2509718,"longitude":-94.6628475,"address":"7120 Nw 86 Terrace, Kansas City MO","chain_name":null,"distance":0},{"name":"Express, Inc.","code":null,"latitude":40.0330482,"longitude":-75.6254133,"address":"238 Exton Sq Pkwy, Exton PA","chain_name":null,"distance":0},{"name":"Express, Inc.","code":null,"latitude":42.9894026,"longitude":-78.822482,"address":"1285 Niagra Falls Blvd., Buffalo NY","chain_name":null,"distance":0},{"name":"Express, Inc.","code":null,"latitude":44.7750124,"longitude":-91.4414522,"address":"4800 Golf Rd, Eau Claire WI","chain_name":null,"distance":0},{"name":"Express, Inc.","code":null,"latitude":33.1317282,"longitude":-96.6520229,"address":"168 Town Place, Fairview TX","chain_name":null,"distance":0},{"name":"Express, Inc.","code":null,"latitude":41.9954551,"longitude":-72.5819803,"address":"90 Elm St, Enfield CT","chain_name":null,"distance":0},{"name":"Express, Inc.","code":null,"latitude":42.3554622,"longitude":-71.6128974,"address":"580 Donald Lynch Blvd, Marlborough MA","chain_name":null,"distance":0},{"name":"Express, Inc.","code":null,"latitude":40.276465,"longitude":-111.681705,"address":"E96 University Mall, Orem UT","chain_name":null,"distance":0},{"name":"Express, Inc.","code":null,"latitude":41.7221127,"longitude":-72.7627167,"address":"500 Westfarms Mall, Farmington CT","chain_name":null,"distance":0},{"name":"Express, Inc.","code":null,"latitude":40.7781605,"longitude":-73.7784907,"address":"21127 26th Avenue, Bayside NY","chain_name":null,"distance":0},{"name":"Express, Inc.","code":null,"latitude":41.5986653,"longitude":-87.5580122,"address":"125 River Oaks Ctr, Calumet City IL","chain_name":null,"distance":0},{"name":"Express, Inc.","code":null,"latitude":38.3085638,"longitude":-85.5788753,"address":"4236 Summit Plaza Drive, Louisville KY","chain_name":null,"distance":0},{"name":"Express, Inc.","code":null,"latitude":40.6306436,"longitude":-75.4804145,"address":"250 Lehigh Valley Mall, Whitehall PA","chain_name":null,"distance":0},{"name":"Express, Inc.","code":null,"latitude":38.4408336,"longitude":-122.7175756,"address":"571 Santa Rosa Plaza, Santa Rosa CA","chain_name":null,"distance":0},{"name":"Express, Inc.","code":null,"latitude":37.9839976,"longitude":-87.4960356,"address":"800 N. Green River Rd., Evansville IN","chain_name":null,"distance":0},{"name":"Express, Inc.","code":null,"latitude":35.9042028,"longitude":-78.9411632,"address":"6910 Fayetteville Road, Durham NC","chain_name":null,"distance":0},{"name":"Express, Inc.","code":null,"latitude":27.793581,"longitude":-82.7331397,"address":"6901 22Nd Ave N, St. Petersburg FL","chain_name":null,"distance":0},{"name":"Express, Inc.","code":null,"latitude":42.2218326,"longitude":-71.0235383,"address":"250 Granite Street, Braintree MA","chain_name":null,"distance":0},{"name":"Express, Inc.","code":null,"latitude":35.3353911,"longitude":-119.0366212,"address":"2701 Ming Ave., Bakersfield CA","chain_name":null,"distance":0},{"name":"Express, Inc.","code":null,"latitude":43.2084717,"longitude":-77.6875954,"address":"2213 W Ridge Rd, Rochester NY","chain_name":null,"distance":0},{"name":"Express, Inc.","code":null,"latitude":36.3379678,"longitude":-82.3774015,"address":"2011 N. Roan St., Johnson City TN","chain_name":null,"distance":0},{"name":"Express, Inc.","code":null,"latitude":30.1256994,"longitude":-94.161604,"address":"6155 Eastex Freeway, Beaumont TX","chain_name":null,"distance":0},{"name":"Express, Inc.","code":null,"latitude":44.4845428,"longitude":-88.0676312,"address":"973 Bay Park Square, Green Bay WI","chain_name":null,"distance":0},{"name":"Express, Inc.","code":null,"latitude":40.4289701,"longitude":-79.7969543,"address":"200 Monroeville Mall, Monroeville PA","chain_name":null,"distance":0},{"name":"Express, Inc.","code":null,"latitude":40.548948,"longitude":-74.3382066,"address":"409 Menlo Park, Edison NJ","chain_name":null,"distance":0},{"name":"Express, Inc.","code":null,"latitude":41.828697,"longitude":-71.416802,"address":"122 Providence Place, Providence RI","chain_name":null,"distance":0},{"name":"Express, Inc.","code":null,"latitude":40.1837737,"longitude":-74.880679,"address":"2300 E. Lincoln Hwy, Langhorne PA","chain_name":null,"distance":0},{"name":"Express, Inc.","code":null,"latitude":29.7789021,"longitude":-95.5359298,"address":"257 Memorial City, Houston TX","chain_name":null,"distance":0},{"name":"Express, Inc.","code":null,"latitude":34.1349204,"longitude":-118.0509968,"address":"400 S Baldwin Ave, Arcadia CA","chain_name":null,"distance":0},{"name":"Express, Inc.","code":null,"latitude":29.594415,"longitude":-98.6152042,"address":"15900 La Cantera Pkwy Bldg. 8, San Antonio TX","chain_name":null,"distance":0},{"name":"Express, Inc.","code":null,"latitude":42.9553882,"longitude":-71.4327448,"address":"1500 S. Willow Street, Manchester NH","chain_name":null,"distance":0},{"name":"Express, Inc.","code":null,"latitude":34.940449,"longitude":-81.990004,"address":"200 Westgate Mall, Spartanburg SC","chain_name":null,"distance":0},{"name":"Express, Inc.","code":null,"latitude":43.0837767,"longitude":-75.3162279,"address":"1 Sangertown Sq, New Hartford NY","chain_name":null,"distance":0},{"name":"Express, Inc.","code":null,"latitude":33.5768334,"longitude":-84.3543352,"address":"1242 Southlake Mall, Morrow GA","chain_name":null,"distance":0},{"name":"Express, Inc.","code":null,"latitude":39.3750314,"longitude":-76.4691062,"address":"8200 Perry Hall Blvd., Baltimore MD","chain_name":null,"distance":0},{"name":"Express, Inc.","code":null,"latitude":36.0846432,"longitude":-79.8320272,"address":"609 Friendly Ctr Rd, Greensboro NC","chain_name":null,"distance":0},{"name":"Express, Inc.","code":null,"latitude":36.7796122,"longitude":-76.227374,"address":"1401 Greenbrier Pkwy, Chesapeake VA","chain_name":null,"distance":0},{"name":"Express, Inc.","code":null,"latitude":32.9661607,"longitude":-97.0425031,"address":"3000 Grapevine Mills Pkwy, Grapevine TX","chain_name":null,"distance":0},{"name":"Express, Inc.","code":null,"latitude":40.6249025,"longitude":-73.6381427,"address":"3513 Long Beach Road, Oceanside NY","chain_name":null,"distance":0},{"name":"Express, Inc.","code":null,"latitude":40.8889368,"longitude":-74.2595406,"address":"1400 Willowbrook Mall, Wayne NJ","chain_name":null,"distance":0},{"name":"Express, Inc.","code":null,"latitude":42.0255179,"longitude":-91.6272126,"address":"4444 1St Avenue Ne, Cedar Rapids IA","chain_name":null,"distance":0},{"name":"Express, Inc.","code":null,"latitude":41.8509604,"longitude":-87.9505438,"address":"294 Oakbrook Center, Oakbrook IL","chain_name":null,"distance":0},{"name":"Express, Inc.","code":null,"latitude":25.705662,"longitude":-80.286362,"address":"5701 Sunset Drive, South Miami FL","chain_name":null,"distance":0},{"name":"Express, Inc.","code":null,"latitude":44.8152172,"longitude":-93.213597,"address":"3925 Eagan Outlet Parkway, Eagan MN","chain_name":null,"distance":0},{"name":"Express, Inc.","code":null,"latitude":42.7678029,"longitude":-71.2311553,"address":"99 Rockingham Park Blvd, Salem NH","chain_name":null,"distance":0},{"name":"Express, Inc.","code":null,"latitude":41.6418906,"longitude":-70.9911712,"address":"200 N Dartmouth Mall, North Dartmouth MA","chain_name":null,"distance":0},{"name":"Express, Inc.","code":null,"latitude":39.6313423,"longitude":-86.1245852,"address":"1251 U.S. Highway 31N, Greenwood IN","chain_name":null,"distance":0},{"name":"Express, Inc.","code":null,"latitude":33.6021872,"longitude":-111.9836094,"address":"4550 East Cactus Rd, Phoenix AZ","chain_name":null,"distance":0},{"name":"Express, Inc.","code":null,"latitude":40.7348031,"longitude":-73.8695671,"address":"90-15 Queens Blvd., Elmhurst NY","chain_name":null,"distance":0},{"name":"Express, Inc.","code":null,"latitude":41.7160014,"longitude":-87.7827896,"address":"574 Chicago Ridge, Chicago IL","chain_name":null,"distance":0},{"name":"Express, Inc.","code":null,"latitude":38.6328911,"longitude":-90.3487459,"address":"2460 St. Louis Galleria, St. Louis MO","chain_name":null,"distance":0},{"name":"Express, Inc.","code":null,"latitude":40.7679137,"longitude":-111.890367,"address":"51 South Main Street, Salt Lake City UT","chain_name":null,"distance":0},{"name":"Express, Inc.","code":null,"latitude":41.9466139,"longitude":-71.3502762,"address":"999 S Washington St, N. Attleboro MA","chain_name":null,"distance":0},{"name":"Express, Inc.","code":null,"latitude":40.1154069,"longitude":-75.283556,"address":"500 West Germantown Pike, Plymouth Meeting PA","chain_name":null,"distance":0},{"name":"Express, Inc.","code":null,"latitude":39.2153435,"longitude":-76.8602148,"address":"10300 Little Patuxent Pkwy, Columbia MD","chain_name":null,"distance":0},{"name":"Express, Inc.","code":null,"latitude":33.7457978,"longitude":-118.0090465,"address":"1008 Westminster Mall, Westminster CA","chain_name":null,"distance":0},{"name":"Express, Inc.","code":null,"latitude":35.1071069,"longitude":-106.572767,"address":"6600 Menaul NE, Albuquerque NM","chain_name":null,"distance":0},{"name":"Express, Inc.","code":null,"latitude":39.766304,"longitude":-86.159322,"address":"49 W. Maryland St., Indianapolis IN","chain_name":null,"distance":0},{"name":"Express, Inc.","code":null,"latitude":33.5392193,"longitude":-101.9256185,"address":"6002 Slide Rd, Lubbock TX","chain_name":null,"distance":0},{"name":"Express, Inc.","code":null,"latitude":40.6895531,"longitude":-73.9834151,"address":"490 Fulton Street, Brooklyn NY","chain_name":null,"distance":0}]