[{"name":"famous footwear","code":null,"latitude":47.3852,"longitude":-122.23733,"address":"444 Ramsay Way , kent WA","chain_name":null,"distance":0},{"name":"Famous Footwear","code":null,"latitude":48.7842,"longitude":-122.48614,"address":"1 Bellis Fair Pkwy Ste 310, BELLINGHAM WA","chain_name":null,"distance":0},{"name":"Famous Footwear","code":null,"latitude":42.68712,"longitude":-73.85048,"address":"1 Crossgates Mall Rd, ALBANY NY","chain_name":null,"distance":0},{"name":"Famous Footwear","code":null,"latitude":34.07046,"longitude":-117.54704,"address":"1 Mills Cir Ste 118, ONTARIO CA","chain_name":null,"distance":0},{"name":"Famous Footwear","code":null,"latitude":40.79025,"longitude":-72.95332,"address":"10 Farber Dr Ste 9, BELLPORT NY","chain_name":null,"distance":0},{"name":"Famous Footwear","code":null,"latitude":42.53197,"longitude":-71.74249,"address":"100 Commercial Rd, LEOMINSTER MA","chain_name":null,"distance":0},{"name":"Famous Footwear","code":null,"latitude":42.55086,"longitude":-70.93791,"address":"100 Independence Way, DANVERS MA","chain_name":null,"distance":0},{"name":"Famous Footwear","code":null,"latitude":36.64519,"longitude":-93.2828,"address":"1000 Pat Nash Dr Ste B4, BRANSON MO","chain_name":null,"distance":0},{"name":"Famous Footwear","code":null,"latitude":41.97598,"longitude":-70.71073,"address":"101 Independence Mall Way, KINGSTON MA","chain_name":null,"distance":0},{"name":"Famous Footwear","code":null,"latitude":37.09085,"longitude":-94.47678,"address":"101 N Range Line Rd # 350, JOPLIN MO","chain_name":null,"distance":0},{"name":"Famous Footwear","code":null,"latitude":44.86511,"longitude":-89.63644,"address":"10101 Market St Ste A90, MOSINEE WI","chain_name":null,"distance":0},{"name":"Famous Footwear","code":null,"latitude":37.32636,"longitude":-122.01457,"address":"10123 N Wolfe Rd Ste 2013, CUPERTINO CA","chain_name":null,"distance":0},{"name":"Famous Footwear","code":null,"latitude":40.80279,"longitude":-72.85899,"address":"1017 Montauk Hwy, SHIRLEY NY","chain_name":null,"distance":0},{"name":"Famous Footwear","code":null,"latitude":46.96111,"longitude":-123.80345,"address":"1017 S Boone St, ABERDEEN WA","chain_name":null,"distance":0},{"name":"Famous Footwear","code":null,"latitude":42.04019,"longitude":-88.19545,"address":"1021 Sutton Rd, STREAMWOOD IL","chain_name":null,"distance":0},{"name":"Famous Footwear","code":null,"latitude":41.19627,"longitude":-111.9795,"address":"1022 Newgate Mall, OGDEN UT","chain_name":null,"distance":0},{"name":"Famous Footwear","code":null,"latitude":33.06566,"longitude":-117.26254,"address":"1026 N El Camino Real, ENCINITAS CA","chain_name":null,"distance":0},{"name":"Famous Footwear","code":null,"latitude":30.26283,"longitude":-81.52451,"address":"10261 River Marsh Dr, JACKSONVILLE FL","chain_name":null,"distance":0},{"name":"Famous Footwear","code":null,"latitude":47.65631,"longitude":-122.68812,"address":"10315 Silverdale Way NW, SILVERDALE WA","chain_name":null,"distance":0},{"name":"Famous Footwear","code":null,"latitude":47.16206,"longitude":-122.51429,"address":"10330 59th Ave SW Ste C, LAKEWOOD WA","chain_name":null,"distance":0},{"name":"Famous Footwear","code":null,"latitude":28.82269,"longitude":-81.78439,"address":"10401 US Highway 441, LEESBURG FL","chain_name":null,"distance":0},{"name":"Famous Footwear","code":null,"latitude":29.55581,"longitude":-95.38104,"address":"10412 Broadway St, PEARLAND TX","chain_name":null,"distance":0},{"name":"Famous Footwear","code":null,"latitude":41.52452,"longitude":-87.47109,"address":"10423 Indianapolis Blvd, HIGHLAND IN","chain_name":null,"distance":0},{"name":"Famous Footwear","code":null,"latitude":40.56151,"longitude":-111.89087,"address":"10450 S State St, SANDY UT","chain_name":null,"distance":0},{"name":"Famous Footwear","code":null,"latitude":36.80833,"longitude":-119.69506,"address":"1050 Shaw Ave Ste 1071, CLOVIS CA","chain_name":null,"distance":0},{"name":"Famous Footwear","code":null,"latitude":27.8944,"longitude":-82.78434,"address":"10500 Ulmerton Rd Ste 670, LARGO FL","chain_name":null,"distance":0},{"name":"Famous Footwear","code":null,"latitude":39.8888,"longitude":-104.99304,"address":"10620 Melody Dr, NORTHGLENN CO","chain_name":null,"distance":0},{"name":"Famous Footwear","code":null,"latitude":38.05236,"longitude":-121.37497,"address":"10652 Trinity Pkwy, STOCKTON CA","chain_name":null,"distance":0},{"name":"Famous Footwear","code":null,"latitude":34.10672,"longitude":-117.57126,"address":"10700 Foothill Blvd # E160, RANCHO CUCAMONGA CA","chain_name":null,"distance":0},{"name":"Famous Footwear","code":null,"latitude":33.39706,"longitude":-84.74307,"address":"1080 Highway 34 E # 103, NEWNAN GA","chain_name":null,"distance":0},{"name":"Famous Footwear","code":null,"latitude":44.77565,"longitude":-93.26008,"address":"1090 Burnsville Ctr, BURNSVILLE MN","chain_name":null,"distance":0},{"name":"Famous Footwear","code":null,"latitude":40.81171,"longitude":-79.54844,"address":"10A Hilltop Plz, KITTANNING PA","chain_name":null,"distance":0},{"name":"Famous Footwear","code":null,"latitude":42.11358,"longitude":-72.06787,"address":"110 Charlton Rd Ste 1, STURBRIDGE MA","chain_name":null,"distance":0},{"name":"Famous Footwear","code":null,"latitude":47.29658,"longitude":-122.24711,"address":"1101 Supermall Way Ste 1256, AUBURN WA","chain_name":null,"distance":0},{"name":"Famous Footwear","code":null,"latitude":43.21811,"longitude":-87.92379,"address":"11020 N Port Washington Rd, MEQUON WI","chain_name":null,"distance":0},{"name":"Famous Footwear","code":null,"latitude":41.46801,"longitude":-75.63644,"address":"1104 Commerce Blvd, DICKSON CITY PA","chain_name":null,"distance":0},{"name":"Famous Footwear","code":null,"latitude":30.47001,"longitude":-97.80202,"address":"11066 Pecan Park Blvd Ste 105, CEDAR PARK TX","chain_name":null,"distance":0},{"name":"Famous Footwear","code":null,"latitude":39.92088,"longitude":-88.95879,"address":"1110 Hickory Point Mall, FORSYTH IL","chain_name":null,"distance":0},{"name":"Famous Footwear","code":null,"latitude":30.17349,"longitude":-81.62817,"address":"11111 San Jose Blvd Ste 24, JACKSONVILLE FL","chain_name":null,"distance":0},{"name":"Famous Footwear","code":null,"latitude":41.50305,"longitude":-87.88795,"address":"11125 W Lincoln Hwy, FRANKFORT IL","chain_name":null,"distance":0},{"name":"Famous Footwear","code":null,"latitude":38.80153,"longitude":-77.52754,"address":"11146 Bulloch Dr, MANASSAS VA","chain_name":null,"distance":0},{"name":"Famous Footwear","code":null,"latitude":40.92976,"longitude":-98.38185,"address":"1115 Allen Dr, GRAND ISLAND NE","chain_name":null,"distance":0},{"name":"Famous Footwear","code":null,"latitude":39.36279,"longitude":-101.05517,"address":"1115 Taylor Ave, COLBY KS","chain_name":null,"distance":0},{"name":"Famous Footwear","code":null,"latitude":32.56628,"longitude":-97.31943,"address":"1117 N Burleson Blvd, BURLESON TX","chain_name":null,"distance":0},{"name":"Famous Footwear","code":null,"latitude":41.70421,"longitude":-88.11662,"address":"1122 W Boughton Rd, BOLINGBROOK IL","chain_name":null,"distance":0},{"name":"Famous Footwear","code":null,"latitude":33.48057,"longitude":-84.43905,"address":"113 Pavilion Pkwy, FAYETTEVILLE GA","chain_name":null,"distance":0},{"name":"Famous Footwear","code":null,"latitude":40.32061,"longitude":-76.4245,"address":"1131 Quentin Rd, LEBANON PA","chain_name":null,"distance":0},{"name":"Famous Footwear","code":null,"latitude":41.01658,"longitude":-92.43862,"address":"1135 N Quincy Ave Ste 94, OTTUMWA IA","chain_name":null,"distance":0},{"name":"Famous Footwear","code":null,"latitude":40.16196,"longitude":-83.01602,"address":"114 Meadow Park Ave, LEWIS CENTER OH","chain_name":null,"distance":0},{"name":"Famous Footwear","code":null,"latitude":36.19751,"longitude":-86.69161,"address":"114 Opry Mills Dr, NASHVILLE TN","chain_name":null,"distance":0},{"name":"Famous Footwear","code":null,"latitude":25.78291,"longitude":-80.37977,"address":"11401 NW 12th St Ste 389, MIAMI FL","chain_name":null,"distance":0},{"name":"Famous Footwear","code":null,"latitude":39.51008,"longitude":-104.76461,"address":"11475 S Twenty Mile Rd, PARKER CO","chain_name":null,"distance":0},{"name":"Famous Footwear","code":null,"latitude":39.93908,"longitude":-74.96516,"address":"1150 Nixon Dr, MOUNT LAUREL NJ","chain_name":null,"distance":0},{"name":"Famous Footwear","code":null,"latitude":39.91388,"longitude":-75.34701,"address":"1160 Baltimore Pike, SPRINGFIELD PA","chain_name":null,"distance":0},{"name":"Famous Footwear","code":null,"latitude":38.9163,"longitude":-94.66774,"address":"11625 Metcalf Ave Ste 100, OVERLAND PARK KS","chain_name":null,"distance":0},{"name":"Famous Footwear","code":null,"latitude":39.14195,"longitude":-121.63271,"address":"1165A Colusa Ave # 18, YUBA CITY CA","chain_name":null,"distance":0},{"name":"Famous Footwear","code":null,"latitude":40.72529,"longitude":-111.85814,"address":"1170 E 2100 S Ste A, SALT LAKE CITY UT","chain_name":null,"distance":0},{"name":"Famous Footwear","code":null,"latitude":42.26906,"longitude":-84.43345,"address":"1170 Jackson Xing, JACKSON MI","chain_name":null,"distance":0},{"name":"Famous Footwear","code":null,"latitude":41.90258,"longitude":-87.84947,"address":"1180 Winston Plz, MELROSE PARK IL","chain_name":null,"distance":0},{"name":"Famous Footwear","code":null,"latitude":39.91424,"longitude":-104.9724,"address":"1181 E 120th Ave Unit A, THORNTON CO","chain_name":null,"distance":0},{"name":"Famous Footwear","code":null,"latitude":32.16311,"longitude":-110.98913,"address":"1193 W Irvington Rd, TUCSON AZ","chain_name":null,"distance":0},{"name":"Famous Footwear","code":null,"latitude":34.17163,"longitude":-84.7825,"address":"120 Cherokee Pl Ste 130, CARTERSVILLE GA","chain_name":null,"distance":0},{"name":"Famous Footwear","code":null,"latitude":47.03715,"longitude":-122.93891,"address":"1200 Cooper Point Rd SW # 200, OLYMPIA WA","chain_name":null,"distance":0},{"name":"Famous Footwear","code":null,"latitude":29.95941,"longitude":-90.18377,"address":"1200 S Clearview Pkwy Ste 1220, NEW ORLEANS LA","chain_name":null,"distance":0},{"name":"Famous Footwear","code":null,"latitude":40.21796,"longitude":-111.66057,"address":"1200 Towne Centre Blvd, PROVO UT","chain_name":null,"distance":0},{"name":"Famous Footwear","code":null,"latitude":47.49149,"longitude":-94.89605,"address":"1201 Paul Bunyan Dr NW, BEMIDJI MN","chain_name":null,"distance":0},{"name":"Famous Footwear","code":null,"latitude":31.13645,"longitude":-83.44023,"address":"1203 W 4th St Ste 23, ADEL GA","chain_name":null,"distance":0},{"name":"Famous Footwear","code":null,"latitude":34.18728,"longitude":-97.14282,"address":"1211 N Commerce St, ARDMORE OK","chain_name":null,"distance":0},{"name":"Famous Footwear","code":null,"latitude":42.54156,"longitude":-83.18631,"address":"1213 Coolidge Hwy, TROY MI","chain_name":null,"distance":0},{"name":"Famous Footwear","code":null,"latitude":32.92619,"longitude":-97.09118,"address":"1217 W State Highway 114, GRAPEVINE TX","chain_name":null,"distance":0},{"name":"Famous Footwear","code":null,"latitude":39.72306,"longitude":-90.2483,"address":"1221 W Morton Ave, JACKSONVILLE IL","chain_name":null,"distance":0},{"name":"Famous Footwear","code":null,"latitude":40.14189,"longitude":-82.98739,"address":"1223 Polaris Pkwy, COLUMBUS OH","chain_name":null,"distance":0},{"name":"Famous Footwear","code":null,"latitude":37.52401,"longitude":-121.99947,"address":"1228 Newpark Mall, NEWARK CA","chain_name":null,"distance":0},{"name":"Famous Footwear","code":null,"latitude":42.8119,"longitude":-86.08591,"address":"12330 James St Ste H90, HOLLAND MI","chain_name":null,"distance":0},{"name":"Famous Footwear","code":null,"latitude":41.39763,"longitude":-83.65041,"address":"1234 N Main St Ste 14, BOWLING GREEN OH","chain_name":null,"distance":0},{"name":"Famous Footwear","code":null,"latitude":41.8314,"longitude":-88.10672,"address":"124 Danada Sq W, WHEATON IL","chain_name":null,"distance":0},{"name":"Famous Footwear","code":null,"latitude":38.77392,"longitude":-121.26545,"address":"1240 Galleria Blvd Ste 14, ROSEVILLE CA","chain_name":null,"distance":0},{"name":"Famous Footwear","code":null,"latitude":41.70492,"longitude":-71.49342,"address":"1245 Bald Hill Rd, WARWICK RI","chain_name":null,"distance":0},{"name":"Famous Footwear","code":null,"latitude":40.14408,"longitude":-105.13059,"address":"1250 S Hover St Ste 64, LONGMONT CO","chain_name":null,"distance":0},{"name":"Famous Footwear","code":null,"latitude":44.86457,"longitude":-93.43006,"address":"12577 Castlemoor Dr, EDEN PRAIRIE MN","chain_name":null,"distance":0},{"name":"Famous Footwear","code":null,"latitude":34.11864,"longitude":-84.45426,"address":"126 Woodstock Pkwy, WOODSTOCK GA","chain_name":null,"distance":0},{"name":"Famous Footwear","code":null,"latitude":47.7117,"longitude":-122.18203,"address":"12634 Totem Lake Blvd NE, KIRKLAND WA","chain_name":null,"distance":0},{"name":"Famous Footwear","code":null,"latitude":41.78518,"longitude":-88.31965,"address":"1266A N Lake St, AURORA IL","chain_name":null,"distance":0},{"name":"Famous Footwear","code":null,"latitude":28.06449,"longitude":-82.57603,"address":"12699 Citrus Plaza Dr, TAMPA FL","chain_name":null,"distance":0},{"name":"Famous Footwear","code":null,"latitude":45.50644,"longitude":-122.44128,"address":"1271 NW Civic Dr, GRESHAM OR","chain_name":null,"distance":0},{"name":"Famous Footwear","code":null,"latitude":45.20124,"longitude":-93.3566,"address":"12761 Riverdale Blvd NW, COON RAPIDS MN","chain_name":null,"distance":0},{"name":"Famous Footwear","code":null,"latitude":42.31445,"longitude":-85.10306,"address":"12765 Harper Village Dr, BATTLE CREEK MI","chain_name":null,"distance":0},{"name":"Famous Footwear","code":null,"latitude":44.83507,"longitude":-93.15845,"address":"1287 Promenade Pl # 4, EAGAN MN","chain_name":null,"distance":0},{"name":"Famous Footwear","code":null,"latitude":42.40158,"longitude":-71.07041,"address":"13 Mystic View Rd, EVERETT MA","chain_name":null,"distance":0},{"name":"Famous Footwear","code":null,"latitude":42.15034,"longitude":-87.83406,"address":"130 Waukegan Rd Ste C, DEERFIELD IL","chain_name":null,"distance":0},{"name":"Famous Footwear","code":null,"latitude":41.52653,"longitude":-93.60035,"address":"1300 E Army Post Rd, DES MOINES IA","chain_name":null,"distance":0},{"name":"Famous Footwear","code":null,"latitude":41.75501,"longitude":-111.8342,"address":"1300 N Main St Ste 1201, LOGAN UT","chain_name":null,"distance":0},{"name":"Famous Footwear","code":null,"latitude":41.96927,"longitude":-73.98858,"address":"1300 Ulster Ave, KINGSTON NY","chain_name":null,"distance":0},{"name":"Famous Footwear","code":null,"latitude":36.06394,"longitude":-115.03999,"address":"1300 W Sunset Rd Ste 1615, HENDERSON NV","chain_name":null,"distance":0},{"name":"Famous Footwear","code":null,"latitude":44.96956,"longitude":-93.44529,"address":"13153 Ridgedale Dr, MINNETONKA MN","chain_name":null,"distance":0},{"name":"Famous Footwear","code":null,"latitude":42.29877,"longitude":-71.3888,"address":"1324B Worcester St, NATICK MA","chain_name":null,"distance":0},{"name":"Famous Footwear","code":null,"latitude":42.37974,"longitude":-83.33334,"address":"13300 Middlebelt Rd, LIVONIA MI","chain_name":null,"distance":0},{"name":"Famous Footwear","code":null,"latitude":32.93106,"longitude":-96.80378,"address":"13331 Preston Rd Ste 1060, DALLAS TX","chain_name":null,"distance":0},{"name":"Famous Footwear","code":null,"latitude":33.55363,"longitude":-85.07305,"address":"1337 S Park St # 1016, CARROLLTON GA","chain_name":null,"distance":0},{"name":"Famous Footwear","code":null,"latitude":33.39002,"longitude":-111.85702,"address":"1339 S Alma School Rd, MESA AZ","chain_name":null,"distance":0},{"name":"Famous Footwear","code":null,"latitude":33.96233,"longitude":-118.03176,"address":"13460 Whittier Blvd, WHITTIER CA","chain_name":null,"distance":0},{"name":"Famous Footwear","code":null,"latitude":41.6431,"longitude":-88.00163,"address":"13462 S Archer Ave, LEMONT IL","chain_name":null,"distance":0},{"name":"Famous Footwear","code":null,"latitude":47.44158,"longitude":-120.32499,"address":"1350 N Miller St, WENATCHEE WA","chain_name":null,"distance":0},{"name":"Famous Footwear","code":null,"latitude":39.07664,"longitude":-77.08038,"address":"13513 Connecticut Ave, SILVER SPRING MD","chain_name":null,"distance":0},{"name":"Famous Footwear","code":null,"latitude":33.45007,"longitude":-86.82506,"address":"136 Wildwood Pkwy, BIRMINGHAM AL","chain_name":null,"distance":0},{"name":"Famous Footwear","code":null,"latitude":33.63886,"longitude":-112.35513,"address":"13768 W Bell Rd, SURPRISE AZ","chain_name":null,"distance":0},{"name":"Famous Footwear","code":null,"latitude":29.85493,"longitude":-95.51511,"address":"13784 Northwest Fwy, HOUSTON TX","chain_name":null,"distance":0},{"name":"Famous Footwear","code":null,"latitude":41.50348,"longitude":-87.7333,"address":"138 Town Center Rd, MATTESON IL","chain_name":null,"distance":0},{"name":"Famous Footwear","code":null,"latitude":45.05395,"longitude":-93.36793,"address":"139 Willow Bnd, CRYSTAL MN","chain_name":null,"distance":0},{"name":"Famous Footwear","code":null,"latitude":42.62756,"longitude":-82.99119,"address":"13901 Hall Rd, SHELBY TOWNSHIP MI","chain_name":null,"distance":0},{"name":"Famous Footwear","code":null,"latitude":41.16042,"longitude":-104.80479,"address":"1400 Dell Range Blvd, CHEYENNE WY","chain_name":null,"distance":0},{"name":"Famous Footwear","code":null,"latitude":47.91162,"longitude":-122.21513,"address":"1402 SE Everett Mall Way, EVERETT WA","chain_name":null,"distance":0},{"name":"Famous Footwear","code":null,"latitude":41.50122,"longitude":-81.53414,"address":"14060 Cedar Rd Ste 280, UNIVERSITY HTS OH","chain_name":null,"distance":0},{"name":"Famous Footwear","code":null,"latitude":34.60249,"longitude":-98.39119,"address":"141 Central Mall, LAWTON OK","chain_name":null,"distance":0},{"name":"Famous Footwear","code":null,"latitude":40.67536,"longitude":-75.20833,"address":"141 Palmer Park Mall, EASTON PA","chain_name":null,"distance":0},{"name":"Famous Footwear","code":null,"latitude":36.7065,"longitude":-121.6662,"address":"1411 N Davis Rd, SALINAS CA","chain_name":null,"distance":0},{"name":"Famous Footwear","code":null,"latitude":39.71644,"longitude":-104.82403,"address":"14180 E Ellsworth Ave, AURORA CO","chain_name":null,"distance":0},{"name":"Famous Footwear","code":null,"latitude":42.70755,"longitude":-73.82115,"address":"1425 Central Ave # 131, ALBANY NY","chain_name":null,"distance":0},{"name":"Famous Footwear","code":null,"latitude":33.45951,"longitude":-112.35837,"address":"1430 N Litchfield Rd, GOODYEAR AZ","chain_name":null,"distance":0},{"name":"Famous Footwear","code":null,"latitude":40.92682,"longitude":-72.6894,"address":"1440 Old Country Rd, RIVERHEAD NY","chain_name":null,"distance":0},{"name":"Famous Footwear","code":null,"latitude":34.47064,"longitude":-117.35025,"address":"14400 Bear Valley Rd, VICTORVILLE CA","chain_name":null,"distance":0},{"name":"Famous Footwear","code":null,"latitude":34.26108,"longitude":-84.46243,"address":"1443 Riverstone Pkwy, CANTON GA","chain_name":null,"distance":0},{"name":"Famous Footwear","code":null,"latitude":39.73464,"longitude":-105.15948,"address":"14500 W Colfax Ave, LAKEWOOD CO","chain_name":null,"distance":0},{"name":"Famous Footwear","code":null,"latitude":43.05177,"longitude":-89.4733,"address":"146 Westgate Mall, MADISON WI","chain_name":null,"distance":0},{"name":"Famous Footwear","code":null,"latitude":32.24036,"longitude":-80.81563,"address":"1460 Fording Island Rd, BLUFFTON SC","chain_name":null,"distance":0},{"name":"Famous Footwear","code":null,"latitude":47.6749,"longitude":-117.2086,"address":"14700 E Indiana Ave Spc 2058, SPOKANE VALLEY WA","chain_name":null,"distance":0},{"name":"Famous Footwear","code":null,"latitude":32.98117,"longitude":-117.06207,"address":"14737 Pomerado Rd, POWAY CA","chain_name":null,"distance":0},{"name":"Famous Footwear","code":null,"latitude":39.94759,"longitude":-83.8521,"address":"1475 Upper Valley Pike, SPRINGFIELD OH","chain_name":null,"distance":0},{"name":"Famous Footwear","code":null,"latitude":32.70081,"longitude":-114.60328,"address":"1480 S Yuma Palms Pkwy, YUMA AZ","chain_name":null,"distance":0},{"name":"Famous Footwear","code":null,"latitude":28.01111,"longitude":-81.93973,"address":"1482 Town Center Dr, LAKELAND FL","chain_name":null,"distance":0},{"name":"Famous Footwear","code":null,"latitude":42.93075,"longitude":-72.28226,"address":"149 Emerald St, KEENE NH","chain_name":null,"distance":0},{"name":"Famous Footwear","code":null,"latitude":44.73279,"longitude":-93.20305,"address":"14929 Florence Trl Ste 50, APPLE VALLEY MN","chain_name":null,"distance":0},{"name":"Famous Footwear","code":null,"latitude":46.86217,"longitude":-96.8717,"address":"1500 13th Ave E Ste C, WEST FARGO ND","chain_name":null,"distance":0},{"name":"Famous Footwear","code":null,"latitude":38.06501,"longitude":-97.90165,"address":"1500 E 11th Ave Ste 6GA, HUTCHINSON KS","chain_name":null,"distance":0},{"name":"Famous Footwear","code":null,"latitude":33.82914,"longitude":-117.84863,"address":"1500 E Village Way Ste 2135, ORANGE CA","chain_name":null,"distance":0},{"name":"Famous Footwear","code":null,"latitude":42.95652,"longitude":-71.43554,"address":"1500 S Willow St Spc W127, MANCHESTER NH","chain_name":null,"distance":0},{"name":"Famous Footwear","code":null,"latitude":33.4675,"longitude":-80.51033,"address":"1500 Village Square Blvd, SANTEE SC","chain_name":null,"distance":0},{"name":"Famous Footwear","code":null,"latitude":40.75536,"longitude":-73.57472,"address":"1504 Old Country Rd, WESTBURY NY","chain_name":null,"distance":0},{"name":"Famous Footwear","code":null,"latitude":40.64203,"longitude":-74.41453,"address":"1515 US Highway 22 Ste 42, WATCHUNG NJ","chain_name":null,"distance":0},{"name":"Famous Footwear","code":null,"latitude":47.55003,"longitude":-122.05395,"address":"1520 11th Ave NW, ISSAQUAH WA","chain_name":null,"distance":0},{"name":"Famous Footwear","code":null,"latitude":26.68722,"longitude":-81.90156,"address":"15201 N Cleveland Ave, N FORT MYERS FL","chain_name":null,"distance":0},{"name":"Famous Footwear","code":null,"latitude":34.15007,"longitude":-117.47273,"address":"15238 Summit Ave, FONTANA CA","chain_name":null,"distance":0},{"name":"Famous Footwear","code":null,"latitude":39.00891,"longitude":-94.76505,"address":"15410 Shawnee Mission Pkwy, SHAWNEE KS","chain_name":null,"distance":0},{"name":"Famous Footwear","code":null,"latitude":38.91298,"longitude":-94.76439,"address":"15420 W 119th St, OLATHE KS","chain_name":null,"distance":0},{"name":"Famous Footwear","code":null,"latitude":33.62837,"longitude":-111.88178,"address":"15454 N Frank Lloyd Wright, SCOTTSDALE AZ","chain_name":null,"distance":0},{"name":"Famous Footwear","code":null,"latitude":30.43806,"longitude":-84.25107,"address":"1554 Governors Square Blvd, TALLAHASSEE FL","chain_name":null,"distance":0},{"name":"Famous Footwear","code":null,"latitude":33.27412,"longitude":-84.2913,"address":"1559 N Expressway, GRIFFIN GA","chain_name":null,"distance":0},{"name":"Famous Footwear","code":null,"latitude":42.99951,"longitude":-78.82212,"address":"1565 Niagara Falls Blvd, AMHERST NY","chain_name":null,"distance":0},{"name":"Famous Footwear","code":null,"latitude":38.94414,"longitude":-76.73366,"address":"15651 Emerald Way # 02151, BOWIE MD","chain_name":null,"distance":0},{"name":"Famous Footwear","code":null,"latitude":42.05077,"longitude":-88.03863,"address":"1570 E Golf Rd, SCHAUMBURG IL","chain_name":null,"distance":0},{"name":"Famous Footwear","code":null,"latitude":28.09599,"longitude":-82.50246,"address":"15732 N Dale Mabry Hwy, TAMPA FL","chain_name":null,"distance":0},{"name":"Famous Footwear","code":null,"latitude":41.51832,"longitude":-81.45076,"address":"1574 Golden Gate Plz, MAYFIELD HEIGHTS OH","chain_name":null,"distance":0},{"name":"Famous Footwear","code":null,"latitude":41.60097,"longitude":-87.85309,"address":"15818 S La Grange Rd, ORLAND PARK IL","chain_name":null,"distance":0},{"name":"Famous Footwear","code":null,"latitude":44.77392,"longitude":-93.5037,"address":"1593 17th Ave E Ste 100, SHAKOPEE MN","chain_name":null,"distance":0},{"name":"Famous Footwear","code":null,"latitude":41.58644,"longitude":-71.99255,"address":"160 River Rd, LISBON CT","chain_name":null,"distance":0},{"name":"Famous Footwear","code":null,"latitude":45.65593,"longitude":-111.1732,"address":"1600 N 19th Ave Ste A\/B\/C, BOZEMAN MT","chain_name":null,"distance":0},{"name":"Famous Footwear","code":null,"latitude":42.34194,"longitude":-122.87799,"address":"1600 N Riverside Ave, MEDFORD OR","chain_name":null,"distance":0},{"name":"Famous Footwear","code":null,"latitude":41.17064,"longitude":-87.85099,"address":"1600 N State Route 50 Ste 410, BOURBONNAIS IL","chain_name":null,"distance":0},{"name":"Famous Footwear","code":null,"latitude":37.29322,"longitude":-121.99071,"address":"1600 Saratoga Ave # 415\/17, SAN JOSE CA","chain_name":null,"distance":0},{"name":"Famous Footwear","code":null,"latitude":42.32942,"longitude":-83.1871,"address":"16001 Ford Rd # 131&132, DEARBORN MI","chain_name":null,"distance":0},{"name":"Famous Footwear","code":null,"latitude":41.6004,"longitude":-87.79367,"address":"16003 Harlem Ave, TINLEY PARK IL","chain_name":null,"distance":0},{"name":"Famous Footwear","code":null,"latitude":47.48293,"longitude":-111.33976,"address":"1601 Market Place Dr, GREAT FALLS MT","chain_name":null,"distance":0},{"name":"Famous Footwear","code":null,"latitude":43.13495,"longitude":-77.49735,"address":"1601 Penfield Rd, ROCHESTER NY","chain_name":null,"distance":0},{"name":"Famous Footwear","code":null,"latitude":40.29912,"longitude":-74.30232,"address":"162 US Highway 9 Ste RD-3, ENGLISHTOWN NJ","chain_name":null,"distance":0},{"name":"Famous Footwear","code":null,"latitude":38.92623,"longitude":-94.40709,"address":"1632 NW Chipman Rd, LEES SUMMIT MO","chain_name":null,"distance":0},{"name":"Famous Footwear","code":null,"latitude":40.94608,"longitude":-74.2732,"address":"1632 State Route 23, WAYNE NJ","chain_name":null,"distance":0},{"name":"Famous Footwear","code":null,"latitude":33.52387,"longitude":-112.09401,"address":"1633 W Bethany Home Rd, PHOENIX AZ","chain_name":null,"distance":0},{"name":"Famous Footwear","code":null,"latitude":42.94919,"longitude":-82.50202,"address":"1661 Range Rd Ste B90, SMITHS CREEK MI","chain_name":null,"distance":0},{"name":"Famous Footwear","code":null,"latitude":39.99256,"longitude":-83.02601,"address":"1665 Olentangy River Rd, COLUMBUS OH","chain_name":null,"distance":0},{"name":"Famous Footwear","code":null,"latitude":33.57558,"longitude":-111.71855,"address":"16815 E Shea Blvd Ste 127, FOUNTAIN HILLS AZ","chain_name":null,"distance":0},{"name":"Famous Footwear","code":null,"latitude":40.68554,"longitude":-80.07146,"address":"1691 Route 228, CRANBERRY TOWNSHIP PA","chain_name":null,"distance":0},{"name":"Famous Footwear","code":null,"latitude":39.93151,"longitude":-105.12481,"address":"170 E Flatiron Cir, BROOMFIELD CO","chain_name":null,"distance":0},{"name":"Famous Footwear","code":null,"latitude":42.01902,"longitude":-97.43242,"address":"1700 Market Ln, NORFOLK NE","chain_name":null,"distance":0},{"name":"Famous Footwear","code":null,"latitude":34.06328,"longitude":-117.43335,"address":"17030 Slover Ave Ste 103, FONTANA CA","chain_name":null,"distance":0},{"name":"Famous Footwear","code":null,"latitude":38.94536,"longitude":-104.79553,"address":"1710 Briargate Blvd, COLORADO SPRINGS CO","chain_name":null,"distance":0},{"name":"Famous Footwear","code":null,"latitude":46.57022,"longitude":-120.47954,"address":"1724 E Washington Ave, UNION GAP WA","chain_name":null,"distance":0},{"name":"Famous Footwear","code":null,"latitude":42.2579,"longitude":-83.19112,"address":"1730 Dix Hwy, LINCOLN PARK MI","chain_name":null,"distance":0},{"name":"Famous Footwear","code":null,"latitude":41.92523,"longitude":-87.6725,"address":"1730 W Fullerton Ave, CHICAGO IL","chain_name":null,"distance":0},{"name":"Famous Footwear","code":null,"latitude":43.03653,"longitude":-88.12827,"address":"17300 W Bluemound Rd, BROOKFIELD WI","chain_name":null,"distance":0},{"name":"Famous Footwear","code":null,"latitude":40.45352,"longitude":-122.2978,"address":"1737 State Highway 273, ANDERSON CA","chain_name":null,"distance":0},{"name":"Famous Footwear","code":null,"latitude":40.45229,"longitude":-80.16426,"address":"1740 Park Manor Blvd, PITTSBURGH PA","chain_name":null,"distance":0},{"name":"Famous Footwear","code":null,"latitude":40.42538,"longitude":-79.8885,"address":"1745 S Braddock Ave, PITTSBURGH PA","chain_name":null,"distance":0},{"name":"Famous Footwear","code":null,"latitude":28.45004,"longitude":-81.40275,"address":"1750 Sand Lake Rd, ORLANDO FL","chain_name":null,"distance":0},{"name":"Famous Footwear","code":null,"latitude":41.24414,"longitude":-95.82692,"address":"1751 Madison Ave Ste 526, COUNCIL BLUFFS IA","chain_name":null,"distance":0},{"name":"Famous Footwear","code":null,"latitude":33.85591,"longitude":-84.61532,"address":"1757 E West Connector, AUSTELL GA","chain_name":null,"distance":0},{"name":"Famous Footwear","code":null,"latitude":39.65451,"longitude":-77.75552,"address":"17670 Garland Groh Blvd, HAGERSTOWN MD","chain_name":null,"distance":0},{"name":"Famous Footwear","code":null,"latitude":40.52694,"longitude":-111.88544,"address":"177 E 12300 S Ste 105, DRAPER UT","chain_name":null,"distance":0},{"name":"Famous Footwear","code":null,"latitude":39.08146,"longitude":-84.48171,"address":"1771A Monmouth St, NEWPORT KY","chain_name":null,"distance":0},{"name":"Famous Footwear","code":null,"latitude":42.14666,"longitude":-70.84502,"address":"1775 Washington St, HANOVER MA","chain_name":null,"distance":0},{"name":"Famous Footwear","code":null,"latitude":47.75787,"longitude":-122.15384,"address":"17955 Garden Way NE, WOODINVILLE WA","chain_name":null,"distance":0},{"name":"Famous Footwear","code":null,"latitude":40.44804,"longitude":-75.36138,"address":"180 N West End Blvd # 206, QUAKERTOWN PA","chain_name":null,"distance":0},{"name":"Famous Footwear","code":null,"latitude":42.08593,"longitude":-86.41988,"address":"1800 Pipestone Rd Ste 120, BENTON HARBOR MI","chain_name":null,"distance":0},{"name":"Famous Footwear","code":null,"latitude":33.19161,"longitude":-97.09932,"address":"1800 S Loop 288 Ste 330, DENTON TX","chain_name":null,"distance":0},{"name":"Famous Footwear","code":null,"latitude":47.31373,"longitude":-122.30459,"address":"1804 S Commons, FEDERAL WAY WA","chain_name":null,"distance":0},{"name":"Famous Footwear","code":null,"latitude":45.5369,"longitude":-122.86298,"address":"18049 NW Evergreen Pkwy, BEAVERTON OR","chain_name":null,"distance":0},{"name":"Famous Footwear","code":null,"latitude":41.3137,"longitude":-81.82769,"address":"18074 Royalton Rd, STRONGSVILLE OH","chain_name":null,"distance":0},{"name":"Famous Footwear","code":null,"latitude":33.38113,"longitude":-111.80645,"address":"1809 S Stapley Dr, MESA AZ","chain_name":null,"distance":0},{"name":"Famous Footwear","code":null,"latitude":39.99165,"longitude":-83.15176,"address":"1816 Hilliard Rome Rd, HILLIARD OH","chain_name":null,"distance":0},{"name":"Famous Footwear","code":null,"latitude":32.59168,"longitude":-97.14338,"address":"1821 Highway 287 N, MANSFIELD TX","chain_name":null,"distance":0},{"name":"Famous Footwear","code":null,"latitude":33.17044,"longitude":-117.22047,"address":"1821 University Dr # 110, VISTA CA","chain_name":null,"distance":0},{"name":"Famous Footwear","code":null,"latitude":40.10951,"longitude":-75.21406,"address":"1841 Bethlehem Pike, FLOURTOWN PA","chain_name":null,"distance":0},{"name":"Famous Footwear","code":null,"latitude":39.92424,"longitude":-75.14323,"address":"1851 S Columbus Blvd, PHILADELPHIA PA","chain_name":null,"distance":0},{"name":"Famous Footwear","code":null,"latitude":33.56747,"longitude":-84.32892,"address":"1865 Mount Zion Rd Ste D, MORROW GA","chain_name":null,"distance":0},{"name":"Famous Footwear","code":null,"latitude":39.04789,"longitude":-94.36171,"address":"18675 E 39th St S Ste H, INDEPENDENCE MO","chain_name":null,"distance":0},{"name":"Famous Footwear","code":null,"latitude":27.01355,"longitude":-82.14492,"address":"18700 Veterans Blvd # K, PORT CHARLOTTE FL","chain_name":null,"distance":0},{"name":"Famous Footwear","code":null,"latitude":45.03946,"longitude":-92.84074,"address":"1871 Market Dr # 3, STILLWATER MN","chain_name":null,"distance":0},{"name":"Famous Footwear","code":null,"latitude":44.88974,"longitude":-93.08075,"address":"1881 Robert St S, SAINT PAUL MN","chain_name":null,"distance":0},{"name":"Famous Footwear","code":null,"latitude":48.4505,"longitude":-122.33824,"address":"1882 Marketplace Dr, BURLINGTON WA","chain_name":null,"distance":0},{"name":"Famous Footwear","code":null,"latitude":33.46458,"longitude":-84.21942,"address":"1894 Jonesboro Rd, MCDONOUGH GA","chain_name":null,"distance":0},{"name":"Famous Footwear","code":null,"latitude":36.32368,"longitude":-119.67305,"address":"190 N 12th Ave, HANFORD CA","chain_name":null,"distance":0},{"name":"Famous Footwear","code":null,"latitude":44.16665,"longitude":-93.94896,"address":"1901 E Madison Ave, MANKATO MN","chain_name":null,"distance":0},{"name":"Famous Footwear","code":null,"latitude":30.1802,"longitude":-95.45139,"address":"19075 Interstate 45 S # E3, CONROE TX","chain_name":null,"distance":0},{"name":"Famous Footwear","code":null,"latitude":45.318,"longitude":-93.56226,"address":"19174 Freeport St NW, ELK RIVER MN","chain_name":null,"distance":0},{"name":"Famous Footwear","code":null,"latitude":37.72257,"longitude":-97.36185,"address":"1921 W 21st St N, WICHITA KS","chain_name":null,"distance":0},{"name":"Famous Footwear","code":null,"latitude":47.8237,"longitude":-122.2707,"address":"19225 Alderwood Mall Pkwy, LYNNWOOD WA","chain_name":null,"distance":0},{"name":"Famous Footwear","code":null,"latitude":33.50903,"longitude":-112.04134,"address":"1925 E Camelback Rd Ste 130, PHOENIX AZ","chain_name":null,"distance":0},{"name":"Famous Footwear","code":null,"latitude":40.6354,"longitude":-75.48526,"address":"1939 Whitehall Mall, WHITEHALL PA","chain_name":null,"distance":0},{"name":"Famous Footwear","code":null,"latitude":41.80953,"longitude":-72.54743,"address":"194 Buckland Hills Dr, MANCHESTER CT","chain_name":null,"distance":0},{"name":"Famous Footwear","code":null,"latitude":37.14168,"longitude":-93.25858,"address":"1959 E Independence St, SPRINGFIELD MO","chain_name":null,"distance":0},{"name":"Famous Footwear","code":null,"latitude":34.27556,"longitude":-118.56765,"address":"19881 Rinaldi St # UNITD2, PORTER RANCH CA","chain_name":null,"distance":0},{"name":"Famous Footwear","code":null,"latitude":29.78287,"longitude":-95.71846,"address":"19963 Katy Fwy, HOUSTON TX","chain_name":null,"distance":0},{"name":"Famous Footwear","code":null,"latitude":41.86735,"longitude":-71.05117,"address":"2 Galleria Mall Dr # 3214, TAUNTON MA","chain_name":null,"distance":0},{"name":"Famous Footwear","code":null,"latitude":42.80181,"longitude":-73.98379,"address":"2 W Campbell Rd, SCHENECTADY NY","chain_name":null,"distance":0},{"name":"Famous Footwear","code":null,"latitude":43.63332,"longitude":-70.35101,"address":"200 Running Hill Rd Ste 2, PORTLAND ME","chain_name":null,"distance":0},{"name":"Famous Footwear","code":null,"latitude":37.97853,"longitude":-87.49242,"address":"201 N Green River Rd, EVANSVILLE IN","chain_name":null,"distance":0},{"name":"Famous Footwear","code":null,"latitude":40.02758,"longitude":-75.63193,"address":"201 W Lincoln Hwy, EXTON PA","chain_name":null,"distance":0},{"name":"Famous Footwear","code":null,"latitude":36.33962,"longitude":-82.37481,"address":"2011 N Roan St, JOHNSON CITY TN","chain_name":null,"distance":0},{"name":"Famous Footwear","code":null,"latitude":40.14059,"longitude":-88.25803,"address":"2013 N Prospect Ave, CHAMPAIGN IL","chain_name":null,"distance":0},{"name":"Famous Footwear","code":null,"latitude":39.72226,"longitude":-121.8013,"address":"2015 Forest Ave Ste B1, CHICO CA","chain_name":null,"distance":0},{"name":"Famous Footwear","code":null,"latitude":42.59693,"longitude":-114.45513,"address":"2016 Bridgeview Blvd, TWIN FALLS ID","chain_name":null,"distance":0},{"name":"Famous Footwear","code":null,"latitude":26.17887,"longitude":-97.71013,"address":"2020 S Expressway 83 # D2\/3, HARLINGEN TX","chain_name":null,"distance":0},{"name":"Famous Footwear","code":null,"latitude":44.91773,"longitude":-93.18574,"address":"2022 Ford Pkwy, SAINT PAUL MN","chain_name":null,"distance":0},{"name":"Famous Footwear","code":null,"latitude":41.07702,"longitude":-111.97491,"address":"2040 Layton Hills Mall, LAYTON UT","chain_name":null,"distance":0},{"name":"Famous Footwear","code":null,"latitude":38.8544,"longitude":-94.82296,"address":"20405 W 151st St, OLATHE KS","chain_name":null,"distance":0},{"name":"Famous Footwear","code":null,"latitude":33.45365,"longitude":-111.68391,"address":"2043 N Power Rd, MESA AZ","chain_name":null,"distance":0},{"name":"Famous Footwear","code":null,"latitude":33.37789,"longitude":-112.03722,"address":"2050 E Baseline Rd, PHOENIX AZ","chain_name":null,"distance":0},{"name":"Famous Footwear","code":null,"latitude":25.57723,"longitude":-80.37058,"address":"20505 S Dixie Hwy, MIAMI FL","chain_name":null,"distance":0},{"name":"Famous Footwear","code":null,"latitude":43.47857,"longitude":-111.98439,"address":"2053 S 25th E, AMMON ID","chain_name":null,"distance":0},{"name":"Famous Footwear","code":null,"latitude":30.0225,"longitude":-95.26121,"address":"20845 Highway 59 N, HUMBLE TX","chain_name":null,"distance":0},{"name":"Famous Footwear","code":null,"latitude":45.00405,"longitude":-93.16616,"address":"2100 Snelling Ave N, ROSEVILLE MN","chain_name":null,"distance":0},{"name":"Famous Footwear","code":null,"latitude":42.95486,"longitude":-78.87806,"address":"2101 Elmwood Ave, BUFFALO NY","chain_name":null,"distance":0},{"name":"Famous Footwear","code":null,"latitude":35.58716,"longitude":-120.69649,"address":"2105 Theater Dr, PASO ROBLES CA","chain_name":null,"distance":0},{"name":"Famous Footwear","code":null,"latitude":25.97117,"longitude":-80.14322,"address":"21065 Biscayne Blvd, AVENTURA FL","chain_name":null,"distance":0},{"name":"Famous Footwear","code":null,"latitude":39.19561,"longitude":-94.57868,"address":"211 NE Englewood Rd, KANSAS CITY MO","chain_name":null,"distance":0},{"name":"Famous Footwear","code":null,"latitude":39.02808,"longitude":-95.76198,"address":"2140 SW Wanamaker Rd, TOPEKA KS","chain_name":null,"distance":0},{"name":"Famous Footwear","code":null,"latitude":41.45951,"longitude":-81.85999,"address":"21621 Center Ridge Rd, ROCKY RIVER OH","chain_name":null,"distance":0},{"name":"Famous Footwear","code":null,"latitude":38.80105,"longitude":-104.81772,"address":"2170 Southgate Rd, COLORADO SPRINGS CO","chain_name":null,"distance":0},{"name":"Famous Footwear","code":null,"latitude":42.46504,"longitude":-92.31949,"address":"219 Crossroads Blvd, WATERLOO IA","chain_name":null,"distance":0},{"name":"Famous Footwear","code":null,"latitude":37.6514,"longitude":-122.10532,"address":"219 Southland Mall, HAYWARD CA","chain_name":null,"distance":0},{"name":"Famous Footwear","code":null,"latitude":40.8152,"longitude":-96.63042,"address":"220 N 66th St Ste 320B, LINCOLN NE","chain_name":null,"distance":0},{"name":"Famous Footwear","code":null,"latitude":31.52982,"longitude":-110.25849,"address":"2200 El Mercado Loop, SIERRA VISTA AZ","chain_name":null,"distance":0},{"name":"Famous Footwear","code":null,"latitude":44.10876,"longitude":-103.20774,"address":"2200 N Maple Ave, RAPID CITY SD","chain_name":null,"distance":0},{"name":"Famous Footwear","code":null,"latitude":33.74755,"longitude":-116.99519,"address":"2200 W Florida Ave Ste 155, HEMET CA","chain_name":null,"distance":0},{"name":"Famous Footwear","code":null,"latitude":33.1884,"longitude":-97.10952,"address":"2201 S Interstate 35 E, DENTON TX","chain_name":null,"distance":0},{"name":"Famous Footwear","code":null,"latitude":35.39182,"longitude":-97.55057,"address":"2209 SW 74th St # 304\/305, OKLAHOMA CITY OK","chain_name":null,"distance":0},{"name":"Famous Footwear","code":null,"latitude":41.84978,"longitude":-87.80386,"address":"2210 Harlem Ave Ste 12, NORTH RIVERSIDE IL","chain_name":null,"distance":0},{"name":"Famous Footwear","code":null,"latitude":42.1052,"longitude":-87.80461,"address":"2221 Willow Rd, GLENVIEW IL","chain_name":null,"distance":0},{"name":"Famous Footwear","code":null,"latitude":40.25495,"longitude":-75.66276,"address":"223 Shoemaker Rd, POTTSTOWN PA","chain_name":null,"distance":0},{"name":"Famous Footwear","code":null,"latitude":28.05512,"longitude":-82.4346,"address":"2241 University Square Mall, TAMPA FL","chain_name":null,"distance":0},{"name":"Famous Footwear","code":null,"latitude":44.62879,"longitude":-123.07756,"address":"2245 14th Ave SE, ALBANY OR","chain_name":null,"distance":0},{"name":"Famous Footwear","code":null,"latitude":41.01578,"longitude":-76.48666,"address":"225 Columbia Mall Dr, BLOOMSBURG PA","chain_name":null,"distance":0},{"name":"Famous Footwear","code":null,"latitude":33.93647,"longitude":-117.27186,"address":"22500 Town Cir Ste 1069, MORENO VALLEY CA","chain_name":null,"distance":0},{"name":"Famous Footwear","code":null,"latitude":30.01202,"longitude":-95.59069,"address":"22517 State Highway 249, HOUSTON TX","chain_name":null,"distance":0},{"name":"Famous Footwear","code":null,"latitude":38.8025,"longitude":-97.61246,"address":"2259 S 9th St # 137, SALINA KS","chain_name":null,"distance":0},{"name":"Famous Footwear","code":null,"latitude":40.78864,"longitude":-82.59819,"address":"2265 Walker Lake Rd, MANSFIELD OH","chain_name":null,"distance":0},{"name":"Famous Footwear","code":null,"latitude":41.39893,"longitude":-82.10319,"address":"227 Midway Blvd # D6, ELYRIA OH","chain_name":null,"distance":0},{"name":"Famous Footwear","code":null,"latitude":28.22668,"longitude":-80.69872,"address":"2291 Town Center Ave Ste 105, MELBOURNE FL","chain_name":null,"distance":0},{"name":"Famous Footwear","code":null,"latitude":33.65776,"longitude":-117.91891,"address":"2300 Harbor Blvd, COSTA MESA CA","chain_name":null,"distance":0},{"name":"Famous Footwear","code":null,"latitude":41.85985,"longitude":-88.02135,"address":"231 W Roosevelt Rd, LOMBARD IL","chain_name":null,"distance":0},{"name":"Famous Footwear","code":null,"latitude":33.91119,"longitude":-117.87095,"address":"2315 E Imperial Hwy # 300, BREA CA","chain_name":null,"distance":0},{"name":"Famous Footwear","code":null,"latitude":42.09414,"longitude":-76.01575,"address":"2317 Vestal Pkwy E # B, VESTAL NY","chain_name":null,"distance":0},{"name":"Famous Footwear","code":null,"latitude":39.15589,"longitude":-78.16928,"address":"2320 Legge Blvd, WINCHESTER VA","chain_name":null,"distance":0},{"name":"Famous Footwear","code":null,"latitude":33.00779,"longitude":-96.97486,"address":"2325 S Stemmons Fwy Ste 404, LEWISVILLE TX","chain_name":null,"distance":0},{"name":"Famous Footwear","code":null,"latitude":34.1488,"longitude":-118.24633,"address":"233 N Glendale Ave, GLENDALE CA","chain_name":null,"distance":0},{"name":"Famous Footwear","code":null,"latitude":40.23159,"longitude":-75.30082,"address":"2333 W Main St # C16\/C17, LANSDALE PA","chain_name":null,"distance":0},{"name":"Famous Footwear","code":null,"latitude":34.91862,"longitude":-120.42129,"address":"2338 S Bradley Rd Ste 10A, SANTA MARIA CA","chain_name":null,"distance":0},{"name":"Famous Footwear","code":null,"latitude":43.04696,"longitude":-89.35062,"address":"2347 W Broadway, MONONA WI","chain_name":null,"distance":0},{"name":"Famous Footwear","code":null,"latitude":42.36104,"longitude":-88.26709,"address":"2362 N Richmond Rd, MCHENRY IL","chain_name":null,"distance":0},{"name":"Famous Footwear","code":null,"latitude":27.9882,"longitude":-82.72983,"address":"23666 US Highway 19 N, CLEARWATER FL","chain_name":null,"distance":0},{"name":"Famous Footwear","code":null,"latitude":48.23809,"longitude":-114.33025,"address":"2385 US Highway 93 N, KALISPELL MT","chain_name":null,"distance":0},{"name":"Famous Footwear","code":null,"latitude":48.2072,"longitude":-101.3063,"address":"2400 10th St SW Ste 208, MINOT ND","chain_name":null,"distance":0},{"name":"Famous Footwear","code":null,"latitude":40.76283,"longitude":-84.14894,"address":"2400 Elida Rd Ste 154, LIMA OH","chain_name":null,"distance":0},{"name":"Famous Footwear","code":null,"latitude":39.59779,"longitude":-104.69278,"address":"24101 E Orchard Rd Unit B, AURORA CO","chain_name":null,"distance":0},{"name":"Famous Footwear","code":null,"latitude":39.08947,"longitude":-108.60382,"address":"2424 Highway 6 And 50, GRAND JUNCTION CO","chain_name":null,"distance":0},{"name":"Famous Footwear","code":null,"latitude":41.67516,"longitude":-72.83977,"address":"244 New Britain Ave, PLAINVILLE CT","chain_name":null,"distance":0},{"name":"Famous Footwear","code":null,"latitude":41.58055,"longitude":-109.26178,"address":"2441 Foothill Blvd, ROCK SPRINGS WY","chain_name":null,"distance":0},{"name":"Famous Footwear","code":null,"latitude":41.95168,"longitude":-88.7264,"address":"2453 Sycamore Rd Ste A, DEKALB IL","chain_name":null,"distance":0},{"name":"Famous Footwear","code":null,"latitude":29.18029,"longitude":-81.07974,"address":"2455 W International Speedway, DAYTONA BEACH FL","chain_name":null,"distance":0},{"name":"Famous Footwear","code":null,"latitude":44.84228,"longitude":-93.23631,"address":"246 N Garden, BLOOMINGTON MN","chain_name":null,"distance":0},{"name":"Famous Footwear","code":null,"latitude":43.06447,"longitude":-89.52625,"address":"247 Junction Rd Spc 247, MADISON WI","chain_name":null,"distance":0},{"name":"Famous Footwear","code":null,"latitude":42.52301,"longitude":-90.78862,"address":"2495 NW Arterial, DUBUQUE IA","chain_name":null,"distance":0},{"name":"Famous Footwear","code":null,"latitude":40.75148,"longitude":-73.99213,"address":"250 W 34th St, NEW YORK NY","chain_name":null,"distance":0},{"name":"Famous Footwear","code":null,"latitude":40.90181,"longitude":-81.14672,"address":"2500 W State St, ALLIANCE OH","chain_name":null,"distance":0},{"name":"Famous Footwear","code":null,"latitude":35.60996,"longitude":-97.56,"address":"2501 W Memorial Rd, OKLAHOMA CITY OK","chain_name":null,"distance":0},{"name":"Famous Footwear","code":null,"latitude":41.01153,"longitude":-80.39316,"address":"2503 W State St, NEW CASTLE PA","chain_name":null,"distance":0},{"name":"Famous Footwear","code":null,"latitude":33.1831,"longitude":-117.33343,"address":"2505A Vista Way, OCEANSIDE CA","chain_name":null,"distance":0},{"name":"Famous Footwear","code":null,"latitude":47.52452,"longitude":-122.36456,"address":"2511 SW Trenton St, SEATTLE WA","chain_name":null,"distance":0},{"name":"Famous Footwear","code":null,"latitude":40.10212,"longitude":-75.29219,"address":"2520 Chemical Rd, PLYMOUTH MEETING PA","chain_name":null,"distance":0},{"name":"Famous Footwear","code":null,"latitude":39.67131,"longitude":-104.9404,"address":"2526 S Colorado Blvd, DENVER CO","chain_name":null,"distance":0},{"name":"Famous Footwear","code":null,"latitude":38.57447,"longitude":-121.4035,"address":"2531 Fair Oaks Blvd, SACRAMENTO CA","chain_name":null,"distance":0},{"name":"Famous Footwear","code":null,"latitude":40.01442,"longitude":-105.26144,"address":"2540 Arapahoe Ave, BOULDER CO","chain_name":null,"distance":0},{"name":"Famous Footwear","code":null,"latitude":38.94262,"longitude":-121.09158,"address":"2548 Bell Rd, AUBURN CA","chain_name":null,"distance":0},{"name":"Famous Footwear","code":null,"latitude":34.38804,"longitude":-118.5724,"address":"25680 The Old Rd, STEVENSON RANCH CA","chain_name":null,"distance":0},{"name":"Famous Footwear","code":null,"latitude":33.30613,"longitude":-111.88812,"address":"2600 W Chandler Blvd Ste 12, CHANDLER AZ","chain_name":null,"distance":0},{"name":"Famous Footwear","code":null,"latitude":40.07408,"longitude":-75.4282,"address":"261 E Swedesford Rd, WAYNE PA","chain_name":null,"distance":0},{"name":"Famous Footwear","code":null,"latitude":29.71493,"longitude":-95.19729,"address":"261 Pasadena Town Square Mall, PASADENA TX","chain_name":null,"distance":0},{"name":"Famous Footwear","code":null,"latitude":32.98779,"longitude":-96.89037,"address":"2630 N Josey Ln Ste 130, CARROLLTON TX","chain_name":null,"distance":0},{"name":"Famous Footwear","code":null,"latitude":42.32655,"longitude":-83.30036,"address":"26486 Ford Rd, DEARBORN HEIGHTS MI","chain_name":null,"distance":0},{"name":"Famous Footwear","code":null,"latitude":42.6114,"longitude":-71.33518,"address":"265 Chelmsford St, CHELMSFORD MA","chain_name":null,"distance":0},{"name":"Famous Footwear","code":null,"latitude":42.75574,"longitude":-71.46273,"address":"266 Daniel Webster Hwy, NASHUA NH","chain_name":null,"distance":0},{"name":"Famous Footwear","code":null,"latitude":40.87649,"longitude":-79.9493,"address":"266 Moraine Pointe Plz, BUTLER PA","chain_name":null,"distance":0},{"name":"Famous Footwear","code":null,"latitude":33.67916,"longitude":-117.66401,"address":"26736 Portola Pkwy Ste C, FOOTHILL RANCH CA","chain_name":null,"distance":0},{"name":"Famous Footwear","code":null,"latitude":34.14262,"longitude":-118.22458,"address":"2700 Colorado Blvd Ste 248, EAGLE ROCK CA","chain_name":null,"distance":0},{"name":"Famous Footwear","code":null,"latitude":29.16616,"longitude":-82.16905,"address":"2701 SW College Rd Ste 40, OCALA FL","chain_name":null,"distance":0},{"name":"Famous Footwear","code":null,"latitude":33.56965,"longitude":-117.71451,"address":"27150 Alicia Pkwy Ste C, LAGUNA NIGUEL CA","chain_name":null,"distance":0},{"name":"Famous Footwear","code":null,"latitude":41.93202,"longitude":-87.64445,"address":"2731 N Clark St # 2733, CHICAGO IL","chain_name":null,"distance":0},{"name":"Famous Footwear","code":null,"latitude":41.57488,"longitude":-88.15479,"address":"2731 Plainfield Rd, JOLIET IL","chain_name":null,"distance":0},{"name":"Famous Footwear","code":null,"latitude":27.96048,"longitude":-82.72401,"address":"2739 Gulf To Bay Blvd, CLEARWATER FL","chain_name":null,"distance":0},{"name":"Famous Footwear","code":null,"latitude":39.47302,"longitude":-74.74415,"address":"274 Consumer Sq Spc 14A, MAYS LANDING NJ","chain_name":null,"distance":0},{"name":"Famous Footwear","code":null,"latitude":34.06854,"longitude":-117.17192,"address":"27430 W Lugonia Ave, REDLANDS CA","chain_name":null,"distance":0},{"name":"Famous Footwear","code":null,"latitude":43.03864,"longitude":-87.91412,"address":"275 W Wisconsin Ave # 234, MILWAUKEE WI","chain_name":null,"distance":0},{"name":"Famous Footwear","code":null,"latitude":40.3576,"longitude":-75.98437,"address":"2761 Papermill Rd, READING PA","chain_name":null,"distance":0},{"name":"Famous Footwear","code":null,"latitude":38.65473,"longitude":-121.12373,"address":"2775 E Bidwell St Ste 200, FOLSOM CA","chain_name":null,"distance":0},{"name":"Famous Footwear","code":null,"latitude":41.69565,"longitude":-91.61091,"address":"2792 Commerce Dr # 200, CORALVILLE IA","chain_name":null,"distance":0},{"name":"Famous Footwear","code":null,"latitude":33.93953,"longitude":-117.2852,"address":"2800 Campus Pkwy Ste 105, RIVERSIDE CA","chain_name":null,"distance":0},{"name":"Famous Footwear","code":null,"latitude":35.53647,"longitude":-97.5623,"address":"2804 NW 63rd St, OKLAHOMA CITY OK","chain_name":null,"distance":0},{"name":"Famous Footwear","code":null,"latitude":37.5218,"longitude":-120.8785,"address":"2810 W Monte Vista Ave, TURLOCK CA","chain_name":null,"distance":0},{"name":"Famous Footwear","code":null,"latitude":33.66788,"longitude":-112.11988,"address":"2811 W Agua Fria Fwy Ste 2, PHOENIX AZ","chain_name":null,"distance":0},{"name":"Famous Footwear","code":null,"latitude":35.1823,"longitude":-101.9383,"address":"2814 S Soncy Rd, AMARILLO TX","chain_name":null,"distance":0},{"name":"Famous Footwear","code":null,"latitude":39.02655,"longitude":-84.56003,"address":"2821 Town Center Blvd, CRESTVIEW HILLS KY","chain_name":null,"distance":0},{"name":"Famous Footwear","code":null,"latitude":45.55303,"longitude":-94.19213,"address":"2826 W Division St, SAINT CLOUD MN","chain_name":null,"distance":0},{"name":"Famous Footwear","code":null,"latitude":45.75539,"longitude":-108.58762,"address":"2829 King Ave W Ste B, BILLINGS MT","chain_name":null,"distance":0},{"name":"Famous Footwear","code":null,"latitude":42.63802,"longitude":-83.13163,"address":"2883 S Rochester Rd, ROCHESTER HILLS MI","chain_name":null,"distance":0},{"name":"Famous Footwear","code":null,"latitude":42.71348,"longitude":-88.97998,"address":"2900 Deerfield Dr Ste 7, JANESVILLE WI","chain_name":null,"distance":0},{"name":"Famous Footwear","code":null,"latitude":32.74067,"longitude":-116.93893,"address":"2907 Jamacha Rd Ste 16, EL CAJON CA","chain_name":null,"distance":0},{"name":"Famous Footwear","code":null,"latitude":42.2448,"longitude":-83.7705,"address":"2915 Oak Valley Dr, ANN ARBOR MI","chain_name":null,"distance":0},{"name":"Famous Footwear","code":null,"latitude":40.27376,"longitude":-111.70134,"address":"292 W University Pkwy, OREM UT","chain_name":null,"distance":0},{"name":"Famous Footwear","code":null,"latitude":39.93907,"longitude":-82.77553,"address":"2937 Taylor Road Ext, REYNOLDSBURG OH","chain_name":null,"distance":0},{"name":"Famous Footwear","code":null,"latitude":33.17168,"longitude":-96.64393,"address":"2950 Craig Dr, MCKINNEY TX","chain_name":null,"distance":0},{"name":"Famous Footwear","code":null,"latitude":40.70575,"longitude":-112.02463,"address":"2997 S 5600 W, WEST VALLEY CITY UT","chain_name":null,"distance":0},{"name":"Famous Footwear","code":null,"latitude":43.98831,"longitude":-92.4513,"address":"30 25th St SE, ROCHESTER MN","chain_name":null,"distance":0},{"name":"Famous Footwear","code":null,"latitude":44.07476,"longitude":-123.04254,"address":"3000 Gateway St Ofc 504, SPRINGFIELD OR","chain_name":null,"distance":0},{"name":"Famous Footwear","code":null,"latitude":40.74105,"longitude":-96.67631,"address":"3010 Pine Lake Rd Ste F, LINCOLN NE","chain_name":null,"distance":0},{"name":"Famous Footwear","code":null,"latitude":36.21583,"longitude":-115.24251,"address":"3039 N Rainbow Blvd # C-1, LAS VEGAS NV","chain_name":null,"distance":0},{"name":"Famous Footwear","code":null,"latitude":41.69946,"longitude":-88.31592,"address":"3040 US Highway 34, OSWEGO IL","chain_name":null,"distance":0},{"name":"Famous Footwear","code":null,"latitude":33.64331,"longitude":-117.59648,"address":"30616 Santa Margarita Pkwy, RANCHO SANTA MARGARITA CA","chain_name":null,"distance":0},{"name":"Famous Footwear","code":null,"latitude":43.10532,"longitude":-73.7406,"address":"3065 Route 50 Ste E26, SARATOGA SPGS NY","chain_name":null,"distance":0},{"name":"Famous Footwear","code":null,"latitude":38.62742,"longitude":-76.91118,"address":"3066 Festival Way, WALDORF MD","chain_name":null,"distance":0},{"name":"Famous Footwear","code":null,"latitude":38.87557,"longitude":-104.72026,"address":"3080 N Powers Blvd, COLORADO SPRINGS CO","chain_name":null,"distance":0},{"name":"Famous Footwear","code":null,"latitude":40.60156,"longitude":-79.19074,"address":"3100 Oakland Ave, INDIANA PA","chain_name":null,"distance":0},{"name":"Famous Footwear","code":null,"latitude":42.52552,"longitude":-83.36014,"address":"31025 Orchard Lake Rd, FARMINGTON HILLS MI","chain_name":null,"distance":0},{"name":"Famous Footwear","code":null,"latitude":41.23244,"longitude":-96.1332,"address":"3111 Oak View Dr, OMAHA NE","chain_name":null,"distance":0},{"name":"Famous Footwear","code":null,"latitude":40.30391,"longitude":-78.84636,"address":"312 Town Centre Dr, JOHNSTOWN PA","chain_name":null,"distance":0},{"name":"Famous Footwear","code":null,"latitude":42.09896,"longitude":-79.30282,"address":"318 E Fairmount Ave # 374, LAKEWOOD NY","chain_name":null,"distance":0},{"name":"Famous Footwear","code":null,"latitude":45.49585,"longitude":-122.80938,"address":"3195 SW Cedar Hills Blvd, BEAVERTON OR","chain_name":null,"distance":0},{"name":"Famous Footwear","code":null,"latitude":40.82906,"longitude":-74.14427,"address":"32 Main Ave, CLIFTON NJ","chain_name":null,"distance":0},{"name":"Famous Footwear","code":null,"latitude":33.94928,"longitude":-84.23202,"address":"3200 Holcomb Bridge Rd, NORCROSS GA","chain_name":null,"distance":0},{"name":"Famous Footwear","code":null,"latitude":26.16856,"longitude":-80.11758,"address":"3200 N Federal Hwy Ste 601, FT LAUDERDALE FL","chain_name":null,"distance":0},{"name":"Famous Footwear","code":null,"latitude":37.75964,"longitude":-121.46196,"address":"3200 Naglee Rd, TRACY CA","chain_name":null,"distance":0},{"name":"Famous Footwear","code":null,"latitude":44.7229,"longitude":-85.64037,"address":"3200 S Airport Rd W Ste 306, TRAVERSE CITY MI","chain_name":null,"distance":0},{"name":"Famous Footwear","code":null,"latitude":39.02008,"longitude":-74.87113,"address":"3201 Route 9 S Unit D, RIO GRANDE NJ","chain_name":null,"distance":0},{"name":"Famous Footwear","code":null,"latitude":46.89485,"longitude":-114.0398,"address":"3205 N Reserve St Ste A, MISSOULA MT","chain_name":null,"distance":0},{"name":"Famous Footwear","code":null,"latitude":34.06644,"longitude":-84.00887,"address":"3205 Woodward Mill Rd, BUFORD GA","chain_name":null,"distance":0},{"name":"Famous Footwear","code":null,"latitude":33.48103,"longitude":-117.09783,"address":"32155 State Highway 79, TEMECULA CA","chain_name":null,"distance":0},{"name":"Famous Footwear","code":null,"latitude":42.982,"longitude":-83.77196,"address":"3227 S Linden Rd, FLINT MI","chain_name":null,"distance":0},{"name":"Famous Footwear","code":null,"latitude":38.92574,"longitude":-95.26028,"address":"3230 Iowa St, LAWRENCE KS","chain_name":null,"distance":0},{"name":"Famous Footwear","code":null,"latitude":39.73697,"longitude":-75.62576,"address":"3238 Kirkwood Hwy, WILMINGTON DE","chain_name":null,"distance":0},{"name":"Famous Footwear","code":null,"latitude":33.93738,"longitude":-118.12154,"address":"324 Stonewood St, DOWNEY CA","chain_name":null,"distance":0},{"name":"Famous Footwear","code":null,"latitude":39.76252,"longitude":-105.14236,"address":"3244 Youngfield St Unit A, WHEAT RIDGE CO","chain_name":null,"distance":0},{"name":"Famous Footwear","code":null,"latitude":43.11837,"longitude":-87.90636,"address":"325 E Silver Spring Dr, WHITEFISH BAY WI","chain_name":null,"distance":0},{"name":"Famous Footwear","code":null,"latitude":34.48918,"longitude":-112.43717,"address":"3250 Gateway Blvd, PRESCOTT AZ","chain_name":null,"distance":0},{"name":"Famous Footwear","code":null,"latitude":43.0519,"longitude":-88.36488,"address":"3272 Golf Rd, DELAFIELD WI","chain_name":null,"distance":0},{"name":"Famous Footwear","code":null,"latitude":28.26083,"longitude":-81.43531,"address":"3282 N John Young Pkwy, KISSIMMEE FL","chain_name":null,"distance":0},{"name":"Famous Footwear","code":null,"latitude":38.29413,"longitude":-104.60608,"address":"3283 Dillon Dr # E9, PUEBLO CO","chain_name":null,"distance":0},{"name":"Famous Footwear","code":null,"latitude":40.77919,"longitude":-124.18759,"address":"3300 Broadway St Ste 136, EUREKA CA","chain_name":null,"distance":0},{"name":"Famous Footwear","code":null,"latitude":32.83829,"longitude":-96.99097,"address":"3313 W Airport Fwy, IRVING TX","chain_name":null,"distance":0},{"name":"Famous Footwear","code":null,"latitude":39.93738,"longitude":-91.36269,"address":"3323 Quincy Mall, QUINCY IL","chain_name":null,"distance":0},{"name":"Famous Footwear","code":null,"latitude":46.62708,"longitude":-112.02086,"address":"3329 N Montana Ave, HELENA MT","chain_name":null,"distance":0},{"name":"Famous Footwear","code":null,"latitude":33.11342,"longitude":-96.80584,"address":"3333 Preston Rd Ste 403, FRISCO TX","chain_name":null,"distance":0},{"name":"Famous Footwear","code":null,"latitude":42.98435,"longitude":-87.94856,"address":"3333 S 27th St, MILWAUKEE WI","chain_name":null,"distance":0},{"name":"Famous Footwear","code":null,"latitude":43.08716,"longitude":-77.63698,"address":"3333 W Henrietta Rd # 13, ROCHESTER NY","chain_name":null,"distance":0},{"name":"Famous Footwear","code":null,"latitude":33.82422,"longitude":-117.51588,"address":"3335 Grand Oaks, CORONA CA","chain_name":null,"distance":0},{"name":"Famous Footwear","code":null,"latitude":43.1024,"longitude":-77.53811,"address":"3349 Monroe Ave Ste 40, ROCHESTER NY","chain_name":null,"distance":0},{"name":"Famous Footwear","code":null,"latitude":42.48739,"longitude":-71.01812,"address":"335 Broadway Unit 7, SAUGUS MA","chain_name":null,"distance":0},{"name":"Famous Footwear","code":null,"latitude":42.35591,"longitude":-72.55418,"address":"335 Russell St, HADLEY MA","chain_name":null,"distance":0},{"name":"Famous Footwear","code":null,"latitude":28.07708,"longitude":-82.73878,"address":"33521 US Highway 19 N, PALM HARBOR FL","chain_name":null,"distance":0},{"name":"Famous Footwear","code":null,"latitude":43.49408,"longitude":-83.96591,"address":"3365 Tittabawassee Rd, SAGINAW MI","chain_name":null,"distance":0},{"name":"Famous Footwear","code":null,"latitude":41.11905,"longitude":-81.48086,"address":"338 Howe Ave, CUYAHOGA FALLS OH","chain_name":null,"distance":0},{"name":"Famous Footwear","code":null,"latitude":42.5457,"longitude":-82.90457,"address":"33830 S Gratiot Ave, CLINTON TOWNSHIP MI","chain_name":null,"distance":0},{"name":"Famous Footwear","code":null,"latitude":34.15024,"longitude":-118.07994,"address":"3389 E Foothill Blvd, PASADENA CA","chain_name":null,"distance":0},{"name":"Famous Footwear","code":null,"latitude":41.93905,"longitude":-88.1094,"address":"342 W Army Trail Rd Ste 110, BLOOMINGDALE IL","chain_name":null,"distance":0},{"name":"Famous Footwear","code":null,"latitude":43.07546,"longitude":-89.44549,"address":"3420 University Ave, MADISON WI","chain_name":null,"distance":0},{"name":"Famous Footwear","code":null,"latitude":29.77992,"longitude":-95.53576,"address":"344 Memorial City Way, HOUSTON TX","chain_name":null,"distance":0},{"name":"Famous Footwear","code":null,"latitude":35.21863,"longitude":-97.49232,"address":"3447 W Main St, NORMAN OK","chain_name":null,"distance":0},{"name":"Famous Footwear","code":null,"latitude":41.85649,"longitude":-88.34062,"address":"345 N Randall Rd, BATAVIA IL","chain_name":null,"distance":0},{"name":"Famous Footwear","code":null,"latitude":43.61933,"longitude":-116.3492,"address":"3455 E Fairview Ave, MERIDIAN ID","chain_name":null,"distance":0},{"name":"Famous Footwear","code":null,"latitude":40.94497,"longitude":-72.94256,"address":"346 Route 25a Ste 74-82, ROCKY POINT NY","chain_name":null,"distance":0},{"name":"Famous Footwear","code":null,"latitude":33.77537,"longitude":-118.37643,"address":"35 Peninsula Ctr, ROLLING HILLS ESTATES CA","chain_name":null,"distance":0},{"name":"Famous Footwear","code":null,"latitude":47.15832,"longitude":-122.29319,"address":"3500 S Meridian Ste 640, PUYALLUP WA","chain_name":null,"distance":0},{"name":"Famous Footwear","code":null,"latitude":39.73038,"longitude":-75.03405,"address":"3501 Route 42 # G3, TURNERSVILLE NJ","chain_name":null,"distance":0},{"name":"Famous Footwear","code":null,"latitude":29.75992,"longitude":-94.97747,"address":"3503 Garth Rd, BAYTOWN TX","chain_name":null,"distance":0},{"name":"Famous Footwear","code":null,"latitude":42.02761,"longitude":-91.62917,"address":"351 Collins Rd NE # A, CEDAR RAPIDS IA","chain_name":null,"distance":0},{"name":"Famous Footwear","code":null,"latitude":41.36998,"longitude":-72.11805,"address":"351 N Frontage Rd Ste B4, NEW LONDON CT","chain_name":null,"distance":0},{"name":"Famous Footwear","code":null,"latitude":46.13994,"longitude":-122.90201,"address":"351 Three Rivers Dr, KELSO WA","chain_name":null,"distance":0},{"name":"Famous Footwear","code":null,"latitude":35.63989,"longitude":-106.01132,"address":"3537 Zafarano Dr Ste 1, SANTA FE NM","chain_name":null,"distance":0},{"name":"Famous Footwear","code":null,"latitude":41.9868,"longitude":-88.34087,"address":"354 Randall Rd, SOUTH ELGIN IL","chain_name":null,"distance":0},{"name":"Famous Footwear","code":null,"latitude":26.04487,"longitude":-80.15977,"address":"3551 Oakwood Blvd # 6, HOLLYWOOD FL","chain_name":null,"distance":0},{"name":"Famous Footwear","code":null,"latitude":42.25561,"longitude":-83.68865,"address":"3567 Washtenaw Ave, ANN ARBOR MI","chain_name":null,"distance":0},{"name":"Famous Footwear","code":null,"latitude":41.4579,"longitude":-82.02561,"address":"35882 Detroit Rd, AVON OH","chain_name":null,"distance":0},{"name":"Famous Footwear","code":null,"latitude":38.5601,"longitude":-90.38041,"address":"36 Crestwood Plz, SAINT LOUIS MO","chain_name":null,"distance":0},{"name":"Famous Footwear","code":null,"latitude":40.53802,"longitude":-105.07877,"address":"3600 S Mason St Unit 6, FORT COLLINS CO","chain_name":null,"distance":0},{"name":"Famous Footwear","code":null,"latitude":33.67358,"longitude":-84.46295,"address":"3608 Marketplace Blvd, EAST POINT GA","chain_name":null,"distance":0},{"name":"Famous Footwear","code":null,"latitude":33.95331,"longitude":-84.65788,"address":"3625 Dallas Hwy SW Ste 26, MARIETTA GA","chain_name":null,"distance":0},{"name":"Famous Footwear","code":null,"latitude":41.62763,"longitude":-81.42805,"address":"36375 Euclid Ave, WILLOUGHBY OH","chain_name":null,"distance":0},{"name":"Famous Footwear","code":null,"latitude":40.09502,"longitude":-83.08757,"address":"3640 W Dublin Granville Rd # R, COLUMBUS OH","chain_name":null,"distance":0},{"name":"Famous Footwear","code":null,"latitude":43.03905,"longitude":-76.06582,"address":"3649 Erie Blvd E Ste 76, SYRACUSE NY","chain_name":null,"distance":0},{"name":"Famous Footwear","code":null,"latitude":36.80801,"longitude":-119.85912,"address":"3667 W Shaw Ave, FRESNO CA","chain_name":null,"distance":0},{"name":"Famous Footwear","code":null,"latitude":36.12267,"longitude":-115.13714,"address":"3680 S Maryland Pkwy Ste 175, LAS VEGAS NV","chain_name":null,"distance":0},{"name":"Famous Footwear","code":null,"latitude":38.63751,"longitude":-121.50427,"address":"3681 Truxel Rd, SACRAMENTO CA","chain_name":null,"distance":0},{"name":"Famous Footwear","code":null,"latitude":41.87029,"longitude":-71.52469,"address":"371 Putnam Pike Ste A360, SMITHFIELD RI","chain_name":null,"distance":0},{"name":"Famous Footwear","code":null,"latitude":47.88925,"longitude":-97.08194,"address":"3711 32nd Ave S, GRAND FORKS ND","chain_name":null,"distance":0},{"name":"Famous Footwear","code":null,"latitude":40.05542,"longitude":-82.91936,"address":"3725 Easton Market, COLUMBUS OH","chain_name":null,"distance":0},{"name":"Famous Footwear","code":null,"latitude":41.60038,"longitude":-83.46083,"address":"3725 Williston Rd Ste 572, NORTHWOOD OH","chain_name":null,"distance":0},{"name":"Famous Footwear","code":null,"latitude":32.90979,"longitude":-96.85364,"address":"3747 Forest Ln, DALLAS TX","chain_name":null,"distance":0},{"name":"Famous Footwear","code":null,"latitude":41.13565,"longitude":-81.63507,"address":"3750 W Market St Unit L, FAIRLAWN OH","chain_name":null,"distance":0},{"name":"Famous Footwear","code":null,"latitude":33.31258,"longitude":-111.75835,"address":"3775 S Gilbert Rd, GILBERT AZ","chain_name":null,"distance":0},{"name":"Famous Footwear","code":null,"latitude":28.55207,"longitude":-81.20432,"address":"379 N Alafaya Trl, ORLANDO FL","chain_name":null,"distance":0},{"name":"Famous Footwear","code":null,"latitude":41.92149,"longitude":-88.26792,"address":"3800 E Main St, SAINT CHARLES IL","chain_name":null,"distance":0},{"name":"Famous Footwear","code":null,"latitude":43.8505,"longitude":-91.212,"address":"3800 State Road 16 Spc 10, LA CROSSE WI","chain_name":null,"distance":0},{"name":"Famous Footwear","code":null,"latitude":28.09099,"longitude":-81.97402,"address":"3800 US Highway 98 N, LAKELAND FL","chain_name":null,"distance":0},{"name":"Famous Footwear","code":null,"latitude":42.91754,"longitude":-78.75397,"address":"3801 Union Rd Ste 4, CHEEKTOWAGA NY","chain_name":null,"distance":0},{"name":"Famous Footwear","code":null,"latitude":40.65061,"longitude":-73.86976,"address":"381 Gateway Dr, BROOKLYN NY","chain_name":null,"distance":0},{"name":"Famous Footwear","code":null,"latitude":41.96568,"longitude":-87.99184,"address":"381 W Irving Park Rd, WOOD DALE IL","chain_name":null,"distance":0},{"name":"Famous Footwear","code":null,"latitude":41.60026,"longitude":-93.75644,"address":"3810 University Ave, WEST DES MOINES IA","chain_name":null,"distance":0},{"name":"Famous Footwear","code":null,"latitude":39.14684,"longitude":-84.42887,"address":"3812 Paxton Ave, CINCINNATI OH","chain_name":null,"distance":0},{"name":"Famous Footwear","code":null,"latitude":44.06298,"longitude":-92.50185,"address":"3813 Marketplace Dr NW, ROCHESTER MN","chain_name":null,"distance":0},{"name":"Famous Footwear","code":null,"latitude":44.24375,"longitude":-88.36513,"address":"3845 E Calumet St, APPLETON WI","chain_name":null,"distance":0},{"name":"Famous Footwear","code":null,"latitude":39.96179,"longitude":-81.99439,"address":"3849 Gorsky Dr, ZANESVILLE OH","chain_name":null,"distance":0},{"name":"Famous Footwear","code":null,"latitude":33.69706,"longitude":-117.81482,"address":"3850 Barranca Pkwy # K&L, IRVINE CA","chain_name":null,"distance":0},{"name":"Famous Footwear","code":null,"latitude":42.40507,"longitude":-71.09209,"address":"3850 Mystic Valley Pkwy, MEDFORD MA","chain_name":null,"distance":0},{"name":"Famous Footwear","code":null,"latitude":34.00008,"longitude":-117.72145,"address":"3857 Grand Ave, CHINO CA","chain_name":null,"distance":0},{"name":"Famous Footwear","code":null,"latitude":26.31759,"longitude":-80.15725,"address":"3888 W Hillsboro Blvd, DEERFIELD BEACH FL","chain_name":null,"distance":0},{"name":"Famous Footwear","code":null,"latitude":38.12827,"longitude":-92.66699,"address":"3924 Jr Prewitt Pkwy Ste F, OSAGE BEACH MO","chain_name":null,"distance":0},{"name":"Famous Footwear","code":null,"latitude":41.35754,"longitude":-89.1252,"address":"3940 State Route 251 Ste H1, PERU IL","chain_name":null,"distance":0},{"name":"Famous Footwear","code":null,"latitude":32.67777,"longitude":-97.00712,"address":"3950 S Carrier Pkwy Ste 120, GRAND PRAIRIE TX","chain_name":null,"distance":0},{"name":"Famous Footwear","code":null,"latitude":43.02908,"longitude":-77.43834,"address":"40 Cobblestone Court Dr, VICTOR NY","chain_name":null,"distance":0},{"name":"Famous Footwear","code":null,"latitude":39.24653,"longitude":-94.5849,"address":"400 NW Barry Rd, KANSAS CITY MO","chain_name":null,"distance":0},{"name":"Famous Footwear","code":null,"latitude":40.34567,"longitude":-80.04837,"address":"4000 Oxford Dr Spc C1, BETHEL PARK PA","chain_name":null,"distance":0},{"name":"Famous Footwear","code":null,"latitude":38.74417,"longitude":-121.27458,"address":"404 Roseville Sq, ROSEVILLE CA","chain_name":null,"distance":0},{"name":"Famous Footwear","code":null,"latitude":42.02046,"longitude":-91.63165,"address":"4100 1st Ave NE, CEDAR RAPIDS IA","chain_name":null,"distance":0},{"name":"Famous Footwear","code":null,"latitude":36.1042,"longitude":-95.92208,"address":"4107 S Yale Ave # GL707, TULSA OK","chain_name":null,"distance":0},{"name":"Famous Footwear","code":null,"latitude":39.95286,"longitude":-83.11196,"address":"4121 W Broad St, COLUMBUS OH","chain_name":null,"distance":0},{"name":"Famous Footwear","code":null,"latitude":36.39052,"longitude":-97.92933,"address":"4125 W Owen K Garriott Rd, ENID OK","chain_name":null,"distance":0},{"name":"Famous Footwear","code":null,"latitude":36.29316,"longitude":-119.31389,"address":"4149 S Mooney Blvd, VISALIA CA","chain_name":null,"distance":0},{"name":"Famous Footwear","code":null,"latitude":32.80479,"longitude":-116.96416,"address":"415 Parkway Plz Ste Z1, EL CAJON CA","chain_name":null,"distance":0},{"name":"Famous Footwear","code":null,"latitude":42.90901,"longitude":-112.4665,"address":"4155 Yellowstone Ave, CHUBBUCK ID","chain_name":null,"distance":0},{"name":"Famous Footwear","code":null,"latitude":31.43105,"longitude":-100.50045,"address":"4175 Sunset Dr, SAN ANGELO TX","chain_name":null,"distance":0},{"name":"Famous Footwear","code":null,"latitude":43.01858,"longitude":-83.62931,"address":"4190 E Court St # 721, BURTON MI","chain_name":null,"distance":0},{"name":"Famous Footwear","code":null,"latitude":45.03184,"longitude":-93.44909,"address":"4190 Vinewood Ln N, PLYMOUTH MN","chain_name":null,"distance":0},{"name":"Famous Footwear","code":null,"latitude":32.59691,"longitude":-96.93794,"address":"420 N Highway 67 # D1, CEDAR HILL TX","chain_name":null,"distance":0},{"name":"Famous Footwear","code":null,"latitude":40.88501,"longitude":-111.8923,"address":"420 S 500 W Ste 115, BOUNTIFUL UT","chain_name":null,"distance":0},{"name":"Famous Footwear","code":null,"latitude":42.78314,"longitude":-73.89281,"address":"430 Balltown Rd, SCHENECTADY NY","chain_name":null,"distance":0},{"name":"Famous Footwear","code":null,"latitude":44.27286,"longitude":-88.47096,"address":"4301 W Wisconsin Ave # 908, APPLETON WI","chain_name":null,"distance":0},{"name":"Famous Footwear","code":null,"latitude":30.04949,"longitude":-95.18652,"address":"4327 Kingwood Dr, KINGWOOD TX","chain_name":null,"distance":0},{"name":"Famous Footwear","code":null,"latitude":34.45253,"longitude":-93.07251,"address":"4330 Central Ave Ste G, HOT SPRINGS AR","chain_name":null,"distance":0},{"name":"Famous Footwear","code":null,"latitude":42.49339,"longitude":-83.47832,"address":"43514 W Oaks Dr, NOVI MI","chain_name":null,"distance":0},{"name":"Famous Footwear","code":null,"latitude":42.66402,"longitude":-84.54554,"address":"438 E Edgewood Blvd Ste D107, LANSING MI","chain_name":null,"distance":0},{"name":"Famous Footwear","code":null,"latitude":40.18502,"longitude":-80.22395,"address":"44 Trinity Point Dr # A03, WASHINGTON PA","chain_name":null,"distance":0},{"name":"Famous Footwear","code":null,"latitude":40.19356,"longitude":-74.64223,"address":"440 Marketplace Blvd, HAMILTON NJ","chain_name":null,"distance":0},{"name":"Famous Footwear","code":null,"latitude":42.45014,"longitude":-96.35428,"address":"4400 Sergeant Rd, SIOUX CITY IA","chain_name":null,"distance":0},{"name":"Famous Footwear","code":null,"latitude":41.46849,"longitude":-90.50726,"address":"4425 16th St, MOLINE IL","chain_name":null,"distance":0},{"name":"Famous Footwear","code":null,"latitude":41.73939,"longitude":-86.12982,"address":"445 E University Dr, GRANGER IN","chain_name":null,"distance":0},{"name":"Famous Footwear","code":null,"latitude":39.09696,"longitude":-84.27589,"address":"4450 Eastgate Blvd, CINCINNATI OH","chain_name":null,"distance":0},{"name":"Famous Footwear","code":null,"latitude":42.32223,"longitude":-83.48161,"address":"44590 Ford Rd, CANTON MI","chain_name":null,"distance":0},{"name":"Famous Footwear","code":null,"latitude":41.59907,"longitude":-87.53763,"address":"450 River Oaks W, CALUMET CITY IL","chain_name":null,"distance":0},{"name":"Famous Footwear","code":null,"latitude":41.46784,"longitude":-90.5069,"address":"4500 16th St, MOLINE IL","chain_name":null,"distance":0},{"name":"Famous Footwear","code":null,"latitude":33.48001,"longitude":-111.98525,"address":"4501 E Thomas Rd Ste 139, PHOENIX AZ","chain_name":null,"distance":0},{"name":"Famous Footwear","code":null,"latitude":40.39494,"longitude":-104.75051,"address":"4508 Centerplace Dr # 384, GREELEY CO","chain_name":null,"distance":0},{"name":"Famous Footwear","code":null,"latitude":40.17158,"longitude":-74.85225,"address":"455 S Oxford Valley Rd, FAIRLESS HILLS PA","chain_name":null,"distance":0},{"name":"Famous Footwear","code":null,"latitude":33.59988,"longitude":-111.98346,"address":"4550 E Cactus Rd Ste 406, PHOENIX AZ","chain_name":null,"distance":0},{"name":"Famous Footwear","code":null,"latitude":36.76468,"longitude":-108.15232,"address":"4601 E Main St Ste 118, FARMINGTON NM","chain_name":null,"distance":0},{"name":"Famous Footwear","code":null,"latitude":35.49347,"longitude":-97.6061,"address":"4615 NW 23rd St # 10, OKLAHOMA CITY OK","chain_name":null,"distance":0},{"name":"Famous Footwear","code":null,"latitude":39.35033,"longitude":-84.54263,"address":"4641 Dixie Hwy, FAIRFIELD OH","chain_name":null,"distance":0},{"name":"Famous Footwear","code":null,"latitude":32.68229,"longitude":-97.39495,"address":"4656 SW Loop 820, FORT WORTH TX","chain_name":null,"distance":0},{"name":"Famous Footwear","code":null,"latitude":32.81784,"longitude":-83.71391,"address":"4657 Presidential Pkwy, MACON GA","chain_name":null,"distance":0},{"name":"Famous Footwear","code":null,"latitude":41.4555,"longitude":-74.38213,"address":"470 Route 211 E Ste 11, MIDDLETOWN NY","chain_name":null,"distance":0},{"name":"Famous Footwear","code":null,"latitude":33.32004,"longitude":-111.98248,"address":"4722 E Ray Rd Ste 20, PHOENIX AZ","chain_name":null,"distance":0},{"name":"Famous Footwear","code":null,"latitude":43.13003,"longitude":-89.30247,"address":"4725 E Towne Blvd, MADISON WI","chain_name":null,"distance":0},{"name":"Famous Footwear","code":null,"latitude":42.1888,"longitude":-88.10544,"address":"475 S Rand Rd, LAKE ZURICH IL","chain_name":null,"distance":0},{"name":"Famous Footwear","code":null,"latitude":47.7012,"longitude":-117.41095,"address":"4750 N Division St, SPOKANE WA","chain_name":null,"distance":0},{"name":"Famous Footwear","code":null,"latitude":40.13505,"longitude":-74.22448,"address":"4751 US Highway 9, HOWELL NJ","chain_name":null,"distance":0},{"name":"Famous Footwear","code":null,"latitude":38.65075,"longitude":-121.32749,"address":"4780 Manzanita Ave, CARMICHAEL CA","chain_name":null,"distance":0},{"name":"Famous Footwear","code":null,"latitude":41.42511,"longitude":-81.73454,"address":"4790 Ridge Rd, BROOKLYN OH","chain_name":null,"distance":0},{"name":"Famous Footwear","code":null,"latitude":44.94287,"longitude":-123.03588,"address":"480 Center St NE Ste 244, SALEM OR","chain_name":null,"distance":0},{"name":"Famous Footwear","code":null,"latitude":44.77663,"longitude":-91.43681,"address":"4800 Golf Rd # 718, EAU CLAIRE WI","chain_name":null,"distance":0},{"name":"Famous Footwear","code":null,"latitude":33.68552,"longitude":-96.58304,"address":"4800 Texoma Pkwy # B6\/10, SHERMAN TX","chain_name":null,"distance":0},{"name":"Famous Footwear","code":null,"latitude":37.41973,"longitude":-77.63228,"address":"4801 Commonwealth Centre Pkwy, MIDLOTHIAN VA","chain_name":null,"distance":0},{"name":"Famous Footwear","code":null,"latitude":42.87713,"longitude":-85.76226,"address":"4830 Wilson Ave SW Ste 600, WYOMING MI","chain_name":null,"distance":0},{"name":"Famous Footwear","code":null,"latitude":40.66474,"longitude":-111.83895,"address":"4835 Highland Dr, HOLLADAY UT","chain_name":null,"distance":0},{"name":"Famous Footwear","code":null,"latitude":34.07178,"longitude":-117.93561,"address":"484 Plaza Dr, WEST COVINA CA","chain_name":null,"distance":0},{"name":"Famous Footwear","code":null,"latitude":42.71018,"longitude":-83.30742,"address":"4840 S Baldwin Rd, LAKE ORION MI","chain_name":null,"distance":0},{"name":"Famous Footwear","code":null,"latitude":42.36277,"longitude":-71.15865,"address":"485 Arsenal St, WATERTOWN MA","chain_name":null,"distance":0},{"name":"Famous Footwear","code":null,"latitude":41.65376,"longitude":-87.73959,"address":"4853 Cal Sag Rd, CRESTWOOD IL","chain_name":null,"distance":0},{"name":"Famous Footwear","code":null,"latitude":43.20777,"longitude":-77.69129,"address":"486 Greece Ridge Center Dr # D, ROCHESTER NY","chain_name":null,"distance":0},{"name":"Famous Footwear","code":null,"latitude":34.26308,"longitude":-119.22697,"address":"4890 Telephone Rd, VENTURA CA","chain_name":null,"distance":0},{"name":"Famous Footwear","code":null,"latitude":44.47911,"longitude":-73.21283,"address":"49 Church St Ste 2050, BURLINGTON VT","chain_name":null,"distance":0},{"name":"Famous Footwear","code":null,"latitude":40.74767,"longitude":-89.6312,"address":"4929 N Hamilton Rd, PEORIA IL","chain_name":null,"distance":0},{"name":"Famous Footwear","code":null,"latitude":41.55204,"longitude":-73.03184,"address":"495 Union St Ste 2082, WATERBURY CT","chain_name":null,"distance":0},{"name":"Famous Footwear","code":null,"latitude":44.82571,"longitude":-68.7577,"address":"496 Stillwater Ave Ste C, BANGOR ME","chain_name":null,"distance":0},{"name":"Famous Footwear","code":null,"latitude":42.17302,"longitude":-72.64005,"address":"50 Holyoke St, HOLYOKE MA","chain_name":null,"distance":0},{"name":"Famous Footwear","code":null,"latitude":29.7793,"longitude":-95.80685,"address":"5000 Katy Mills Cir Ste 549, KATY TX","chain_name":null,"distance":0},{"name":"Famous Footwear","code":null,"latitude":42.95381,"longitude":-88.00804,"address":"5000 S 76th St, GREENFIELD WI","chain_name":null,"distance":0},{"name":"Famous Footwear","code":null,"latitude":33.37955,"longitude":-111.96535,"address":"5000 S Arizona Mills Cir, TEMPE AZ","chain_name":null,"distance":0},{"name":"Famous Footwear","code":null,"latitude":33.33022,"longitude":-111.63815,"address":"5002 S Power Rd, MESA AZ","chain_name":null,"distance":0},{"name":"Famous Footwear","code":null,"latitude":35.75248,"longitude":-95.36708,"address":"501 N Main St Ste 26, MUSKOGEE OK","chain_name":null,"distance":0},{"name":"Famous Footwear","code":null,"latitude":32.94221,"longitude":-96.69967,"address":"501 S Plano Rd Ste 837, RICHARDSON TX","chain_name":null,"distance":0},{"name":"Famous Footwear","code":null,"latitude":40.8409,"longitude":-73.3114,"address":"5031 Jericho Tpke, COMMACK NY","chain_name":null,"distance":0},{"name":"Famous Footwear","code":null,"latitude":42.98366,"longitude":-78.69667,"address":"5045 Transit Rd, WILLIAMSVILLE NY","chain_name":null,"distance":0},{"name":"Famous Footwear","code":null,"latitude":40.09348,"longitude":-80.92248,"address":"50483 Valley Plaza Dr, SAINT CLAIRSVILLE OH","chain_name":null,"distance":0},{"name":"Famous Footwear","code":null,"latitude":33.64009,"longitude":-112.06534,"address":"509 E Bell Rd Ste 1, PHOENIX AZ","chain_name":null,"distance":0},{"name":"Famous Footwear","code":null,"latitude":29.57073,"longitude":-95.77668,"address":"5101 Avenue H Ste 35, ROSENBERG TX","chain_name":null,"distance":0},{"name":"Famous Footwear","code":null,"latitude":39.56179,"longitude":-107.36252,"address":"51027 Highway 6 Ste 161, GLENWOOD SPRINGS CO","chain_name":null,"distance":0},{"name":"Famous Footwear","code":null,"latitude":40.31079,"longitude":-76.80159,"address":"5125 Jonestown Rd Ste 505, HARRISBURG PA","chain_name":null,"distance":0},{"name":"Famous Footwear","code":null,"latitude":47.35949,"longitude":-122.60742,"address":"5151 Borgen Blvd NW, GIG HARBOR WA","chain_name":null,"distance":0},{"name":"Famous Footwear","code":null,"latitude":42.68151,"longitude":-82.82756,"address":"51530 Gratiot Ave, CHESTERFIELD MI","chain_name":null,"distance":0},{"name":"Famous Footwear","code":null,"latitude":43.60971,"longitude":-116.28454,"address":"518 N Milwaukee St, BOISE ID","chain_name":null,"distance":0},{"name":"Famous Footwear","code":null,"latitude":39.81626,"longitude":-94.81486,"address":"5201 N Belt Hwy Ste 107, SAINT JOSEPH MO","chain_name":null,"distance":0},{"name":"Famous Footwear","code":null,"latitude":33.90229,"longitude":-84.7897,"address":"5225 Jimmy Lee Smith Pkwy, HIRAM GA","chain_name":null,"distance":0},{"name":"Famous Footwear","code":null,"latitude":42.22633,"longitude":-88.30136,"address":"5260 Northwest Hwy, CRYSTAL LAKE IL","chain_name":null,"distance":0},{"name":"Famous Footwear","code":null,"latitude":36.10453,"longitude":-95.91725,"address":"5323 E 41st St, TULSA OK","chain_name":null,"distance":0},{"name":"Famous Footwear","code":null,"latitude":41.50836,"longitude":-72.80841,"address":"533 S Broad St, MERIDEN CT","chain_name":null,"distance":0},{"name":"Famous Footwear","code":null,"latitude":42.017,"longitude":-87.84206,"address":"535 Busse Hwy, PARK RIDGE IL","chain_name":null,"distance":0},{"name":"Famous Footwear","code":null,"latitude":30.22786,"longitude":-97.82171,"address":"5400 Brodie Ln Ste 740, SUNSET VALLEY TX","chain_name":null,"distance":0},{"name":"Famous Footwear","code":null,"latitude":43.14327,"longitude":-93.17013,"address":"544 Indian Head Dr, MASON CITY IA","chain_name":null,"distance":0},{"name":"Famous Footwear","code":null,"latitude":37.96146,"longitude":-121.74886,"address":"5471 Lone Tree Way, BRENTWOOD CA","chain_name":null,"distance":0},{"name":"Famous Footwear","code":null,"latitude":40.8614,"longitude":-81.4322,"address":"5496 Dressler Rd NW # 55, NORTH CANTON OH","chain_name":null,"distance":0},{"name":"Famous Footwear","code":null,"latitude":40.90201,"longitude":-73.81711,"address":"550 E Sandford Blvd, MOUNT VERNON NY","chain_name":null,"distance":0},{"name":"Famous Footwear","code":null,"latitude":40.30445,"longitude":-74.67705,"address":"550 Nassau Park Blvd # 6, PRINCETON NJ","chain_name":null,"distance":0},{"name":"Famous Footwear","code":null,"latitude":32.77845,"longitude":-117.00702,"address":"5500 Grossmont Center Dr, LA MESA CA","chain_name":null,"distance":0},{"name":"Famous Footwear","code":null,"latitude":40.67921,"longitude":-73.43302,"address":"5500 Sunrise Hwy Ste 3C, MASSAPEQUA NY","chain_name":null,"distance":0},{"name":"Famous Footwear","code":null,"latitude":39.8566,"longitude":-105.05649,"address":"5503 W 88th Ave, WESTMINSTER CO","chain_name":null,"distance":0},{"name":"Famous Footwear","code":null,"latitude":29.72224,"longitude":-95.4415,"address":"5536 Weslayan St, HOUSTON TX","chain_name":null,"distance":0},{"name":"Famous Footwear","code":null,"latitude":26.6857,"longitude":-80.20183,"address":"554 N State Road 7, ROYAL PALM BEACH FL","chain_name":null,"distance":0},{"name":"Famous Footwear","code":null,"latitude":32.28674,"longitude":-110.9635,"address":"555 E Wetmore Rd Ste 101, TUCSON AZ","chain_name":null,"distance":0},{"name":"Famous Footwear","code":null,"latitude":41.78799,"longitude":-87.87819,"address":"5555 S Brainard Ave, COUNTRYSIDE IL","chain_name":null,"distance":0},{"name":"Famous Footwear","code":null,"latitude":41.76131,"longitude":-88.20561,"address":"560 S State Route 59, NAPERVILLE IL","chain_name":null,"distance":0},{"name":"Famous Footwear","code":null,"latitude":29.64954,"longitude":-95.15521,"address":"5600 Fairmont Pkwy, PASADENA TX","chain_name":null,"distance":0},{"name":"Famous Footwear","code":null,"latitude":40.64827,"longitude":-111.93892,"address":"5688 S Redwood Rd, TAYLORSVILLE UT","chain_name":null,"distance":0},{"name":"Famous Footwear","code":null,"latitude":44.69333,"longitude":-73.4891,"address":"57 Consumer Sq, PLATTSBURGH NY","chain_name":null,"distance":0},{"name":"Famous Footwear","code":null,"latitude":37.41949,"longitude":-121.89707,"address":"571 Great Mall Dr, MILPITAS CA","chain_name":null,"distance":0},{"name":"Famous Footwear","code":null,"latitude":29.57074,"longitude":-95.56917,"address":"5754 Highway 6, MISSOURI CITY TX","chain_name":null,"distance":0},{"name":"Famous Footwear","code":null,"latitude":38.44909,"longitude":-104.60557,"address":"5765 N Elizabeth St, PUEBLO CO","chain_name":null,"distance":0},{"name":"Famous Footwear","code":null,"latitude":43.3284,"longitude":-73.67652,"address":"578 Aviation Rd, QUEENSBURY NY","chain_name":null,"distance":0},{"name":"Famous Footwear","code":null,"latitude":32.87653,"longitude":-111.69217,"address":"580 N Camino Mercado # F, CASA GRANDE AZ","chain_name":null,"distance":0},{"name":"Famous Footwear","code":null,"latitude":41.63655,"longitude":-93.69788,"address":"5820 Aurora Ave, DES MOINES IA","chain_name":null,"distance":0},{"name":"Famous Footwear","code":null,"latitude":39.02393,"longitude":-94.68662,"address":"5824 Antioch Rd, MERRIAM KS","chain_name":null,"distance":0},{"name":"Famous Footwear","code":null,"latitude":33.98107,"longitude":-84.07578,"address":"5900 Sugarloaf Pkwy Ste 5, LAWRENCEVILLE GA","chain_name":null,"distance":0},{"name":"Famous Footwear","code":null,"latitude":42.51286,"longitude":-92.42899,"address":"5911 University Ave, CEDAR FALLS IA","chain_name":null,"distance":0},{"name":"Famous Footwear","code":null,"latitude":38.77034,"longitude":-77.14037,"address":"5970 Kingstowne Towne Ctr, KINGSTOWNE VA","chain_name":null,"distance":0},{"name":"Famous Footwear","code":null,"latitude":40.4113,"longitude":-104.98791,"address":"5985 Sky Pond Dr Unit B142, LOVELAND CO","chain_name":null,"distance":0},{"name":"Famous Footwear","code":null,"latitude":44.37326,"longitude":-69.73788,"address":"6 Stephen King Dr, AUGUSTA ME","chain_name":null,"distance":0},{"name":"Famous Footwear","code":null,"latitude":30.19216,"longitude":-81.74098,"address":"6001 Argyle Forest Blvd Ste 60, JACKSONVILLE FL","chain_name":null,"distance":0},{"name":"Famous Footwear","code":null,"latitude":42.84518,"longitude":-106.26773,"address":"601 SE Wyoming Blvd, CASPER WY","chain_name":null,"distance":0},{"name":"Famous Footwear","code":null,"latitude":33.06911,"longitude":-97.08258,"address":"6101 Long Prairie Rd, FLOWER MOUND TX","chain_name":null,"distance":0},{"name":"Famous Footwear","code":null,"latitude":33.02782,"longitude":-96.83166,"address":"6121 W Park Blvd Ste C105, PLANO TX","chain_name":null,"distance":0},{"name":"Famous Footwear","code":null,"latitude":38.67605,"longitude":-121.27178,"address":"6161 Sunrise Mall, CITRUS HEIGHTS CA","chain_name":null,"distance":0},{"name":"Famous Footwear","code":null,"latitude":42.38349,"longitude":-87.95482,"address":"6170 Grand Ave Ste 597, GURNEE IL","chain_name":null,"distance":0},{"name":"Famous Footwear","code":null,"latitude":43.07478,"longitude":-89.39606,"address":"619 State St, MADISON WI","chain_name":null,"distance":0},{"name":"Famous Footwear","code":null,"latitude":41.9972,"longitude":-87.71146,"address":"6201 N McCormick Rd, CHICAGO IL","chain_name":null,"distance":0},{"name":"Famous Footwear","code":null,"latitude":38.99727,"longitude":-76.90678,"address":"6212 Greenbelt Rd, GREENBELT MD","chain_name":null,"distance":0},{"name":"Famous Footwear","code":null,"latitude":36.12894,"longitude":-97.05895,"address":"623 N Main St, STILLWATER OK","chain_name":null,"distance":0},{"name":"Famous Footwear","code":null,"latitude":33.39376,"longitude":-111.69672,"address":"6247 E Southern Ave # A1, MESA AZ","chain_name":null,"distance":0},{"name":"Famous Footwear","code":null,"latitude":45.5191,"longitude":-122.67645,"address":"625 SW 4th Ave, PORTLAND OR","chain_name":null,"distance":0},{"name":"Famous Footwear","code":null,"latitude":39.59964,"longitude":-104.8045,"address":"6340 S Parker Rd Unit 105, AURORA CO","chain_name":null,"distance":0},{"name":"Famous Footwear","code":null,"latitude":44.1044,"longitude":-121.29831,"address":"63455 N Highway 97 Ste 17, BEND OR","chain_name":null,"distance":0},{"name":"Famous Footwear","code":null,"latitude":32.22127,"longitude":-110.85608,"address":"6371 E Broadway Blvd, TUCSON AZ","chain_name":null,"distance":0},{"name":"Famous Footwear","code":null,"latitude":26.61897,"longitude":-80.14521,"address":"6440 Lake Worth Rd, GREENACRES FL","chain_name":null,"distance":0},{"name":"Famous Footwear","code":null,"latitude":42.26792,"longitude":-88.99049,"address":"6470 E State St, ROCKFORD IL","chain_name":null,"distance":0},{"name":"Famous Footwear","code":null,"latitude":30.35431,"longitude":-81.49836,"address":"651 Commerce Center Dr, JACKSONVILLE FL","chain_name":null,"distance":0},{"name":"Famous Footwear","code":null,"latitude":29.69646,"longitude":-98.10014,"address":"651 N Business Ih 35, NEW BRAUNFELS TX","chain_name":null,"distance":0},{"name":"Famous Footwear","code":null,"latitude":41.29571,"longitude":-72.37921,"address":"655 Boston Post Rd, OLD SAYBROOK CT","chain_name":null,"distance":0},{"name":"Famous Footwear","code":null,"latitude":32.81154,"longitude":-97.43024,"address":"6594 Lake Worth Blvd, LAKE WORTH TX","chain_name":null,"distance":0},{"name":"Famous Footwear","code":null,"latitude":42.139,"longitude":-88.02609,"address":"663 E Dundee Rd, PALATINE IL","chain_name":null,"distance":0},{"name":"Famous Footwear","code":null,"latitude":42.22132,"longitude":-85.58972,"address":"6650 S Westnedge Ave Ste 149, PORTAGE MI","chain_name":null,"distance":0},{"name":"Famous Footwear","code":null,"latitude":44.4939,"longitude":-88.07018,"address":"669 Bay Park Sq, ASHWAUBENON WI","chain_name":null,"distance":0},{"name":"Famous Footwear","code":null,"latitude":46.22659,"longitude":-119.21402,"address":"6705 W Canal Dr Ste B, KENNEWICK WA","chain_name":null,"distance":0},{"name":"Famous Footwear","code":null,"latitude":43.01684,"longitude":-87.99593,"address":"6710 W Greenfield Ave, WEST ALLIS WI","chain_name":null,"distance":0},{"name":"Famous Footwear","code":null,"latitude":37.67309,"longitude":-97.42041,"address":"6720 W Kellogg Dr Ste 250, WICHITA KS","chain_name":null,"distance":0},{"name":"Famous Footwear","code":null,"latitude":35.46435,"longitude":-97.40958,"address":"6725 E Reno Ave # K13, MIDWEST CITY OK","chain_name":null,"distance":0},{"name":"Famous Footwear","code":null,"latitude":40.37702,"longitude":-111.81606,"address":"678 W Main St Ste B, AMERICAN FORK UT","chain_name":null,"distance":0},{"name":"Famous Footwear","code":null,"latitude":29.65944,"longitude":-82.41331,"address":"6843 W Newberry Rd, GAINESVILLE FL","chain_name":null,"distance":0},{"name":"Famous Footwear","code":null,"latitude":39.46524,"longitude":-119.77844,"address":"6865 Sierra Center Pkwy, RENO NV","chain_name":null,"distance":0},{"name":"Famous Footwear","code":null,"latitude":29.87764,"longitude":-95.64548,"address":"6875 Highway 6 N, HOUSTON TX","chain_name":null,"distance":0},{"name":"Famous Footwear","code":null,"latitude":42.38555,"longitude":-87.97179,"address":"6931 Grand Ave, GURNEE IL","chain_name":null,"distance":0},{"name":"Famous Footwear","code":null,"latitude":41.79294,"longitude":-71.32471,"address":"7 Commerce Way, SEEKONK MA","chain_name":null,"distance":0},{"name":"Famous Footwear","code":null,"latitude":42.19077,"longitude":-71.76968,"address":"70 Worcester Providence Tpke, MILLBURY MA","chain_name":null,"distance":0},{"name":"Famous Footwear","code":null,"latitude":40.13719,"longitude":-74.95777,"address":"700 Rock Hill Dr, BENSALEM PA","chain_name":null,"distance":0},{"name":"Famous Footwear","code":null,"latitude":41.35388,"longitude":-81.38758,"address":"7085 Market Place Dr, AURORA OH","chain_name":null,"distance":0},{"name":"Famous Footwear","code":null,"latitude":40.62164,"longitude":-111.97887,"address":"7099 Plaza Center Dr, WEST JORDAN UT","chain_name":null,"distance":0},{"name":"Famous Footwear","code":null,"latitude":42.03736,"longitude":-87.75815,"address":"7131 Central Ave, SKOKIE IL","chain_name":null,"distance":0},{"name":"Famous Footwear","code":null,"latitude":40.27567,"longitude":-74.54335,"address":"72 Princeton Hightstown Rd, EAST WINDSOR NJ","chain_name":null,"distance":0},{"name":"Famous Footwear","code":null,"latitude":41.88837,"longitude":-87.80555,"address":"7231 Lake St, RIVER FOREST IL","chain_name":null,"distance":0},{"name":"Famous Footwear","code":null,"latitude":33.72671,"longitude":-116.40183,"address":"72399 Highway 111, PALM DESERT CA","chain_name":null,"distance":0},{"name":"Famous Footwear","code":null,"latitude":42.16904,"longitude":-88.33541,"address":"730 S Randall Rd, ALGONQUIN IL","chain_name":null,"distance":0},{"name":"Famous Footwear","code":null,"latitude":36.01752,"longitude":-95.79846,"address":"732 W New Orleans St Ste 116, BROKEN ARROW OK","chain_name":null,"distance":0},{"name":"Famous Footwear","code":null,"latitude":33.82637,"longitude":-118.08921,"address":"7378 Carson Blvd, LONG BEACH CA","chain_name":null,"distance":0},{"name":"Famous Footwear","code":null,"latitude":41.25985,"longitude":-96.02688,"address":"7400 Dodge St, OMAHA NE","chain_name":null,"distance":0},{"name":"Famous Footwear","code":null,"latitude":41.02105,"longitude":-80.66253,"address":"7401 Market St # 473, YOUNGSTOWN OH","chain_name":null,"distance":0},{"name":"Famous Footwear","code":null,"latitude":32.34059,"longitude":-111.01296,"address":"7401 N La Cholla Blvd # 1, TUCSON AZ","chain_name":null,"distance":0},{"name":"Famous Footwear","code":null,"latitude":39.86799,"longitude":-74.9221,"address":"744 Route 73 S, MARLTON NJ","chain_name":null,"distance":0},{"name":"Famous Footwear","code":null,"latitude":41.09745,"longitude":-74.01441,"address":"75 W Route 59 Ste 2031A, NANUET NY","chain_name":null,"distance":0},{"name":"Famous Footwear","code":null,"latitude":38.84342,"longitude":-104.759,"address":"750 Citadel Dr E Ste 2284, COLORADO SPRINGS CO","chain_name":null,"distance":0},{"name":"Famous Footwear","code":null,"latitude":31.81811,"longitude":-106.54487,"address":"750 Sunland Park Dr, EL PASO TX","chain_name":null,"distance":0},{"name":"Famous Footwear","code":null,"latitude":40.42551,"longitude":-74.38087,"address":"755 State Route 18 Ste 95, EAST BRUNSWICK NJ","chain_name":null,"distance":0},{"name":"Famous Footwear","code":null,"latitude":34.04151,"longitude":-84.30432,"address":"7561 N Point Pkwy # 900, ALPHARETTA GA","chain_name":null,"distance":0},{"name":"Famous Footwear","code":null,"latitude":41.75431,"longitude":-87.74126,"address":"7601 S Cicero Ave Ste 1930, CHICAGO IL","chain_name":null,"distance":0},{"name":"Famous Footwear","code":null,"latitude":33.47991,"longitude":-112.22334,"address":"7611 W Thomas Rd Ste 103, PHOENIX AZ","chain_name":null,"distance":0},{"name":"Famous Footwear","code":null,"latitude":39.33979,"longitude":-84.40591,"address":"7620 Voice Of America Dr, WEST CHESTER OH","chain_name":null,"distance":0},{"name":"Famous Footwear","code":null,"latitude":41.38438,"longitude":-81.73726,"address":"7621 W Ridgewood Dr # 77, PARMA OH","chain_name":null,"distance":0},{"name":"Famous Footwear","code":null,"latitude":45.09319,"longitude":-93.37695,"address":"7641 W Broadway Ave, BROOKLYN PARK MN","chain_name":null,"distance":0},{"name":"Famous Footwear","code":null,"latitude":33.63985,"longitude":-112.22738,"address":"7700 W Arrowhead Towne Ctr, GLENDALE AZ","chain_name":null,"distance":0},{"name":"Famous Footwear","code":null,"latitude":29.96357,"longitude":-95.54432,"address":"7710 Fm 1960 Rd W, HOUSTON TX","chain_name":null,"distance":0},{"name":"Famous Footwear","code":null,"latitude":39.76756,"longitude":-104.8986,"address":"7757 E 36th Ave Ste 680, DENVER CO","chain_name":null,"distance":0},{"name":"Famous Footwear","code":null,"latitude":41.18743,"longitude":-96.04165,"address":"7893 S 83rd St, LAVISTA NE","chain_name":null,"distance":0},{"name":"Famous Footwear","code":null,"latitude":41.61873,"longitude":-73.91644,"address":"790 South Rd Ste D111, POUGHKEEPSIE NY","chain_name":null,"distance":0},{"name":"Famous Footwear","code":null,"latitude":44.8601,"longitude":-93.30449,"address":"7945 Southtown Ctr, BLOOMINGTON MN","chain_name":null,"distance":0},{"name":"Famous Footwear","code":null,"latitude":36.2706,"longitude":-115.26787,"address":"7951 W Tropical Pkwy, LAS VEGAS NV","chain_name":null,"distance":0},{"name":"Famous Footwear","code":null,"latitude":41.65352,"longitude":-81.36494,"address":"7990 Plaza Blvd, MENTOR OH","chain_name":null,"distance":0},{"name":"Famous Footwear","code":null,"latitude":37.24576,"longitude":-107.87348,"address":"800 S Camino Del Rio # D-5, DURANGO CO","chain_name":null,"distance":0},{"name":"Famous Footwear","code":null,"latitude":32.89126,"longitude":-97.25904,"address":"8004 Denton Hwy Ste 100, WATAUGA TX","chain_name":null,"distance":0},{"name":"Famous Footwear","code":null,"latitude":45.10191,"longitude":-93.4497,"address":"8076 Wedgewood Ln N, MAPLE GROVE MN","chain_name":null,"distance":0},{"name":"Famous Footwear","code":null,"latitude":33.63794,"longitude":-112.23107,"address":"8085 W Bell Rd Ste 103, PEORIA AZ","chain_name":null,"distance":0},{"name":"Famous Footwear","code":null,"latitude":39.37164,"longitude":-76.46672,"address":"8129 Honeygo Blvd Ste A, BALTIMORE MD","chain_name":null,"distance":0},{"name":"Famous Footwear","code":null,"latitude":37.67891,"longitude":-97.23949,"address":"8137 E Kellogg Dr, WICHITA KS","chain_name":null,"distance":0},{"name":"Famous Footwear","code":null,"latitude":39.74585,"longitude":-104.99341,"address":"820 16th St Ste 102, DENVER CO","chain_name":null,"distance":0},{"name":"Famous Footwear","code":null,"latitude":41.30547,"longitude":-81.51726,"address":"8210 Macedonia Commons Blvd, MACEDONIA OH","chain_name":null,"distance":0},{"name":"Famous Footwear","code":null,"latitude":39.87379,"longitude":-84.13747,"address":"8231 Troy Pike, HUBER HEIGHTS OH","chain_name":null,"distance":0},{"name":"Famous Footwear","code":null,"latitude":34.27982,"longitude":-118.86774,"address":"824 New Los Angeles Ave, MOORPARK CA","chain_name":null,"distance":0},{"name":"Famous Footwear","code":null,"latitude":29.57045,"longitude":-98.32677,"address":"8254 Agora Pkwy Ste 112, SELMA TX","chain_name":null,"distance":0},{"name":"Famous Footwear","code":null,"latitude":44.94145,"longitude":-122.98336,"address":"831 Lancaster Dr NE Ste 137, SALEM OR","chain_name":null,"distance":0},{"name":"Famous Footwear","code":null,"latitude":34.29518,"longitude":-83.85192,"address":"833 Dawsonville Hwy Ste 250, GAINESVILLE GA","chain_name":null,"distance":0},{"name":"Famous Footwear","code":null,"latitude":32.8249,"longitude":-97.20186,"address":"833 NE Mall Blvd, HURST TX","chain_name":null,"distance":0},{"name":"Famous Footwear","code":null,"latitude":39.86167,"longitude":-75.68367,"address":"835 E Baltimore Pike, KENNETT SQUARE PA","chain_name":null,"distance":0},{"name":"Famous Footwear","code":null,"latitude":32.89362,"longitude":-96.4699,"address":"838 Steger Towne Rd, ROCKWALL TX","chain_name":null,"distance":0},{"name":"Famous Footwear","code":null,"latitude":39.24754,"longitude":-94.59422,"address":"8401 N Madison Ave, KANSAS CITY MO","chain_name":null,"distance":0},{"name":"Famous Footwear","code":null,"latitude":32.76755,"longitude":-97.18274,"address":"8430 East Fwy, FORT WORTH TX","chain_name":null,"distance":0},{"name":"Famous Footwear","code":null,"latitude":35.56907,"longitude":-97.66425,"address":"8468 NW Expressway St, OKLAHOMA CITY OK","chain_name":null,"distance":0},{"name":"Famous Footwear","code":null,"latitude":39.60993,"longitude":-105.09584,"address":"8501 W Bowles Ave Ste 2D217, LITTLETON CO","chain_name":null,"distance":0},{"name":"Famous Footwear","code":null,"latitude":39.24797,"longitude":-94.45967,"address":"8572 N Evanston Rd, KANSAS CITY MO","chain_name":null,"distance":0},{"name":"Famous Footwear","code":null,"latitude":25.6877,"longitude":-80.39378,"address":"8651 SW 124th Ave, MIAMI FL","chain_name":null,"distance":0},{"name":"Famous Footwear","code":null,"latitude":25.74782,"longitude":-80.33517,"address":"8673 Coral Way, MIAMI FL","chain_name":null,"distance":0},{"name":"Famous Footwear","code":null,"latitude":45.65642,"longitude":-122.58362,"address":"8700 NE Vancouver Mall Dr, VANCOUVER WA","chain_name":null,"distance":0},{"name":"Famous Footwear","code":null,"latitude":36.15922,"longitude":-115.28655,"address":"8740 W Charleston Blvd Ste 1, LAS VEGAS NV","chain_name":null,"distance":0},{"name":"Famous Footwear","code":null,"latitude":45.62472,"longitude":-122.58207,"address":"8810 NE 5th Ave, VANCOUVER WA","chain_name":null,"distance":0},{"name":"Famous Footwear","code":null,"latitude":42.09867,"longitude":-88.29077,"address":"890 W Main St, WEST DUNDEE IL","chain_name":null,"distance":0},{"name":"Famous Footwear","code":null,"latitude":42.88287,"longitude":-87.91262,"address":"8907 S Howell Ave Ste H, OAK CREEK WI","chain_name":null,"distance":0},{"name":"Famous Footwear","code":null,"latitude":35.38366,"longitude":-119.10156,"address":"8920 Rosedale Hwy, BAKERSFIELD CA","chain_name":null,"distance":0},{"name":"Famous Footwear","code":null,"latitude":33.5386,"longitude":-111.88853,"address":"8930 E Indian Bend Rd, SCOTTSDALE AZ","chain_name":null,"distance":0},{"name":"Famous Footwear","code":null,"latitude":42.74234,"longitude":-71.1559,"address":"90 Pleasant Valley St, METHUEN MA","chain_name":null,"distance":0},{"name":"Famous Footwear","code":null,"latitude":40.5866,"longitude":-122.35794,"address":"900 Dana Dr Ste A11, REDDING CA","chain_name":null,"distance":0},{"name":"Famous Footwear","code":null,"latitude":40.7342,"longitude":-73.87149,"address":"9015 Queens Blvd, ELMHURST NY","chain_name":null,"distance":0},{"name":"Famous Footwear","code":null,"latitude":30.19514,"longitude":-81.55151,"address":"9041 Southside Blvd Ste 128, JACKSONVILLE FL","chain_name":null,"distance":0},{"name":"Famous Footwear","code":null,"latitude":43.6583,"longitude":-84.23186,"address":"905 Joe Mann Blvd, MIDLAND MI","chain_name":null,"distance":0},{"name":"Famous Footwear","code":null,"latitude":38.81406,"longitude":-94.51849,"address":"906 E North Ave # A, BELTON MO","chain_name":null,"distance":0},{"name":"Famous Footwear","code":null,"latitude":41.46263,"longitude":-87.02774,"address":"91 Silhavy Rd Ste 161, VALPARAISO IN","chain_name":null,"distance":0},{"name":"Famous Footwear","code":null,"latitude":39.11022,"longitude":-119.77289,"address":"911 Topsy Ln, CARSON CITY NV","chain_name":null,"distance":0},{"name":"Famous Footwear","code":null,"latitude":38.42545,"longitude":-121.39249,"address":"9163 E Stockton Blvd Ste 390, ELK GROVE CA","chain_name":null,"distance":0},{"name":"Famous Footwear","code":null,"latitude":37.2506,"longitude":-121.86235,"address":"925 Blossom Hill Rd # A, SAN JOSE CA","chain_name":null,"distance":0},{"name":"Famous Footwear","code":null,"latitude":38.77602,"longitude":-77.26509,"address":"9272 Old Keene Mill Rd, BURKE VA","chain_name":null,"distance":0},{"name":"Famous Footwear","code":null,"latitude":40.21059,"longitude":-75.10698,"address":"940 W Street Rd, WARMINSTER PA","chain_name":null,"distance":0},{"name":"Famous Footwear","code":null,"latitude":33.55178,"longitude":-112.26256,"address":"9450 W Northern Ave, GLENDALE AZ","chain_name":null,"distance":0},{"name":"Famous Footwear","code":null,"latitude":39.291,"longitude":-84.30005,"address":"9460 Fields Ertel Rd, CINCINNATI OH","chain_name":null,"distance":0},{"name":"Famous Footwear","code":null,"latitude":45.05054,"longitude":-93.06229,"address":"947 County Road E E # 20, VADNAIS HEIGHTS MN","chain_name":null,"distance":0},{"name":"Famous Footwear","code":null,"latitude":37.01863,"longitude":-121.56075,"address":"950 Renz Ln Ste 50, GILROY CA","chain_name":null,"distance":0},{"name":"Famous Footwear","code":null,"latitude":28.29782,"longitude":-82.70659,"address":"9618 US Highway 19, PORT RICHEY FL","chain_name":null,"distance":0},{"name":"Famous Footwear","code":null,"latitude":38.842,"longitude":-77.27625,"address":"9658 Main St, FAIRFAX VA","chain_name":null,"distance":0},{"name":"Famous Footwear","code":null,"latitude":40.50037,"longitude":-79.85257,"address":"975 Freeport Rd # 12, PITTSBURGH PA","chain_name":null,"distance":0},{"name":"Famous Footwear","code":null,"latitude":40.08754,"longitude":-75.02154,"address":"9751 Roosevelt Blvd, PHILADELPHIA PA","chain_name":null,"distance":0},{"name":"Famous Footwear","code":null,"latitude":40.67017,"longitude":-74.47926,"address":"977 Valley Rd Ste F2, GILLETTE NJ","chain_name":null,"distance":0},{"name":"Famous Footwear","code":null,"latitude":39.71842,"longitude":-105.08122,"address":"98 Wadsworth Blvd Unit 116, LAKEWOOD CO","chain_name":null,"distance":0},{"name":"Famous Footwear","code":null,"latitude":26.36816,"longitude":-80.20043,"address":"9825 Glades Rd, BOCA RATON FL","chain_name":null,"distance":0},{"name":"Famous Footwear","code":null,"latitude":36.01067,"longitude":-115.11839,"address":"9863 S Eastern Ave Ste D2, LAS VEGAS NV","chain_name":null,"distance":0},{"name":"Famous Footwear","code":null,"latitude":33.67256,"longitude":-117.95617,"address":"9881 Adams Ave, HUNTINGTON BEACH CA","chain_name":null,"distance":0},{"name":"Famous Footwear","code":null,"latitude":32.83879,"longitude":-116.98006,"address":"9934 Mission Gorge Rd, SANTEE CA","chain_name":null,"distance":0},{"name":"Famous Footwear","code":null,"latitude":45.51821,"longitude":-122.55982,"address":"9950 SE Washington St # D, PORTLAND OR","chain_name":null,"distance":0},{"name":"Famous Footwear","code":null,"latitude":42.49567,"longitude":-71.10089,"address":"99B Main St, STONEHAM MA","chain_name":null,"distance":0},{"name":"Famous Footwear","code":null,"latitude":42.19583,"longitude":-71.84413,"address":"Auburn Mall, AUBURN MA","chain_name":null,"distance":0},{"name":"Famous Footwear","code":null,"latitude":35.15384,"longitude":-106.84533,"address":"Cottonwood, ALBUQUERQUE NM","chain_name":null,"distance":0},{"name":"Famous Footwear","code":null,"latitude":42.31353,"longitude":-71.79579,"address":"Greendale Mall, WORCESTER MA","chain_name":null,"distance":0},{"name":"Famous Footwear","code":null,"latitude":42.7891,"longitude":-78.8267,"address":"McKinley Mall, BLASDELL NY","chain_name":null,"distance":0},{"name":"Famous Footwear","code":null,"latitude":32.31433,"longitude":-106.64501,"address":"Mesilla Valley Mall, LAS CRUCES NM","chain_name":null,"distance":0},{"name":"Famous Footwear","code":null,"latitude":43.17037,"longitude":-88.10491,"address":"N84W15700 Appleton Ave, MENOMONEE FALLS WI","chain_name":null,"distance":0},{"name":"Famous Footwear","code":null,"latitude":42.97873,"longitude":-70.82986,"address":"PO Box 760, NORTH HAMPTON NH","chain_name":null,"distance":0},{"name":"Famous Footwear","code":null,"latitude":40.32979,"longitude":-79.52378,"address":"RR 6 Box 14, GREENSBURG PA","chain_name":null,"distance":0},{"name":"Famous Footwear","code":null,"latitude":43.64441,"longitude":-72.2971,"address":"Upper Valley Plz, WEST LEBANON NH","chain_name":null,"distance":0},{"name":"Famous Footwear","code":null,"latitude":41.26335,"longitude":-96.05169,"address":"Westroads Mall, OMAHA NE","chain_name":null,"distance":0},{"name":"Famous Footwear","code":null,"latitude":30.3802,"longitude":-86.35483,"address":"10406 US Highway 98 W Ste 51, DESTIN FL","chain_name":null,"distance":0},{"name":"Famous Footwear","code":null,"latitude":42.91353,"longitude":-85.6925,"address":"1075 Rogers Plz SW, WYOMING MI","chain_name":null,"distance":0},{"name":"Famous Footwear","code":null,"latitude":38.46928,"longitude":-77.40884,"address":"1150 Stafford Market Pl # 109, STAFFORD VA","chain_name":null,"distance":0},{"name":"Famous Footwear","code":null,"latitude":42.46302,"longitude":-71.02498,"address":"1277 Broadway, SAUGUS MA","chain_name":null,"distance":0},{"name":"Famous Footwear","code":null,"latitude":34.08859,"longitude":-117.29709,"address":"132 Inland Ctr, SAN BERNARDINO CA","chain_name":null,"distance":0},{"name":"Famous Footwear","code":null,"latitude":39.82692,"longitude":-75.10032,"address":"1500 Almonesson Rd, DEPTFORD NJ","chain_name":null,"distance":0},{"name":"Famous Footwear","code":null,"latitude":40.91723,"longitude":-74.05803,"address":"165 E State Rt 4, PARAMUS NJ","chain_name":null,"distance":0},{"name":"Famous Footwear","code":null,"latitude":32.82903,"longitude":-96.74344,"address":"170 Medallion Shp Ctr, DALLAS TX","chain_name":null,"distance":0},{"name":"Famous Footwear","code":null,"latitude":40.80347,"longitude":-73.17807,"address":"1770 Veterans Hwy, ISLANDIA NY","chain_name":null,"distance":0},{"name":"Famous Footwear","code":null,"latitude":32.79653,"longitude":-96.62659,"address":"19075 Lyndon B Johnson Fwy, MESQUITE TX","chain_name":null,"distance":0},{"name":"Famous Footwear","code":null,"latitude":42.90903,"longitude":-78.76208,"address":"2000 Walden Ave # 28, CHEEKTOWAGA NY","chain_name":null,"distance":0},{"name":"Famous Footwear","code":null,"latitude":30.06572,"longitude":-95.43365,"address":"20630 Interstate 45, SPRING TX","chain_name":null,"distance":0},{"name":"Famous Footwear","code":null,"latitude":43.97671,"longitude":-75.95167,"address":"21182 Salmon Run Mall Loop W, WATERTOWN NY","chain_name":null,"distance":0},{"name":"Famous Footwear","code":null,"latitude":44.9515,"longitude":-93.0111,"address":"2121 Old Hudson Rd, SAINT PAUL MN","chain_name":null,"distance":0},{"name":"Famous Footwear","code":null,"latitude":29.97339,"longitude":-95.7007,"address":"25847 Highway 290, CYPRESS TX","chain_name":null,"distance":0},{"name":"Famous Footwear","code":null,"latitude":41.41752,"longitude":-81.91232,"address":"26101 Great Northern Shop Ctr, NORTH OLMSTED OH","chain_name":null,"distance":0},{"name":"Famous Footwear","code":null,"latitude":40.87199,"longitude":-74.64565,"address":"275 State Route 10 E, SUCCASUNNA NJ","chain_name":null,"distance":0},{"name":"Famous Footwear","code":null,"latitude":40.49841,"longitude":-74.85625,"address":"276 US Highway 202\/31 Ste 10, FLEMINGTON NJ","chain_name":null,"distance":0},{"name":"Famous Footwear","code":null,"latitude":30.47931,"longitude":-97.6729,"address":"3021 S I H 35 Ste 220, ROUND ROCK TX","chain_name":null,"distance":0},{"name":"Famous Footwear","code":null,"latitude":41.56034,"longitude":-90.5771,"address":"320 W Kimberly Rd, DAVENPORT IA","chain_name":null,"distance":0},{"name":"Famous Footwear","code":null,"latitude":40.18731,"longitude":-74.86268,"address":"325 Commerce Blvd, FAIRLESS HILLS PA","chain_name":null,"distance":0},{"name":"Famous Footwear","code":null,"latitude":41.24174,"longitude":-75.84543,"address":"3500 Wilkes Barre Township Cmn, WILKES BARRE PA","chain_name":null,"distance":0},{"name":"Famous Footwear","code":null,"latitude":40.75985,"longitude":-73.5146,"address":"358 S Broadway, HICKSVILLE NY","chain_name":null,"distance":0},{"name":"Famous Footwear","code":null,"latitude":33.64799,"longitude":-96.70015,"address":"3912 Town Ctr, SHERMAN TX","chain_name":null,"distance":0},{"name":"Famous Footwear","code":null,"latitude":43.51469,"longitude":-96.7745,"address":"4001 W 41St St Ste 940, SIOUX FALLS SD","chain_name":null,"distance":0},{"name":"Famous Footwear","code":null,"latitude":43.71029,"longitude":-87.74138,"address":"4043 S Business Dr, SHEBOYGAN WI","chain_name":null,"distance":0},{"name":"Famous Footwear","code":null,"latitude":43.18566,"longitude":-76.23317,"address":"4081 State Route 31 # A108, CLAY NY","chain_name":null,"distance":0},{"name":"Famous Footwear","code":null,"latitude":40.44362,"longitude":-79.79713,"address":"4090 Old William Penn Hwy # 45, PITTSBURGH PA","chain_name":null,"distance":0},{"name":"Famous Footwear","code":null,"latitude":40.5549,"longitude":-74.42632,"address":"4940 Hadley Center Dr, SOUTH PLAINFIELD NJ","chain_name":null,"distance":0},{"name":"Famous Footwear","code":null,"latitude":42.86014,"longitude":-73.77034,"address":"54 Crossing Blvd, CLIFTON PARK NY","chain_name":null,"distance":0},{"name":"Famous Footwear","code":null,"latitude":33.51379,"longitude":-94.11662,"address":"58 Central Mall, TEXARKANA TX","chain_name":null,"distance":0},{"name":"Famous Footwear","code":null,"latitude":40.3475,"longitude":-75.03249,"address":"5860 York Rd # 5, LAHASKA PA","chain_name":null,"distance":0},{"name":"Famous Footwear","code":null,"latitude":39.70558,"longitude":-74.27596,"address":"601 Washington Ave, MANAHAWKIN NJ","chain_name":null,"distance":0},{"name":"Famous Footwear","code":null,"latitude":41.93506,"longitude":-71.48004,"address":"622 George Washington Hwy #A01, LINCOLN RI","chain_name":null,"distance":0},{"name":"Famous Footwear","code":null,"latitude":30.19169,"longitude":-97.76868,"address":"6425 S I H 35 Ste 120, AUSTIN TX","chain_name":null,"distance":0},{"name":"Famous Footwear","code":null,"latitude":40.55548,"longitude":-75.59511,"address":"6900 Hamilton Blvd Ste 4, TREXLERTOWN PA","chain_name":null,"distance":0},{"name":"Famous Footwear","code":null,"latitude":35.3976,"longitude":-97.49216,"address":"7000 Crossroads Mall, OKLAHOMA CITY OK","chain_name":null,"distance":0},{"name":"Famous Footwear","code":null,"latitude":44.92534,"longitude":-92.9628,"address":"7150 Valley Creek Plz Ste 208, WOODBURY MN","chain_name":null,"distance":0},{"name":"Famous Footwear","code":null,"latitude":36.06069,"longitude":-95.87882,"address":"8802 E 71st St # B, TULSA OK","chain_name":null,"distance":0},{"name":"Famous Footwear","code":null,"latitude":43.06765,"longitude":-76.1703,"address":"9090 Carousel Ctr # 107, SYRACUSE NY","chain_name":null,"distance":0},{"name":"Famous Footwear","code":null,"latitude":40.56199,"longitude":-79.7126,"address":"Leechburg Rd, LOWER BURRELL PA","chain_name":null,"distance":0},{"name":"Famous Footwear","code":null,"latitude":41.70609,"longitude":-73.91013,"address":"Route 9, POUGHKEEPSIE NY","chain_name":null,"distance":0},{"name":"Famous Footwear","code":null,"latitude":40.65886,"longitude":-80.31253,"address":"State Rte 18 Ste #7A, MONACA PA","chain_name":null,"distance":0},{"name":"Famous Footwear","code":null,"latitude":36.70888,"longitude":-95.88447,"address":"Washington Park Mall, BARTLESVILLE OK","chain_name":null,"distance":0},{"name":"Famous Footwear","code":null,"latitude":40.32979,"longitude":-79.52378,"address":"Westmoreland Mall, GREENSBURG PA","chain_name":null,"distance":0},{"name":"Famous Footwear","code":null,"latitude":36.67276,"longitude":-93.25447,"address":"119 Branson Landing, BRANSON MO","chain_name":null,"distance":0},{"name":"Famous Footwear","code":null,"latitude":41.51178,"longitude":-71.31773,"address":"199 Connell Hwy Unit 2, NEWPORT RI","chain_name":null,"distance":0},{"name":"Famous Footwear","code":null,"latitude":40.32108,"longitude":-79.69304,"address":"8921 Route 30, IRWIN PA","chain_name":null,"distance":0},{"name":"Famous Footwear","code":null,"latitude":34.02782,"longitude":-117.83446,"address":"21660 Valley Blvd, WALNUT CA","chain_name":null,"distance":0},{"name":"Famous Footwear","code":null,"latitude":46.80202,"longitude":-100.78475,"address":"628 Kirkwood Mall, BISMARCK ND","chain_name":null,"distance":0},{"name":"Famous Footwear","code":null,"latitude":33.01952,"longitude":-96.7388,"address":"811 N Central Expry, PLANO TX","chain_name":null,"distance":0},{"name":"Famous Footwear","code":null,"latitude":40.7074,"longitude":-75.14831,"address":"1203 New Brunswick Ave, PHILLIPSBURG NJ","chain_name":null,"distance":0},{"name":"Famous Footwear","code":null,"latitude":34.03596,"longitude":-84.68305,"address":"3384 Cobb Pkwy NW Ste 300, ACWORTH GA","chain_name":null,"distance":0},{"name":"Famous Footwear","code":null,"latitude":33.44115,"longitude":-84.59196,"address":"1233 N Peachtree Pkwy Bldg 600, PEACHTREE CITY GA","chain_name":null,"distance":0},{"name":"Famous Footwear","code":null,"latitude":32.75569,"longitude":-97.35444,"address":"351 Carroll St, FORT WORTH TX","chain_name":null,"distance":0},{"name":"Famous Footwear","code":null,"latitude":28.95351,"longitude":-96.98968,"address":"7920 NE Zac Lentz Pkwy, VICTORIA TX","chain_name":null,"distance":0},{"name":"Famous Footwear","code":null,"latitude":36.83776,"longitude":-119.72517,"address":"625 Herndon Ave Ste 200, CLOVIS CA","chain_name":null,"distance":0},{"name":"Famous Footwear","code":null,"latitude":46.40006,"longitude":-116.99967,"address":"2632 Nez Perce Dr, LEWISTON ID","chain_name":null,"distance":0},{"name":"Famous Footwear","code":null,"latitude":44.95893,"longitude":-89.62873,"address":"D432 Wausau Ctr, WAUSAU WI","chain_name":null,"distance":0},{"name":"Famous Footwear","code":null,"latitude":33.4212,"longitude":-112.2699,"address":"9820 W Lower Buckeye Rd, TOLLESON AZ","chain_name":null,"distance":0},{"name":"Famous Footwear","code":null,"latitude":27.8371,"longitude":-82.68253,"address":"7180 US Highway 19 N, PINELLAS PARK FL","chain_name":null,"distance":0},{"name":"Famous Footwear","code":null,"latitude":44.56831,"longitude":-92.58519,"address":"144 Tyler Rd, RED WING MN","chain_name":null,"distance":0},{"name":"Famous Footwear","code":null,"latitude":35.49347,"longitude":-97.6061,"address":"4615 NW 23rd St Ste 10, OKLAHOMA CITY OK","chain_name":null,"distance":0},{"name":"Famous Footwear","code":null,"latitude":35.55713,"longitude":-97.63856,"address":"8525 N Rockwell Ave, OKLAHOMA CITY OK","chain_name":null,"distance":0},{"name":"Famous Footwear","code":null,"latitude":30.30997,"longitude":-97.99841,"address":"12909 Shops Pkwy Ste 400, AUSTIN TX","chain_name":null,"distance":0},{"name":"Famous Footwear","code":null,"latitude":33.89628,"longitude":-84.00644,"address":"1350 Scenic Hwy N, SNELLVILLE GA","chain_name":null,"distance":0},{"name":"Famous Footwear","code":null,"latitude":34.03341,"longitude":-84.50861,"address":"50 Ernest Barrett Parkway, MARIETTA GA","chain_name":null,"distance":0},{"name":"Famous Footwear","code":null,"latitude":41.19515,"longitude":-96.02659,"address":"6330 N 73rd Plaza, OMAHA NE","chain_name":null,"distance":0},{"name":"Famous Footwear","code":null,"latitude":39.90868,"longitude":-79.75578,"address":"120 Matthew Dr, UNIONTOWN PA","chain_name":null,"distance":0}]