[{"name":"Finish Line","code":null,"latitude":46.97153,"longitude":-123.7967,"address":"408 W Curtis Street, Aberdeen WA","chain_name":null,"distance":0},{"name":"Finish Line","code":null,"latitude":32.3992,"longitude":-99.7593,"address":"4310 Buffalo Gap Road, # 1390, Abilene TX","chain_name":null,"distance":0},{"name":"Finish Line","code":null,"latitude":41.87922,"longitude":-84.0432,"address":"1357 S Main, Adrian MI","chain_name":null,"distance":0},{"name":"Finish Line","code":null,"latitude":33.4345,"longitude":-81.686,"address":"2441 Whiskey Road, # 102, Aiken SC","chain_name":null,"distance":0},{"name":"Finish Line","code":null,"latitude":41.11628,"longitude":-81.4657,"address":"2000 Brittain Road, Akron OH","chain_name":null,"distance":0},{"name":"Finish Line","code":null,"latitude":42.6873,"longitude":-73.8512,"address":"1 Crossgates Mall Road, Albany NY","chain_name":null,"distance":0},{"name":"Finish Line","code":null,"latitude":35.07016,"longitude":-106.4794,"address":"10000 Coors By-Pass Northwest, Albuquerque NM","chain_name":null,"distance":0},{"name":"Finish Line","code":null,"latitude":35.10904,"longitude":-106.5709,"address":"6600 Menaul Boulevard Northeast, # H4, Albuquerque NM","chain_name":null,"distance":0},{"name":"Finish Line","code":null,"latitude":31.28053,"longitude":-92.4625,"address":"3437 Masonic Drive, Suite 1480, Alexandria LA","chain_name":null,"distance":0},{"name":"Finish Line","code":null,"latitude":38.81431,"longitude":-77.1327,"address":"5801 Duke Street, Alexandria VA","chain_name":null,"distance":0},{"name":"Finish Line","code":null,"latitude":34.04784,"longitude":-84.2983,"address":"1000 N Point Circle, Alpharetta GA","chain_name":null,"distance":0},{"name":"Finish Line","code":null,"latitude":28.6637,"longitude":-81.3787,"address":"451 E Altamonte Drive, # 1241, Altamonte Springs FL","chain_name":null,"distance":0},{"name":"Finish Line","code":null,"latitude":38.92334,"longitude":-90.1772,"address":"200 Alton Square, # 124, Alton IL","chain_name":null,"distance":0},{"name":"Finish Line","code":null,"latitude":40.46777,"longitude":-78.4154,"address":"200 Goods Lane, Altoona PA","chain_name":null,"distance":0},{"name":"Finish Line","code":null,"latitude":35.18641,"longitude":-101.9254,"address":"7701 W Interstate 40, # 402, Amarillo TX","chain_name":null,"distance":0},{"name":"Finish Line","code":null,"latitude":40.09604,"longitude":-85.6526,"address":"2109 S Scatterfield Road, # 15X, Anderson IN","chain_name":null,"distance":0},{"name":"Finish Line","code":null,"latitude":37.67788,"longitude":-97.1352,"address":"524 S Andover Road, Andover KS","chain_name":null,"distance":0},{"name":"Finish Line","code":null,"latitude":38.98689,"longitude":-76.5475,"address":"1125 Annapolis Mall, Annapolis MD","chain_name":null,"distance":0},{"name":"Finish Line","code":null,"latitude":36.04853,"longitude":-86.6574,"address":"5252 Hickory Hollow Parkway, #2180, Antioch TN","chain_name":null,"distance":0},{"name":"Finish Line","code":null,"latitude":34.14001,"longitude":-118.0368,"address":"130 W Huntington Drive, Arcadia CA","chain_name":null,"distance":0},{"name":"Finish Line","code":null,"latitude":34.13406,"longitude":-118.0542,"address":"400 S Baldwin Avenue, Arcadia CA","chain_name":null,"distance":0},{"name":"Finish Line","code":null,"latitude":38.8636,"longitude":-77.0594,"address":"1100 S Hayes Street, Arlington VA","chain_name":null,"distance":0},{"name":"Finish Line","code":null,"latitude":32.6837,"longitude":-97.1328,"address":"3811 S Cooper Street, Arlington TX","chain_name":null,"distance":0},{"name":"Finish Line","code":null,"latitude":35.5843,"longitude":-82.462,"address":"3 S Tunnel Road, # L30, Asheville NC","chain_name":null,"distance":0},{"name":"Finish Line","code":null,"latitude":38.4676,"longitude":-82.6202,"address":"500 Winchester Avenue, Ashland KY","chain_name":null,"distance":0},{"name":"Finish Line","code":null,"latitude":33.94089,"longitude":-83.4666,"address":"3700 Atlanta Highway, Suite 218, Athens GA","chain_name":null,"distance":0},{"name":"Finish Line","code":null,"latitude":33.87958,"longitude":-84.4712,"address":"1313 Cumberland Mall Southeast, Atlanta GA","chain_name":null,"distance":0},{"name":"Finish Line","code":null,"latitude":33.84854,"longitude":-84.2563,"address":"4800 Briarcliff Road Northeast, # 1026, Atlanta GA","chain_name":null,"distance":0},{"name":"Finish Line","code":null,"latitude":37.43779,"longitude":-96.7863,"address":"Morgantown Mall, Atlanta WV","chain_name":null,"distance":0},{"name":"Finish Line","code":null,"latitude":34.69901,"longitude":-76.7431,"address":"1 W Flatiron Circle, Atlantic Beach CO","chain_name":null,"distance":0},{"name":"Finish Line","code":null,"latitude":39.3543,"longitude":-74.4367,"address":"1 Atlantic Ocean, Atlantic City NJ","chain_name":null,"distance":0},{"name":"Finish Line","code":null,"latitude":47.29643,"longitude":-122.2451,"address":"1101 Supermall Way, Auburn WA","chain_name":null,"distance":0},{"name":"Finish Line","code":null,"latitude":47.33703,"longitude":-122.2265,"address":"3401 North East Centre Street Northeast, Auburn WA","chain_name":null,"distance":0},{"name":"Finish Line","code":null,"latitude":42.20162,"longitude":-71.839,"address":"385 Southbridge, Auburn MA","chain_name":null,"distance":0},{"name":"Finish Line","code":null,"latitude":42.70141,"longitude":-83.2946,"address":"4332 Baldwin Road, # 803M, Auburn Hills MI","chain_name":null,"distance":0},{"name":"Finish Line","code":null,"latitude":33.46733,"longitude":-82.0806,"address":"3450 Wrightsboro Road, # 1015, Augusta GA","chain_name":null,"distance":0},{"name":"Finish Line","code":null,"latitude":39.71107,"longitude":-104.8218,"address":"14200 E Alameda Avenue, Aurora CO","chain_name":null,"distance":0},{"name":"Finish Line","code":null,"latitude":41.75839,"longitude":-88.2175,"address":"2136 Fox Valley Centre, Aurora IL","chain_name":null,"distance":0},{"name":"Finish Line","code":null,"latitude":39.60501,"longitude":-104.7088,"address":"6150 S Main Street, Aurora CO","chain_name":null,"distance":0},{"name":"Finish Line","code":null,"latitude":30.30813,"longitude":-97.9382,"address":"12701 Hill Country Boulevard #o-125, Austin TX","chain_name":null,"distance":0},{"name":"Finish Line","code":null,"latitude":30.266,"longitude":-97.7827,"address":"2900 Bee Caves Road, Austin TX","chain_name":null,"distance":0},{"name":"Finish Line","code":null,"latitude":30.25583,"longitude":-97.8104,"address":"2901 S Capital Of Tx Highway, #Q1, Austin TX","chain_name":null,"distance":0},{"name":"Finish Line","code":null,"latitude":30.32471,"longitude":-97.7158,"address":"6001 Airport Boulevard, # 2438, Austin TX","chain_name":null,"distance":0},{"name":"Finish Line","code":null,"latitude":37.37001,"longitude":-79.2056,"address":"River Ridge Mall, Axtell VA","chain_name":null,"distance":0},{"name":"Finish Line","code":null,"latitude":35.33934,"longitude":-119.033,"address":"2701 Ming Avenue, # 154, Bakersfield CA","chain_name":null,"distance":0},{"name":"Finish Line","code":null,"latitude":38.4073,"longitude":-82.2993,"address":"404 Huntington Mall, # 770, Barboursville WV","chain_name":null,"distance":0},{"name":"Finish Line","code":null,"latitude":43.2415,"longitude":-75.1615,"address":"San Tan Village, Barneveld AZ","chain_name":null,"distance":0},{"name":"Finish Line","code":null,"latitude":42.15052,"longitude":-88.1314,"address":"345 E Russell Street, Barrington IL","chain_name":null,"distance":0},{"name":"Finish Line","code":null,"latitude":30.39203,"longitude":-91.0906,"address":"6401 Bluebonnet, Suite 1080, Baton Rouge LA","chain_name":null,"distance":0},{"name":"Finish Line","code":null,"latitude":30.45958,"longitude":-91.0899,"address":"9401 Cortana Place, # C8, Baton Rouge LA","chain_name":null,"distance":0},{"name":"Finish Line","code":null,"latitude":42.26104,"longitude":-85.1816,"address":"5775 Beckley Road, # 627, Battle Creek MI","chain_name":null,"distance":0},{"name":"Finish Line","code":null,"latitude":40.73698,"longitude":-73.2432,"address":"1701 Sunrise Highway, Bay Shore NY","chain_name":null,"distance":0},{"name":"Finish Line","code":null,"latitude":40.73898,"longitude":-73.2602,"address":"South Shore Mall, Bay Shore NY","chain_name":null,"distance":0},{"name":"Finish Line","code":null,"latitude":30.1275,"longitude":-94.1596,"address":"6155 Eastex Freeway, # 824, Beaumont TX","chain_name":null,"distance":0},{"name":"Finish Line","code":null,"latitude":41.35868,"longitude":-87.5981,"address":"4502 S Steele Street, Beecher WA","chain_name":null,"distance":0},{"name":"Finish Line","code":null,"latitude":39.5265,"longitude":-76.3541,"address":"628 Baltimore Pke, Bel Air MD","chain_name":null,"distance":0},{"name":"Finish Line","code":null,"latitude":36.4569,"longitude":-94.1928,"address":"304 Town Centre West, Bella Vista AR","chain_name":null,"distance":0},{"name":"Finish Line","code":null,"latitude":40.78718,"longitude":-74.1517,"address":"75 Rutgers Street, Belleville NJ","chain_name":null,"distance":0},{"name":"Finish Line","code":null,"latitude":48.787,"longitude":-122.4866,"address":"1 Bellis Fair Parkway, # 346, Bellingham WA","chain_name":null,"distance":0},{"name":"Finish Line","code":null,"latitude":40.13836,"longitude":-74.9587,"address":"Neshaminy Mall, Bensalem PA","chain_name":null,"distance":0},{"name":"Finish Line","code":null,"latitude":39.02207,"longitude":-77.1467,"address":"7101 Democracy Boulevard, Bethesda MD","chain_name":null,"distance":0},{"name":"Finish Line","code":null,"latitude":33.47194,"longitude":-86.7678,"address":"780 Brookwood Village, Birmingham AL","chain_name":null,"distance":0},{"name":"Finish Line","code":null,"latitude":43.29571,"longitude":-112.6121,"address":"Valley Mall, Blackfoot MD","chain_name":null,"distance":0},{"name":"Finish Line","code":null,"latitude":41.95125,"longitude":-88.1133,"address":"152 Stratford Square Mall, #C13, Bloomingdale IL","chain_name":null,"distance":0},{"name":"Finish Line","code":null,"latitude":40.48875,"longitude":-88.9565,"address":"1615 E Empire, Bloomington IL","chain_name":null,"distance":0},{"name":"Finish Line","code":null,"latitude":39.16425,"longitude":-86.4942,"address":"2922 E 3rd Street, Bloomington IN","chain_name":null,"distance":0},{"name":"Finish Line","code":null,"latitude":34.214,"longitude":-86.1563,"address":"1980 US Highway 431, Boaz AL","chain_name":null,"distance":0},{"name":"Finish Line","code":null,"latitude":43.60753,"longitude":-116.2826,"address":"350 N Milwaukee Street, # 2042, Boise ID","chain_name":null,"distance":0},{"name":"Finish Line","code":null,"latitude":32.52866,"longitude":-93.7058,"address":"2950 E Texas Street, # 640, Bossier City LA","chain_name":null,"distance":0},{"name":"Finish Line","code":null,"latitude":41.17351,"longitude":-87.8513,"address":"1600 N State Route 50, # 710, Bourbonnais IL","chain_name":null,"distance":0},{"name":"Finish Line","code":null,"latitude":36.94943,"longitude":-86.4247,"address":"2625 Scottsville Road, # 220, Bowling Green KY","chain_name":null,"distance":0},{"name":"Finish Line","code":null,"latitude":26.53388,"longitude":-80.0906,"address":"801 North Congress Avenue, Suite 209, Boynton Beach FL","chain_name":null,"distance":0},{"name":"Finish Line","code":null,"latitude":27.46718,"longitude":-82.5651,"address":"303 301 Boulevard West, # 464B, Bradenton FL","chain_name":null,"distance":0},{"name":"Finish Line","code":null,"latitude":42.22045,"longitude":-71.028,"address":"250 Granite Street, # 184, Braintree MA","chain_name":null,"distance":0},{"name":"Finish Line","code":null,"latitude":27.9283,"longitude":-82.3241,"address":"622 Brandon Town Center Mall, Brandon FL","chain_name":null,"distance":0},{"name":"Finish Line","code":null,"latitude":36.67169,"longitude":-93.2576,"address":"713 Branson Landing, Branson MO","chain_name":null,"distance":0},{"name":"Finish Line","code":null,"latitude":39.30906,"longitude":-80.2764,"address":"2399 Meadowbrook Mall 600, Bridgeport WV","chain_name":null,"distance":0},{"name":"Finish Line","code":null,"latitude":42.09449,"longitude":-71.0495,"address":"200 Westgate Drive, Brockton MA","chain_name":null,"distance":0},{"name":"Finish Line","code":null,"latitude":40.86221,"longitude":-73.8956,"address":"262 E Fordham Road, Bronx NY","chain_name":null,"distance":0},{"name":"Finish Line","code":null,"latitude":43.03216,"longitude":-88.1068,"address":"95 N Moorland Road, # D46, Brookfield WI","chain_name":null,"distance":0},{"name":"Finish Line","code":null,"latitude":40.69141,"longitude":-73.9872,"address":"390 Fulton, Brooklyn NY","chain_name":null,"distance":0},{"name":"Finish Line","code":null,"latitude":40.6078,"longitude":-73.9201,"address":"5100 Kings Plaza, Brooklyn NY","chain_name":null,"distance":0},{"name":"Finish Line","code":null,"latitude":30.65059,"longitude":-96.3432,"address":"1403 Briarcrest Drive, Bryan TX","chain_name":null,"distance":0},{"name":"Finish Line","code":null,"latitude":34.6112,"longitude":-92.4965,"address":"Bryant AZ","chain_name":null,"distance":0},{"name":"Finish Line","code":null,"latitude":42.90352,"longitude":-78.8286,"address":"192 Walden Galleria, Buffalo NY","chain_name":null,"distance":0},{"name":"Finish Line","code":null,"latitude":42.78609,"longitude":-78.8111,"address":"3701 McKinley Parkway, Buffalo NY","chain_name":null,"distance":0},{"name":"Finish Line","code":null,"latitude":34.06898,"longitude":-83.9853,"address":"3333 Buford Drive, # 2080, Buford GA","chain_name":null,"distance":0},{"name":"Finish Line","code":null,"latitude":36.06658,"longitude":-79.4315,"address":"1243 Plaza Drive, Burlington NC","chain_name":null,"distance":0},{"name":"Finish Line","code":null,"latitude":40.03852,"longitude":-74.8282,"address":"2501 Mount Holly Road, # 131, Burlington NJ","chain_name":null,"distance":0},{"name":"Finish Line","code":null,"latitude":42.47973,"longitude":-71.2162,"address":"75 Middlesex Turnpike, # 2112, Burlington MA","chain_name":null,"distance":0},{"name":"Finish Line","code":null,"latitude":44.74452,"longitude":-93.2843,"address":"1091 Burnsville Centre, Burnsville MN","chain_name":null,"distance":0},{"name":"Finish Line","code":null,"latitude":43.01876,"longitude":-83.6272,"address":"4190 E Court Street, # 321, Burton MI","chain_name":null,"distance":0},{"name":"Finish Line","code":null,"latitude":41.59634,"longitude":-87.5563,"address":"96 River Oaks Center Drive, # A11, Calumet City IL","chain_name":null,"distance":0},{"name":"Finish Line","code":null,"latitude":34.2182,"longitude":-119.0931,"address":"162 N Aviador St, Camarillo CA","chain_name":null,"distance":0},{"name":"Finish Line","code":null,"latitude":42.367,"longitude":-71.0759,"address":"100 Cambridgeside Place, # W122, Cambridge MA","chain_name":null,"distance":0},{"name":"Finish Line","code":null,"latitude":40.22422,"longitude":-76.9317,"address":"3506 Capital Mall Drive, Camp Hill PA","chain_name":null,"distance":0},{"name":"Finish Line","code":null,"latitude":34.19049,"longitude":-118.6058,"address":"6600 Topanga Canyon Boulevard, Canoga Park CA","chain_name":null,"distance":0},{"name":"Finish Line","code":null,"latitude":44.59684,"longitude":-75.1505,"address":"102 East Main Street, Canton NY","chain_name":null,"distance":0},{"name":"Finish Line","code":null,"latitude":40.8552,"longitude":-81.4254,"address":"4255 Belden Village Mall, Canton OH","chain_name":null,"distance":0},{"name":"Finish Line","code":null,"latitude":37.29906,"longitude":-89.5741,"address":"225 W Park Mall, Cape Girardeau MO","chain_name":null,"distance":0},{"name":"Finish Line","code":null,"latitude":37.31878,"longitude":-89.5559,"address":"889 N Kingshighway Street, Cape Girardeau MO","chain_name":null,"distance":0},{"name":"Finish Line","code":null,"latitude":37.73106,"longitude":-89.1919,"address":"1237 E Main Street, Carbondale IL","chain_name":null,"distance":0},{"name":"Finish Line","code":null,"latitude":39.99843,"longitude":-86.1298,"address":"14511 Clay Terrace Boulevard, # 150, Carmel IN","chain_name":null,"distance":0},{"name":"Finish Line","code":null,"latitude":35.77138,"longitude":-78.763,"address":"1105 Walnut Street, Cary NC","chain_name":null,"distance":0},{"name":"Finish Line","code":null,"latitude":32.60202,"longitude":-96.9465,"address":"305 W Fm 1382, Cedar Hill TX","chain_name":null,"distance":0},{"name":"Finish Line","code":null,"latitude":30.47325,"longitude":-97.7983,"address":"11200 Lakeline Mall Drive, # M19, Cedar Park TX","chain_name":null,"distance":0},{"name":"Finish Line","code":null,"latitude":41.95281,"longitude":-91.7161,"address":"2600 Edgewood Road Southwest, # 522, Cedar Rapids IA","chain_name":null,"distance":0},{"name":"Finish Line","code":null,"latitude":41.98253,"longitude":-91.6619,"address":"4444 1st Avenue Northeast, # 30, Cedar Rapids IA","chain_name":null,"distance":0},{"name":"Finish Line","code":null,"latitude":32.61847,"longitude":-83.6841,"address":"2922 Watson Boulevard, # 240, Centerville GA","chain_name":null,"distance":0},{"name":"Finish Line","code":null,"latitude":33.86203,"longitude":-118.0925,"address":"333 Los Cerritos Center, Cerritos CA","chain_name":null,"distance":0},{"name":"Finish Line","code":null,"latitude":39.95741,"longitude":-77.572,"address":"3055 Black Gap Road, Chambersburg PA","chain_name":null,"distance":0},{"name":"Finish Line","code":null,"latitude":40.14078,"longitude":-88.2466,"address":"2000 N Neil Street, # 604, Champaign IL","chain_name":null,"distance":0},{"name":"Finish Line","code":null,"latitude":33.3057,"longitude":-111.8968,"address":"3111 W Chandler Boulevard, # 2012, Chandler AZ","chain_name":null,"distance":0},{"name":"Finish Line","code":null,"latitude":38.3697,"longitude":-81.6706,"address":"2027 Charleston Town Centre, Charleston WV","chain_name":null,"distance":0},{"name":"Finish Line","code":null,"latitude":32.7922,"longitude":-80.0308,"address":"2070 Sam Rittenberg Boulevard, #B224, Charleston SC","chain_name":null,"distance":0},{"name":"Finish Line","code":null,"latitude":35.15122,"longitude":-80.8286,"address":"4400 Sharon Road, # 139, Charlotte NC","chain_name":null,"distance":0},{"name":"Finish Line","code":null,"latitude":38.07993,"longitude":-78.4727,"address":"1632 Rio Road East, Charlottesville VA","chain_name":null,"distance":0},{"name":"Finish Line","code":null,"latitude":35.0369,"longitude":-85.161,"address":"2100 Hamilton Place Boulevard, Chattanooga TN","chain_name":null,"distance":0},{"name":"Finish Line","code":null,"latitude":40.74438,"longitude":-88.7204,"address":"134 S Veto, Chenoa IL","chain_name":null,"distance":0},{"name":"Finish Line","code":null,"latitude":42.75479,"longitude":-95.5446,"address":"13647 N Florida Avenue, Cherokee FL","chain_name":null,"distance":0},{"name":"Finish Line","code":null,"latitude":39.93885,"longitude":-75.0252,"address":"2000 Route 38, # 1080, Cherry Hill NJ","chain_name":null,"distance":0},{"name":"Finish Line","code":null,"latitude":36.8232,"longitude":-76.4149,"address":"4200 Portsmouth Boulevard, Chesapeake VA","chain_name":null,"distance":0},{"name":"Finish Line","code":null,"latitude":36.81689,"longitude":-76.2371,"address":"Greenbriar Mall, Chesapeake VA","chain_name":null,"distance":0},{"name":"Finish Line","code":null,"latitude":38.6494,"longitude":-90.5651,"address":"291 Chesterfield Mall, Chesterfield MO","chain_name":null,"distance":0},{"name":"Finish Line","code":null,"latitude":41.16031,"longitude":-104.8063,"address":"1400 Dell Range Boulevard, # 77, Cheyenne WY","chain_name":null,"distance":0},{"name":"Finish Line","code":null,"latitude":41.75434,"longitude":-87.7415,"address":"7601 S Cicero Avenue, # 1538, Chicago IL","chain_name":null,"distance":0},{"name":"Finish Line","code":null,"latitude":41.89798,"longitude":-87.624,"address":"845 N Michigan Avenue, Chicago IL","chain_name":null,"distance":0},{"name":"Finish Line","code":null,"latitude":41.71733,"longitude":-87.7807,"address":"620 Chicago Ridge Mall, Chicago Ridge IL","chain_name":null,"distance":0},{"name":"Finish Line","code":null,"latitude":39.72725,"longitude":-121.8048,"address":"1950 E 20th Street, # 509, Chico CA","chain_name":null,"distance":0},{"name":"Finish Line","code":null,"latitude":37.1675,"longitude":-80.4271,"address":"782 New River Road, Christiansburg VA","chain_name":null,"distance":0},{"name":"Finish Line","code":null,"latitude":32.62903,"longitude":-117.0887,"address":"555 Broadway, Chula Vista CA","chain_name":null,"distance":0},{"name":"Finish Line","code":null,"latitude":39.30126,"longitude":-84.5214,"address":"1104 Cincinnati Mills Drive, Cincinnati OH","chain_name":null,"distance":0},{"name":"Finish Line","code":null,"latitude":39.2904,"longitude":-84.4666,"address":"11700 Princeton Pike, Cincinnati OH","chain_name":null,"distance":0},{"name":"Finish Line","code":null,"latitude":39.10244,"longitude":-84.273,"address":"4601 Eastgate Boulevard, # 824, Cincinnati OH","chain_name":null,"distance":0},{"name":"Finish Line","code":null,"latitude":39.20045,"longitude":-84.3761,"address":"7875 Montgomery Road, # 1141, Cincinnati OH","chain_name":null,"distance":0},{"name":"Finish Line","code":null,"latitude":39.24428,"longitude":-84.5951,"address":"9501 Colerain Avenue, # 2005, Cincinnati OH","chain_name":null,"distance":0},{"name":"Finish Line","code":null,"latitude":38.6746,"longitude":-121.2715,"address":"6043 Sunrise Mall, Citrus Heights CA","chain_name":null,"distance":0},{"name":"Finish Line","code":null,"latitude":36.58806,"longitude":-87.2936,"address":"2801 Wilma Rudolph Boulevard, # 895, Clarksville TN","chain_name":null,"distance":0},{"name":"Finish Line","code":null,"latitude":38.31397,"longitude":-85.7622,"address":"757 E Lewis & Clark Parkway, # 230, Clarksville IN","chain_name":null,"distance":0},{"name":"Finish Line","code":null,"latitude":43.18571,"longitude":-76.2281,"address":"4081 Route 31, Clay NY","chain_name":null,"distance":0},{"name":"Finish Line","code":null,"latitude":28.01761,"longitude":-82.7375,"address":"27001 US Highway 19 North, Clearwater FL","chain_name":null,"distance":0},{"name":"Finish Line","code":null,"latitude":35.20231,"longitude":-84.847,"address":"200 Paul Huff Parkway Northwest, # 41, Cleveland TN","chain_name":null,"distance":0},{"name":"Finish Line","code":null,"latitude":41.50128,"longitude":-81.4966,"address":"26300 Cedar Road, # 2120, Cleveland OH","chain_name":null,"distance":0},{"name":"Finish Line","code":null,"latitude":41.41587,"longitude":-81.7344,"address":"5300 Ridge Road, Cleveland OH","chain_name":null,"distance":0},{"name":"Finish Line","code":null,"latitude":41.38455,"longitude":-81.7407,"address":"7899 W Ridgewood Drive, Cleveland OH","chain_name":null,"distance":0},{"name":"Finish Line","code":null,"latitude":30.62766,"longitude":-96.3046,"address":"1500 Harvey Road, College Station TX","chain_name":null,"distance":0},{"name":"Finish Line","code":null,"latitude":35.02446,"longitude":-89.7158,"address":"4650 Merchants Park Circle, # 806, Collierville TN","chain_name":null,"distance":0},{"name":"Finish Line","code":null,"latitude":37.25295,"longitude":-77.3954,"address":"230 Southpark Circle, Colonial Heights VA","chain_name":null,"distance":0},{"name":"Finish Line","code":null,"latitude":38.84362,"longitude":-104.7588,"address":"750 Citadel Drive East, # 3068, Colorado Springs CO","chain_name":null,"distance":0},{"name":"Finish Line","code":null,"latitude":44.55223,"longitude":-74.9408,"address":"102 Main, Colton NY","chain_name":null,"distance":0},{"name":"Finish Line","code":null,"latitude":34.07458,"longitude":-81.1554,"address":"100 Columbiana Circle, Suite 1462, Columbia SC","chain_name":null,"distance":0},{"name":"Finish Line","code":null,"latitude":39.21659,"longitude":-76.8578,"address":"10300 Little Patuxent, # 1690, Columbia MD","chain_name":null,"distance":0},{"name":"Finish Line","code":null,"latitude":38.96586,"longitude":-92.3741,"address":"2300 Bernadette Drive Ste 900, Columbia MO","chain_name":null,"distance":0},{"name":"Finish Line","code":null,"latitude":34.06428,"longitude":-80.9577,"address":"7201 Two Notch Road, # Al158, Columbia SC","chain_name":null,"distance":0},{"name":"Finish Line","code":null,"latitude":40.14157,"longitude":-82.9773,"address":"1500 Polaris Parkway, # 1102, Columbus OH","chain_name":null,"distance":0},{"name":"Finish Line","code":null,"latitude":39.91994,"longitude":-82.8814,"address":"2740 Eastland Mall, Columbus OH","chain_name":null,"distance":0},{"name":"Finish Line","code":null,"latitude":32.50601,"longitude":-84.9448,"address":"3131 Manchester Expressway, Columbus GA","chain_name":null,"distance":0},{"name":"Finish Line","code":null,"latitude":32.50838,"longitude":-84.9371,"address":"3507 Manchester Expressway, # 72, Columbus GA","chain_name":null,"distance":0},{"name":"Finish Line","code":null,"latitude":39.95219,"longitude":-83.1161,"address":"4277 Westland Mall, Columbus OH","chain_name":null,"distance":0},{"name":"Finish Line","code":null,"latitude":37.96711,"longitude":-122.0624,"address":"120 Sun Valley Mall, Concord CA","chain_name":null,"distance":0},{"name":"Finish Line","code":null,"latitude":35.43809,"longitude":-80.605,"address":"1480 Concord Parkway North, # 145, Concord NC","chain_name":null,"distance":0},{"name":"Finish Line","code":null,"latitude":35.37147,"longitude":-80.7184,"address":"8111 Concord Mills Boulevard, # 695, Concord NC","chain_name":null,"distance":0},{"name":"Finish Line","code":null,"latitude":43.31195,"longitude":-71.6815,"address":"Steeplegate Mall, Concord NH","chain_name":null,"distance":0},{"name":"Finish Line","code":null,"latitude":41.69123,"longitude":-91.6084,"address":"1451 Coral Ridge Avenue, # 514, Coralville IA","chain_name":null,"distance":0},{"name":"Finish Line","code":null,"latitude":33.81259,"longitude":-117.5058,"address":"2795 Cabot Drive, # 130, Corona CA","chain_name":null,"distance":0},{"name":"Finish Line","code":null,"latitude":32.52518,"longitude":-97.6238,"address":"9001 E Highway 377, Cresson TX","chain_name":null,"distance":0},{"name":"Finish Line","code":null,"latitude":40.09792,"longitude":-74.9086,"address":"616 Neshaminy Road, Croydon PA","chain_name":null,"distance":0},{"name":"Finish Line","code":null,"latitude":28.9081,"longitude":-82.6045,"address":"1801 NW US Highway 19, # 475, Crystal River FL","chain_name":null,"distance":0},{"name":"Finish Line","code":null,"latitude":33.98563,"longitude":-118.3954,"address":"294 Fox Hills Mall, Culver City CA","chain_name":null,"distance":0},{"name":"Finish Line","code":null,"latitude":39.63148,"longitude":-78.835,"address":"1262 Vocke Road, # 482, Cumberland MD","chain_name":null,"distance":0},{"name":"Finish Line","code":null,"latitude":32.92888,"longitude":-96.8048,"address":"1054 Valley View Centre, Dallas TX","chain_name":null,"distance":0},{"name":"Finish Line","code":null,"latitude":32.92981,"longitude":-96.8209,"address":"13350 Dallas Parkway, # 3300, Dallas TX","chain_name":null,"distance":0},{"name":"Finish Line","code":null,"latitude":32.86979,"longitude":-96.7707,"address":"8687 N Central Expwy, Dallas TX","chain_name":null,"distance":0},{"name":"Finish Line","code":null,"latitude":37.6753,"longitude":-122.4706,"address":"3 Serramonte Centre, Daly City CA","chain_name":null,"distance":0},{"name":"Finish Line","code":null,"latitude":41.37868,"longitude":-73.4769,"address":"7 Backus Avenue, Danbury CT","chain_name":null,"distance":0},{"name":"Finish Line","code":null,"latitude":40.17214,"longitude":-87.6307,"address":"2917 N Vermilion Street, # C17, Danville IL","chain_name":null,"distance":0},{"name":"Finish Line","code":null,"latitude":36.59589,"longitude":-79.4222,"address":"325 Piedmont Drive, Danville VA","chain_name":null,"distance":0},{"name":"Finish Line","code":null,"latitude":41.56018,"longitude":-90.5771,"address":"320 W Kimberly Road, # 309, Davenport IA","chain_name":null,"distance":0},{"name":"Finish Line","code":null,"latitude":34.50341,"longitude":-97.1224,"address":"106 W Main Street, Davis OK","chain_name":null,"distance":0},{"name":"Finish Line","code":null,"latitude":39.63699,"longitude":-84.22,"address":"2700 Miamisburg Centerville Road, Suite 296, Dayton OH","chain_name":null,"distance":0},{"name":"Finish Line","code":null,"latitude":39.76793,"longitude":-84.0537,"address":"2727 Fairfield Commons, # W217, Dayton OH","chain_name":null,"distance":0},{"name":"Finish Line","code":null,"latitude":39.69399,"longitude":-84.1036,"address":"75 Chestnut Street, Dayton OH","chain_name":null,"distance":0},{"name":"Finish Line","code":null,"latitude":29.19449,"longitude":-81.0629,"address":"1700 W Internatl Speedway, #214, Daytona Beach FL","chain_name":null,"distance":0},{"name":"Finish Line","code":null,"latitude":29.19447,"longitude":-81.0628,"address":"1700 West International Speedway Boulevard, Suite 214, Daytona Beach FL","chain_name":null,"distance":0},{"name":"Finish Line","code":null,"latitude":42.3097,"longitude":-83.2218,"address":"18900 Michigan Avenue, # J307, Dearborn MI","chain_name":null,"distance":0},{"name":"Finish Line","code":null,"latitude":33.70689,"longitude":-84.272,"address":"2853 Candler Road, Decatur GA","chain_name":null,"distance":0},{"name":"Finish Line","code":null,"latitude":45.03484,"longitude":-93.7835,"address":"507 Kelsey Street, Delano MN","chain_name":null,"distance":0},{"name":"Finish Line","code":null,"latitude":33.20564,"longitude":-97.1562,"address":"2201 N Interstate 35 East, Denton TX","chain_name":null,"distance":0},{"name":"Finish Line","code":null,"latitude":39.71803,"longitude":-104.9522,"address":"3000 E 1 Avenue, Denver CO","chain_name":null,"distance":0},{"name":"Finish Line","code":null,"latitude":39.78524,"longitude":-104.8916,"address":"8316 E 49th Avenue, Denver CO","chain_name":null,"distance":0},{"name":"Finish Line","code":null,"latitude":41.52629,"longitude":-93.6032,"address":"1111 E Army Post Road, # 34, Des Moines IA","chain_name":null,"distance":0},{"name":"Finish Line","code":null,"latitude":41.63302,"longitude":-93.6977,"address":"3800 Merle Hay Road, # 405, Des Moines IA","chain_name":null,"distance":0},{"name":"Finish Line","code":null,"latitude":30.39179,"longitude":-86.4261,"address":"4112 Legendary Drive, Destin FL","chain_name":null,"distance":0},{"name":"Finish Line","code":null,"latitude":38.84868,"longitude":-76.8851,"address":"3289 Donnell Drive # F-06C, District Heights MD","chain_name":null,"distance":0},{"name":"Finish Line","code":null,"latitude":31.25506,"longitude":-85.4278,"address":"900 Commons Drive, Dothan AL","chain_name":null,"distance":0},{"name":"Finish Line","code":null,"latitude":33.72929,"longitude":-84.7502,"address":"6700 Douglas Boulevard, Douglasville GA","chain_name":null,"distance":0},{"name":"Finish Line","code":null,"latitude":39.19023,"longitude":-75.5417,"address":"1365 N Dupont Highway, # 5061, Dover DE","chain_name":null,"distance":0},{"name":"Finish Line","code":null,"latitude":33.93682,"longitude":-118.1222,"address":"251 Stonewd, Downey CA","chain_name":null,"distance":0},{"name":"Finish Line","code":null,"latitude":40.07637,"longitude":-83.1299,"address":"5043 Tuttle Crossing Boulevard, #103, Dublin OH","chain_name":null,"distance":0},{"name":"Finish Line","code":null,"latitude":42.49403,"longitude":-90.7167,"address":"555 John F Kennedy Road, # 254, Dubuque IA","chain_name":null,"distance":0},{"name":"Finish Line","code":null,"latitude":33.95705,"longitude":-84.1332,"address":"2100 Pleasant Hill Road, # 166, Duluth GA","chain_name":null,"distance":0},{"name":"Finish Line","code":null,"latitude":42.10027,"longitude":-88.2932,"address":"1072 Spring Hill Mall, Dundee IL","chain_name":null,"distance":0},{"name":"Finish Line","code":null,"latitude":35.90346,"longitude":-78.9388,"address":"6910 Fayetteville Road, Durham NC","chain_name":null,"distance":0},{"name":"Finish Line","code":null,"latitude":45.90073,"longitude":-89.3182,"address":"3973 Cloverland Drive, Eagle River WI","chain_name":null,"distance":0},{"name":"Finish Line","code":null,"latitude":40.28764,"longitude":-74.0513,"address":"180 State Route 35, # 290, Eatontown NJ","chain_name":null,"distance":0},{"name":"Finish Line","code":null,"latitude":44.79711,"longitude":-91.4656,"address":"2112 Esmond Road, Eau Claire WI","chain_name":null,"distance":0},{"name":"Finish Line","code":null,"latitude":44.77472,"longitude":-91.4376,"address":"4800 Golf Road, # 88, Eau Claire WI","chain_name":null,"distance":0},{"name":"Finish Line","code":null,"latitude":32.80668,"longitude":-116.9673,"address":"769 Parkway Plaza, El Cajon CA","chain_name":null,"distance":0},{"name":"Finish Line","code":null,"latitude":32.7727,"longitude":-115.5351,"address":"3451 S Dogwood Road, # 1482, El Centro CA","chain_name":null,"distance":0},{"name":"Finish Line","code":null,"latitude":31.78177,"longitude":-106.4104,"address":"6101 Gateway West, El Paso TX","chain_name":null,"distance":0},{"name":"Finish Line","code":null,"latitude":31.81814,"longitude":-106.545,"address":"750 Sunland Park Drive, El Paso TX","chain_name":null,"distance":0},{"name":"Finish Line","code":null,"latitude":31.77362,"longitude":-106.3811,"address":"8401 Gateway West, El Paso TX","chain_name":null,"distance":0},{"name":"Finish Line","code":null,"latitude":40.66333,"longitude":-74.1742,"address":"651 Kapkowski Road, # 2014, Elizabeth NJ","chain_name":null,"distance":0},{"name":"Finish Line","code":null,"latitude":40.73452,"longitude":-73.8731,"address":"90 -15 Queens Boulevard, Elmhurst NY","chain_name":null,"distance":0},{"name":"Finish Line","code":null,"latitude":41.39814,"longitude":-82.1107,"address":"3598 Midway Mall, Elyria OH","chain_name":null,"distance":0},{"name":"Finish Line","code":null,"latitude":41.99788,"longitude":-72.5838,"address":"90 Elm Street, # 21, Enfield CT","chain_name":null,"distance":0},{"name":"Finish Line","code":null,"latitude":42.06857,"longitude":-80.0927,"address":"5800 Peach Street, Erie PA","chain_name":null,"distance":0},{"name":"Finish Line","code":null,"latitude":39.00835,"longitude":-84.6117,"address":"4351 Dixie Highway, Erlanger KY","chain_name":null,"distance":0},{"name":"Finish Line","code":null,"latitude":37.98418,"longitude":-87.4926,"address":"800 N Green River Road, Evansville IN","chain_name":null,"distance":0},{"name":"Finish Line","code":null,"latitude":41.72089,"longitude":-87.682,"address":"9500 S Western Avenue, # G2, Evergreen Park IL","chain_name":null,"distance":0},{"name":"Finish Line","code":null,"latitude":40.03289,"longitude":-75.6265,"address":"100 Exton Square Mall, Exton PA","chain_name":null,"distance":0},{"name":"Finish Line","code":null,"latitude":38.87044,"longitude":-77.3693,"address":"11952 Lee Jackson Memorial Highway, Fairfax VA","chain_name":null,"distance":0},{"name":"Finish Line","code":null,"latitude":38.25819,"longitude":-122.0526,"address":"1350 Travis Boulevard, # 508, Fairfield CA","chain_name":null,"distance":0},{"name":"Finish Line","code":null,"latitude":41.13243,"longitude":-81.6188,"address":"3265 W Market Street, Fairlawn OH","chain_name":null,"distance":0},{"name":"Finish Line","code":null,"latitude":38.59797,"longitude":-89.9768,"address":"178 Saint Clair Square, Fairview Heights IL","chain_name":null,"distance":0},{"name":"Finish Line","code":null,"latitude":35.07358,"longitude":-78.9635,"address":"419 Cross Creek Mall, # 403, Fayetteville NC","chain_name":null,"distance":0},{"name":"Finish Line","code":null,"latitude":36.12483,"longitude":-94.1452,"address":"4201 N Shiloh Drive, # 1045, Fayetteville AR","chain_name":null,"distance":0},{"name":"Finish Line","code":null,"latitude":41.05281,"longitude":-83.6152,"address":"1800 Tiffin Avenue, # 158, Findlay OH","chain_name":null,"distance":0},{"name":"Finish Line","code":null,"latitude":42.97795,"longitude":-83.7719,"address":"3341 S Linden Road, # 590, Flint MI","chain_name":null,"distance":0},{"name":"Finish Line","code":null,"latitude":40.72898,"longitude":-73.7022,"address":"246 Jericho Turnpike, Floral Park NY","chain_name":null,"distance":0},{"name":"Finish Line","code":null,"latitude":38.99416,"longitude":-84.6524,"address":"1172 Florence Mall, Florence KY","chain_name":null,"distance":0},{"name":"Finish Line","code":null,"latitude":34.1899,"longitude":-79.8317,"address":"2701 David McLeod Boulevard, # 1316, Florence SC","chain_name":null,"distance":0},{"name":"Finish Line","code":null,"latitude":34.83617,"longitude":-87.6309,"address":"301 Cox Creek Parkway, # 1110, Florence AL","chain_name":null,"distance":0},{"name":"Finish Line","code":null,"latitude":38.82051,"longitude":-90.2494,"address":"175 Jamestown Mall, Florissant MO","chain_name":null,"distance":0},{"name":"Finish Line","code":null,"latitude":43.78445,"longitude":-88.4756,"address":"835 W Johnson Street, # 11, Fond Du Lac WI","chain_name":null,"distance":0},{"name":"Finish Line","code":null,"latitude":39.92119,"longitude":-88.9632,"address":"1030 Hickory Point Mall, # 239, Forsyth IL","chain_name":null,"distance":0},{"name":"Finish Line","code":null,"latitude":40.54383,"longitude":-105.0748,"address":"215 E Foothills Parkway, # B17, Fort Collins CO","chain_name":null,"distance":0},{"name":"Finish Line","code":null,"latitude":43.03576,"longitude":-82.4564,"address":"4350 24th Avenue, # 617, Fort Gratiot MI","chain_name":null,"distance":0},{"name":"Finish Line","code":null,"latitude":26.14487,"longitude":-80.3239,"address":"12801 West Sunrise Boulevard, Suite 627, Fort Lauderdale FL","chain_name":null,"distance":0},{"name":"Finish Line","code":null,"latitude":26.1378,"longitude":-80.1145,"address":"2414 E Sunrise Boulevard, Fort Lauderdale FL","chain_name":null,"distance":0},{"name":"Finish Line","code":null,"latitude":26.60202,"longitude":-81.8717,"address":"4125 Cleveland Avenue, # 1835, Fort Myers FL","chain_name":null,"distance":0},{"name":"Finish Line","code":null,"latitude":26.48679,"longitude":-81.79,"address":"9903 Gulf Coast Main Street, Fort Myers FL","chain_name":null,"distance":0},{"name":"Finish Line","code":null,"latitude":35.36369,"longitude":-94.3745,"address":"5111 Rogers Avenue, # 168, Fort Smith AR","chain_name":null,"distance":0},{"name":"Finish Line","code":null,"latitude":30.45753,"longitude":-86.637,"address":"1310 Lewis Turner Boulevard, Fort Walton Beach FL","chain_name":null,"distance":0},{"name":"Finish Line","code":null,"latitude":41.11322,"longitude":-85.1351,"address":"4201 Coldwater Road, Fort Wayne IN","chain_name":null,"distance":0},{"name":"Finish Line","code":null,"latitude":32.91723,"longitude":-97.4425,"address":"12035 Camp Bowie West Boulevard, Fort Worth TX","chain_name":null,"distance":0},{"name":"Finish Line","code":null,"latitude":32.74095,"longitude":-97.4338,"address":"1940 Green Oaks Road, Fort Worth TX","chain_name":null,"distance":0},{"name":"Finish Line","code":null,"latitude":32.67674,"longitude":-97.3963,"address":"4800 S Hulen Street, # 223, Fort Worth TX","chain_name":null,"distance":0},{"name":"Finish Line","code":null,"latitude":35.95775,"longitude":-86.8112,"address":"1800 Galleria Boulevard, # 2190, Franklin TN","chain_name":null,"distance":0},{"name":"Finish Line","code":null,"latitude":39.49532,"longitude":-84.329,"address":"3461 Towne Boulevard, # 404, Franklin OH","chain_name":null,"distance":0},{"name":"Finish Line","code":null,"latitude":39.41856,"longitude":-77.4535,"address":"1301 West Patrick Street, Frederick MD","chain_name":null,"distance":0},{"name":"Finish Line","code":null,"latitude":39.38416,"longitude":-77.4096,"address":"5500 Buckeystown Pke, Frederick MD","chain_name":null,"distance":0},{"name":"Finish Line","code":null,"latitude":38.29498,"longitude":-77.5161,"address":"3102 Plank Road, Fredericksburg VA","chain_name":null,"distance":0},{"name":"Finish Line","code":null,"latitude":40.25699,"longitude":-74.291,"address":"3710 US Highway 9, # 1317, Freehold NJ","chain_name":null,"distance":0},{"name":"Finish Line","code":null,"latitude":33.10098,"longitude":-96.8058,"address":"2601 Preston Road, Frisco TX","chain_name":null,"distance":0},{"name":"Finish Line","code":null,"latitude":39.64141,"longitude":-78.9263,"address":"18505 Martin Run Road, Frostburg MD","chain_name":null,"distance":0},{"name":"Finish Line","code":null,"latitude":33.99764,"longitude":-86.0045,"address":"1001 Rainbow Drive, # 71, Gadsden AL","chain_name":null,"distance":0},{"name":"Finish Line","code":null,"latitude":34.29495,"longitude":-83.8433,"address":"150 Pearl Nix Parkway, # C8, Gainesville GA","chain_name":null,"distance":0},{"name":"Finish Line","code":null,"latitude":29.65956,"longitude":-82.4112,"address":"6355 W Newberry Road, Gainesville FL","chain_name":null,"distance":0},{"name":"Finish Line","code":null,"latitude":39.15098,"longitude":-77.2059,"address":"701 Russell Avenue, Gaithersburg MD","chain_name":null,"distance":0},{"name":"Finish Line","code":null,"latitude":35.53027,"longitude":-108.76,"address":"1300 W I-40 Frontage Road, # 100, Gallup NM","chain_name":null,"distance":0},{"name":"Finish Line","code":null,"latitude":40.7432,"longitude":-73.6147,"address":"630 Old Country Road, Garden City NY","chain_name":null,"distance":0},{"name":"Finish Line","code":null,"latitude":32.95247,"longitude":-96.6101,"address":"480 Cedar Sage Drive, Garland TX","chain_name":null,"distance":0},{"name":"Finish Line","code":null,"latitude":35.26519,"longitude":-81.1511,"address":"250 N New Hope Road, # 142, Gastonia NC","chain_name":null,"distance":0},{"name":"Finish Line","code":null,"latitude":41.89397,"longitude":-88.3436,"address":"518 Commons Drive, Geneva IL","chain_name":null,"distance":0},{"name":"Finish Line","code":null,"latitude":42.49594,"longitude":-88.3341,"address":"80 Fellows Road, Genoa City WI","chain_name":null,"distance":0},{"name":"Finish Line","code":null,"latitude":32.7481,"longitude":-94.9395,"address":"1802 N Wood Street, Gilmer TX","chain_name":null,"distance":0},{"name":"Finish Line","code":null,"latitude":37.67624,"longitude":-77.4611,"address":"10101 Brook Road, # 104, Glen Allen VA","chain_name":null,"distance":0},{"name":"Finish Line","code":null,"latitude":39.1995,"longitude":-76.6352,"address":"7900 Ritchie Highway, Glen Burnie MD","chain_name":null,"distance":0},{"name":"Finish Line","code":null,"latitude":41.2156,"longitude":-74.4948,"address":"4 Vernon Xing, # 15, Glenwood NJ","chain_name":null,"distance":0},{"name":"Finish Line","code":null,"latitude":36.29837,"longitude":-86.6998,"address":"1000 Rivergate Parkway, # 1117, Goodlettsville TN","chain_name":null,"distance":0},{"name":"Finish Line","code":null,"latitude":47.89215,"longitude":-97.0666,"address":"2800 S Columbia Road, # 331, Grand Forks ND","chain_name":null,"distance":0},{"name":"Finish Line","code":null,"latitude":39.08943,"longitude":-108.6043,"address":"2424 Highway 6 And 50, # 90, Grand Junction CO","chain_name":null,"distance":0},{"name":"Finish Line","code":null,"latitude":32.76074,"longitude":-97.006,"address":"402 E Palace Parkway, Grand Prairie TX","chain_name":null,"distance":0},{"name":"Finish Line","code":null,"latitude":42.91251,"longitude":-85.5884,"address":"3195 28th Street Southeast, Grand Rapids MI","chain_name":null,"distance":0},{"name":"Finish Line","code":null,"latitude":42.88227,"longitude":-85.7551,"address":"3700 Rivertown Parkway Southwest, # 1118, Grandville MI","chain_name":null,"distance":0},{"name":"Finish Line","code":null,"latitude":32.96797,"longitude":-97.037,"address":"3000 Grapevine Mills Parkway, Grapevine TX","chain_name":null,"distance":0},{"name":"Finish Line","code":null,"latitude":40.38916,"longitude":-104.7091,"address":"2050 Greeley Mall, Greeley CO","chain_name":null,"distance":0},{"name":"Finish Line","code":null,"latitude":44.48331,"longitude":-88.0693,"address":"2481 S Oneida Street, Green Bay WI","chain_name":null,"distance":0},{"name":"Finish Line","code":null,"latitude":42.94838,"longitude":-88.0084,"address":"5300 S 76th Street, # 110, Greendale WI","chain_name":null,"distance":0},{"name":"Finish Line","code":null,"latitude":36.03906,"longitude":-79.8363,"address":"325 Four Seasons Town Centre, Greensboro NC","chain_name":null,"distance":0},{"name":"Finish Line","code":null,"latitude":40.30312,"longitude":-79.5086,"address":"Westmoreland Mall, Greensburg PA","chain_name":null,"distance":0},{"name":"Finish Line","code":null,"latitude":34.8497,"longitude":-82.3377,"address":"700 Haywood Road, # 206, Greenville SC","chain_name":null,"distance":0},{"name":"Finish Line","code":null,"latitude":39.63285,"longitude":-86.1247,"address":"1251 US Highway 31 North, # 173, Greenwood IN","chain_name":null,"distance":0},{"name":"Finish Line","code":null,"latitude":29.92284,"longitude":-90.0414,"address":"197 Westbank Expressway, # 1005, Gretna LA","chain_name":null,"distance":0},{"name":"Finish Line","code":null,"latitude":36.6041,"longitude":-94.7926,"address":"6716 Highway 59 North, Grove OK","chain_name":null,"distance":0},{"name":"Finish Line","code":null,"latitude":42.38334,"longitude":-87.9553,"address":"6170 Grand Avenue, # 409, Gurnee IL","chain_name":null,"distance":0},{"name":"Finish Line","code":null,"latitude":39.82107,"longitude":-76.9963,"address":"1155 Carlisle Street, Hanover PA","chain_name":null,"distance":0},{"name":"Finish Line","code":null,"latitude":39.1624,"longitude":-76.7257,"address":"7000 Arundel Mills Circle, Hanover MD","chain_name":null,"distance":0},{"name":"Finish Line","code":null,"latitude":42.44987,"longitude":-82.9342,"address":"18000 Vernier Road, # 711, Harper Woods MI","chain_name":null,"distance":0},{"name":"Finish Line","code":null,"latitude":40.25552,"longitude":-76.8359,"address":"3201 Paxton Street, # 541, Harrisburg PA","chain_name":null,"distance":0},{"name":"Finish Line","code":null,"latitude":40.30101,"longitude":-76.8157,"address":"4600 Jonestown Road, Harrisburg PA","chain_name":null,"distance":0},{"name":"Finish Line","code":null,"latitude":38.4369,"longitude":-78.8498,"address":"1925 E Market Street, Harrisonburg VA","chain_name":null,"distance":0},{"name":"Finish Line","code":null,"latitude":31.32321,"longitude":-89.3763,"address":"1000 Turtle Creek Drive, # 680, Hattiesburg MS","chain_name":null,"distance":0},{"name":"Finish Line","code":null,"latitude":37.65356,"longitude":-122.1004,"address":"390 Southland Mall, Hayward CA","chain_name":null,"distance":0},{"name":"Finish Line","code":null,"latitude":38.7858,"longitude":-90.4157,"address":"5555 St Louis Mills Boulevard, # 277, Hazelwood MO","chain_name":null,"distance":0},{"name":"Finish Line","code":null,"latitude":40.03098,"longitude":-82.4432,"address":"771 S 30th Street, Heath OH","chain_name":null,"distance":0},{"name":"Finish Line","code":null,"latitude":36.06381,"longitude":-115.0414,"address":"1300 W Sunset Road, # 1705, Henderson NV","chain_name":null,"distance":0},{"name":"Finish Line","code":null,"latitude":25.86665,"longitude":-80.3159,"address":"1635 W 49th Street, # 1204, Hialeah FL","chain_name":null,"distance":0},{"name":"Finish Line","code":null,"latitude":25.89374,"longitude":-80.291,"address":"370 W 78th Road, # 380, Hialeah FL","chain_name":null,"distance":0},{"name":"Finish Line","code":null,"latitude":35.70602,"longitude":-81.3037,"address":"1960 Us Highway 70 Southeast, # 268, Hickory NC","chain_name":null,"distance":0},{"name":"Finish Line","code":null,"latitude":35.98691,"longitude":-80.0045,"address":"921 Eastchester Drive, # 2520, High Point NC","chain_name":null,"distance":0},{"name":"Finish Line","code":null,"latitude":35.13267,"longitude":-85.2429,"address":"4900 Hixson Pike, Hixson TN","chain_name":null,"distance":0},{"name":"Finish Line","code":null,"latitude":41.52424,"longitude":-87.2689,"address":"2273 Southlake Mall, Hobart IN","chain_name":null,"distance":0},{"name":"Finish Line","code":null,"latitude":42.812,"longitude":-86.0857,"address":"12331 James Street, # 344, Holland MI","chain_name":null,"distance":0},{"name":"Finish Line","code":null,"latitude":26.00366,"longitude":-80.3369,"address":"521 SW 145th Terrace, Hollywood FL","chain_name":null,"distance":0},{"name":"Finish Line","code":null,"latitude":42.1718,"longitude":-72.6402,"address":"50 Holyoke Street, Holyoke MA","chain_name":null,"distance":0},{"name":"Finish Line","code":null,"latitude":44.97046,"longitude":-93.4374,"address":"12401 Wayzata Boulevard, Hopkins MN","chain_name":null,"distance":0},{"name":"Finish Line","code":null,"latitude":42.15952,"longitude":-76.8781,"address":"3300 Chambers Road, Horseheads NY","chain_name":null,"distance":0},{"name":"Finish Line","code":null,"latitude":29.59405,"longitude":-90.7398,"address":"111 Moss Lane, Houma LA","chain_name":null,"distance":0},{"name":"Finish Line","code":null,"latitude":29.63255,"longitude":-90.7573,"address":"5953 W Park Avenue, # 2015, Houma LA","chain_name":null,"distance":0},{"name":"Finish Line","code":null,"latitude":29.72977,"longitude":-95.6483,"address":"1000 W Oaks Mall, Houston TX","chain_name":null,"distance":0},{"name":"Finish Line","code":null,"latitude":29.62191,"longitude":-95.2229,"address":"12200 Gulf Freeway, Houston TX","chain_name":null,"distance":0},{"name":"Finish Line","code":null,"latitude":29.94597,"longitude":-95.4153,"address":"12300 North Freeway, Houston TX","chain_name":null,"distance":0},{"name":"Finish Line","code":null,"latitude":29.77958,"longitude":-95.5359,"address":"303 Memorial City Way, # 250, Houston TX","chain_name":null,"distance":0},{"name":"Finish Line","code":null,"latitude":29.74078,"longitude":-95.462,"address":"5015 Westheimer Road, # 3225A, Houston TX","chain_name":null,"distance":0},{"name":"Finish Line","code":null,"latitude":30.00635,"longitude":-95.2679,"address":"20131 Highway 59 North, # 2346, Humble TX","chain_name":null,"distance":0},{"name":"Finish Line","code":null,"latitude":34.70711,"longitude":-86.5891,"address":"2801 Memorial Parkway Southwest, # 243, Huntsville AL","chain_name":null,"distance":0},{"name":"Finish Line","code":null,"latitude":34.74075,"longitude":-86.6656,"address":"5901 University Drive Northwest, # 52, Huntsville AL","chain_name":null,"distance":0},{"name":"Finish Line","code":null,"latitude":32.8294,"longitude":-97.1972,"address":"1101 Melbourne Road, Hurst TX","chain_name":null,"distance":0},{"name":"Finish Line","code":null,"latitude":38.0636,"longitude":-97.8159,"address":"1500 E 11th Avenue, # G7, Hutchinson KS","chain_name":null,"distance":0},{"name":"Finish Line","code":null,"latitude":41.66873,"longitude":-70.2955,"address":"769 Iyannough Road, Hyannis MA","chain_name":null,"distance":0},{"name":"Finish Line","code":null,"latitude":39.04798,"longitude":-94.359,"address":"18801 E 39th Street South, Independence MO","chain_name":null,"distance":0},{"name":"Finish Line","code":null,"latitude":40.63356,"longitude":-79.1699,"address":"2090 Route 286 South, Indiana PA","chain_name":null,"distance":0},{"name":"Finish Line","code":null,"latitude":40.60641,"longitude":-79.1822,"address":"2334 Oakland Avenue, # 17, Indiana PA","chain_name":null,"distance":0},{"name":"Finish Line","code":null,"latitude":39.7751,"longitude":-85.9873,"address":"10202 E Washington Street, # 320, Indianapolis IN","chain_name":null,"distance":0},{"name":"Finish Line","code":null,"latitude":39.81707,"longitude":-85.9909,"address":"3308 N Mitthoefer Road, Indianapolis IN","chain_name":null,"distance":0},{"name":"Finish Line","code":null,"latitude":39.82703,"longitude":-86.2378,"address":"3919 Lafayette Road, # 362, Indianapolis IN","chain_name":null,"distance":0},{"name":"Finish Line","code":null,"latitude":39.76567,"longitude":-86.159,"address":"49 W Maryland Street, # 148, Indianapolis IN","chain_name":null,"distance":0},{"name":"Finish Line","code":null,"latitude":39.79771,"longitude":-86.2633,"address":"5850 Crawfordsville Road, Indianapolis IN","chain_name":null,"distance":0},{"name":"Finish Line","code":null,"latitude":39.90534,"longitude":-86.0641,"address":"6020 E 82nd Street, # 832, Indianapolis IN","chain_name":null,"distance":0},{"name":"Finish Line","code":null,"latitude":39.91354,"longitude":-86.1096,"address":"8702 Keystone Xing, # 151, Indianapolis IN","chain_name":null,"distance":0},{"name":"Finish Line","code":null,"latitude":39.81153,"longitude":-86.0003,"address":"9522 E 30th Street, Indianapolis IN","chain_name":null,"distance":0},{"name":"Finish Line","code":null,"latitude":33.65103,"longitude":-117.7468,"address":"81 Fortune, Irvine CA","chain_name":null,"distance":0},{"name":"Finish Line","code":null,"latitude":32.84756,"longitude":-96.9924,"address":"3009 N Belt Line Road, Irving TX","chain_name":null,"distance":0},{"name":"Finish Line","code":null,"latitude":32.83858,"longitude":-96.9952,"address":"3880 Irving Mall, Irving TX","chain_name":null,"distance":0},{"name":"Finish Line","code":null,"latitude":42.4838,"longitude":-76.488,"address":"40 Catherwood Road, Ithaca NY","chain_name":null,"distance":0},{"name":"Finish Line","code":null,"latitude":35.65658,"longitude":-88.8278,"address":"2021 N Highland Avenue, Jackson TN","chain_name":null,"distance":0},{"name":"Finish Line","code":null,"latitude":32.30202,"longitude":-90.2512,"address":"3645 Metro Drive, # 82, Jackson MS","chain_name":null,"distance":0},{"name":"Finish Line","code":null,"latitude":30.25808,"longitude":-81.5262,"address":"10281 Midtown Parkway, # 215, Jacksonville FL","chain_name":null,"distance":0},{"name":"Finish Line","code":null,"latitude":30.28501,"longitude":-81.5796,"address":"1950 Parental Home Road, Jacksonville FL","chain_name":null,"distance":0},{"name":"Finish Line","code":null,"latitude":34.75206,"longitude":-77.4226,"address":"375 Western Boulevard, Jacksonville NC","chain_name":null,"distance":0},{"name":"Finish Line","code":null,"latitude":30.32165,"longitude":-81.551,"address":"9501 Arlington Expressway, # 765, Jacksonville FL","chain_name":null,"distance":0},{"name":"Finish Line","code":null,"latitude":42.71266,"longitude":-89.0014,"address":"2500 Milton Avenue, # 174, Janesville WI","chain_name":null,"distance":0},{"name":"Finish Line","code":null,"latitude":27.24319,"longitude":-80.2715,"address":"3318 NW Federal Highway, Jensen Beach FL","chain_name":null,"distance":0},{"name":"Finish Line","code":null,"latitude":40.7269,"longitude":-74.0387,"address":"30 Mall Drive West, # 246, Jersey City NJ","chain_name":null,"distance":0},{"name":"Finish Line","code":null,"latitude":36.33975,"longitude":-82.3746,"address":"2011 N Roan Street, # 21, Johnson City TN","chain_name":null,"distance":0},{"name":"Finish Line","code":null,"latitude":42.12471,"longitude":-75.9717,"address":"223 Reynolds Road, Johnson City NY","chain_name":null,"distance":0},{"name":"Finish Line","code":null,"latitude":40.29706,"longitude":-78.836,"address":"500 Industrial Park Road, Johnstown PA","chain_name":null,"distance":0},{"name":"Finish Line","code":null,"latitude":41.57947,"longitude":-88.1651,"address":"3340 Mall Loop Drive, # 1028, Joliet IL","chain_name":null,"distance":0},{"name":"Finish Line","code":null,"latitude":35.82113,"longitude":-90.6678,"address":"3000 E Highland Drive, # 113, Jonesboro AR","chain_name":null,"distance":0},{"name":"Finish Line","code":null,"latitude":37.09091,"longitude":-94.477,"address":"101 N Range Line Road, # 89, Joplin MO","chain_name":null,"distance":0},{"name":"Finish Line","code":null,"latitude":39.12544,"longitude":-94.8291,"address":"1837 Village West Parkway, # 739, Kansas City KS","chain_name":null,"distance":0},{"name":"Finish Line","code":null,"latitude":29.77637,"longitude":-95.8121,"address":"5000 Katy Mills Circle No 713, Katy TX","chain_name":null,"distance":0},{"name":"Finish Line","code":null,"latitude":30.02023,"longitude":-90.2477,"address":"1401 W Esplanade Avenue, # 2102, Kenner LA","chain_name":null,"distance":0},{"name":"Finish Line","code":null,"latitude":34.014,"longitude":-84.5612,"address":"400 Ernest W Barrett Parkway, #693, Kennesaw GA","chain_name":null,"distance":0},{"name":"Finish Line","code":null,"latitude":41.2597,"longitude":-89.9156,"address":"1116 N Main Street, Kewanee IL","chain_name":null,"distance":0},{"name":"Finish Line","code":null,"latitude":31.09544,"longitude":-97.721,"address":"2100 S W S Young Drive, # 1480, Killeen TX","chain_name":null,"distance":0},{"name":"Finish Line","code":null,"latitude":40.08741,"longitude":-75.3876,"address":"439 Mall Boulevard, King Of Prussia PA","chain_name":null,"distance":0},{"name":"Finish Line","code":null,"latitude":36.55346,"longitude":-82.5751,"address":"871 W Center Street, Kingsport TN","chain_name":null,"distance":0},{"name":"Finish Line","code":null,"latitude":41.96936,"longitude":-73.9887,"address":"1300 Ulster Avenue, Kingston NY","chain_name":null,"distance":0},{"name":"Finish Line","code":null,"latitude":35.89991,"longitude":-84.1601,"address":"11365 Parkside Drive, Knoxville TN","chain_name":null,"distance":0},{"name":"Finish Line","code":null,"latitude":36.03609,"longitude":-83.8763,"address":"3001 Knoxville Center Drive, #1184, Knoxville TN","chain_name":null,"distance":0},{"name":"Finish Line","code":null,"latitude":35.92816,"longitude":-84.0374,"address":"7600 Kingston Pike, # 1476, Knoxville TN","chain_name":null,"distance":0},{"name":"Finish Line","code":null,"latitude":40.47445,"longitude":-86.1108,"address":"1146 17th Street, Kokomo IN","chain_name":null,"distance":0},{"name":"Finish Line","code":null,"latitude":43.8574,"longitude":-91.2599,"address":"1522 Bainbridge Street, La Crosse WI","chain_name":null,"distance":0},{"name":"Finish Line","code":null,"latitude":43.86653,"longitude":-91.2023,"address":"3800 State Road 16, # 107, La Crosse WI","chain_name":null,"distance":0},{"name":"Finish Line","code":null,"latitude":41.77593,"longitude":-87.874,"address":"6301 Joliet Road, La Grange IL","chain_name":null,"distance":0},{"name":"Finish Line","code":null,"latitude":40.44326,"longitude":-86.8676,"address":"2415 Sagamore Parkway, Lafayette IN","chain_name":null,"distance":0},{"name":"Finish Line","code":null,"latitude":30.17446,"longitude":-92.078,"address":"5725 Johnston Street, Lafayette LA","chain_name":null,"distance":0},{"name":"Finish Line","code":null,"latitude":30.1976,"longitude":-93.2413,"address":"408 W Prien Lake Road, Lake Charles LA","chain_name":null,"distance":0},{"name":"Finish Line","code":null,"latitude":40.8646,"longitude":-73.1287,"address":"313 Smith Haven Mall, Lake Grove NY","chain_name":null,"distance":0},{"name":"Finish Line","code":null,"latitude":28.09174,"longitude":-81.974,"address":"3800 US Highway 98 North, Lakeland FL","chain_name":null,"distance":0},{"name":"Finish Line","code":null,"latitude":39.73537,"longitude":-105.1589,"address":"14500 W Colfax Avenue, Lakewood CO","chain_name":null,"distance":0},{"name":"Finish Line","code":null,"latitude":42.09857,"longitude":-79.3051,"address":"318 E Fairmount Avenue, Lakewood NY","chain_name":null,"distance":0},{"name":"Finish Line","code":null,"latitude":33.85045,"longitude":-118.1423,"address":"53 Lakewood Center Mall, Lakewood CA","chain_name":null,"distance":0},{"name":"Finish Line","code":null,"latitude":39.73018,"longitude":-82.6273,"address":"1635 River Valley Circle South, # 5016, Lancaster OH","chain_name":null,"distance":0},{"name":"Finish Line","code":null,"latitude":40.0659,"longitude":-76.3402,"address":"546 Park City Centre, Lancaster PA","chain_name":null,"distance":0},{"name":"Finish Line","code":null,"latitude":42.74102,"longitude":-84.6279,"address":"5568 W Saginaw Highway, Lansing MI","chain_name":null,"distance":0},{"name":"Finish Line","code":null,"latitude":43.06734,"longitude":-83.343,"address":"Lapeer MI","chain_name":null,"distance":0},{"name":"Finish Line","code":null,"latitude":27.54907,"longitude":-99.5033,"address":"5300 San Dario Avenue, # 115, Laredo TX","chain_name":null,"distance":0},{"name":"Finish Line","code":null,"latitude":32.31242,"longitude":-106.7418,"address":"700 S Telshor Boulevard, # 1398, Las Cruces NM","chain_name":null,"distance":0},{"name":"Finish Line","code":null,"latitude":36.12529,"longitude":-115.1371,"address":"3528 S Maryland Parkway, Las Vegas NV","chain_name":null,"distance":0},{"name":"Finish Line","code":null,"latitude":36.17023,"longitude":-115.1996,"address":"4300 Meadows Lane, # 107, Las Vegas NV","chain_name":null,"distance":0},{"name":"Finish Line","code":null,"latitude":36.26919,"longitude":-115.2817,"address":"5960 Sierra Bonita Court, Las Vegas NV","chain_name":null,"distance":0},{"name":"Finish Line","code":null,"latitude":36.06897,"longitude":-115.1724,"address":"6611 Las Vegas Boulevard South, Las Vegas NV","chain_name":null,"distance":0},{"name":"Finish Line","code":null,"latitude":40.2912,"longitude":-74.6863,"address":"3320 Us Highway 1, # 104, Lawrence Township NJ","chain_name":null,"distance":0},{"name":"Finish Line","code":null,"latitude":34.60518,"longitude":-98.3905,"address":"200 SW Centre Avenue, # 116, Lawton OK","chain_name":null,"distance":0},{"name":"Finish Line","code":null,"latitude":42.97992,"longitude":-77.9554,"address":"7959 E Main Road, Le Roy NY","chain_name":null,"distance":0},{"name":"Finish Line","code":null,"latitude":38.91647,"longitude":-94.6461,"address":"5203 W 117th Street, Leawood KS","chain_name":null,"distance":0},{"name":"Finish Line","code":null,"latitude":37.98601,"longitude":-84.5261,"address":"3615 Nicholasville Road, Lexington KY","chain_name":null,"distance":0},{"name":"Finish Line","code":null,"latitude":40.76305,"longitude":-84.1497,"address":"2400 Elida Road, # 712, Lima OH","chain_name":null,"distance":0},{"name":"Finish Line","code":null,"latitude":40.8154,"longitude":-96.6323,"address":"166 Gateway Mall, Lincoln NE","chain_name":null,"distance":0},{"name":"Finish Line","code":null,"latitude":42.01183,"longitude":-87.712,"address":"3333 W Touhy Avenue, # C7, Lincolnwood IL","chain_name":null,"distance":0},{"name":"Finish Line","code":null,"latitude":33.69866,"longitude":-84.0888,"address":"2929 Turner Hill Road, # 1460, Lithonia GA","chain_name":null,"distance":0},{"name":"Finish Line","code":null,"latitude":34.75233,"longitude":-92.3431,"address":"6000 W Markham Street, # 1050, Little Rock AR","chain_name":null,"distance":0},{"name":"Finish Line","code":null,"latitude":39.60985,"longitude":-105.0959,"address":"8501 W Bowles Avenue, Littleton CO","chain_name":null,"distance":0},{"name":"Finish Line","code":null,"latitude":39.56065,"longitude":-104.8793,"address":"8505 Park Meadows Center Drive, Littleton CO","chain_name":null,"distance":0},{"name":"Finish Line","code":null,"latitude":40.776,"longitude":-74.3568,"address":"112 Eisenhower Parkway, # 1068, Livingston NJ","chain_name":null,"distance":0},{"name":"Finish Line","code":null,"latitude":42.3695,"longitude":-83.3207,"address":"28121 Plymouth Road, Livonia MI","chain_name":null,"distance":0},{"name":"Finish Line","code":null,"latitude":41.83983,"longitude":-88.0102,"address":"203 Yorktown Shopping Centre, Lombard IL","chain_name":null,"distance":0},{"name":"Finish Line","code":null,"latitude":32.53819,"longitude":-94.7544,"address":"3500 McCann Road, # M17A, Longview TX","chain_name":null,"distance":0},{"name":"Finish Line","code":null,"latitude":33.96203,"longitude":-118.3945,"address":"8406 Vicksburg Avenue, Los Angeles CA","chain_name":null,"distance":0},{"name":"Finish Line","code":null,"latitude":34.07606,"longitude":-118.3766,"address":"8500 Beverly Boulevard, Los Angeles CA","chain_name":null,"distance":0},{"name":"Finish Line","code":null,"latitude":36.15019,"longitude":-78.1972,"address":"6010 Nc 561 Highway, Louisburg NC","chain_name":null,"distance":0},{"name":"Finish Line","code":null,"latitude":38.13802,"longitude":-85.6736,"address":"4801 Outer Loop, # 256, Louisville KY","chain_name":null,"distance":0},{"name":"Finish Line","code":null,"latitude":38.25017,"longitude":-85.6235,"address":"5000 Shelbyville Road, # 1105, Louisville KY","chain_name":null,"distance":0},{"name":"Finish Line","code":null,"latitude":40.41062,"longitude":-104.9879,"address":"5897 Sky Pond Drive, UNIT K112, Loveland CO","chain_name":null,"distance":0},{"name":"Finish Line","code":null,"latitude":41.02402,"longitude":-80.5241,"address":"6735 Center Road, Lowellville OH","chain_name":null,"distance":0},{"name":"Finish Line","code":null,"latitude":33.53963,"longitude":-101.9223,"address":"6002 Slide Road, # 25, Lubbock TX","chain_name":null,"distance":0},{"name":"Finish Line","code":null,"latitude":47.83182,"longitude":-122.2737,"address":"3000 184th Street, Lynnwood WA","chain_name":null,"distance":0},{"name":"Finish Line","code":null,"latitude":32.81559,"longitude":-83.6906,"address":"3661 Eisenhower Parkway, Macon GA","chain_name":null,"distance":0},{"name":"Finish Line","code":null,"latitude":43.12238,"longitude":-89.3059,"address":"29 East Towne Mall, Madison WI","chain_name":null,"distance":0},{"name":"Finish Line","code":null,"latitude":43.05899,"longitude":-89.5086,"address":"70 West Towne Mall, Madison WI","chain_name":null,"distance":0},{"name":"Finish Line","code":null,"latitude":38.77501,"longitude":-77.503,"address":"8300 Sudley Road, Manassas VA","chain_name":null,"distance":0},{"name":"Finish Line","code":null,"latitude":42.95507,"longitude":-71.4357,"address":"1500 S Willow Street, # S159, Manchester NH","chain_name":null,"distance":0},{"name":"Finish Line","code":null,"latitude":41.80961,"longitude":-72.5476,"address":"194 Buckland Hills Drive, # 2, Manchester CT","chain_name":null,"distance":0},{"name":"Finish Line","code":null,"latitude":39.1641,"longitude":-96.6138,"address":"100 Manhattan Town Centre, # 515, Manhattan KS","chain_name":null,"distance":0},{"name":"Finish Line","code":null,"latitude":44.17043,"longitude":-93.9523,"address":"1850 Adams Street, # 414, Mankato MN","chain_name":null,"distance":0},{"name":"Finish Line","code":null,"latitude":40.80777,"longitude":-82.5901,"address":"2209 N Lexington Springmill Road, Mansfield OH","chain_name":null,"distance":0},{"name":"Finish Line","code":null,"latitude":45.09406,"longitude":-93.4386,"address":"12445 Elm Creek Boulevard North, Maple Grove MN","chain_name":null,"distance":0},{"name":"Finish Line","code":null,"latitude":40.57138,"longitude":-85.6759,"address":"1129 N Baldwin Avenue, # 27, Marion IN","chain_name":null,"distance":0},{"name":"Finish Line","code":null,"latitude":40.56124,"longitude":-83.1188,"address":"1509 Marion Waldo Road, Marion OH","chain_name":null,"distance":0},{"name":"Finish Line","code":null,"latitude":37.74504,"longitude":-88.9809,"address":"3000 W Deyoung, Marion IL","chain_name":null,"distance":0},{"name":"Finish Line","code":null,"latitude":42.35447,"longitude":-71.612,"address":"601 Donald Lynch Boulevard, # 4208, Marlborough MA","chain_name":null,"distance":0},{"name":"Finish Line","code":null,"latitude":39.45356,"longitude":-77.9881,"address":"800 Foxcroft Avenue, Martinsburg WV","chain_name":null,"distance":0},{"name":"Finish Line","code":null,"latitude":35.73778,"longitude":-83.993,"address":"197 Foothills Mall, Maryville TN","chain_name":null,"distance":0},{"name":"Finish Line","code":null,"latitude":40.35089,"longitude":-94.8728,"address":"620 N Main Street, Maryville MO","chain_name":null,"distance":0},{"name":"Finish Line","code":null,"latitude":43.1507,"longitude":-93.201,"address":"100 S Federal Avenue, # 310, Mason City IA","chain_name":null,"distance":0},{"name":"Finish Line","code":null,"latitude":41.50454,"longitude":-87.7243,"address":"113 Lincoln Mall Drive, Matteson IL","chain_name":null,"distance":0},{"name":"Finish Line","code":null,"latitude":38.91973,"longitude":-77.226,"address":"1961 Chain Bridge Road, # 29L, Mc Lean VA","chain_name":null,"distance":0},{"name":"Finish Line","code":null,"latitude":39.91425,"longitude":-75.4307,"address":"1067 W Baltimore Pike, # 208, Media PA","chain_name":null,"distance":0},{"name":"Finish Line","code":null,"latitude":28.24276,"longitude":-80.7261,"address":"2251 Town Center Avenue, # 117, Melbourne FL","chain_name":null,"distance":0},{"name":"Finish Line","code":null,"latitude":35.20122,"longitude":-89.792,"address":"2760 N Germantown Parkway, # 198, Memphis TN","chain_name":null,"distance":0},{"name":"Finish Line","code":null,"latitude":35.21754,"longitude":-89.9127,"address":"3384 Austin Peay Highway, Memphis TN","chain_name":null,"distance":0},{"name":"Finish Line","code":null,"latitude":35.11871,"longitude":-89.9128,"address":"4465 Poplar Avenue, # 1010, Memphis TN","chain_name":null,"distance":0},{"name":"Finish Line","code":null,"latitude":35.04611,"longitude":-89.8657,"address":"6068 Hickory Ridge Mall, Memphis TN","chain_name":null,"distance":0},{"name":"Finish Line","code":null,"latitude":41.66139,"longitude":-81.3596,"address":"7850 Mentor Avenue, # 940, Mentor OH","chain_name":null,"distance":0},{"name":"Finish Line","code":null,"latitude":41.55038,"longitude":-72.8036,"address":"470 Lewis Avenue, # 1008, Meriden CT","chain_name":null,"distance":0},{"name":"Finish Line","code":null,"latitude":32.3622,"longitude":-88.6674,"address":"1160 Bonita Lakes Circle, Meridian MS","chain_name":null,"distance":0},{"name":"Finish Line","code":null,"latitude":41.47044,"longitude":-87.3089,"address":"2273 Southlake Mall, Merrillville IN","chain_name":null,"distance":0},{"name":"Finish Line","code":null,"latitude":28.3581,"longitude":-80.692,"address":"120 N Plumosa Street, Merritt Island FL","chain_name":null,"distance":0},{"name":"Finish Line","code":null,"latitude":28.3571,"longitude":-80.6857,"address":"777 E Merritt Island Causeway, Merritt Island FL","chain_name":null,"distance":0},{"name":"Finish Line","code":null,"latitude":33.39301,"longitude":-111.8627,"address":"1445 W Southern Avenue, # 2204, Mesa AZ","chain_name":null,"distance":0},{"name":"Finish Line","code":null,"latitude":33.39389,"longitude":-111.69,"address":"6555 E Southern Avenue, Mesa AZ","chain_name":null,"distance":0},{"name":"Finish Line","code":null,"latitude":32.80852,"longitude":-96.6263,"address":"2062 Town East Mall, Mesquite TX","chain_name":null,"distance":0},{"name":"Finish Line","code":null,"latitude":25.76835,"longitude":-80.373,"address":"10900 W Flagler Street, Miami FL","chain_name":null,"distance":0},{"name":"Finish Line","code":null,"latitude":25.78277,"longitude":-80.3784,"address":"11401 NW 12th Street, # 280, Miami FL","chain_name":null,"distance":0},{"name":"Finish Line","code":null,"latitude":25.57632,"longitude":-80.3716,"address":"20505 S Dixie Highway, # 1775, Miami FL","chain_name":null,"distance":0},{"name":"Finish Line","code":null,"latitude":25.68878,"longitude":-80.3113,"address":"7211 N Kendall Drive, # 3090, Miami FL","chain_name":null,"distance":0},{"name":"Finish Line","code":null,"latitude":25.77704,"longitude":-80.3159,"address":"7400 NW 7th Street, Miami FL","chain_name":null,"distance":0},{"name":"Finish Line","code":null,"latitude":41.69581,"longitude":-86.8939,"address":"4031 Franklin, Michigan City IN","chain_name":null,"distance":0},{"name":"Finish Line","code":null,"latitude":41.4535,"longitude":-74.3648,"address":"1 Galleria Drive, Middletown NY","chain_name":null,"distance":0},{"name":"Finish Line","code":null,"latitude":40.20218,"longitude":-76.7188,"address":"1067 W Baltimore Pike, Middletown PA","chain_name":null,"distance":0},{"name":"Finish Line","code":null,"latitude":32.03178,"longitude":-102.1287,"address":"4511 N Midkiff Road, # B8, Midland TX","chain_name":null,"distance":0},{"name":"Finish Line","code":null,"latitude":43.65934,"longitude":-84.2472,"address":"6800 Eastman Avenue, # 552, Midland MI","chain_name":null,"distance":0},{"name":"Finish Line","code":null,"latitude":41.23677,"longitude":-73.0384,"address":"1201 Boston Post Road, # 1038, Milford CT","chain_name":null,"distance":0},{"name":"Finish Line","code":null,"latitude":37.41618,"longitude":-121.8945,"address":"402 Great Mall Drive, Milpitas CA","chain_name":null,"distance":0},{"name":"Finish Line","code":null,"latitude":43.0646,"longitude":-88.0476,"address":"2500 N Mayfair Road, # 604, Milwaukee WI","chain_name":null,"distance":0},{"name":"Finish Line","code":null,"latitude":44.8541,"longitude":-93.2404,"address":"242 East Broadway, Minneapolis MN","chain_name":null,"distance":0},{"name":"Finish Line","code":null,"latitude":41.71943,"longitude":-86.1877,"address":"6501 Grape Road, # 326, Mishawaka IN","chain_name":null,"distance":0},{"name":"Finish Line","code":null,"latitude":46.84393,"longitude":-114.0251,"address":"2901 Brooks Street, # H3, Missoula MT","chain_name":null,"distance":0},{"name":"Finish Line","code":null,"latitude":30.67017,"longitude":-88.1224,"address":"3477 Bel Air Mall, Mobile AL","chain_name":null,"distance":0},{"name":"Finish Line","code":null,"latitude":41.46879,"longitude":-90.507,"address":"4500 16th Street, # 171, Moline IL","chain_name":null,"distance":0},{"name":"Finish Line","code":null,"latitude":41.94523,"longitude":-83.3846,"address":"2121 N Monroe Street, # 560, Monroe MI","chain_name":null,"distance":0},{"name":"Finish Line","code":null,"latitude":32.50053,"longitude":-92.0632,"address":"4700 Millhaven Road, # 1126, Monroe LA","chain_name":null,"distance":0},{"name":"Finish Line","code":null,"latitude":40.43337,"longitude":-79.7826,"address":"145 Wyngate Drive, Monroeville PA","chain_name":null,"distance":0},{"name":"Finish Line","code":null,"latitude":40.43098,"longitude":-79.7948,"address":"Monroeville Mall, Monroeville PA","chain_name":null,"distance":0},{"name":"Finish Line","code":null,"latitude":34.14284,"longitude":-118.0074,"address":"851 S Alta Vista Avenue, Monrovia CA","chain_name":null,"distance":0},{"name":"Finish Line","code":null,"latitude":34.08843,"longitude":-117.6938,"address":"5062 E Montclair Plaza Lane, Montclair CA","chain_name":null,"distance":0},{"name":"Finish Line","code":null,"latitude":34.0364,"longitude":-118.0807,"address":"1819 Montebello Town Center Drive, Montebello CA","chain_name":null,"distance":0},{"name":"Finish Line","code":null,"latitude":32.38751,"longitude":-86.2076,"address":"1012 Eastdale Mall, Montgomery AL","chain_name":null,"distance":0},{"name":"Finish Line","code":null,"latitude":41.36322,"longitude":-75.6772,"address":"2541 Shoppes Boulevard, Moosic PA","chain_name":null,"distance":0},{"name":"Finish Line","code":null,"latitude":39.64528,"longitude":-80.0983,"address":"3308 Mitthoeffer Road, Morgantown WV","chain_name":null,"distance":0},{"name":"Finish Line","code":null,"latitude":39.62855,"longitude":-79.9959,"address":"9317 Mall Road, Morgantown WV","chain_name":null,"distance":0},{"name":"Finish Line","code":null,"latitude":40.80571,"longitude":-74.4554,"address":"71 East Hanover Avenue, Morristown NJ","chain_name":null,"distance":0},{"name":"Finish Line","code":null,"latitude":33.57441,"longitude":-84.3554,"address":"1000 Southlake Mall, Morrow GA","chain_name":null,"distance":0},{"name":"Finish Line","code":null,"latitude":37.8468,"longitude":-81.1963,"address":"2 Crossroads Mall # E-13, Mount Hope WV","chain_name":null,"distance":0},{"name":"Finish Line","code":null,"latitude":40.22092,"longitude":-85.373,"address":"3501 N Granville Avenue, # 4M, Muncie IN","chain_name":null,"distance":0},{"name":"Finish Line","code":null,"latitude":41.23982,"longitude":-76.8292,"address":"300 Lycoming Mall Circle, Suite 185, Muncy PA","chain_name":null,"distance":0},{"name":"Finish Line","code":null,"latitude":35.84639,"longitude":-86.417,"address":"1720 Old Fort Parkway, # F100, Murfreesboro TN","chain_name":null,"distance":0},{"name":"Finish Line","code":null,"latitude":43.15013,"longitude":-86.2058,"address":"5600 Harvey Street, Muskegon MI","chain_name":null,"distance":0},{"name":"Finish Line","code":null,"latitude":33.7749,"longitude":-78.797,"address":"10177 N Kings Highway, Myrtle Beach SC","chain_name":null,"distance":0},{"name":"Finish Line","code":null,"latitude":33.6996,"longitude":-78.9261,"address":"2242 Coastal Grand Circle, Myrtle Beach SC","chain_name":null,"distance":0},{"name":"Finish Line","code":null,"latitude":26.16905,"longitude":-81.7993,"address":"1840 Tamiami Trail North, # L13, Naples FL","chain_name":null,"distance":0},{"name":"Finish Line","code":null,"latitude":42.70297,"longitude":-71.4409,"address":"310 Daniel Webster Highway, Nashua NH","chain_name":null,"distance":0},{"name":"Finish Line","code":null,"latitude":36.20512,"longitude":-86.696,"address":"411 Opry Mills Drive, Nashville TN","chain_name":null,"distance":0},{"name":"Finish Line","code":null,"latitude":32.65557,"longitude":-117.0678,"address":"3030 Plaza Bonita Road, National City CA","chain_name":null,"distance":0},{"name":"Finish Line","code":null,"latitude":40.48025,"longitude":-81.4382,"address":"400 Mill Avenue Southeast, New Philadelphia OH","chain_name":null,"distance":0},{"name":"Finish Line","code":null,"latitude":37.5251,"longitude":-121.9974,"address":"2086 Newpark Mall, Newark CA","chain_name":null,"distance":0},{"name":"Finish Line","code":null,"latitude":37.11255,"longitude":-76.4994,"address":"12300 Jefferson Avenue, # 942, Newport News VA","chain_name":null,"distance":0},{"name":"Finish Line","code":null,"latitude":42.05041,"longitude":-87.8397,"address":"239 Golf Mill Centre, # B325, Niles IL","chain_name":null,"distance":0},{"name":"Finish Line","code":null,"latitude":41.21053,"longitude":-80.7511,"address":"5555 Youngstown Warren Road, #667, Niles OH","chain_name":null,"distance":0},{"name":"Finish Line","code":null,"latitude":39.99378,"longitude":-85.9316,"address":"13971 Town Center Boulevard, # 300, Noblesville IN","chain_name":null,"distance":0},{"name":"Finish Line","code":null,"latitude":36.84952,"longitude":-76.2896,"address":"300 Monticello Avenue, # 235, Norfolk VA","chain_name":null,"distance":0},{"name":"Finish Line","code":null,"latitude":36.85392,"longitude":-76.2102,"address":"880 N Military Highway, # 1031, Norfolk VA","chain_name":null,"distance":0},{"name":"Finish Line","code":null,"latitude":35.21847,"longitude":-97.4931,"address":"3461 W Main Street, Norman OK","chain_name":null,"distance":0},{"name":"Finish Line","code":null,"latitude":41.9797,"longitude":-71.3334,"address":"999 S Washington Street, # E255B, North Attleboro MA","chain_name":null,"distance":0},{"name":"Finish Line","code":null,"latitude":32.9424,"longitude":-80.0414,"address":"2150 Northwoods Boulevard, # C8, North Charleston SC","chain_name":null,"distance":0},{"name":"Finish Line","code":null,"latitude":41.64055,"longitude":-70.9912,"address":"200 N Dartmouth Mall, North Dartmouth MA","chain_name":null,"distance":0},{"name":"Finish Line","code":null,"latitude":34.79061,"longitude":-92.2279,"address":"3929 McCain Boulevard, # I4, North Little Rock AR","chain_name":null,"distance":0},{"name":"Finish Line","code":null,"latitude":41.41618,"longitude":-81.9094,"address":"4954 Great Northern Mall, North Olmsted OH","chain_name":null,"distance":0},{"name":"Finish Line","code":null,"latitude":43.20825,"longitude":-76.9201,"address":"Nittany Mall, North Rose PA","chain_name":null,"distance":0},{"name":"Finish Line","code":null,"latitude":40.23425,"longitude":-75.2418,"address":"127 Montgomery Mall, North Wales PA","chain_name":null,"distance":0},{"name":"Finish Line","code":null,"latitude":40.23909,"longitude":-75.2425,"address":"Montgomery Mall, North Wales PA","chain_name":null,"distance":0},{"name":"Finish Line","code":null,"latitude":34.24069,"longitude":-118.5536,"address":"9301 Tampa Avenue, # 34, Northridge CA","chain_name":null,"distance":0},{"name":"Finish Line","code":null,"latitude":39.39355,"longitude":-76.479,"address":"8200 Perry Hall Boulevard, Nottingham MD","chain_name":null,"distance":0},{"name":"Finish Line","code":null,"latitude":42.48974,"longitude":-83.4759,"address":"27552 Novi Road, Novi MI","chain_name":null,"distance":0},{"name":"Finish Line","code":null,"latitude":29.16036,"longitude":-82.1747,"address":"3100 SW College Road, # 198, Ocala FL","chain_name":null,"distance":0},{"name":"Finish Line","code":null,"latitude":28.55173,"longitude":-81.5146,"address":"9401 W Colonial Drive, # 204, Ocoee FL","chain_name":null,"distance":0},{"name":"Finish Line","code":null,"latitude":31.89182,"longitude":-102.3417,"address":"4101 E 42nd Street, # L049, Odessa TX","chain_name":null,"distance":0},{"name":"Finish Line","code":null,"latitude":45.83084,"longitude":-93.4258,"address":"309 N Hill Avenue, Ogilvie MN","chain_name":null,"distance":0},{"name":"Finish Line","code":null,"latitude":42.71112,"longitude":-84.3722,"address":"1982 W Grand River Avenue, # 573, Okemos MI","chain_name":null,"distance":0},{"name":"Finish Line","code":null,"latitude":35.52282,"longitude":-97.5448,"address":"1901 NW Expressway, # 2072, Oklahoma City OK","chain_name":null,"distance":0},{"name":"Finish Line","code":null,"latitude":35.51374,"longitude":-97.549,"address":"2200 W I 44 Service Road, Oklahoma City OK","chain_name":null,"distance":0},{"name":"Finish Line","code":null,"latitude":35.60978,"longitude":-97.5609,"address":"2501 W Memorial Road, # 100, Oklahoma City OK","chain_name":null,"distance":0},{"name":"Finish Line","code":null,"latitude":35.39831,"longitude":-97.4871,"address":"7000 Crossroads Boulevard, # 1012, Oklahoma City OK","chain_name":null,"distance":0},{"name":"Finish Line","code":null,"latitude":41.26447,"longitude":-96.067,"address":"10000 California Street, # 2232, Omaha NE","chain_name":null,"distance":0},{"name":"Finish Line","code":null,"latitude":41.26098,"longitude":-96.1849,"address":"17305 Davenport Street, Suite 115, Omaha NE","chain_name":null,"distance":0},{"name":"Finish Line","code":null,"latitude":41.22981,"longitude":-96.1384,"address":"3001 S 144th Street, # 1013, Omaha NE","chain_name":null,"distance":0},{"name":"Finish Line","code":null,"latitude":41.25966,"longitude":-96.0268,"address":"7400 Dodge Street, Omaha NE","chain_name":null,"distance":0},{"name":"Finish Line","code":null,"latitude":34.07447,"longitude":-117.5563,"address":"1 East Mills Circle, Ontario CA","chain_name":null,"distance":0},{"name":"Finish Line","code":null,"latitude":33.78329,"longitude":-117.8905,"address":"20 City Boulevard West, # 901, Orange CA","chain_name":null,"distance":0},{"name":"Finish Line","code":null,"latitude":30.18685,"longitude":-81.736,"address":"1910 Wells Road, # D10, Orange Park FL","chain_name":null,"distance":0},{"name":"Finish Line","code":null,"latitude":40.2734,"longitude":-111.6815,"address":"575 E University Parkway, # 86, Orem UT","chain_name":null,"distance":0},{"name":"Finish Line","code":null,"latitude":41.62171,"longitude":-87.8449,"address":"830 Orland Square Drive, Orland Park IL","chain_name":null,"distance":0},{"name":"Finish Line","code":null,"latitude":28.55345,"longitude":-81.3409,"address":"3201 E Colonial Drive, Orlando FL","chain_name":null,"distance":0},{"name":"Finish Line","code":null,"latitude":28.48939,"longitude":-81.4294,"address":"4200 Conroy Road, # 120, Orlando FL","chain_name":null,"distance":0},{"name":"Finish Line","code":null,"latitude":28.4498,"longitude":-81.4008,"address":"8001 S Orange Blossom Trail, #670, Orlando FL","chain_name":null,"distance":0},{"name":"Finish Line","code":null,"latitude":38.95648,"longitude":-94.7189,"address":"11633 W 95th Street, # 104, Overland Park KS","chain_name":null,"distance":0},{"name":"Finish Line","code":null,"latitude":39.40459,"longitude":-76.7871,"address":"10300 Mill Run Circle, Owings Mills MD","chain_name":null,"distance":0},{"name":"Finish Line","code":null,"latitude":37.07737,"longitude":-88.6841,"address":"5101 Hinkleville Road, # 190, Paducah KY","chain_name":null,"distance":0},{"name":"Finish Line","code":null,"latitude":34.60185,"longitude":-118.1523,"address":"1233 W Rancho Vista Boulevard, Palmdale CA","chain_name":null,"distance":0},{"name":"Finish Line","code":null,"latitude":37.44484,"longitude":-122.1543,"address":"Palo Alto CA","chain_name":null,"distance":0},{"name":"Finish Line","code":null,"latitude":35.53301,"longitude":-100.9594,"address":"408 S Cuyler Street, Pampa TX","chain_name":null,"distance":0},{"name":"Finish Line","code":null,"latitude":30.17601,"longitude":-85.6601,"address":"1511 Harrison Avenue, Panama City FL","chain_name":null,"distance":0},{"name":"Finish Line","code":null,"latitude":30.18675,"longitude":-85.65,"address":"2150 N Cove Boulevard, Panama City FL","chain_name":null,"distance":0},{"name":"Finish Line","code":null,"latitude":34.2234,"longitude":-118.4487,"address":"8443 Vn Nuys Boulevard, Panorama City CA","chain_name":null,"distance":0},{"name":"Finish Line","code":null,"latitude":41.13702,"longitude":-96.0293,"address":"7775 Olson Drive, # 111, Papillion NE","chain_name":null,"distance":0},{"name":"Finish Line","code":null,"latitude":33.14794,"longitude":-97.6878,"address":"600 Main Street, Paradise TX","chain_name":null,"distance":0},{"name":"Finish Line","code":null,"latitude":39.34752,"longitude":-81.5273,"address":"100 Grand Central Avenue, Parkersburg WV","chain_name":null,"distance":0},{"name":"Finish Line","code":null,"latitude":29.69087,"longitude":-95.1986,"address":"1101 Southmore Avenue, Pasadena TX","chain_name":null,"distance":0},{"name":"Finish Line","code":null,"latitude":42.53725,"longitude":-70.9661,"address":"210 Andover, Peabody MA","chain_name":null,"distance":0},{"name":"Finish Line","code":null,"latitude":29.55565,"longitude":-95.3949,"address":"11200 Broadway Street, # 1420, Pearland TX","chain_name":null,"distance":0},{"name":"Finish Line","code":null,"latitude":30.42583,"longitude":-87.1967,"address":"1616 E Strong Street, Pensacola FL","chain_name":null,"distance":0},{"name":"Finish Line","code":null,"latitude":30.52763,"longitude":-87.1964,"address":"3355 Copter Road, # 7, Pensacola FL","chain_name":null,"distance":0},{"name":"Finish Line","code":null,"latitude":30.47436,"longitude":-87.2116,"address":"5100 North 9th Avenue, Suite E515, Pensacola FL","chain_name":null,"distance":0},{"name":"Finish Line","code":null,"latitude":40.74013,"longitude":-89.6259,"address":"2200 W War Memorial Drive, # 131, Peoria IL","chain_name":null,"distance":0},{"name":"Finish Line","code":null,"latitude":39.4308,"longitude":-91.6724,"address":"302 E Main Street, Perry MO","chain_name":null,"distance":0},{"name":"Finish Line","code":null,"latitude":41.35373,"longitude":-89.1255,"address":"3940 State Route 251, # B11, Peru IL","chain_name":null,"distance":0},{"name":"Finish Line","code":null,"latitude":39.9511,"longitude":-75.1659,"address":"1519 Chestnut Street, Philadelphia PA","chain_name":null,"distance":0},{"name":"Finish Line","code":null,"latitude":39.9516,"longitude":-75.1698,"address":"1729 Chestnut Street, Philadelphia PA","chain_name":null,"distance":0},{"name":"Finish Line","code":null,"latitude":39.95132,"longitude":-75.1552,"address":"901 Market Street, # 31, Philadelphia PA","chain_name":null,"distance":0},{"name":"Finish Line","code":null,"latitude":40.68379,"longitude":-75.1498,"address":"1200 US Highway 22, # 211, Phillipsburg NJ","chain_name":null,"distance":0},{"name":"Finish Line","code":null,"latitude":33.64022,"longitude":-112.0962,"address":"1724 W Bell Road, Phoenix AZ","chain_name":null,"distance":0},{"name":"Finish Line","code":null,"latitude":33.59968,"longitude":-111.9832,"address":"4568 E Cactus, Phoenix AZ","chain_name":null,"distance":0},{"name":"Finish Line","code":null,"latitude":33.48014,"longitude":-112.2228,"address":"7611 W Thomas Road, Phoenix AZ","chain_name":null,"distance":0},{"name":"Finish Line","code":null,"latitude":33.57588,"longitude":-112.1247,"address":"9617 N Metro Parkway West, Phoenix AZ","chain_name":null,"distance":0},{"name":"Finish Line","code":null,"latitude":35.08287,"longitude":-80.8796,"address":"11025 Carolina Place Parkway, #B26, Pineville NC","chain_name":null,"distance":0},{"name":"Finish Line","code":null,"latitude":40.15105,"longitude":-84.2238,"address":"987 E Ash Street, Piqua OH","chain_name":null,"distance":0},{"name":"Finish Line","code":null,"latitude":40.45168,"longitude":-80.1576,"address":"100 Robinson Center Drive, Pittsburgh PA","chain_name":null,"distance":0},{"name":"Finish Line","code":null,"latitude":40.54626,"longitude":-80.0057,"address":"1000 Ross Park Mall Drive, Pittsburgh PA","chain_name":null,"distance":0},{"name":"Finish Line","code":null,"latitude":40.34164,"longitude":-80.053,"address":"233 S Hills Village, # 4415, Pittsburgh PA","chain_name":null,"distance":0},{"name":"Finish Line","code":null,"latitude":33.02768,"longitude":-96.8333,"address":"6121 W Park Boulevard, Plano TX","chain_name":null,"distance":0},{"name":"Finish Line","code":null,"latitude":33.01165,"longitude":-96.7086,"address":"811 Central Expressway, Plano TX","chain_name":null,"distance":0},{"name":"Finish Line","code":null,"latitude":37.6917,"longitude":-121.9232,"address":"1256 Stoneridge Mall, Pleasanton CA","chain_name":null,"distance":0},{"name":"Finish Line","code":null,"latitude":41.24819,"longitude":-75.9588,"address":"W Plymouth Meeting Mall, Plymouth PA","chain_name":null,"distance":0},{"name":"Finish Line","code":null,"latitude":26.23997,"longitude":-80.2525,"address":"9527 W Atlantic Boulevard, Pompano Beach FL","chain_name":null,"distance":0},{"name":"Finish Line","code":null,"latitude":36.7569,"longitude":-90.4347,"address":"2020 N Westwood Boulevard, Poplar Bluff MO","chain_name":null,"distance":0},{"name":"Finish Line","code":null,"latitude":29.95145,"longitude":-93.9891,"address":"3100 Highway 365, # 77, Port Arthur TX","chain_name":null,"distance":0},{"name":"Finish Line","code":null,"latitude":28.29382,"longitude":-82.7093,"address":"9409 US Highway 19, Port Richey FL","chain_name":null,"distance":0},{"name":"Finish Line","code":null,"latitude":42.22094,"longitude":-85.5894,"address":"6650 S Westnedge Avenue, # 204, Portage MI","chain_name":null,"distance":0},{"name":"Finish Line","code":null,"latitude":45.43581,"longitude":-122.5791,"address":"12000 SE 82nd Avenue, Portland OR","chain_name":null,"distance":0},{"name":"Finish Line","code":null,"latitude":45.5336,"longitude":-122.6506,"address":"2201 Lloyd Centre, Portland OR","chain_name":null,"distance":0},{"name":"Finish Line","code":null,"latitude":37.34415,"longitude":-122.205,"address":"25 Joaquin Road, Portola Valley CA","chain_name":null,"distance":0},{"name":"Finish Line","code":null,"latitude":41.62701,"longitude":-73.917,"address":"2001 South Road, Poughkeepsie NY","chain_name":null,"distance":0},{"name":"Finish Line","code":null,"latitude":41.63,"longitude":-73.9158,"address":"790 South Road, Poughkeepsie NY","chain_name":null,"distance":0},{"name":"Finish Line","code":null,"latitude":41.82601,"longitude":-71.4154,"address":"14 Providence Place, Providence RI","chain_name":null,"distance":0},{"name":"Finish Line","code":null,"latitude":38.3064,"longitude":-104.6069,"address":"3429 Dillon Drive, Pueblo CO","chain_name":null,"distance":0},{"name":"Finish Line","code":null,"latitude":39.93595,"longitude":-91.365,"address":"423 N 32nd Street, Quincy IL","chain_name":null,"distance":0},{"name":"Finish Line","code":null,"latitude":42.69735,"longitude":-87.8473,"address":"5614 Durand Avenue, Racine WI","chain_name":null,"distance":0},{"name":"Finish Line","code":null,"latitude":35.79693,"longitude":-78.5833,"address":"3533 Maitland Drive, Raleigh NC","chain_name":null,"distance":0},{"name":"Finish Line","code":null,"latitude":35.86666,"longitude":-78.5714,"address":"5959 Triangle Town Boulevard, Raleigh NC","chain_name":null,"distance":0},{"name":"Finish Line","code":null,"latitude":34.11209,"longitude":-117.5315,"address":"12540 North Mainstreet, Rancho Cucamonga CA","chain_name":null,"distance":0},{"name":"Finish Line","code":null,"latitude":40.33832,"longitude":-75.9729,"address":"1665 State Hill Road, # 320, Reading PA","chain_name":null,"distance":0},{"name":"Finish Line","code":null,"latitude":39.47315,"longitude":-119.7861,"address":"5117 Meadowood Mall Circle, Reno NV","chain_name":null,"distance":0},{"name":"Finish Line","code":null,"latitude":39.92724,"longitude":-82.8273,"address":"6420 Tussing Road, Reynoldsburg OH","chain_name":null,"distance":0},{"name":"Finish Line","code":null,"latitude":37.5055,"longitude":-77.6093,"address":"11500 Midlothian Turnpike, Richmond VA","chain_name":null,"distance":0},{"name":"Finish Line","code":null,"latitude":37.65432,"longitude":-77.6233,"address":"11800 W Broad Street, Richmond VA","chain_name":null,"distance":0},{"name":"Finish Line","code":null,"latitude":37.98321,"longitude":-122.3278,"address":"2200 Hilltop Mall Road, Richmond CA","chain_name":null,"distance":0},{"name":"Finish Line","code":null,"latitude":39.86101,"longitude":-84.8857,"address":"3801 National Road, Richmond IN","chain_name":null,"distance":0},{"name":"Finish Line","code":null,"latitude":32.39953,"longitude":-90.1314,"address":"1200 E County Line Road, # 255, Ridgeland MS","chain_name":null,"distance":0},{"name":"Finish Line","code":null,"latitude":33.9058,"longitude":-117.4564,"address":"1146 Galleria At Tyler, Riverside CA","chain_name":null,"distance":0},{"name":"Finish Line","code":null,"latitude":41.85028,"longitude":-87.81,"address":"7501 W Cermak Road, # K9, Riverside IL","chain_name":null,"distance":0},{"name":"Finish Line","code":null,"latitude":37.30321,"longitude":-79.9587,"address":"4802 Valley View Boulevard, Roanoke VA","chain_name":null,"distance":0},{"name":"Finish Line","code":null,"latitude":40.40279,"longitude":-79.1257,"address":"100 Robinson Centre Drive, Robinson PA","chain_name":null,"distance":0},{"name":"Finish Line","code":null,"latitude":43.08465,"longitude":-77.6379,"address":"210 Miracle Mile Drive, # D15, Rochester NY","chain_name":null,"distance":0},{"name":"Finish Line","code":null,"latitude":43.20665,"longitude":-77.694,"address":"271 Greece Ridge Center Drive, Rochester NY","chain_name":null,"distance":0},{"name":"Finish Line","code":null,"latitude":43.17637,"longitude":-77.536,"address":"285 Irondequoit Boulevard, Rochester NY","chain_name":null,"distance":0},{"name":"Finish Line","code":null,"latitude":34.94104,"longitude":-80.9638,"address":"2301 Dave Lyle Boulevard, # 119, Rock Hill SC","chain_name":null,"distance":0},{"name":"Finish Line","code":null,"latitude":42.24118,"longitude":-88.9754,"address":"7200 Harrison, Rockford IL","chain_name":null,"distance":0},{"name":"Finish Line","code":null,"latitude":35.97234,"longitude":-77.8056,"address":"1100 N Wesleyan Boulevard, # 4014, Rocky Mount NC","chain_name":null,"distance":0},{"name":"Finish Line","code":null,"latitude":34.30193,"longitude":-85.1761,"address":"2770 Martha Berry Highway Northeast, Rome GA","chain_name":null,"distance":0},{"name":"Finish Line","code":null,"latitude":38.77213,"longitude":-121.2658,"address":"1151 Galleria Boulevard, # 209, Roseville CA","chain_name":null,"distance":0},{"name":"Finish Line","code":null,"latitude":38.38203,"longitude":-84.6055,"address":"Porter Road, Sadieville KY","chain_name":null,"distance":0},{"name":"Finish Line","code":null,"latitude":43.47827,"longitude":-83.9707,"address":"4886 Fashion Square Mall, Saginaw MI","chain_name":null,"distance":0},{"name":"Finish Line","code":null,"latitude":38.7315,"longitude":-90.3993,"address":"237 Northwest Plaza, Saint Ann MO","chain_name":null,"distance":0},{"name":"Finish Line","code":null,"latitude":40.0653,"longitude":-80.8683,"address":"67800 Mall Ring Road, # 730, Saint Clairsville OH","chain_name":null,"distance":0},{"name":"Finish Line","code":null,"latitude":38.60304,"longitude":-90.4471,"address":"129 W County Centre, Saint Louis MO","chain_name":null,"distance":0},{"name":"Finish Line","code":null,"latitude":38.5548,"longitude":-90.3924,"address":"164 Crestwood Plaza, Saint Louis MO","chain_name":null,"distance":0},{"name":"Finish Line","code":null,"latitude":38.5039,"longitude":-90.3318,"address":"67 S County Center Way, Saint Louis MO","chain_name":null,"distance":0},{"name":"Finish Line","code":null,"latitude":38.7971,"longitude":-90.6203,"address":"1600 Mid Rivers Mall, Saint Peters MO","chain_name":null,"distance":0},{"name":"Finish Line","code":null,"latitude":27.7918,"longitude":-82.7349,"address":"6901 22nd Avenue North, Saint Petersburg FL","chain_name":null,"distance":0},{"name":"Finish Line","code":null,"latitude":42.76625,"longitude":-71.2276,"address":"1 Mall Road, Salem NH","chain_name":null,"distance":0},{"name":"Finish Line","code":null,"latitude":38.80296,"longitude":-97.6126,"address":"2259 S 9th Street, # 7181, Salina KS","chain_name":null,"distance":0},{"name":"Finish Line","code":null,"latitude":36.71687,"longitude":-121.6557,"address":"416 Northridge Shopping Centre, Salinas CA","chain_name":null,"distance":0},{"name":"Finish Line","code":null,"latitude":38.392,"longitude":-75.5752,"address":"2300 N Salisbury Boulevard, Salisbury MD","chain_name":null,"distance":0},{"name":"Finish Line","code":null,"latitude":40.63652,"longitude":-111.8892,"address":"6191 S State Street, # 318, Salt Lake City UT","chain_name":null,"distance":0},{"name":"Finish Line","code":null,"latitude":31.42836,"longitude":-100.4954,"address":"4001 Sunset Drive, San Angelo TX","chain_name":null,"distance":0},{"name":"Finish Line","code":null,"latitude":29.58921,"longitude":-98.6195,"address":"15900 La Cantera Parkway, # 7710, San Antonio TX","chain_name":null,"distance":0},{"name":"Finish Line","code":null,"latitude":29.35664,"longitude":-98.531,"address":"2310 SW Military Drive, # 520, San Antonio TX","chain_name":null,"distance":0},{"name":"Finish Line","code":null,"latitude":29.46649,"longitude":-98.6192,"address":"6301 NW Loop 410, # G4, San Antonio TX","chain_name":null,"distance":0},{"name":"Finish Line","code":null,"latitude":29.595,"longitude":-98.3533,"address":"6909 N Loop 1604 East, # 2019, San Antonio TX","chain_name":null,"distance":0},{"name":"Finish Line","code":null,"latitude":29.42299,"longitude":-98.4845,"address":"849 E Commerce Street, San Antonio TX","chain_name":null,"distance":0},{"name":"Finish Line","code":null,"latitude":37.63539,"longitude":-122.4204,"address":"1150 El Camino Real, # 158, San Bruno CA","chain_name":null,"distance":0},{"name":"Finish Line","code":null,"latitude":37.3265,"longitude":-121.81,"address":"1 Eastridge Center, San Jose CA","chain_name":null,"distance":0},{"name":"Finish Line","code":null,"latitude":37.32336,"longitude":-121.9445,"address":"2855 Stevens Creek Boulevard, San Jose CA","chain_name":null,"distance":0},{"name":"Finish Line","code":null,"latitude":37.25049,"longitude":-121.8634,"address":"925-A Blossom Hill Road, San Jose CA","chain_name":null,"distance":0},{"name":"Finish Line","code":null,"latitude":41.41642,"longitude":-82.6723,"address":"4314 Milan Road, # 240, Sandusky OH","chain_name":null,"distance":0},{"name":"Finish Line","code":null,"latitude":28.80501,"longitude":-81.3402,"address":"207 Towne Center Circle, Sanford FL","chain_name":null,"distance":0},{"name":"Finish Line","code":null,"latitude":33.77658,"longitude":-117.8674,"address":"2800 N Main, Santa Ana CA","chain_name":null,"distance":0},{"name":"Finish Line","code":null,"latitude":37.32335,"longitude":-121.9458,"address":"2855 Stevens Creek Boulevard, # 2175, Santa Clara CA","chain_name":null,"distance":0},{"name":"Finish Line","code":null,"latitude":34.41321,"longitude":-118.5573,"address":"24201 W Valencia Boulevard, Santa Clarita CA","chain_name":null,"distance":0},{"name":"Finish Line","code":null,"latitude":27.2385,"longitude":-82.4969,"address":"8201 S Tamiami Trail, Sarasota FL","chain_name":null,"distance":0},{"name":"Finish Line","code":null,"latitude":43.10507,"longitude":-73.7411,"address":"3065 Route 50, Saratoga Springs NY","chain_name":null,"distance":0},{"name":"Finish Line","code":null,"latitude":42.4599,"longitude":-71.0283,"address":"1277 Broadway, Saugus MA","chain_name":null,"distance":0},{"name":"Finish Line","code":null,"latitude":31.98184,"longitude":-81.1727,"address":"14045 Abercorn Street, # 1118, Savannah GA","chain_name":null,"distance":0},{"name":"Finish Line","code":null,"latitude":32.00476,"longitude":-81.1176,"address":"7804 Abercorn Street, Suite 153, Savannah GA","chain_name":null,"distance":0},{"name":"Finish Line","code":null,"latitude":42.04942,"longitude":-88.0376,"address":"5 Woodfield Mall, # 327, Schaumburg IL","chain_name":null,"distance":0},{"name":"Finish Line","code":null,"latitude":42.8103,"longitude":-73.9898,"address":"93 W Campbell Road, Schenectady NY","chain_name":null,"distance":0},{"name":"Finish Line","code":null,"latitude":41.45981,"longitude":-75.6567,"address":"Viewmont Mall, Scranton PA","chain_name":null,"distance":0},{"name":"Finish Line","code":null,"latitude":47.70858,"longitude":-122.3217,"address":"555 Northgate Mall, Seattle WA","chain_name":null,"distance":0},{"name":"Finish Line","code":null,"latitude":40.82543,"longitude":-76.8455,"address":"Susquehanna Valley Mall, Selinsgrove PA","chain_name":null,"distance":0},{"name":"Finish Line","code":null,"latitude":42.09231,"longitude":-91.8713,"address":"100 Sells Street, Shellsburg IA","chain_name":null,"distance":0},{"name":"Finish Line","code":null,"latitude":42.09232,"longitude":-91.8713,"address":"100 SW Sells Street, Shellsburg IA","chain_name":null,"distance":0},{"name":"Finish Line","code":null,"latitude":33.6673,"longitude":-96.5948,"address":"4800 Texoma Parkway, Sherman TX","chain_name":null,"distance":0},{"name":"Finish Line","code":null,"latitude":38.6084,"longitude":-121.006,"address":"5731 Venture Valley Road, Shingle Springs CA","chain_name":null,"distance":0},{"name":"Finish Line","code":null,"latitude":31.52845,"longitude":-110.2583,"address":"2200 El Mercado Loop, # 1146, Sierra Vista AZ","chain_name":null,"distance":0},{"name":"Finish Line","code":null,"latitude":39.04,"longitude":-77.0554,"address":"11160 Veirs Mill Road, Silver Spring MD","chain_name":null,"distance":0},{"name":"Finish Line","code":null,"latitude":42.44814,"longitude":-96.3502,"address":"4400 Sergeant Road, # 110, Sioux City IA","chain_name":null,"distance":0},{"name":"Finish Line","code":null,"latitude":43.51294,"longitude":-96.777,"address":"970 W Empire Mall, Sioux Falls SD","chain_name":null,"distance":0},{"name":"Finish Line","code":null,"latitude":42.05543,"longitude":-87.749,"address":"34 Old Orchard Road, # E34, Skokie IL","chain_name":null,"distance":0},{"name":"Finish Line","code":null,"latitude":39.84468,"longitude":-75.0187,"address":"10 N White Horse Pike, Somerdale NJ","chain_name":null,"distance":0},{"name":"Finish Line","code":null,"latitude":34.95472,"longitude":-89.9965,"address":"6550 Towne Center Loop, Southaven MS","chain_name":null,"distance":0},{"name":"Finish Line","code":null,"latitude":42.45029,"longitude":-83.2087,"address":"21500 Northwestern Highway, # 610, Southfield MI","chain_name":null,"distance":0},{"name":"Finish Line","code":null,"latitude":30.66883,"longitude":-87.852,"address":"30500 State Highway 181, # 718, Spanish Fort AL","chain_name":null,"distance":0},{"name":"Finish Line","code":null,"latitude":39.5313,"longitude":-119.7693,"address":"375 S 19th Street, Sparks NV","chain_name":null,"distance":0},{"name":"Finish Line","code":null,"latitude":34.94003,"longitude":-81.9913,"address":"205 W Blackstock Road, # 70, Spartanburg SC","chain_name":null,"distance":0},{"name":"Finish Line","code":null,"latitude":47.70156,"longitude":-117.4111,"address":"4750 N Division Street, # 185, Spokane WA","chain_name":null,"distance":0},{"name":"Finish Line","code":null,"latitude":30.16742,"longitude":-95.4537,"address":"1201 Lake Woodlands Drive, # 1186, Spring TX","chain_name":null,"distance":0},{"name":"Finish Line","code":null,"latitude":39.91341,"longitude":-75.3519,"address":"1250 Baltimore Pke, Springfield PA","chain_name":null,"distance":0},{"name":"Finish Line","code":null,"latitude":39.94765,"longitude":-83.8519,"address":"1475 Upper Valley Pike, # 246, Springfield OH","chain_name":null,"distance":0},{"name":"Finish Line","code":null,"latitude":39.76411,"longitude":-89.7045,"address":"2501 Wabash Avenue, # 105, Springfield IL","chain_name":null,"distance":0},{"name":"Finish Line","code":null,"latitude":37.16323,"longitude":-93.2627,"address":"2825 S Glenstone Avenue, # 217, Springfield MO","chain_name":null,"distance":0},{"name":"Finish Line","code":null,"latitude":38.77488,"longitude":-77.1715,"address":"Springfield Mall, Springfield VA","chain_name":null,"distance":0},{"name":"Finish Line","code":null,"latitude":45.55346,"longitude":-94.2092,"address":"4101 West Division Street, UNIT 9B, St Cloud MN","chain_name":null,"distance":0},{"name":"Finish Line","code":null,"latitude":41.05354,"longitude":-73.536,"address":"100 Greyrock Place, # 108, Stamford CT","chain_name":null,"distance":0},{"name":"Finish Line","code":null,"latitude":40.8273,"longitude":-77.8075,"address":"2901 E College Avenue, # 810, State College PA","chain_name":null,"distance":0},{"name":"Finish Line","code":null,"latitude":40.5814,"longitude":-74.169,"address":"2655 Richmond Avenue, Staten Island NY","chain_name":null,"distance":0},{"name":"Finish Line","code":null,"latitude":37.58153,"longitude":-81.3294,"address":"1840 9th Street North, Stephenson FL","chain_name":null,"distance":0},{"name":"Finish Line","code":null,"latitude":39.03272,"longitude":-77.4202,"address":"21100 Dulles Town Circle, # 217, Sterling VA","chain_name":null,"distance":0},{"name":"Finish Line","code":null,"latitude":41.80586,"longitude":-89.662,"address":"2900 E Lincolnway, # 17, Sterling IL","chain_name":null,"distance":0},{"name":"Finish Line","code":null,"latitude":42.62544,"longitude":-82.9861,"address":"14000 Lakeside Circle, Sterling Heights MI","chain_name":null,"distance":0},{"name":"Finish Line","code":null,"latitude":37.9943,"longitude":-121.3137,"address":"4950 Pacific Avenue, Stockton CA","chain_name":null,"distance":0},{"name":"Finish Line","code":null,"latitude":41.31134,"longitude":-81.8202,"address":"310 Southpark Center, Strongsville OH","chain_name":null,"distance":0},{"name":"Finish Line","code":null,"latitude":40.99683,"longitude":-75.2544,"address":"Route 611, Stroudsburg PA","chain_name":null,"distance":0},{"name":"Finish Line","code":null,"latitude":27.15988,"longitude":-80.2136,"address":"3711 SE Dixie Highway, Stuart FL","chain_name":null,"distance":0},{"name":"Finish Line","code":null,"latitude":29.62131,"longitude":-95.601,"address":"13895 Southwest Freeway, Sugar Land TX","chain_name":null,"distance":0},{"name":"Finish Line","code":null,"latitude":29.59483,"longitude":-95.6255,"address":"16535 Southwest Freeway, # 150, Sugar Land TX","chain_name":null,"distance":0},{"name":"Finish Line","code":null,"latitude":37.40964,"longitude":-121.9919,"address":"1288 Forgewood Avenue, Sunnyvale CA","chain_name":null,"distance":0},{"name":"Finish Line","code":null,"latitude":41.7589,"longitude":-71.2205,"address":"262 Swansea Mall Drive, Swansea MA","chain_name":null,"distance":0},{"name":"Finish Line","code":null,"latitude":43.06879,"longitude":-76.1721,"address":"9090 Carousel Centre, # A004, Syracuse NY","chain_name":null,"distance":0},{"name":"Finish Line","code":null,"latitude":43.03849,"longitude":-76.0657,"address":"Shoppingtown Mall, Syracuse NY","chain_name":null,"distance":0},{"name":"Finish Line","code":null,"latitude":30.43349,"longitude":-84.2526,"address":"1500 Apalachee Parkway, # 2025, Tallahassee FL","chain_name":null,"distance":0},{"name":"Finish Line","code":null,"latitude":30.47294,"longitude":-84.2925,"address":"2415 N Monroe Street, # 310, Tallahassee FL","chain_name":null,"distance":0},{"name":"Finish Line","code":null,"latitude":28.05846,"longitude":-82.4356,"address":"12250 University Mall Court, Tampa FL","chain_name":null,"distance":0},{"name":"Finish Line","code":null,"latitude":27.9507,"longitude":-82.5241,"address":"250 Westshore Plaza, Tampa FL","chain_name":null,"distance":0},{"name":"Finish Line","code":null,"latitude":28.06689,"longitude":-82.5765,"address":"8139 Ctrs Park Tn Centre Mall, Tampa FL","chain_name":null,"distance":0},{"name":"Finish Line","code":null,"latitude":40.62368,"longitude":-79.798,"address":"Galleria At Pittsburgh Mills, Tarentum PA","chain_name":null,"distance":0},{"name":"Finish Line","code":null,"latitude":41.86748,"longitude":-71.0507,"address":"2 Galleria Mall Drive, # 169, Taunton MA","chain_name":null,"distance":0},{"name":"Finish Line","code":null,"latitude":42.19783,"longitude":-83.2567,"address":"23000 Eureka Road, Suite C11, Taylor MI","chain_name":null,"distance":0},{"name":"Finish Line","code":null,"latitude":33.42933,"longitude":-111.9004,"address":"2000 E Rio Salado Parkway, Tempe AZ","chain_name":null,"distance":0},{"name":"Finish Line","code":null,"latitude":33.38485,"longitude":-111.9669,"address":"5000 S Arizona Mills Circle, Tempe AZ","chain_name":null,"distance":0},{"name":"Finish Line","code":null,"latitude":38.82631,"longitude":-76.9429,"address":"4426 Beech, Temple Hills MD","chain_name":null,"distance":0},{"name":"Finish Line","code":null,"latitude":39.42689,"longitude":-87.4158,"address":"3401 S US Highway 41, Terre Haute IN","chain_name":null,"distance":0},{"name":"Finish Line","code":null,"latitude":33.45737,"longitude":-94.0877,"address":"2400 Richmond Road, # 27, Texarkana TX","chain_name":null,"distance":0},{"name":"Finish Line","code":null,"latitude":29.40191,"longitude":-95.0202,"address":"10000 Emmett F Lwry Expressway, Texas City TX","chain_name":null,"distance":0},{"name":"Finish Line","code":null,"latitude":41.69791,"longitude":-83.6413,"address":"5001 Monroe Street, # 1370, Toledo OH","chain_name":null,"distance":0},{"name":"Finish Line","code":null,"latitude":39.0339,"longitude":-95.762,"address":"1801 SW Wanamaker Road, # F10, Topeka KS","chain_name":null,"distance":0},{"name":"Finish Line","code":null,"latitude":39.40467,"longitude":-76.6014,"address":"825 Dulaney Valley Road, Towson MD","chain_name":null,"distance":0},{"name":"Finish Line","code":null,"latitude":37.76048,"longitude":-121.4623,"address":"3200 N Naglee Road, Tracy CA","chain_name":null,"distance":0},{"name":"Finish Line","code":null,"latitude":44.72288,"longitude":-85.6371,"address":"3200 S Airport Road West, # 222, Traverse City MI","chain_name":null,"distance":0},{"name":"Finish Line","code":null,"latitude":42.56143,"longitude":-83.1838,"address":"2800 W Big Beaver Road # X-369, Troy MI","chain_name":null,"distance":0},{"name":"Finish Line","code":null,"latitude":41.23008,"longitude":-73.2198,"address":"5065 Main Street, # E110, Trumbull CT","chain_name":null,"distance":0},{"name":"Finish Line","code":null,"latitude":32.28856,"longitude":-110.9781,"address":"4500 N Oracle Road, Tucson AZ","chain_name":null,"distance":0},{"name":"Finish Line","code":null,"latitude":32.22151,"longitude":-110.8671,"address":"5870 E Broadway Boulevard, Tucson AZ","chain_name":null,"distance":0},{"name":"Finish Line","code":null,"latitude":47.46065,"longitude":-122.2573,"address":"1017 Southcenter Mall, Tukwila WA","chain_name":null,"distance":0},{"name":"Finish Line","code":null,"latitude":36.0035,"longitude":-95.8864,"address":"11063 S Memorial Drive, # D, Tulsa OK","chain_name":null,"distance":0},{"name":"Finish Line","code":null,"latitude":36.1042,"longitude":-95.9222,"address":"4107 S Yale Avenue, # 228, Tulsa OK","chain_name":null,"distance":0},{"name":"Finish Line","code":null,"latitude":34.31556,"longitude":-88.7033,"address":"1001 Barnes Crossing Road, # 184, Tupelo MS","chain_name":null,"distance":0},{"name":"Finish Line","code":null,"latitude":33.69845,"longitude":-117.8273,"address":"2441 Park Avenue, Tustin CA","chain_name":null,"distance":0},{"name":"Finish Line","code":null,"latitude":42.59197,"longitude":-114.4552,"address":"1485 Poleline Road East, Twin Falls ID","chain_name":null,"distance":0},{"name":"Finish Line","code":null,"latitude":32.2999,"longitude":-95.3006,"address":"4601 S Broadway Avenue, # H09, Tyler TX","chain_name":null,"distance":0},{"name":"Finish Line","code":null,"latitude":33.57109,"longitude":-84.5317,"address":"1000 Shannon Mall, Union City GA","chain_name":null,"distance":0},{"name":"Finish Line","code":null,"latitude":39.89641,"longitude":-79.7583,"address":"W Uniontown Mall, Uniontown PA","chain_name":null,"distance":0},{"name":"Finish Line","code":null,"latitude":40.66117,"longitude":-73.7149,"address":"Green Acres Mall, Valley Stream NY","chain_name":null,"distance":0},{"name":"Finish Line","code":null,"latitude":34.26708,"longitude":-119.2501,"address":"3301 E Main, Ventura CA","chain_name":null,"distance":0},{"name":"Finish Line","code":null,"latitude":42.24116,"longitude":-87.9475,"address":"801 Hawthorn Centre, Vernon Hills IL","chain_name":null,"distance":0},{"name":"Finish Line","code":null,"latitude":28.86572,"longitude":-96.9972,"address":"7800 N Navarro Street, # 233, Victoria TX","chain_name":null,"distance":0},{"name":"Finish Line","code":null,"latitude":39.43085,"longitude":-75.0402,"address":"3849 S Delsea Drive, # C8, Vineland NJ","chain_name":null,"distance":0},{"name":"Finish Line","code":null,"latitude":36.8414,"longitude":-76.0629,"address":"701 Lynnhaven Parkway, Virginia Beach VA","chain_name":null,"distance":0},{"name":"Finish Line","code":null,"latitude":39.84803,"longitude":-75.0034,"address":"201 Laurel Road, Voorhees NJ","chain_name":null,"distance":0},{"name":"Finish Line","code":null,"latitude":31.51389,"longitude":-97.1874,"address":"6001 W Waco Drive, # 111, Waco TX","chain_name":null,"distance":0},{"name":"Finish Line","code":null,"latitude":38.61959,"longitude":-76.9257,"address":"11110 Mall Circle, # D, Waldorf MD","chain_name":null,"distance":0},{"name":"Finish Line","code":null,"latitude":40.16391,"longitude":-80.2753,"address":"1500 W Chestnut Street, # 410, Washington PA","chain_name":null,"distance":0},{"name":"Finish Line","code":null,"latitude":41.54811,"longitude":-73.0269,"address":"495 Union Street, # 1142, Waterbury CT","chain_name":null,"distance":0},{"name":"Finish Line","code":null,"latitude":41.37478,"longitude":-72.141,"address":"850 Hartford Turnpike, # R213, Waterford CT","chain_name":null,"distance":0},{"name":"Finish Line","code":null,"latitude":42.46533,"longitude":-92.3212,"address":"2060 Crossroads Boulevard, # 140, Waterloo IA","chain_name":null,"distance":0},{"name":"Finish Line","code":null,"latitude":40.89069,"longitude":-74.261,"address":"2175 Willowbrook Mall, Wayne NJ","chain_name":null,"distance":0},{"name":"Finish Line","code":null,"latitude":42.4717,"longitude":-93.8416,"address":"1639 James Street, Webster City IA","chain_name":null,"distance":0},{"name":"Finish Line","code":null,"latitude":28.18828,"longitude":-82.35,"address":"28210 Paseo Drive, Wesley Chapel FL","chain_name":null,"distance":0},{"name":"Finish Line","code":null,"latitude":34.06993,"longitude":-117.9279,"address":"370 Plaza Drive, West Covina CA","chain_name":null,"distance":0},{"name":"Finish Line","code":null,"latitude":41.56849,"longitude":-93.8091,"address":"101 Jordan Creek Parkway, # 12230, West Des Moines IA","chain_name":null,"distance":0},{"name":"Finish Line","code":null,"latitude":40.32551,"longitude":-79.929,"address":"Century Iii Mall, West Mifflin PA","chain_name":null,"distance":0},{"name":"Finish Line","code":null,"latitude":41.09631,"longitude":-73.9603,"address":"2330 Palisades Center Drive, West Nyack NY","chain_name":null,"distance":0},{"name":"Finish Line","code":null,"latitude":26.65115,"longitude":-80.2072,"address":"10300 W Forest Hill Boulevard, # 171, West Palm Beach FL","chain_name":null,"distance":0},{"name":"Finish Line","code":null,"latitude":33.74948,"longitude":-118.0142,"address":"1025 Westminster Mall, Westminster CA","chain_name":null,"distance":0},{"name":"Finish Line","code":null,"latitude":39.973,"longitude":-104.9924,"address":"14647 Delaware Street, Westminster CO","chain_name":null,"distance":0},{"name":"Finish Line","code":null,"latitude":40.07047,"longitude":-79.4605,"address":"2334 Oakland Avenue, White PA","chain_name":null,"distance":0},{"name":"Finish Line","code":null,"latitude":41.03198,"longitude":-73.7719,"address":"100 Main, White Plains NY","chain_name":null,"distance":0},{"name":"Finish Line","code":null,"latitude":37.67367,"longitude":-97.3954,"address":"4600 W Kellogg Drive, # 362, Wichita KS","chain_name":null,"distance":0},{"name":"Finish Line","code":null,"latitude":37.6795,"longitude":-97.2475,"address":"7700 E Kellogg Drive, # 537, Wichita KS","chain_name":null,"distance":0},{"name":"Finish Line","code":null,"latitude":33.87046,"longitude":-98.5327,"address":"3111 Midwestern Parkway, # 306, Wichita Falls TX","chain_name":null,"distance":0},{"name":"Finish Line","code":null,"latitude":41.248,"longitude":-75.8418,"address":"29 Wyoming Valley Mall, Wilkes Barre PA","chain_name":null,"distance":0},{"name":"Finish Line","code":null,"latitude":40.14343,"longitude":-75.1205,"address":"2500 W Moreland Road, # 1013, Willow Grove PA","chain_name":null,"distance":0},{"name":"Finish Line","code":null,"latitude":34.21652,"longitude":-77.9052,"address":"3500 Oleander Drive, # 1021, Wilmington NC","chain_name":null,"distance":0},{"name":"Finish Line","code":null,"latitude":39.1635,"longitude":-78.1632,"address":"1850 Apple Blossom Drive, Winchester VA","chain_name":null,"distance":0},{"name":"Finish Line","code":null,"latitude":39.31288,"longitude":-76.7503,"address":"6901 Security Boulevard, # 115, Windsor Mill MD","chain_name":null,"distance":0},{"name":"Finish Line","code":null,"latitude":33.90763,"longitude":-87.8075,"address":"16285 Highway 171 North, Winfield AL","chain_name":null,"distance":0},{"name":"Finish Line","code":null,"latitude":32.8646,"longitude":-95.3605,"address":"4786 N State Highway 37, Winnsboro TX","chain_name":null,"distance":0},{"name":"Finish Line","code":null,"latitude":36.0733,"longitude":-80.2981,"address":"3320 Silas Creek Parkway, # 3312, Winston Salem NC","chain_name":null,"distance":0},{"name":"Finish Line","code":null,"latitude":44.39168,"longitude":-89.8243,"address":"160 1st, Wisconsin Rapids WI","chain_name":null,"distance":0},{"name":"Finish Line","code":null,"latitude":38.64583,"longitude":-77.2987,"address":"2700 Potomac Mills Circle, Woodbridge VA","chain_name":null,"distance":0},{"name":"Finish Line","code":null,"latitude":46.56425,"longitude":-120.4808,"address":"2529 Main Street, Suite 173, Yakima WA","chain_name":null,"distance":0},{"name":"Finish Line","code":null,"latitude":40.9291,"longitude":-73.8521,"address":"5510 Xavier Drive, Yonkers NY","chain_name":null,"distance":0},{"name":"Finish Line","code":null,"latitude":40.93012,"longitude":-73.8567,"address":"800 Central Park Avenue, Yonkers NY","chain_name":null,"distance":0},{"name":"Finish Line","code":null,"latitude":39.97514,"longitude":-76.7693,"address":"1800 Loucks Road, York PA","chain_name":null,"distance":0},{"name":"Finish Line","code":null,"latitude":39.98777,"longitude":-76.6737,"address":"2801 Whiteford Road, York PA","chain_name":null,"distance":0},{"name":"Finish Line","code":null,"latitude":41.32642,"longitude":-73.8072,"address":"650 Lee Boulevard, Yorktown Heights NY","chain_name":null,"distance":0},{"name":"Finish Line","code":null,"latitude":41.02281,"longitude":-80.6626,"address":"7401 Market Street, # 731, Youngstown OH","chain_name":null,"distance":0},{"name":"Finish Line","code":null,"latitude":39.1418,"longitude":-121.6324,"address":"1215 Colusa Avenue, Yuba City CA","chain_name":null,"distance":0},{"name":"Finish Line","code":null,"latitude":39.98865,"longitude":-82.0229,"address":"3575 Maple Avenue, # 47, Zanesville OH","chain_name":null,"distance":0},{"name":"Finish Line","code":null,"latitude":39.94555,"longitude":-82.0202,"address":"414 State Street, Zanesville OH","chain_name":null,"distance":0},{"name":"Finish Line","code":null,"latitude":33.60717,"longitude":-86.6405,"address":"5024 Pinnacle Square, # 108, Birmingham AL","chain_name":null,"distance":0}]