[{"name":"Old Navy","code":null,"latitude":51.08491,"longitude":-114.15274,"address":"3625 Shaganappi Trail NW, CALGARY AB","chain_name":null,"distance":0},{"name":"Old Navy","code":null,"latitude":50.99667,"longitude":-114.07137,"address":"6455 Macleod Trail SW, CALGARY AB","chain_name":null,"distance":0},{"name":"Old Navy","code":null,"latitude":53.52591,"longitude":-113.61509,"address":"8882 170 St, EDMONTON AB","chain_name":null,"distance":0},{"name":"Old Navy","code":null,"latitude":53.46414,"longitude":-113.44196,"address":"1978 99Th St NW, EDMONTON AB","chain_name":null,"distance":0},{"name":"Old Navy","code":null,"latitude":33.45149,"longitude":-86.73015,"address":"309 Summit Blvd, BIRMINGHAM AL","chain_name":null,"distance":0},{"name":"Old Navy","code":null,"latitude":33.60155,"longitude":-86.6392,"address":"1620 Gadsden Hwy, BIRMINGHAM AL","chain_name":null,"distance":0},{"name":"Old Navy","code":null,"latitude":31.24534,"longitude":-85.42816,"address":"3500 Ross Clark Cir, DOTHAN AL","chain_name":null,"distance":0},{"name":"Old Navy","code":null,"latitude":34.83805,"longitude":-87.6333,"address":"356 Cox Creek Pkwy, FLORENCE AL","chain_name":null,"distance":0},{"name":"Old Navy","code":null,"latitude":33.44985,"longitude":-86.82509,"address":"146 Wildwood Pkwy, HOMEWOOD AL","chain_name":null,"distance":0},{"name":"Old Navy","code":null,"latitude":34.7406,"longitude":-86.6639,"address":"5900 University Dr NW, HUNTSVILLE AL","chain_name":null,"distance":0},{"name":"Old Navy","code":null,"latitude":30.67641,"longitude":-88.12079,"address":"3250 Airport Blvd, MOBILE AL","chain_name":null,"distance":0},{"name":"Old Navy","code":null,"latitude":32.32733,"longitude":-86.23712,"address":"3989 Eastern Blvd, MONTGOMERY AL","chain_name":null,"distance":0},{"name":"Old Navy","code":null,"latitude":33.18544,"longitude":-87.52631,"address":"2600 McFarland Blvd E, TUSCALOOSA AL","chain_name":null,"distance":0},{"name":"Old Navy","code":null,"latitude":36.12182,"longitude":-94.14971,"address":"3810 N Mall Ave, FAYETTEVILLE AR","chain_name":null,"distance":0},{"name":"Old Navy","code":null,"latitude":35.35185,"longitude":-94.3485,"address":"7607 Rogers Ave, FORT SMITH AR","chain_name":null,"distance":0},{"name":"Old Navy","code":null,"latitude":35.83093,"longitude":-90.67781,"address":"1231 S Caraway Rd, JONESBORO AR","chain_name":null,"distance":0},{"name":"Old Navy","code":null,"latitude":34.75437,"longitude":-92.41698,"address":"12801 Chenal Pkwy, LITTLE ROCK AR","chain_name":null,"distance":0},{"name":"Old Navy","code":null,"latitude":34.79168,"longitude":-92.22906,"address":"3929 McCain Blvd, NORTH LITTLE ROCK AR","chain_name":null,"distance":0},{"name":"Old Navy","code":null,"latitude":34.21171,"longitude":-91.96744,"address":"2901 Pines Mall Dr, PINE BLUFF AR","chain_name":null,"distance":0},{"name":"Old Navy","code":null,"latitude":36.34153,"longitude":-94.17892,"address":"559 N 46th St, ROGERS AR","chain_name":null,"distance":0},{"name":"Old Navy","code":null,"latitude":33.63801,"longitude":-112.21817,"address":"7375 W Bell Rd, PEORIA AZ","chain_name":null,"distance":0},{"name":"Old Navy","code":null,"latitude":33.50905,"longitude":-112.04015,"address":"1949 E Camelback Rd, PHOENIX AZ","chain_name":null,"distance":0},{"name":"Old Navy","code":null,"latitude":33.31959,"longitude":-111.98407,"address":"4609 E Ray Rd, PHOENIX AZ","chain_name":null,"distance":0},{"name":"Old Navy","code":null,"latitude":33.57302,"longitude":-112.12398,"address":"9617 N Metro Pkwy W, PHOENIX AZ","chain_name":null,"distance":0},{"name":"Old Navy","code":null,"latitude":33.59988,"longitude":-111.98346,"address":"4550 E Cactus Rd Ste 214, PHOENIX AZ","chain_name":null,"distance":0},{"name":"Old Navy","code":null,"latitude":33.67748,"longitude":-111.97715,"address":"21001 N Tatum Blvd, PHOENIX AZ","chain_name":null,"distance":0},{"name":"Old Navy","code":null,"latitude":33.63464,"longitude":-111.92518,"address":"16215 N Scottsdale Rd, SCOTTSDALE AZ","chain_name":null,"distance":0},{"name":"Old Navy","code":null,"latitude":33.37955,"longitude":-111.96535,"address":"5000 S Arizona Mills Cir, TEMPE AZ","chain_name":null,"distance":0},{"name":"Old Navy","code":null,"latitude":32.28826,"longitude":-110.97796,"address":"4500 N Oracle Rd, TUCSON AZ","chain_name":null,"distance":0},{"name":"Old Navy","code":null,"latitude":32.22134,"longitude":-110.86678,"address":"5870 E Broadway Blvd, TUCSON AZ","chain_name":null,"distance":0},{"name":"Old Navy","code":null,"latitude":49.22889,"longitude":-123.00089,"address":"4700 Kingsway, BURNABY BC","chain_name":null,"distance":0},{"name":"Old Navy","code":null,"latitude":49.27713,"longitude":-122.7997,"address":"2929 Barnet Hwy, COQUITLAM BC","chain_name":null,"distance":0},{"name":"Old Navy","code":null,"latitude":49.16568,"longitude":-123.13674,"address":"6551 Number 3 Road, RICHMOND BC","chain_name":null,"distance":0},{"name":"Old Navy","code":null,"latitude":49.19552,"longitude":-122.79875,"address":"2272 Guildford Town Ctr, SURREY BC","chain_name":null,"distance":0},{"name":"Old Navy","code":null,"latitude":34.136,"longitude":-118.05398,"address":"400 S Baldwin Ave, ARCADIA CA","chain_name":null,"distance":0},{"name":"Old Navy","code":null,"latitude":35.33925,"longitude":-119.03309,"address":"2701 Ming Ave, BAKERSFIELD CA","chain_name":null,"distance":0},{"name":"Old Navy","code":null,"latitude":33.91844,"longitude":-117.89909,"address":"180 S Brea Blvd, BREA CA","chain_name":null,"distance":0},{"name":"Old Navy","code":null,"latitude":33.86952,"longitude":-118.06009,"address":"12831 Towne Center Dr, CERRITOS CA","chain_name":null,"distance":0},{"name":"Old Navy","code":null,"latitude":39.72214,"longitude":-121.8013,"address":"2023 Forest Ave, CHICO CA","chain_name":null,"distance":0},{"name":"Old Navy","code":null,"latitude":34.00062,"longitude":-117.72159,"address":"3850 Grand Ave, CHINO CA","chain_name":null,"distance":0},{"name":"Old Navy","code":null,"latitude":38.67858,"longitude":-121.27124,"address":"7905 Greenback Ln, CITRUS HEIGHTS CA","chain_name":null,"distance":0},{"name":"Old Navy","code":null,"latitude":33.99482,"longitude":-117.93111,"address":"1600 S Azusa Ave, CITY OF INDUSTRY CA","chain_name":null,"distance":0},{"name":"Old Navy","code":null,"latitude":36.8087,"longitude":-119.70779,"address":"115 Shaw Ave, CLOVIS CA","chain_name":null,"distance":0},{"name":"Old Navy","code":null,"latitude":37.67694,"longitude":-122.46779,"address":"55 Colma Blvd, COLMA CA","chain_name":null,"distance":0},{"name":"Old Navy","code":null,"latitude":37.97066,"longitude":-122.05541,"address":"1975 Diamond Blvd, CONCORD CA","chain_name":null,"distance":0},{"name":"Old Navy","code":null,"latitude":33.69033,"longitude":-117.89213,"address":"901 S Coast Dr, COSTA MESA CA","chain_name":null,"distance":0},{"name":"Old Navy","code":null,"latitude":37.70598,"longitude":-121.88582,"address":"4962 Dublin Blvd, DUBLIN CA","chain_name":null,"distance":0},{"name":"Old Navy","code":null,"latitude":38.42547,"longitude":-121.39994,"address":"9155 W Stockton Blvd, ELK GROVE CA","chain_name":null,"distance":0},{"name":"Old Navy","code":null,"latitude":37.83658,"longitude":-122.29257,"address":"5625 Bay St, EMERYVILLE CA","chain_name":null,"distance":0},{"name":"Old Navy","code":null,"latitude":38.25835,"longitude":-122.05061,"address":"1350 Travis Blvd, FAIRFIELD CA","chain_name":null,"distance":0},{"name":"Old Navy","code":null,"latitude":38.65528,"longitude":-121.12445,"address":"2755 E Bidwell St, FOLSOM CA","chain_name":null,"distance":0},{"name":"Old Navy","code":null,"latitude":33.67898,"longitude":-117.66382,"address":"26742 Portola Pkwy, FOOTHILL RANCH CA","chain_name":null,"distance":0},{"name":"Old Navy","code":null,"latitude":36.84473,"longitude":-119.79029,"address":"7418 N Blackstone Ave, FRESNO CA","chain_name":null,"distance":0},{"name":"Old Navy","code":null,"latitude":33.87777,"longitude":-117.96485,"address":"1979 W Malvern Ave, FULLERTON CA","chain_name":null,"distance":0},{"name":"Old Navy","code":null,"latitude":34.14615,"longitude":-118.25475,"address":"106 S Brand Blvd, GLENDALE CA","chain_name":null,"distance":0},{"name":"Old Navy","code":null,"latitude":37.65141,"longitude":-122.10533,"address":"215 Southland Mall, HAYWARD CA","chain_name":null,"distance":0},{"name":"Old Navy","code":null,"latitude":33.69371,"longitude":-117.98985,"address":"18543 Main St, HUNTINGTON BEACH CA","chain_name":null,"distance":0},{"name":"Old Navy","code":null,"latitude":33.57002,"longitude":-117.71446,"address":"27130 Alicia Pkwy, LAGUNA NIGUEL CA","chain_name":null,"distance":0},{"name":"Old Navy","code":null,"latitude":33.83115,"longitude":-118.08949,"address":"7430 E Carson St, LONG BEACH CA","chain_name":null,"distance":0},{"name":"Old Navy","code":null,"latitude":34.07347,"longitude":-118.37603,"address":"8487 W 3rd St, LOS ANGELES CA","chain_name":null,"distance":0},{"name":"Old Navy","code":null,"latitude":33.90167,"longitude":-118.38148,"address":"1800 Rosecrans Ave, MANHATTAN BEACH CA","chain_name":null,"distance":0},{"name":"Old Navy","code":null,"latitude":37.41362,"longitude":-121.89862,"address":"1172 Great Mall Dr, MILPITAS CA","chain_name":null,"distance":0},{"name":"Old Navy","code":null,"latitude":33.56139,"longitude":-117.66941,"address":"555 The Shops At Mission Viejo, MISSION VIEJO CA","chain_name":null,"distance":0},{"name":"Old Navy","code":null,"latitude":32.65359,"longitude":-117.08941,"address":"3440 Highland Ave, NATIONAL CITY CA","chain_name":null,"distance":0},{"name":"Old Navy","code":null,"latitude":37.50405,"longitude":-121.96907,"address":"43540 Christy St, FREMONT CA","chain_name":null,"distance":0},{"name":"Old Navy","code":null,"latitude":34.38777,"longitude":-118.57235,"address":"25650 The Old Rd, VALENCIA CA","chain_name":null,"distance":0},{"name":"Old Navy","code":null,"latitude":34.23911,"longitude":-118.5537,"address":"9301 Tampa Ave, NORTHRIDGE CA","chain_name":null,"distance":0},{"name":"Old Navy","code":null,"latitude":38.08926,"longitude":-122.55481,"address":"228 Vintage Way, NOVATO CA","chain_name":null,"distance":0},{"name":"Old Navy","code":null,"latitude":34.07046,"longitude":-117.54704,"address":"1 Mills Cir, ONTARIO CA","chain_name":null,"distance":0},{"name":"Old Navy","code":null,"latitude":33.77978,"longitude":-117.89362,"address":"20 City Blvd W, ORANGE CA","chain_name":null,"distance":0},{"name":"Old Navy","code":null,"latitude":34.23314,"longitude":-119.17728,"address":"231 W Esplanade Dr, OXNARD CA","chain_name":null,"distance":0},{"name":"Old Navy","code":null,"latitude":34.60198,"longitude":-118.15302,"address":"1233 W Rancho Vista Blvd Ste 4, PALMDALE CA","chain_name":null,"distance":0},{"name":"Old Navy","code":null,"latitude":34.15023,"longitude":-118.08054,"address":"3369 E Foothill Blvd, PASADENA CA","chain_name":null,"distance":0},{"name":"Old Navy","code":null,"latitude":40.5866,"longitude":-122.35794,"address":"900 Dana Dr, REDDING CA","chain_name":null,"distance":0},{"name":"Old Navy","code":null,"latitude":37.48343,"longitude":-122.23113,"address":"1101 El Camino Real, REDWOOD CITY CA","chain_name":null,"distance":0},{"name":"Old Navy","code":null,"latitude":38.77405,"longitude":-121.26545,"address":"1244 Galleria Blvd, ROSEVILLE CA","chain_name":null,"distance":0},{"name":"Old Navy","code":null,"latitude":38.58802,"longitude":-121.41507,"address":"1250 Howe Ave, SACRAMENTO CA","chain_name":null,"distance":0},{"name":"Old Navy","code":null,"latitude":36.72094,"longitude":-121.65673,"address":"686 Northridge Shopping Ctr, SALINAS CA","chain_name":null,"distance":0},{"name":"Old Navy","code":null,"latitude":32.76943,"longitude":-117.16853,"address":"7007 Friars Rd, SAN DIEGO CA","chain_name":null,"distance":0},{"name":"Old Navy","code":null,"latitude":32.76573,"longitude":-117.15511,"address":"990 Camino Del Rio N, SAN DIEGO CA","chain_name":null,"distance":0},{"name":"Old Navy","code":null,"latitude":32.91454,"longitude":-117.12021,"address":"10655 Westview Pkwy, SAN DIEGO CA","chain_name":null,"distance":0},{"name":"Old Navy","code":null,"latitude":37.76588,"longitude":-122.40862,"address":"2300 16th St, SAN FRANCISCO CA","chain_name":null,"distance":0},{"name":"Old Navy","code":null,"latitude":37.78562,"longitude":-122.40574,"address":"801 Market St, SAN FRANCISCO CA","chain_name":null,"distance":0},{"name":"Old Navy","code":null,"latitude":37.29322,"longitude":-121.99071,"address":"1600 Saratoga Ave, SAN JOSE CA","chain_name":null,"distance":0},{"name":"Old Navy","code":null,"latitude":37.25059,"longitude":-121.86204,"address":"913 Blossom Hill Rd, SAN JOSE CA","chain_name":null,"distance":0},{"name":"Old Navy","code":null,"latitude":37.55595,"longitude":-122.27064,"address":"3000 Bridgepointe Pkwy, SAN MATEO CA","chain_name":null,"distance":0},{"name":"Old Navy","code":null,"latitude":37.53609,"longitude":-122.29852,"address":"21 W Hillsdale Blvd, SAN MATEO CA","chain_name":null,"distance":0},{"name":"Old Navy","code":null,"latitude":34.01779,"longitude":-118.49884,"address":"1232 3rd Street Promenade, SANTA MONICA CA","chain_name":null,"distance":0},{"name":"Old Navy","code":null,"latitude":38.418,"longitude":-122.71335,"address":"2070 Santa Rosa Ave, SANTA ROSA CA","chain_name":null,"distance":0},{"name":"Old Navy","code":null,"latitude":38.45596,"longitude":-122.73143,"address":"334 Coddingtown Ctr, SANTA ROSA CA","chain_name":null,"distance":0},{"name":"Old Navy","code":null,"latitude":32.83879,"longitude":-116.98021,"address":"9922 Mission Gorge Rd, SANTEE CA","chain_name":null,"distance":0},{"name":"Old Navy","code":null,"latitude":37.99578,"longitude":-121.31417,"address":"4950 Pacific Ave, STOCKTON CA","chain_name":null,"distance":0},{"name":"Old Navy","code":null,"latitude":33.5263,"longitude":-117.15759,"address":"40820 Winchester Rd, TEMECULA CA","chain_name":null,"distance":0},{"name":"Old Navy","code":null,"latitude":34.18058,"longitude":-118.87636,"address":"205 N Moorpark Rd Ste J, THOUSAND OAKS CA","chain_name":null,"distance":0},{"name":"Old Navy","code":null,"latitude":33.83126,"longitude":-118.35229,"address":"21450 Hawthorne Blvd, TORRANCE CA","chain_name":null,"distance":0},{"name":"Old Navy","code":null,"latitude":37.75964,"longitude":-121.46196,"address":"3200 Naglee Rd, TRACY CA","chain_name":null,"distance":0},{"name":"Old Navy","code":null,"latitude":33.72448,"longitude":-117.79407,"address":"2899 El Camino Real, TUSTIN CA","chain_name":null,"distance":0},{"name":"Old Navy","code":null,"latitude":38.36541,"longitude":-121.96164,"address":"1041 Helen Power Dr, VACAVILLE CA","chain_name":null,"distance":0},{"name":"Old Navy","code":null,"latitude":38.13164,"longitude":-122.21557,"address":"105 Plaza Dr, VALLEJO CA","chain_name":null,"distance":0},{"name":"Old Navy","code":null,"latitude":34.26638,"longitude":-119.24887,"address":"3301 E Main St, VENTURA CA","chain_name":null,"distance":0},{"name":"Old Navy","code":null,"latitude":36.31041,"longitude":-119.31409,"address":"2209 S Mooney Blvd, VISALIA CA","chain_name":null,"distance":0},{"name":"Old Navy","code":null,"latitude":33.17044,"longitude":-117.22047,"address":"1821 University Dr, VISTA CA","chain_name":null,"distance":0},{"name":"Old Navy","code":null,"latitude":34.07298,"longitude":-117.88534,"address":"2753 E Eastland Ctr Dr, WEST COVINA CA","chain_name":null,"distance":0},{"name":"Old Navy","code":null,"latitude":34.19277,"longitude":-118.62354,"address":"6737 Fallbrook Ave, WEST HILLS CA","chain_name":null,"distance":0},{"name":"Old Navy","code":null,"latitude":33.74971,"longitude":-118.01213,"address":"1025 Westminster Mall, WESTMINSTER CA","chain_name":null,"distance":0},{"name":"Old Navy","code":null,"latitude":33.96067,"longitude":-118.0351,"address":"8512 Painter Ave, WHITTIER CA","chain_name":null,"distance":0},{"name":"Old Navy","code":null,"latitude":39.71092,"longitude":-104.82294,"address":"14200 E Alameda Ave, AURORA CO","chain_name":null,"distance":0},{"name":"Old Navy","code":null,"latitude":39.59871,"longitude":-104.80399,"address":"6432 S Parker Rd, AURORA CO","chain_name":null,"distance":0},{"name":"Old Navy","code":null,"latitude":40.01923,"longitude":-105.25863,"address":"1801 28th St, BOULDER CO","chain_name":null,"distance":0},{"name":"Old Navy","code":null,"latitude":39.93006,"longitude":-105.13099,"address":"1 W Flatiron Cir, BROOMFIELD CO","chain_name":null,"distance":0},{"name":"Old Navy","code":null,"latitude":38.84342,"longitude":-104.759,"address":"750 Citadel Dr E, COLORADO SPRINGS CO","chain_name":null,"distance":0},{"name":"Old Navy","code":null,"latitude":38.94536,"longitude":-104.79553,"address":"1710 Briargate Blvd, COLORADO SPRINGS CO","chain_name":null,"distance":0},{"name":"Old Navy","code":null,"latitude":39.08623,"longitude":-108.59609,"address":"2464 Highway 6 And 50, GRAND JUNCTION CO","chain_name":null,"distance":0},{"name":"Old Navy","code":null,"latitude":39.60969,"longitude":-104.9598,"address":"5900 S University Blvd, GREENWOOD VILLAGE CO","chain_name":null,"distance":0},{"name":"Old Navy","code":null,"latitude":39.61879,"longitude":-105.09086,"address":"5392 S Wadsworth Blvd, LAKEWOOD CO","chain_name":null,"distance":0},{"name":"Old Navy","code":null,"latitude":39.73325,"longitude":-105.16226,"address":"14367 W Colfax Ave, LAKEWOOD CO","chain_name":null,"distance":0},{"name":"Old Navy","code":null,"latitude":39.70862,"longitude":-105.08178,"address":"439 S Wadsworth Blvd, LAKEWOOD CO","chain_name":null,"distance":0},{"name":"Old Navy","code":null,"latitude":39.56342,"longitude":-104.88271,"address":"8457 S Yosemite St, LONE TREE CO","chain_name":null,"distance":0},{"name":"Old Navy","code":null,"latitude":39.88543,"longitude":-104.99253,"address":"341 W 104th Ave, NORTHGLENN CO","chain_name":null,"distance":0},{"name":"Old Navy","code":null,"latitude":41.37946,"longitude":-73.47649,"address":"7 Backus Ave, DANBURY CT","chain_name":null,"distance":0},{"name":"Old Navy","code":null,"latitude":41.18216,"longitude":-73.2535,"address":"2215 Black Rock Tpke, FAIRFIELD CT","chain_name":null,"distance":0},{"name":"Old Navy","code":null,"latitude":41.71609,"longitude":-72.86209,"address":"1459 New Britain Ave, FARMINGTON CT","chain_name":null,"distance":0},{"name":"Old Navy","code":null,"latitude":41.37422,"longitude":-72.91585,"address":"2335 Dixwell Ave, HAMDEN CT","chain_name":null,"distance":0},{"name":"Old Navy","code":null,"latitude":41.58644,"longitude":-71.99255,"address":"160 River Rd, LISBON CT","chain_name":null,"distance":0},{"name":"Old Navy","code":null,"latitude":41.50836,"longitude":-72.80841,"address":"533 S Broad St, MERIDEN CT","chain_name":null,"distance":0},{"name":"Old Navy","code":null,"latitude":41.23761,"longitude":-73.03775,"address":"1212 Boston Post Rd, MILFORD CT","chain_name":null,"distance":0},{"name":"Old Navy","code":null,"latitude":41.0993,"longitude":-73.44262,"address":"500 Connecticut Ave, NORWALK CT","chain_name":null,"distance":0},{"name":"Old Navy","code":null,"latitude":41.67351,"longitude":-72.83748,"address":"286 New Britain Ave, PLAINVILLE CT","chain_name":null,"distance":0},{"name":"Old Navy","code":null,"latitude":41.06686,"longitude":-73.54538,"address":"2175 Summer St, STAMFORD CT","chain_name":null,"distance":0},{"name":"Old Navy","code":null,"latitude":41.23012,"longitude":-73.22007,"address":"5065 Main St, TRUMBULL CT","chain_name":null,"distance":0},{"name":"Old Navy","code":null,"latitude":41.55204,"longitude":-73.03184,"address":"495 Union St, WATERBURY CT","chain_name":null,"distance":0},{"name":"Old Navy","code":null,"latitude":41.3747,"longitude":-72.14113,"address":"850 Hartford Tpke, WATERFORD CT","chain_name":null,"distance":0},{"name":"Old Navy","code":null,"latitude":39.19201,"longitude":-75.54496,"address":"1356 N Dupont Hwy, DOVER DE","chain_name":null,"distance":0},{"name":"Old Navy","code":null,"latitude":39.83405,"longitude":-75.53421,"address":"3020 Brandywine Pkwy, WILMINGTON DE","chain_name":null,"distance":0},{"name":"Old Navy","code":null,"latitude":25.95342,"longitude":-80.14651,"address":"19225 Biscayne Blvd, AVENTURA FL","chain_name":null,"distance":0},{"name":"Old Navy","code":null,"latitude":26.36846,"longitude":-80.1372,"address":"6000 Glades Rd, BOCA RATON FL","chain_name":null,"distance":0},{"name":"Old Navy","code":null,"latitude":26.5298,"longitude":-80.09078,"address":"373 N Congress Ave, BOYNTON BEACH FL","chain_name":null,"distance":0},{"name":"Old Navy","code":null,"latitude":27.46704,"longitude":-82.56522,"address":"303 301 Blvd W, BRADENTON FL","chain_name":null,"distance":0},{"name":"Old Navy","code":null,"latitude":27.98825,"longitude":-82.72983,"address":"23672 US Highway 19 N, CLEARWATER FL","chain_name":null,"distance":0},{"name":"Old Navy","code":null,"latitude":26.23885,"longitude":-80.24786,"address":"9197 W Atlantic Blvd, CORAL SPRINGS FL","chain_name":null,"distance":0},{"name":"Old Navy","code":null,"latitude":26.09326,"longitude":-80.25102,"address":"2100 S University Dr, DAVIE FL","chain_name":null,"distance":0},{"name":"Old Navy","code":null,"latitude":29.17946,"longitude":-81.08076,"address":"2500 W International Speedway, DAYTONA BEACH FL","chain_name":null,"distance":0},{"name":"Old Navy","code":null,"latitude":30.38907,"longitude":-86.43196,"address":"4439 Commons Dr E, DESTIN FL","chain_name":null,"distance":0},{"name":"Old Navy","code":null,"latitude":26.16856,"longitude":-80.11758,"address":"3200 N Federal Hwy, FORT LAUDERDALE FL","chain_name":null,"distance":0},{"name":"Old Navy","code":null,"latitude":26.58966,"longitude":-81.87164,"address":"4901 S Cleveland Ave, FORT MYERS FL","chain_name":null,"distance":0},{"name":"Old Navy","code":null,"latitude":29.61919,"longitude":-82.38293,"address":"3942 SW Archer Rd, GAINESVILLE FL","chain_name":null,"distance":0},{"name":"Old Navy","code":null,"latitude":26.04573,"longitude":-80.1598,"address":"3801 Oakwood Blvd, HOLLYWOOD FL","chain_name":null,"distance":0},{"name":"Old Navy","code":null,"latitude":30.32181,"longitude":-81.55096,"address":"9501 Arlington Expy, JACKSONVILLE FL","chain_name":null,"distance":0},{"name":"Old Navy","code":null,"latitude":27.24267,"longitude":-80.27149,"address":"3174 NW Federal Hwy, JENSEN BEACH FL","chain_name":null,"distance":0},{"name":"Old Navy","code":null,"latitude":28.09099,"longitude":-81.97402,"address":"3800 US Highway 98 N, LAKELAND FL","chain_name":null,"distance":0},{"name":"Old Navy","code":null,"latitude":30.41627,"longitude":-86.65356,"address":"300 Mary Esther Blvd, MARY ESTHER FL","chain_name":null,"distance":0},{"name":"Old Navy","code":null,"latitude":25.68846,"longitude":-80.31172,"address":"7220 N Kendall Dr, MIAMI FL","chain_name":null,"distance":0},{"name":"Old Navy","code":null,"latitude":25.78666,"longitude":-80.36843,"address":"1455 NW 107th Ave, DORAL FL","chain_name":null,"distance":0},{"name":"Old Navy","code":null,"latitude":25.64368,"longitude":-80.33392,"address":"13605 S Dixie Hwy, MIAMI FL","chain_name":null,"distance":0},{"name":"Old Navy","code":null,"latitude":25.7829,"longitude":-80.3814,"address":"11531 NW 12th St, MIAMI FL","chain_name":null,"distance":0},{"name":"Old Navy","code":null,"latitude":25.68814,"longitude":-80.39378,"address":"8715 SW 124th Ave, MIAMI FL","chain_name":null,"distance":0},{"name":"Old Navy","code":null,"latitude":26.1701,"longitude":-81.79931,"address":"1910 Tamiami Trl N, NAPLES FL","chain_name":null,"distance":0},{"name":"Old Navy","code":null,"latitude":28.55197,"longitude":-81.51469,"address":"9401 W Colonial Dr, OCOEE FL","chain_name":null,"distance":0},{"name":"Old Navy","code":null,"latitude":30.18704,"longitude":-81.73257,"address":"1910 Wells Rd, ORANGE PARK FL","chain_name":null,"distance":0},{"name":"Old Navy","code":null,"latitude":28.44955,"longitude":-81.40076,"address":"8001 S Orange Blossom Trl, ORLANDO FL","chain_name":null,"distance":0},{"name":"Old Navy","code":null,"latitude":28.55308,"longitude":-81.35029,"address":"2566 E Colonial Dr, ORLANDO FL","chain_name":null,"distance":0},{"name":"Old Navy","code":null,"latitude":28.46714,"longitude":-81.4541,"address":"5498 Touchstone Dr, ORLANDO FL","chain_name":null,"distance":0},{"name":"Old Navy","code":null,"latitude":28.55232,"longitude":-81.20448,"address":"403 N Alafaya Trl, ORLANDO FL","chain_name":null,"distance":0},{"name":"Old Navy","code":null,"latitude":26.00752,"longitude":-80.30629,"address":"11830 Pines Blvd, PEMBROKE PINES FL","chain_name":null,"distance":0},{"name":"Old Navy","code":null,"latitude":30.47355,"longitude":-87.21183,"address":"5100 N 9th Ave, PENSACOLA FL","chain_name":null,"distance":0},{"name":"Old Navy","code":null,"latitude":27.01142,"longitude":-82.14351,"address":"1441 Tamiami Trl, PORT CHARLOTTE FL","chain_name":null,"distance":0},{"name":"Old Navy","code":null,"latitude":28.29396,"longitude":-82.70953,"address":"9409 US Highway 19, PORT RICHEY FL","chain_name":null,"distance":0},{"name":"Old Navy","code":null,"latitude":26.68561,"longitude":-80.20183,"address":"550 N State Road 7, ROYAL PALM BEACH FL","chain_name":null,"distance":0},{"name":"Old Navy","code":null,"latitude":27.25984,"longitude":-82.5217,"address":"6555 S Tamiami Trl, SARASOTA FL","chain_name":null,"distance":0},{"name":"Old Navy","code":null,"latitude":30.47235,"longitude":-84.29131,"address":"2415 N Monroe St, TALLAHASSEE FL","chain_name":null,"distance":0},{"name":"Old Navy","code":null,"latitude":30.43768,"longitude":-84.25081,"address":"1565 Governors Square Blvd, TALLAHASSEE FL","chain_name":null,"distance":0},{"name":"Old Navy","code":null,"latitude":28.05472,"longitude":-82.43821,"address":"2112 E Fowler Ave, TAMPA FL","chain_name":null,"distance":0},{"name":"Old Navy","code":null,"latitude":27.9459,"longitude":-82.52713,"address":"231 Westshore Plz, TAMPA FL","chain_name":null,"distance":0},{"name":"Old Navy","code":null,"latitude":26.7067,"longitude":-80.09022,"address":"2497 Okeechobee Blvd, WEST PALM BEACH FL","chain_name":null,"distance":0},{"name":"Old Navy","code":null,"latitude":31.61359,"longitude":-84.21566,"address":"2601 Dawson Rd, ALBANY GA","chain_name":null,"distance":0},{"name":"Old Navy","code":null,"latitude":34.04768,"longitude":-84.28831,"address":"6100 N Point Pkwy, ALPHARETTA GA","chain_name":null,"distance":0},{"name":"Old Navy","code":null,"latitude":33.93926,"longitude":-83.45766,"address":"3660 Atlanta Hwy, ATHENS GA","chain_name":null,"distance":0},{"name":"Old Navy","code":null,"latitude":33.84951,"longitude":-84.36252,"address":"1 Buckhead Loop NE, ATLANTA GA","chain_name":null,"distance":0},{"name":"Old Navy","code":null,"latitude":33.91927,"longitude":-84.34765,"address":"1161 Hammond Dr NE, ATLANTA GA","chain_name":null,"distance":0},{"name":"Old Navy","code":null,"latitude":33.87818,"longitude":-84.45684,"address":"3101 Cobb Pkwy, ATLANTA GA","chain_name":null,"distance":0},{"name":"Old Navy","code":null,"latitude":33.84846,"longitude":-84.25582,"address":"4800 Briarcliff Rd NE, ATLANTA GA","chain_name":null,"distance":0},{"name":"Old Navy","code":null,"latitude":33.49066,"longitude":-82.07956,"address":"219 Robert C Daniel Jr Pkwy, AUGUSTA GA","chain_name":null,"distance":0},{"name":"Old Navy","code":null,"latitude":33.85263,"longitude":-84.60423,"address":"4155 Austell Rd, AUSTELL GA","chain_name":null,"distance":0},{"name":"Old Navy","code":null,"latitude":34.07126,"longitude":-83.98407,"address":"3333 Buford Dr, BUFORD GA","chain_name":null,"distance":0},{"name":"Old Navy","code":null,"latitude":32.54186,"longitude":-84.94965,"address":"5555 Whittlesey Blvd, COLUMBUS GA","chain_name":null,"distance":0},{"name":"Old Navy","code":null,"latitude":33.64725,"longitude":-83.99389,"address":"1590 Dogwood Dr SE, CONYERS GA","chain_name":null,"distance":0},{"name":"Old Navy","code":null,"latitude":33.73041,"longitude":-84.7438,"address":"6588 Douglas Blvd, DOUGLASVILLE GA","chain_name":null,"distance":0},{"name":"Old Navy","code":null,"latitude":33.96192,"longitude":-84.13702,"address":"2255 Pleasant Hill Rd, DULUTH GA","chain_name":null,"distance":0},{"name":"Old Navy","code":null,"latitude":33.4801,"longitude":-84.43912,"address":"116 Pavilion Pkwy, FAYETTEVILLE GA","chain_name":null,"distance":0},{"name":"Old Navy","code":null,"latitude":34.00844,"longitude":-84.57051,"address":"680 Ernest W Barrett Pkwy NW, KENNESAW GA","chain_name":null,"distance":0},{"name":"Old Navy","code":null,"latitude":32.81569,"longitude":-83.6901,"address":"3661 Eisenhower Pkwy, MACON GA","chain_name":null,"distance":0},{"name":"Old Navy","code":null,"latitude":32.81837,"longitude":-83.71391,"address":"4653 Presidential Pkwy, MACON GA","chain_name":null,"distance":0},{"name":"Old Navy","code":null,"latitude":33.98027,"longitude":-84.42435,"address":"1291 Johnson Ferry Rd, MARIETTA GA","chain_name":null,"distance":0},{"name":"Old Navy","code":null,"latitude":33.56747,"longitude":-84.32892,"address":"1865 Mount Zion Rd Ste B, MORROW GA","chain_name":null,"distance":0},{"name":"Old Navy","code":null,"latitude":33.39641,"longitude":-84.75724,"address":"591 Bullsboro Dr, NEWNAN GA","chain_name":null,"distance":0},{"name":"Old Navy","code":null,"latitude":33.98178,"longitude":-84.21509,"address":"5135 Peachtree Pkwy, NORCROSS GA","chain_name":null,"distance":0},{"name":"Old Navy","code":null,"latitude":33.86731,"longitude":-84.01625,"address":"2059 Scenic Hwy N, SNELLVILLE GA","chain_name":null,"distance":0},{"name":"Old Navy","code":null,"latitude":33.82318,"longitude":-84.11156,"address":"5370 Stone Mountain Hwy Ste 78, STONE MOUNTAIN GA","chain_name":null,"distance":0},{"name":"Old Navy","code":null,"latitude":32.61843,"longitude":-83.66674,"address":"2620 Watson Blvd Ste A, WARNER ROBINS GA","chain_name":null,"distance":0},{"name":"Old Navy","code":null,"latitude":34.12752,"longitude":-84.57119,"address":"122 Woodstock Square Ave, WOODSTOCK GA","chain_name":null,"distance":0},{"name":"Old Navy","code":null,"latitude":42.02761,"longitude":-91.629,"address":"345 Collins Rd NE, CEDAR RAPIDS IA","chain_name":null,"distance":0},{"name":"Old Navy","code":null,"latitude":41.69104,"longitude":-91.60821,"address":"1451 Coral Ridge Ave, CORALVILLE IA","chain_name":null,"distance":0},{"name":"Old Navy","code":null,"latitude":41.24414,"longitude":-95.82692,"address":"1751 Madison Ave, COUNCIL BLUFFS IA","chain_name":null,"distance":0},{"name":"Old Navy","code":null,"latitude":41.5751,"longitude":-90.51557,"address":"4014 E 53rd St, DAVENPORT IA","chain_name":null,"distance":0},{"name":"Old Navy","code":null,"latitude":41.63141,"longitude":-93.69794,"address":"3800 Merle Hay Rd, DES MOINES IA","chain_name":null,"distance":0},{"name":"Old Navy","code":null,"latitude":42.52301,"longitude":-90.78862,"address":"2465 NW Arterial, DUBUQUE IA","chain_name":null,"distance":0},{"name":"Old Navy","code":null,"latitude":42.46468,"longitude":-92.32058,"address":"2060 Crossroads Blvd, WATERLOO IA","chain_name":null,"distance":0},{"name":"Old Navy","code":null,"latitude":43.60976,"longitude":-116.28452,"address":"526 N Milwaukee St, BOISE ID","chain_name":null,"distance":0},{"name":"Old Navy","code":null,"latitude":43.48201,"longitude":-111.98744,"address":"2300 E 17th St, IDAHO FALLS ID","chain_name":null,"distance":0},{"name":"Old Navy","code":null,"latitude":43.61933,"longitude":-116.34957,"address":"3401 E Fairview Ave, MERIDIAN ID","chain_name":null,"distance":0},{"name":"Old Navy","code":null,"latitude":42.59713,"longitude":-114.45531,"address":"2030 Bridgeview Blvd, TWIN FALLS ID","chain_name":null,"distance":0},{"name":"Old Navy","code":null,"latitude":41.93906,"longitude":-88.1098,"address":"346 W Army Trail Rd, BLOOMINGDALE IL","chain_name":null,"distance":0},{"name":"Old Navy","code":null,"latitude":40.48803,"longitude":-88.95546,"address":"1615 E Empire St, BLOOMINGTON IL","chain_name":null,"distance":0},{"name":"Old Navy","code":null,"latitude":37.73693,"longitude":-89.18326,"address":"1237 E Main St, CARBONDALE IL","chain_name":null,"distance":0},{"name":"Old Navy","code":null,"latitude":40.1426,"longitude":-88.25224,"address":"716 W Town Center Blvd, CHAMPAIGN IL","chain_name":null,"distance":0},{"name":"Old Navy","code":null,"latitude":41.91067,"longitude":-87.65416,"address":"1596 N Kingsbury St, CHICAGO IL","chain_name":null,"distance":0},{"name":"Old Navy","code":null,"latitude":41.75431,"longitude":-87.74126,"address":"7601 S Cicero Ave, CHICAGO IL","chain_name":null,"distance":0},{"name":"Old Navy","code":null,"latitude":41.92523,"longitude":-87.6725,"address":"1730 W Fullerton Ave, CHICAGO IL","chain_name":null,"distance":0},{"name":"Old Navy","code":null,"latitude":41.88245,"longitude":-87.62763,"address":"35 N State St, CHICAGO IL","chain_name":null,"distance":0},{"name":"Old Navy","code":null,"latitude":41.90936,"longitude":-87.7492,"address":"4905 W North Ave, CHICAGO IL","chain_name":null,"distance":0},{"name":"Old Navy","code":null,"latitude":41.70297,"longitude":-87.77981,"address":"238 Commons Dr, CHICAGO RIDGE IL","chain_name":null,"distance":0},{"name":"Old Navy","code":null,"latitude":41.95125,"longitude":-88.72688,"address":"2347 Sycamore Rd, DEKALB IL","chain_name":null,"distance":0},{"name":"Old Navy","code":null,"latitude":41.75137,"longitude":-88.01141,"address":"1150 75th St, DOWNERS GROVE IL","chain_name":null,"distance":0},{"name":"Old Navy","code":null,"latitude":38.58739,"longitude":-89.98503,"address":"6015 N Illinois St, FAIRVIEW HEIGHTS IL","chain_name":null,"distance":0},{"name":"Old Navy","code":null,"latitude":39.92089,"longitude":-88.95895,"address":"1165 Hickory Point Mall, FORSYTH IL","chain_name":null,"distance":0},{"name":"Old Navy","code":null,"latitude":41.87253,"longitude":-88.34058,"address":"1572 S Randall Rd, GENEVA IL","chain_name":null,"distance":0},{"name":"Old Navy","code":null,"latitude":42.38553,"longitude":-87.97142,"address":"6901 Grand Ave, GURNEE IL","chain_name":null,"distance":0},{"name":"Old Navy","code":null,"latitude":41.57469,"longitude":-88.15452,"address":"2711 Plainfield Rd, JOLIET IL","chain_name":null,"distance":0},{"name":"Old Navy","code":null,"latitude":42.01158,"longitude":-87.71225,"address":"3333 W Touhy Ave, LINCOLNWOOD IL","chain_name":null,"distance":0},{"name":"Old Navy","code":null,"latitude":41.50453,"longitude":-87.72873,"address":"253 Lincoln Mall Dr, MATTESON IL","chain_name":null,"distance":0},{"name":"Old Navy","code":null,"latitude":42.04086,"longitude":-87.80677,"address":"7220A Dempster St, MORTON GROVE IL","chain_name":null,"distance":0},{"name":"Old Navy","code":null,"latitude":42.11158,"longitude":-87.97858,"address":"330 E Rand Rd, ARLINGTON HEIGHTS IL","chain_name":null,"distance":0},{"name":"Old Navy","code":null,"latitude":41.76692,"longitude":-88.20552,"address":"220 S State Route 59, NAPERVILLE IL","chain_name":null,"distance":0},{"name":"Old Navy","code":null,"latitude":41.9569,"longitude":-87.80694,"address":"4131 N Harlem Ave, NORRIDGE IL","chain_name":null,"distance":0},{"name":"Old Navy","code":null,"latitude":41.84997,"longitude":-87.80997,"address":"7501 W Cermak Rd, NORTH RIVERSIDE IL","chain_name":null,"distance":0},{"name":"Old Navy","code":null,"latitude":41.84611,"longitude":-87.97046,"address":"2155 W 22nd St, OAK BROOK IL","chain_name":null,"distance":0},{"name":"Old Navy","code":null,"latitude":41.88776,"longitude":-87.80467,"address":"417 N Harlem Ave, OAK PARK IL","chain_name":null,"distance":0},{"name":"Old Navy","code":null,"latitude":41.61404,"longitude":-87.85183,"address":"120 Orland Park Pl, ORLAND PARK IL","chain_name":null,"distance":0},{"name":"Old Navy","code":null,"latitude":42.16176,"longitude":-88.05159,"address":"20505 Rand Rd, KILDEER IL","chain_name":null,"distance":0},{"name":"Old Navy","code":null,"latitude":42.26816,"longitude":-88.9886,"address":"6630 E State St, ROCKFORD IL","chain_name":null,"distance":0},{"name":"Old Navy","code":null,"latitude":42.05072,"longitude":-88.0412,"address":"1498 E Golf Rd, SCHAUMBURG IL","chain_name":null,"distance":0},{"name":"Old Navy","code":null,"latitude":42.05219,"longitude":-87.74651,"address":"9435 Skokie Blvd, SKOKIE IL","chain_name":null,"distance":0},{"name":"Old Navy","code":null,"latitude":41.8314,"longitude":-88.10702,"address":"138 Danada Sq W, WHEATON IL","chain_name":null,"distance":0},{"name":"Old Navy","code":null,"latitude":40.06821,"longitude":-85.65256,"address":"4622 S Scatterfield Rd, ANDERSON IN","chain_name":null,"distance":0},{"name":"Old Navy","code":null,"latitude":39.16408,"longitude":-86.49611,"address":"2828 E 3rd St, BLOOMINGTON IN","chain_name":null,"distance":0},{"name":"Old Navy","code":null,"latitude":39.16826,"longitude":-86.57621,"address":"260 N Gates Dr, BLOOMINGTON IN","chain_name":null,"distance":0},{"name":"Old Navy","code":null,"latitude":39.9568,"longitude":-86.11837,"address":"2202 E 116th St, CARMEL IN","chain_name":null,"distance":0},{"name":"Old Navy","code":null,"latitude":37.98414,"longitude":-87.49292,"address":"800 N Green River Rd, EVANSVILLE IN","chain_name":null,"distance":0},{"name":"Old Navy","code":null,"latitude":41.11928,"longitude":-85.13111,"address":"721 Northcrest Shopping Ctr, FORT WAYNE IN","chain_name":null,"distance":0},{"name":"Old Navy","code":null,"latitude":41.0714,"longitude":-85.19329,"address":"4030 W Jefferson Blvd, FORT WAYNE IN","chain_name":null,"distance":0},{"name":"Old Navy","code":null,"latitude":39.63519,"longitude":-86.12624,"address":"1251 US Highway 31 N, GREENWOOD IN","chain_name":null,"distance":0},{"name":"Old Navy","code":null,"latitude":39.79659,"longitude":-86.26132,"address":"5750 Crawfordsville Rd, INDIANAPOLIS IN","chain_name":null,"distance":0},{"name":"Old Navy","code":null,"latitude":39.91211,"longitude":-86.10629,"address":"8631 River Crossing Blvd, INDIANAPOLIS IN","chain_name":null,"distance":0},{"name":"Old Navy","code":null,"latitude":39.76723,"longitude":-86.16053,"address":"110 W Washington St, INDIANAPOLIS IN","chain_name":null,"distance":0},{"name":"Old Navy","code":null,"latitude":39.86598,"longitude":-86.12197,"address":"6101 N Keystone Ave, INDIANAPOLIS IN","chain_name":null,"distance":0},{"name":"Old Navy","code":null,"latitude":40.47492,"longitude":-86.10805,"address":"1111 S Reed Rd, KOKOMO IN","chain_name":null,"distance":0},{"name":"Old Navy","code":null,"latitude":40.38397,"longitude":-86.84478,"address":"2415 Sagamore Pkwy S, LAFAYETTE IN","chain_name":null,"distance":0},{"name":"Old Navy","code":null,"latitude":41.47232,"longitude":-87.30859,"address":"2164 E 80th Ave, MERRILLVILLE IN","chain_name":null,"distance":0},{"name":"Old Navy","code":null,"latitude":41.7007,"longitude":-86.18725,"address":"4510 Grape Rd, MISHAWAKA IN","chain_name":null,"distance":0},{"name":"Old Navy","code":null,"latitude":40.22053,"longitude":-85.37342,"address":"3501 N Granville Ave, MUNCIE IN","chain_name":null,"distance":0},{"name":"Old Navy","code":null,"latitude":39.71597,"longitude":-86.36126,"address":"2685 E Main St, PLAINFIELD IN","chain_name":null,"distance":0},{"name":"Old Navy","code":null,"latitude":41.52121,"longitude":-87.47151,"address":"100 US Highway 41, SCHERERVILLE IN","chain_name":null,"distance":0},{"name":"Old Navy","code":null,"latitude":39.42545,"longitude":-87.41595,"address":"3360 S US Highway 41, TERRE HAUTE IN","chain_name":null,"distance":0},{"name":"Old Navy","code":null,"latitude":38.92567,"longitude":-95.26028,"address":"3234 Iowa St, LAWRENCE KS","chain_name":null,"distance":0},{"name":"Old Navy","code":null,"latitude":39.02402,"longitude":-94.68662,"address":"5820 Antioch Rd, MERRIAM KS","chain_name":null,"distance":0},{"name":"Old Navy","code":null,"latitude":38.91298,"longitude":-94.76306,"address":"15290 W 119th St, OLATHE KS","chain_name":null,"distance":0},{"name":"Old Navy","code":null,"latitude":38.962,"longitude":-94.66796,"address":"9152 Metcalf Ave, OVERLAND PARK KS","chain_name":null,"distance":0},{"name":"Old Navy","code":null,"latitude":38.90963,"longitude":-94.66745,"address":"12065 Metcalf Ave, OVERLAND PARK KS","chain_name":null,"distance":0},{"name":"Old Navy","code":null,"latitude":39.0091,"longitude":-94.76376,"address":"15310 Shawnee Mission Pkwy, SHAWNEE MISSION KS","chain_name":null,"distance":0},{"name":"Old Navy","code":null,"latitude":39.03435,"longitude":-95.76228,"address":"1801 SW Wanamaker Rd, TOPEKA KS","chain_name":null,"distance":0},{"name":"Old Navy","code":null,"latitude":37.67965,"longitude":-97.24742,"address":"7700 E Kellogg Dr, WICHITA KS","chain_name":null,"distance":0},{"name":"Old Navy","code":null,"latitude":37.72841,"longitude":-97.46283,"address":"2441 N Maize Rd, WICHITA KS","chain_name":null,"distance":0},{"name":"Old Navy","code":null,"latitude":37.73769,"longitude":-85.88911,"address":"1940 N Dixie Hwy, ELIZABETHTOWN KY","chain_name":null,"distance":0},{"name":"Old Navy","code":null,"latitude":38.02272,"longitude":-84.41693,"address":"1960 Pavillon Way, LEXINGTON KY","chain_name":null,"distance":0},{"name":"Old Navy","code":null,"latitude":38.30891,"longitude":-85.57784,"address":"4320 Summit Plaza Dr Ste D5, LOUISVILLE KY","chain_name":null,"distance":0},{"name":"Old Navy","code":null,"latitude":38.24882,"longitude":-85.60817,"address":"7900 Shelbyville Rd, LOUISVILLE KY","chain_name":null,"distance":0},{"name":"Old Navy","code":null,"latitude":31.26957,"longitude":-92.45961,"address":"2671 S Macarthur Dr, ALEXANDRIA LA","chain_name":null,"distance":0},{"name":"Old Navy","code":null,"latitude":30.45492,"longitude":-91.09334,"address":"9856 Cortana Pl, BATON ROUGE LA","chain_name":null,"distance":0},{"name":"Old Navy","code":null,"latitude":30.37859,"longitude":-91.06097,"address":"10509 S Mall Dr, BATON ROUGE LA","chain_name":null,"distance":0},{"name":"Old Navy","code":null,"latitude":32.52599,"longitude":-93.69975,"address":"2001 Airline Dr, BOSSIER CITY LA","chain_name":null,"distance":0},{"name":"Old Navy","code":null,"latitude":29.91192,"longitude":-90.05364,"address":"197 Westbank Expy, GRETNA LA","chain_name":null,"distance":0},{"name":"Old Navy","code":null,"latitude":29.60751,"longitude":-90.74685,"address":"1550 Martin Luther King Jr Blv, HOUMA LA","chain_name":null,"distance":0},{"name":"Old Navy","code":null,"latitude":30.01996,"longitude":-90.24667,"address":"1401 W Esplanade Ave, KENNER LA","chain_name":null,"distance":0},{"name":"Old Navy","code":null,"latitude":30.17489,"longitude":-92.05754,"address":"119 Tucker Dr, LAFAYETTE LA","chain_name":null,"distance":0},{"name":"Old Navy","code":null,"latitude":30.19375,"longitude":-93.17901,"address":"3419 Derek Dr, LAKE CHARLES LA","chain_name":null,"distance":0},{"name":"Old Navy","code":null,"latitude":30.38768,"longitude":-90.08032,"address":"3450 Highway 190, MANDEVILLE LA","chain_name":null,"distance":0},{"name":"Old Navy","code":null,"latitude":30.00379,"longitude":-90.15706,"address":"3301 Veterans Memorial Blvd, METAIRIE LA","chain_name":null,"distance":0},{"name":"Old Navy","code":null,"latitude":32.44535,"longitude":-93.71999,"address":"6640 Youree Dr, SHREVEPORT LA","chain_name":null,"distance":0},{"name":"Old Navy","code":null,"latitude":42.11467,"longitude":-71.4618,"address":"253 Hartford Ave, BELLINGHAM MA","chain_name":null,"distance":0},{"name":"Old Navy","code":null,"latitude":42.09423,"longitude":-71.05014,"address":"200 Westgate Dr, BROCKTON MA","chain_name":null,"distance":0},{"name":"Old Navy","code":null,"latitude":42.37048,"longitude":-71.07672,"address":"100 Cambridge St, CAMBRIDGE MA","chain_name":null,"distance":0},{"name":"Old Navy","code":null,"latitude":42.55086,"longitude":-70.93791,"address":"100 Independence Way, DANVERS MA","chain_name":null,"distance":0},{"name":"Old Navy","code":null,"latitude":42.25291,"longitude":-71.17146,"address":"300 Providence Hwy, DEDHAM MA","chain_name":null,"distance":0},{"name":"Old Navy","code":null,"latitude":42.32502,"longitude":-71.0651,"address":"8 Allstate Rd, DORCHESTER MA","chain_name":null,"distance":0},{"name":"Old Navy","code":null,"latitude":42.15398,"longitude":-71.20545,"address":"90 Providence Hwy Ste 1, EAST WALPOLE MA","chain_name":null,"distance":0},{"name":"Old Navy","code":null,"latitude":42.40164,"longitude":-71.07035,"address":"9 Mystic View Rd, EVERETT MA","chain_name":null,"distance":0},{"name":"Old Navy","code":null,"latitude":42.29909,"longitude":-71.39357,"address":"1 Worcester Rd, FRAMINGHAM MA","chain_name":null,"distance":0},{"name":"Old Navy","code":null,"latitude":42.35604,"longitude":-72.55387,"address":"339 Russell St, HADLEY MA","chain_name":null,"distance":0},{"name":"Old Navy","code":null,"latitude":42.14666,"longitude":-70.84502,"address":"1775 Washington St, HANOVER MA","chain_name":null,"distance":0},{"name":"Old Navy","code":null,"latitude":42.24941,"longitude":-70.90752,"address":"225 Lincoln St, HINGHAM MA","chain_name":null,"distance":0},{"name":"Old Navy","code":null,"latitude":42.17302,"longitude":-72.64005,"address":"50 Holyoke St, HOLYOKE MA","chain_name":null,"distance":0},{"name":"Old Navy","code":null,"latitude":41.67695,"longitude":-70.29828,"address":"65 Independence Dr, HYANNIS MA","chain_name":null,"distance":0},{"name":"Old Navy","code":null,"latitude":41.97598,"longitude":-70.71073,"address":"101 Independence Mall Way, KINGSTON MA","chain_name":null,"distance":0},{"name":"Old Navy","code":null,"latitude":42.49484,"longitude":-73.22343,"address":"115 Berkshire Mall, LANESBORO MA","chain_name":null,"distance":0},{"name":"Old Navy","code":null,"latitude":42.53197,"longitude":-71.74249,"address":"100 Commercial Rd, LEOMINSTER MA","chain_name":null,"distance":0},{"name":"Old Navy","code":null,"latitude":42.74234,"longitude":-71.1559,"address":"90 Pleasant Valley St, METHUEN MA","chain_name":null,"distance":0},{"name":"Old Navy","code":null,"latitude":41.94139,"longitude":-71.34866,"address":"1250 S Washington St, NORTH ATTLEBORO MA","chain_name":null,"distance":0},{"name":"Old Navy","code":null,"latitude":41.64077,"longitude":-70.99058,"address":"130 N Dartmouth Mall, NORTH DARTMOUTH MA","chain_name":null,"distance":0},{"name":"Old Navy","code":null,"latitude":42.14313,"longitude":-72.48807,"address":"1655 Boston Rd, SPRINGFIELD MA","chain_name":null,"distance":0},{"name":"Old Navy","code":null,"latitude":42.11345,"longitude":-72.06797,"address":"100 Charlton Rd, STURBRIDGE MA","chain_name":null,"distance":0},{"name":"Old Navy","code":null,"latitude":41.86735,"longitude":-71.05117,"address":"2 Galleria Mall Dr, TAUNTON MA","chain_name":null,"distance":0},{"name":"Old Navy","code":null,"latitude":42.36277,"longitude":-71.15865,"address":"485 Arsenal St, WATERTOWN MA","chain_name":null,"distance":0},{"name":"Old Navy","code":null,"latitude":42.1127,"longitude":-72.7216,"address":"415 E Main St, WESTFIELD MA","chain_name":null,"distance":0},{"name":"Old Navy","code":null,"latitude":42.29919,"longitude":-71.80166,"address":"7 Neponset St, WORCESTER MA","chain_name":null,"distance":0},{"name":"Old Navy","code":null,"latitude":38.96839,"longitude":-76.54439,"address":"2532 Solomons Island Rd, ANNAPOLIS MD","chain_name":null,"distance":0},{"name":"Old Navy","code":null,"latitude":39.37164,"longitude":-76.4669,"address":"8123 Honeygo Blvd, BALTIMORE MD","chain_name":null,"distance":0},{"name":"Old Navy","code":null,"latitude":39.31268,"longitude":-76.74872,"address":"6901 Security Blvd, BALTIMORE MD","chain_name":null,"distance":0},{"name":"Old Navy","code":null,"latitude":39.52428,"longitude":-76.35662,"address":"678 Baltimore Pike, BEL AIR MD","chain_name":null,"distance":0},{"name":"Old Navy","code":null,"latitude":39.02255,"longitude":-77.1484,"address":"7101 Democracy Blvd, BETHESDA MD","chain_name":null,"distance":0},{"name":"Old Navy","code":null,"latitude":38.94378,"longitude":-76.7359,"address":"15426 Emerald Way, BOWIE MD","chain_name":null,"distance":0},{"name":"Old Navy","code":null,"latitude":39.19871,"longitude":-76.81431,"address":"6260 Columbia Crossing Dr, COLUMBIA MD","chain_name":null,"distance":0},{"name":"Old Navy","code":null,"latitude":39.25163,"longitude":-76.81499,"address":"4350 Montgomery Rd, ELLICOTT CITY MD","chain_name":null,"distance":0},{"name":"Old Navy","code":null,"latitude":38.99398,"longitude":-76.87511,"address":"7483 Greenbelt Rd, GREENBELT MD","chain_name":null,"distance":0},{"name":"Old Navy","code":null,"latitude":39.62329,"longitude":-77.7726,"address":"17301 Valley Mall Rd, HAGERSTOWN MD","chain_name":null,"distance":0},{"name":"Old Navy","code":null,"latitude":39.15531,"longitude":-76.72783,"address":"7000 Arundel Mills Cir, HANOVER MD","chain_name":null,"distance":0},{"name":"Old Navy","code":null,"latitude":38.96709,"longitude":-76.9595,"address":"3500 E West Hwy, HYATTSVILLE MD","chain_name":null,"distance":0},{"name":"Old Navy","code":null,"latitude":38.80459,"longitude":-76.98053,"address":"6127 Oxon Hill Rd, OXON HILL MD","chain_name":null,"distance":0},{"name":"Old Navy","code":null,"latitude":39.05417,"longitude":-77.11715,"address":"12017 Rockville Pike, ROCKVILLE MD","chain_name":null,"distance":0},{"name":"Old Navy","code":null,"latitude":39.07608,"longitude":-76.54411,"address":"571 Ritchie Hwy, SEVERNA PARK MD","chain_name":null,"distance":0},{"name":"Old Navy","code":null,"latitude":38.61977,"longitude":-76.92651,"address":"11110 Mall Cir, WALDORF MD","chain_name":null,"distance":0},{"name":"Old Navy","code":null,"latitude":44.37326,"longitude":-69.73788,"address":"10 Stephen King Dr, AUGUSTA ME","chain_name":null,"distance":0},{"name":"Old Navy","code":null,"latitude":43.1169,"longitude":-70.72678,"address":"375 Us Route 1, KITTERY ME","chain_name":null,"distance":0},{"name":"Old Navy","code":null,"latitude":43.63332,"longitude":-70.35101,"address":"200 Running Hill Rd, SOUTH PORTLAND ME","chain_name":null,"distance":0},{"name":"Old Navy","code":null,"latitude":42.25575,"longitude":-83.68955,"address":"3533 Washtenaw Ave, ANN ARBOR MI","chain_name":null,"distance":0},{"name":"Old Navy","code":null,"latitude":42.26121,"longitude":-85.1823,"address":"5775 Beckley Rd, BATTLE CREEK MI","chain_name":null,"distance":0},{"name":"Old Navy","code":null,"latitude":42.08048,"longitude":-86.42722,"address":"1040 Fairplain Dr, BENTON HARBOR MI","chain_name":null,"distance":0},{"name":"Old Navy","code":null,"latitude":42.60707,"longitude":-83.29737,"address":"2169 S Telegraph Rd, BLOOMFIELD HILLS MI","chain_name":null,"distance":0},{"name":"Old Navy","code":null,"latitude":43.01885,"longitude":-83.62954,"address":"4116 E Court St, BURTON MI","chain_name":null,"distance":0},{"name":"Old Navy","code":null,"latitude":42.52787,"longitude":-83.36026,"address":"31365 Orchard Lake Rd, FARMINGTON HILLS MI","chain_name":null,"distance":0},{"name":"Old Navy","code":null,"latitude":42.99255,"longitude":-83.73197,"address":"3619 Miller Rd, FLINT MI","chain_name":null,"distance":0},{"name":"Old Navy","code":null,"latitude":43.03542,"longitude":-82.45632,"address":"4350 24th Ave, FORT GRATIOT MI","chain_name":null,"distance":0},{"name":"Old Navy","code":null,"latitude":42.87942,"longitude":-85.76223,"address":"4700 Wilson Ave SW, GRANDVILLE MI","chain_name":null,"distance":0},{"name":"Old Navy","code":null,"latitude":42.8194,"longitude":-86.09385,"address":"12635 Felch St, HOLLAND MI","chain_name":null,"distance":0},{"name":"Old Navy","code":null,"latitude":42.74116,"longitude":-84.62476,"address":"5330 W Saginaw Hwy, LANSING MI","chain_name":null,"distance":0},{"name":"Old Navy","code":null,"latitude":42.25766,"longitude":-83.19132,"address":"1750 Dix Hwy, LINCOLN PARK MI","chain_name":null,"distance":0},{"name":"Old Navy","code":null,"latitude":41.94479,"longitude":-83.38505,"address":"2121 N Monroe St, MONROE MI","chain_name":null,"distance":0},{"name":"Old Navy","code":null,"latitude":43.1508,"longitude":-86.20602,"address":"5293 Harvey St, NORTON SHORES MI","chain_name":null,"distance":0},{"name":"Old Navy","code":null,"latitude":42.48537,"longitude":-83.47002,"address":"43207 Crescent Blvd, NOVI MI","chain_name":null,"distance":0},{"name":"Old Navy","code":null,"latitude":42.7206,"longitude":-84.41962,"address":"1982 W Grand River Ave, OKEMOS MI","chain_name":null,"distance":0},{"name":"Old Navy","code":null,"latitude":42.71038,"longitude":-83.30742,"address":"4806 S Baldwin Rd, ORION MI","chain_name":null,"distance":0},{"name":"Old Navy","code":null,"latitude":42.22974,"longitude":-85.58977,"address":"6024 S Westnedge Ave, PORTAGE MI","chain_name":null,"distance":0},{"name":"Old Navy","code":null,"latitude":42.66401,"longitude":-83.13328,"address":"1132 S Rochester Rd, ROCHESTER HILLS MI","chain_name":null,"distance":0},{"name":"Old Navy","code":null,"latitude":42.53462,"longitude":-82.91279,"address":"32387 Gratiot Ave, ROSEVILLE MI","chain_name":null,"distance":0},{"name":"Old Navy","code":null,"latitude":43.49408,"longitude":-83.96591,"address":"3385 Tittabawassee Rd, SAGINAW MI","chain_name":null,"distance":0},{"name":"Old Navy","code":null,"latitude":42.62757,"longitude":-82.99098,"address":"13935 Hall Rd, SHELBY TOWNSHIP MI","chain_name":null,"distance":0},{"name":"Old Navy","code":null,"latitude":42.54175,"longitude":-83.18632,"address":"1221 Coolidge Hwy, TROY MI","chain_name":null,"distance":0},{"name":"Old Navy","code":null,"latitude":44.99898,"longitude":-93.27943,"address":"138 E Broadway, BLOOMINGTON MN","chain_name":null,"distance":0},{"name":"Old Navy","code":null,"latitude":44.77526,"longitude":-93.26033,"address":"1079 Burnsville Ctr, BURNSVILLE MN","chain_name":null,"distance":0},{"name":"Old Navy","code":null,"latitude":45.20124,"longitude":-93.35679,"address":"12767 Riverdale Blvd NW, COON RAPIDS MN","chain_name":null,"distance":0},{"name":"Old Navy","code":null,"latitude":46.8065,"longitude":-92.16089,"address":"1600 Miller Trunk Hwy, DULUTH MN","chain_name":null,"distance":0},{"name":"Old Navy","code":null,"latitude":44.83508,"longitude":-93.157,"address":"1263 Promenade Pl, EAGAN MN","chain_name":null,"distance":0},{"name":"Old Navy","code":null,"latitude":44.85616,"longitude":-93.42712,"address":"8251 Flying Cloud Dr, EDEN PRAIRIE MN","chain_name":null,"distance":0},{"name":"Old Navy","code":null,"latitude":44.86592,"longitude":-93.32851,"address":"7595 France Ave S, EDINA MN","chain_name":null,"distance":0},{"name":"Old Navy","code":null,"latitude":44.16665,"longitude":-93.94896,"address":"1901 E Madison Ave, MANKATO MN","chain_name":null,"distance":0},{"name":"Old Navy","code":null,"latitude":45.10077,"longitude":-93.44959,"address":"8020 Wedgewood Ln N, MAPLE GROVE MN","chain_name":null,"distance":0},{"name":"Old Navy","code":null,"latitude":45.03159,"longitude":-93.01831,"address":"3001 White Bear Ave N, MAPLEWOOD MN","chain_name":null,"distance":0},{"name":"Old Navy","code":null,"latitude":45.00415,"longitude":-93.22852,"address":"1620 New Brighton Blvd, MINNEAPOLIS MN","chain_name":null,"distance":0},{"name":"Old Navy","code":null,"latitude":43.98835,"longitude":-92.4513,"address":"50 25th St SE, ROCHESTER MN","chain_name":null,"distance":0},{"name":"Old Navy","code":null,"latitude":44.93604,"longitude":-93.38412,"address":"8308 Highway 7, SAINT LOUIS PARK MN","chain_name":null,"distance":0},{"name":"Old Navy","code":null,"latitude":44.93768,"longitude":-92.93821,"address":"8306 Tamarack Vlg, WOODBURY MN","chain_name":null,"distance":0},{"name":"Old Navy","code":null,"latitude":38.65074,"longitude":-90.56779,"address":"47 Chesterfield Mall, CHESTERFIELD MO","chain_name":null,"distance":0},{"name":"Old Navy","code":null,"latitude":38.67581,"longitude":-90.46296,"address":"12519 Olive Blvd, CREVE COEUR MO","chain_name":null,"distance":0},{"name":"Old Navy","code":null,"latitude":39.04787,"longitude":-94.35926,"address":"18813 E 39th St S, INDEPENDENCE MO","chain_name":null,"distance":0},{"name":"Old Navy","code":null,"latitude":39.04393,"longitude":-94.41504,"address":"4201 S Noland Rd, INDEPENDENCE MO","chain_name":null,"distance":0},{"name":"Old Navy","code":null,"latitude":38.58212,"longitude":-92.25177,"address":"3535 Missouri Blvd, JEFFERSON CITY MO","chain_name":null,"distance":0},{"name":"Old Navy","code":null,"latitude":37.09085,"longitude":-94.47678,"address":"101 N Range Line Rd, JOPLIN MO","chain_name":null,"distance":0},{"name":"Old Navy","code":null,"latitude":39.24557,"longitude":-94.65624,"address":"8321 NW Roanridge Rd, KANSAS CITY MO","chain_name":null,"distance":0},{"name":"Old Navy","code":null,"latitude":38.92625,"longitude":-94.40733,"address":"1656 NW Chipman Rd, LEES SUMMIT MO","chain_name":null,"distance":0},{"name":"Old Navy","code":null,"latitude":38.49956,"longitude":-90.33445,"address":"4498 Lemay Ferry Rd, SAINT LOUIS MO","chain_name":null,"distance":0},{"name":"Old Navy","code":null,"latitude":38.55461,"longitude":-90.41002,"address":"10940 Sunset Hills Plz, SAINT LOUIS MO","chain_name":null,"distance":0},{"name":"Old Navy","code":null,"latitude":38.65346,"longitude":-90.353,"address":"8881 Ladue Rd, SAINT LOUIS MO","chain_name":null,"distance":0},{"name":"Old Navy","code":null,"latitude":37.16245,"longitude":-93.26289,"address":"2825 S Glenstone Ave, SPRINGFIELD MO","chain_name":null,"distance":0},{"name":"Old Navy","code":null,"latitude":33.51554,"longitude":-88.43303,"address":"1484 Old Aberdeen Rd, COLUMBUS MS","chain_name":null,"distance":0},{"name":"Old Navy","code":null,"latitude":32.33888,"longitude":-90.06222,"address":"230 Dogwood Blvd, FLOWOOD MS","chain_name":null,"distance":0},{"name":"Old Navy","code":null,"latitude":30.44115,"longitude":-89.0971,"address":"15148 Crossroads Pkwy, GULFPORT MS","chain_name":null,"distance":0},{"name":"Old Navy","code":null,"latitude":32.39926,"longitude":-90.13738,"address":"1049 E County Line Rd, JACKSON MS","chain_name":null,"distance":0},{"name":"Old Navy","code":null,"latitude":32.35968,"longitude":-88.66829,"address":"1163 Bonita Lakes Cir, MERIDIAN MS","chain_name":null,"distance":0},{"name":"Old Navy","code":null,"latitude":34.96255,"longitude":-89.99124,"address":"155 Goodman Rd W, SOUTHAVEN MS","chain_name":null,"distance":0},{"name":"Old Navy","code":null,"latitude":34.28371,"longitude":-88.66216,"address":"3858 Market Center Dr, TUPELO MS","chain_name":null,"distance":0},{"name":"Old Navy","code":null,"latitude":45.75499,"longitude":-108.58691,"address":"2800 King Ave W, BILLINGS MT","chain_name":null,"distance":0},{"name":"Old Navy","code":null,"latitude":45.66338,"longitude":-111.06262,"address":"1540 N 19th Ave, BOZEMAN MT","chain_name":null,"distance":0},{"name":"Old Navy","code":null,"latitude":47.48293,"longitude":-111.33976,"address":"1601 Market Place Dr, GREAT FALLS MT","chain_name":null,"distance":0},{"name":"Old Navy","code":null,"latitude":46.89213,"longitude":-114.03902,"address":"2800 N Reserve St, MISSOULA MT","chain_name":null,"distance":0},{"name":"Old Navy","code":null,"latitude":35.76067,"longitude":-78.73903,"address":"330 Crossroads Blvd, CARY NC","chain_name":null,"distance":0},{"name":"Old Navy","code":null,"latitude":35.30992,"longitude":-80.74792,"address":"9000 J M Keynes Dr, CHARLOTTE NC","chain_name":null,"distance":0},{"name":"Old Navy","code":null,"latitude":35.10712,"longitude":-80.88114,"address":"9551 South Blvd, CHARLOTTE NC","chain_name":null,"distance":0},{"name":"Old Navy","code":null,"latitude":35.09673,"longitude":-80.78636,"address":"3401 Pineville Matthews Rd, CHARLOTTE NC","chain_name":null,"distance":0},{"name":"Old Navy","code":null,"latitude":35.3719,"longitude":-80.71923,"address":"8111 Concord Mills Blvd, CONCORD NC","chain_name":null,"distance":0},{"name":"Old Navy","code":null,"latitude":35.95399,"longitude":-78.9957,"address":"5424 New Hope Commons Dr, DURHAM NC","chain_name":null,"distance":0},{"name":"Old Navy","code":null,"latitude":36.01713,"longitude":-78.909,"address":"1058 W Club Blvd, DURHAM NC","chain_name":null,"distance":0},{"name":"Old Navy","code":null,"latitude":35.06848,"longitude":-78.9603,"address":"131 Glensford Dr, FAYETTEVILLE NC","chain_name":null,"distance":0},{"name":"Old Navy","code":null,"latitude":35.25771,"longitude":-81.11411,"address":"3692 E Franklin Blvd, GASTONIA NC","chain_name":null,"distance":0},{"name":"Old Navy","code":null,"latitude":36.05443,"longitude":-79.9027,"address":"1208 Bridford Pkwy Unit B, GREENSBORO NC","chain_name":null,"distance":0},{"name":"Old Navy","code":null,"latitude":36.08684,"longitude":-79.82844,"address":"3000 Northline Ave, GREENSBORO NC","chain_name":null,"distance":0},{"name":"Old Navy","code":null,"latitude":35.70094,"longitude":-81.30438,"address":"1880 Catawba Valley Blvd SE, HICKORY NC","chain_name":null,"distance":0},{"name":"Old Navy","code":null,"latitude":35.44216,"longitude":-80.86253,"address":"9751 Sam Furr Rd, HUNTERSVILLE NC","chain_name":null,"distance":0},{"name":"Old Navy","code":null,"latitude":34.75926,"longitude":-77.38177,"address":"1250 Western Blvd Ste H, JACKSONVILLE NC","chain_name":null,"distance":0},{"name":"Old Navy","code":null,"latitude":35.13083,"longitude":-80.69987,"address":"10530 Northeast Pkwy, MATTHEWS NC","chain_name":null,"distance":0},{"name":"Old Navy","code":null,"latitude":35.98035,"longitude":-77.80879,"address":"1587 Benvenue Rd, ROCKY MOUNT NC","chain_name":null,"distance":0},{"name":"Old Navy","code":null,"latitude":35.65031,"longitude":-80.45797,"address":"385 Faith Rd, SALISBURY NC","chain_name":null,"distance":0},{"name":"Old Navy","code":null,"latitude":34.23754,"longitude":-77.8723,"address":"352 S College Rd, WILMINGTON NC","chain_name":null,"distance":0},{"name":"Old Navy","code":null,"latitude":36.07329,"longitude":-80.29832,"address":"3320 Silas Creek Pkwy, WINSTON SALEM NC","chain_name":null,"distance":0},{"name":"Old Navy","code":null,"latitude":47.88925,"longitude":-97.08362,"address":"3821 32nd Ave S, GRAND FORKS ND","chain_name":null,"distance":0},{"name":"Old Navy","code":null,"latitude":48.2072,"longitude":-101.3063,"address":"2400 10th St SW, MINOT ND","chain_name":null,"distance":0},{"name":"Old Navy","code":null,"latitude":46.86217,"longitude":-96.8717,"address":"1500 13th Ave E, WEST FARGO ND","chain_name":null,"distance":0},{"name":"Old Navy","code":null,"latitude":40.72371,"longitude":-99.0836,"address":"5027 2nd Ave, KEARNEY NE","chain_name":null,"distance":0},{"name":"Old Navy","code":null,"latitude":40.74083,"longitude":-96.67797,"address":"2950 Pine Lake Rd, LINCOLN NE","chain_name":null,"distance":0},{"name":"Old Navy","code":null,"latitude":41.26431,"longitude":-96.06859,"address":"10000 California St, OMAHA NE","chain_name":null,"distance":0},{"name":"Old Navy","code":null,"latitude":41.23243,"longitude":-96.13318,"address":"3115 Oak View Dr, OMAHA NE","chain_name":null,"distance":0},{"name":"Old Navy","code":null,"latitude":41.25985,"longitude":-96.02688,"address":"7400 Dodge St, OMAHA NE","chain_name":null,"distance":0},{"name":"Old Navy","code":null,"latitude":43.22377,"longitude":-71.48995,"address":"270 Loudon Rd, CONCORD NH","chain_name":null,"distance":0},{"name":"Old Navy","code":null,"latitude":42.71044,"longitude":-71.44175,"address":"4 E Spit Brook Rd, NASHUA NH","chain_name":null,"distance":0},{"name":"Old Navy","code":null,"latitude":43.0914,"longitude":-70.80026,"address":"45 Gosling Rd, NEWINGTON NH","chain_name":null,"distance":0},{"name":"Old Navy","code":null,"latitude":40.06018,"longitude":-74.14185,"address":"640 Route 70, BRICK NJ","chain_name":null,"distance":0},{"name":"Old Navy","code":null,"latitude":40.56342,"longitude":-74.55547,"address":"300 Promenade Blvd, BRIDGEWATER NJ","chain_name":null,"distance":0},{"name":"Old Navy","code":null,"latitude":39.92316,"longitude":-75.04276,"address":"2234 Marlton Pike W, CHERRY HILL NJ","chain_name":null,"distance":0},{"name":"Old Navy","code":null,"latitude":39.82633,"longitude":-75.09985,"address":"1557 Almonesson Rd, DEPTFORD NJ","chain_name":null,"distance":0},{"name":"Old Navy","code":null,"latitude":40.42551,"longitude":-74.38087,"address":"755 State Route 18, EAST BRUNSWICK NJ","chain_name":null,"distance":0},{"name":"Old Navy","code":null,"latitude":40.30962,"longitude":-74.06433,"address":"180 State Route 35 S, EATONTOWN NJ","chain_name":null,"distance":0},{"name":"Old Navy","code":null,"latitude":40.81297,"longitude":-73.98582,"address":"485 River Rd, EDGEWATER NJ","chain_name":null,"distance":0},{"name":"Old Navy","code":null,"latitude":40.54626,"longitude":-74.33787,"address":"447 Menlo Park, EDISON NJ","chain_name":null,"distance":0},{"name":"Old Navy","code":null,"latitude":40.66266,"longitude":-74.1745,"address":"651 Kapkowski Rd, ELIZABETH NJ","chain_name":null,"distance":0},{"name":"Old Navy","code":null,"latitude":40.85004,"longitude":-74.70612,"address":"30 International Dr S, FLANDERS NJ","chain_name":null,"distance":0},{"name":"Old Navy","code":null,"latitude":40.24806,"longitude":-74.28461,"address":"3710 US Highway 9, FREEHOLD NJ","chain_name":null,"distance":0},{"name":"Old Navy","code":null,"latitude":40.67017,"longitude":-74.47926,"address":"977 Valley Rd, GILLETTE NJ","chain_name":null,"distance":0},{"name":"Old Navy","code":null,"latitude":40.41295,"longitude":-74.14808,"address":"2130 State Route 35, HOLMDEL NJ","chain_name":null,"distance":0},{"name":"Old Navy","code":null,"latitude":40.7221,"longitude":-74.09222,"address":"701 State Rt 440, JERSEY CITY NJ","chain_name":null,"distance":0},{"name":"Old Navy","code":null,"latitude":40.29265,"longitude":-74.68404,"address":"200 Quaker Bridge Mall, LAWRENCEVILLE NJ","chain_name":null,"distance":0},{"name":"Old Navy","code":null,"latitude":40.6191,"longitude":-74.2498,"address":"649 W Edgar Rd, LINDEN NJ","chain_name":null,"distance":0},{"name":"Old Navy","code":null,"latitude":40.79693,"longitude":-74.34763,"address":"530 W Mount Pleasant Ave, LIVINGSTON NJ","chain_name":null,"distance":0},{"name":"Old Navy","code":null,"latitude":40.77923,"longitude":-74.35505,"address":"112 Eisenhower Pkwy, LIVINGSTON NJ","chain_name":null,"distance":0},{"name":"Old Navy","code":null,"latitude":39.86915,"longitude":-74.92212,"address":"730 Route 73 S, MARLTON NJ","chain_name":null,"distance":0},{"name":"Old Navy","code":null,"latitude":39.47302,"longitude":-74.74415,"address":"250 Consumer Sq, MAYS LANDING NJ","chain_name":null,"distance":0},{"name":"Old Navy","code":null,"latitude":39.97938,"longitude":-74.94106,"address":"1101 Nixon Dr, MOORESTOWN NJ","chain_name":null,"distance":0},{"name":"Old Navy","code":null,"latitude":40.73624,"longitude":-74.17407,"address":"121 Market St, NEWARK NJ","chain_name":null,"distance":0},{"name":"Old Navy","code":null,"latitude":40.77442,"longitude":-74.03438,"address":"3115 Kennedy Blvd, NORTH BERGEN NJ","chain_name":null,"distance":0},{"name":"Old Navy","code":null,"latitude":40.95338,"longitude":-74.06871,"address":"700 Paramus Park, PARAMUS NJ","chain_name":null,"distance":0},{"name":"Old Navy","code":null,"latitude":40.91752,"longitude":-74.07372,"address":"299 Garden State Plz, PARAMUS NJ","chain_name":null,"distance":0},{"name":"Old Navy","code":null,"latitude":40.68129,"longitude":-75.14782,"address":"1200 US Highway 22 Ste 612, PHILLIPSBURG NJ","chain_name":null,"distance":0},{"name":"Old Navy","code":null,"latitude":40.55165,"longitude":-74.43848,"address":"1321 Centennial Ave, PISCATAWAY NJ","chain_name":null,"distance":0},{"name":"Old Navy","code":null,"latitude":39.985,"longitude":-74.17909,"address":"1201 Hooper Ave, TOMS RIVER NJ","chain_name":null,"distance":0},{"name":"Old Navy","code":null,"latitude":39.43085,"longitude":-75.04018,"address":"3849 S Delsea Dr, VINELAND NJ","chain_name":null,"distance":0},{"name":"Old Navy","code":null,"latitude":40.64203,"longitude":-74.41453,"address":"1515 US Highway 22, WATCHUNG NJ","chain_name":null,"distance":0},{"name":"Old Navy","code":null,"latitude":40.88949,"longitude":-74.24824,"address":"80 State Route 23, WAYNE NJ","chain_name":null,"distance":0},{"name":"Old Navy","code":null,"latitude":40.89067,"longitude":-74.26127,"address":"1400 Willowbrook Mall, WAYNE NJ","chain_name":null,"distance":0},{"name":"Old Navy","code":null,"latitude":35.1054,"longitude":-106.5908,"address":"4900 Cutler Ave NE, ALBUQUERQUE NM","chain_name":null,"distance":0},{"name":"Old Navy","code":null,"latitude":35.19625,"longitude":-106.65881,"address":"10000 Coors Byp NW, ALBUQUERQUE NM","chain_name":null,"distance":0},{"name":"Old Navy","code":null,"latitude":35.63961,"longitude":-106.01128,"address":"3529 Zafarano Dr, SANTA FE NM","chain_name":null,"distance":0},{"name":"Old Navy","code":null,"latitude":36.05933,"longitude":-115.04642,"address":"525 N Stephanie St, HENDERSON NV","chain_name":null,"distance":0},{"name":"Old Navy","code":null,"latitude":36.19905,"longitude":-115.24204,"address":"2186 N Rainbow Blvd, LAS VEGAS NV","chain_name":null,"distance":0},{"name":"Old Navy","code":null,"latitude":39.47912,"longitude":-119.79395,"address":"4891 Kietzke Ln, RENO NV","chain_name":null,"distance":0},{"name":"Old Navy","code":null,"latitude":42.69579,"longitude":-73.84857,"address":"161 Washington Avenue Ext, ALBANY NY","chain_name":null,"distance":0},{"name":"Old Navy","code":null,"latitude":42.68712,"longitude":-73.85048,"address":"1 Crossgates Mall Rd, ALBANY NY","chain_name":null,"distance":0},{"name":"Old Navy","code":null,"latitude":42.9809,"longitude":-78.8207,"address":"3050 Sheridan Dr, AMHERST NY","chain_name":null,"distance":0},{"name":"Old Navy","code":null,"latitude":40.72953,"longitude":-73.27646,"address":"880 Sunrise Hwy, BAY SHORE NY","chain_name":null,"distance":0},{"name":"Old Navy","code":null,"latitude":42.78899,"longitude":-78.8113,"address":"3540 McKinley Pkwy, BLASDELL NY","chain_name":null,"distance":0},{"name":"Old Navy","code":null,"latitude":40.76319,"longitude":-73.09241,"address":"5175 Sunrise Hwy, BOHEMIA NY","chain_name":null,"distance":0},{"name":"Old Navy","code":null,"latitude":40.82313,"longitude":-73.85867,"address":"845 White Plains Rd, BRONX NY","chain_name":null,"distance":0},{"name":"Old Navy","code":null,"latitude":40.86782,"longitude":-73.83102,"address":"340 Baychester Ave, BRONX NY","chain_name":null,"distance":0},{"name":"Old Navy","code":null,"latitude":40.68361,"longitude":-73.97578,"address":"625 Atlantic Ave, BROOKLYN NY","chain_name":null,"distance":0},{"name":"Old Navy","code":null,"latitude":40.6102,"longitude":-73.92228,"address":"5141 Kings Plz, BROOKLYN NY","chain_name":null,"distance":0},{"name":"Old Navy","code":null,"latitude":40.65061,"longitude":-73.86976,"address":"381 Gateway Dr, BROOKLYN NY","chain_name":null,"distance":0},{"name":"Old Navy","code":null,"latitude":42.90894,"longitude":-78.7715,"address":"1 Galleria Dr, CHEEKTOWAGA NY","chain_name":null,"distance":0},{"name":"Old Navy","code":null,"latitude":43.18589,"longitude":-76.22606,"address":"4155 State Route 31, CLAY NY","chain_name":null,"distance":0},{"name":"Old Navy","code":null,"latitude":40.7818,"longitude":-73.82873,"address":"13915 20th Ave, COLLEGE POINT NY","chain_name":null,"distance":0},{"name":"Old Navy","code":null,"latitude":40.84094,"longitude":-73.31104,"address":"5041 Jericho Tpke, COMMACK NY","chain_name":null,"distance":0},{"name":"Old Navy","code":null,"latitude":42.15454,"longitude":-76.88165,"address":"845 County Road 64, ELMIRA NY","chain_name":null,"distance":0},{"name":"Old Navy","code":null,"latitude":40.75946,"longitude":-73.82999,"address":"13602 Roosevelt Ave, FLUSHING NY","chain_name":null,"distance":0},{"name":"Old Navy","code":null,"latitude":40.70642,"longitude":-73.63219,"address":"140 Fulton Ave, HEMPSTEAD NY","chain_name":null,"distance":0},{"name":"Old Navy","code":null,"latitude":40.75778,"longitude":-73.51213,"address":"464 Broadway Mall, HICKSVILLE NY","chain_name":null,"distance":0},{"name":"Old Navy","code":null,"latitude":40.85872,"longitude":-73.41711,"address":"839 New York Ave, HUNTINGTON NY","chain_name":null,"distance":0},{"name":"Old Navy","code":null,"latitude":42.48364,"longitude":-76.48739,"address":"40 Catherwood Rd, ITHACA NY","chain_name":null,"distance":0},{"name":"Old Navy","code":null,"latitude":40.70328,"longitude":-73.79993,"address":"15918 Jamaica Ave, JAMAICA NY","chain_name":null,"distance":0},{"name":"Old Navy","code":null,"latitude":41.96927,"longitude":-73.98858,"address":"1300 Ulster Ave, KINGSTON NY","chain_name":null,"distance":0},{"name":"Old Navy","code":null,"latitude":42.09896,"longitude":-79.30282,"address":"318 E Fairmount Ave, LAKEWOOD NY","chain_name":null,"distance":0},{"name":"Old Navy","code":null,"latitude":40.72578,"longitude":-73.50238,"address":"3561 Hempstead Tpke, LEVITTOWN NY","chain_name":null,"distance":0},{"name":"Old Navy","code":null,"latitude":40.75354,"longitude":-73.91447,"address":"3403 48th St Spc 6, LONG ISLAND CITY NY","chain_name":null,"distance":0},{"name":"Old Navy","code":null,"latitude":41.45421,"longitude":-74.36676,"address":"1 N Galleria Dr, MIDDLETOWN NY","chain_name":null,"distance":0},{"name":"Old Navy","code":null,"latitude":41.31232,"longitude":-73.86902,"address":"3131 E Main St, MOHEGAN LAKE NY","chain_name":null,"distance":0},{"name":"Old Navy","code":null,"latitude":43.08641,"longitude":-75.31526,"address":"4605 Commercial Dr, NEW HARTFORD NY","chain_name":null,"distance":0},{"name":"Old Navy","code":null,"latitude":40.74284,"longitude":-73.69465,"address":"697 Hillside Ave, NEW HYDE PARK NY","chain_name":null,"distance":0},{"name":"Old Navy","code":null,"latitude":40.81003,"longitude":-73.95123,"address":"300 W 125th St, NEW YORK NY","chain_name":null,"distance":0},{"name":"Old Navy","code":null,"latitude":40.73967,"longitude":-73.99493,"address":"610 Avenue Of The Americas, NEW YORK NY","chain_name":null,"distance":0},{"name":"Old Navy","code":null,"latitude":40.7503,"longitude":-73.98937,"address":"150 W 34th St, NEW YORK NY","chain_name":null,"distance":0},{"name":"Old Navy","code":null,"latitude":40.72233,"longitude":-73.99958,"address":"503 Broadway, NEW YORK NY","chain_name":null,"distance":0},{"name":"Old Navy","code":null,"latitude":41.51787,"longitude":-74.06878,"address":"1401 Route 300, NEWBURGH NY","chain_name":null,"distance":0},{"name":"Old Navy","code":null,"latitude":44.70069,"longitude":-73.49386,"address":"60 Smithfield Blvd, PLATTSBURGH NY","chain_name":null,"distance":0},{"name":"Old Navy","code":null,"latitude":41.6271,"longitude":-73.91715,"address":"2001 South Rd, POUGHKEEPSIE NY","chain_name":null,"distance":0},{"name":"Old Navy","code":null,"latitude":43.3284,"longitude":-73.67652,"address":"578 Aviation Rd, QUEENSBURY NY","chain_name":null,"distance":0},{"name":"Old Navy","code":null,"latitude":40.73039,"longitude":-73.86208,"address":"9605 Queens Blvd Fl 3, REGO PARK NY","chain_name":null,"distance":0},{"name":"Old Navy","code":null,"latitude":43.08716,"longitude":-77.63698,"address":"3333 W Henrietta Rd, ROCHESTER NY","chain_name":null,"distance":0},{"name":"Old Navy","code":null,"latitude":43.20779,"longitude":-77.69192,"address":"386 Greece Ridge Center Dr, ROCHESTER NY","chain_name":null,"distance":0},{"name":"Old Navy","code":null,"latitude":40.63616,"longitude":-73.74003,"address":"25301 Rockaway Blvd Ste B, ROSEDALE NY","chain_name":null,"distance":0},{"name":"Old Navy","code":null,"latitude":43.10532,"longitude":-73.7406,"address":"3065 Route 50, SARATOGA SPRINGS NY","chain_name":null,"distance":0},{"name":"Old Navy","code":null,"latitude":40.97155,"longitude":-73.8055,"address":"723 Post Rd, SCARSDALE NY","chain_name":null,"distance":0},{"name":"Old Navy","code":null,"latitude":40.86324,"longitude":-73.05174,"address":"201 Independence Plz, SELDEN NY","chain_name":null,"distance":0},{"name":"Old Navy","code":null,"latitude":40.58087,"longitude":-74.16895,"address":"2655 Richmond Ave, STATEN ISLAND NY","chain_name":null,"distance":0},{"name":"Old Navy","code":null,"latitude":43.06765,"longitude":-76.1703,"address":"9090 Carousel Ctr, SYRACUSE NY","chain_name":null,"distance":0},{"name":"Old Navy","code":null,"latitude":43.04818,"longitude":-76.06996,"address":"3401 Erie Blvd E, DE WITT NY","chain_name":null,"distance":0},{"name":"Old Navy","code":null,"latitude":43.12521,"longitude":-75.2275,"address":"700 Horatio St, UTICA NY","chain_name":null,"distance":0},{"name":"Old Navy","code":null,"latitude":40.66293,"longitude":-73.71976,"address":"1093 Green Acres Mall, VALLEY STREAM NY","chain_name":null,"distance":0},{"name":"Old Navy","code":null,"latitude":42.09414,"longitude":-76.01575,"address":"2317 Vestal Pkwy E, VESTAL NY","chain_name":null,"distance":0},{"name":"Old Navy","code":null,"latitude":43.03355,"longitude":-77.44698,"address":"7556 Commons Blvd, VICTOR NY","chain_name":null,"distance":0},{"name":"Old Navy","code":null,"latitude":43.97671,"longitude":-75.95167,"address":"21182 Salmon Run Mall Loop W, WATERTOWN NY","chain_name":null,"distance":0},{"name":"Old Navy","code":null,"latitude":40.6849,"longitude":-73.34998,"address":"881 W Montauk Hwy, WEST BABYLON NY","chain_name":null,"distance":0},{"name":"Old Navy","code":null,"latitude":41.09594,"longitude":-73.95077,"address":"1470 Palisades Center Dr, WEST NYACK NY","chain_name":null,"distance":0},{"name":"Old Navy","code":null,"latitude":40.75536,"longitude":-73.57472,"address":"1504 Old Country Rd, WESTBURY NY","chain_name":null,"distance":0},{"name":"Old Navy","code":null,"latitude":41.0319,"longitude":-73.77079,"address":"100 Main St, WHITE PLAINS NY","chain_name":null,"distance":0},{"name":"Old Navy","code":null,"latitude":41.13605,"longitude":-81.63905,"address":"3881 Medina Rd, AKRON OH","chain_name":null,"distance":0},{"name":"Old Navy","code":null,"latitude":41.11666,"longitude":-81.46584,"address":"2000 Brittain Rd, AKRON OH","chain_name":null,"distance":0},{"name":"Old Navy","code":null,"latitude":41.45806,"longitude":-82.02527,"address":"35852 Detroit Rd, AVON OH","chain_name":null,"distance":0},{"name":"Old Navy","code":null,"latitude":39.29284,"longitude":-84.30506,"address":"9883 Waterstone Blvd, CINCINNATI OH","chain_name":null,"distance":0},{"name":"Old Navy","code":null,"latitude":39.28982,"longitude":-84.46701,"address":"11711 Princeton Pike, CINCINNATI OH","chain_name":null,"distance":0},{"name":"Old Navy","code":null,"latitude":39.19881,"longitude":-84.38035,"address":"7800 Montgomery Rd, CINCINNATI OH","chain_name":null,"distance":0},{"name":"Old Navy","code":null,"latitude":39.1427,"longitude":-84.61957,"address":"6030 Glenway Ave, CINCINNATI OH","chain_name":null,"distance":0},{"name":"Old Navy","code":null,"latitude":39.14868,"longitude":-84.44398,"address":"2695 Edmondson Rd, CINCINNATI OH","chain_name":null,"distance":0},{"name":"Old Navy","code":null,"latitude":40.14117,"longitude":-82.98391,"address":"1345 Polaris Pkwy, COLUMBUS OH","chain_name":null,"distance":0},{"name":"Old Navy","code":null,"latitude":39.99437,"longitude":-83.02578,"address":"1731 Olentangy River Rd, COLUMBUS OH","chain_name":null,"distance":0},{"name":"Old Navy","code":null,"latitude":40.095,"longitude":-83.08754,"address":"3636 W Dublin Granville Rd, COLUMBUS OH","chain_name":null,"distance":0},{"name":"Old Navy","code":null,"latitude":40.05577,"longitude":-82.91971,"address":"3690 Easton Market, COLUMBUS OH","chain_name":null,"distance":0},{"name":"Old Navy","code":null,"latitude":39.63717,"longitude":-84.22227,"address":"2700 Miamisburg Centerville Rd, DAYTON OH","chain_name":null,"distance":0},{"name":"Old Navy","code":null,"latitude":41.61431,"longitude":-83.68437,"address":"1422 S Holland Sylvania Rd, HOLLAND OH","chain_name":null,"distance":0},{"name":"Old Navy","code":null,"latitude":40.76283,"longitude":-84.14894,"address":"2400 Elida Rd, LIMA OH","chain_name":null,"distance":0},{"name":"Old Navy","code":null,"latitude":40.76796,"longitude":-82.596,"address":"658 Richland Mall, MANSFIELD OH","chain_name":null,"distance":0},{"name":"Old Navy","code":null,"latitude":41.51859,"longitude":-81.4504,"address":"1533 Golden Gate Plz, MAYFIELD HEIGHTS OH","chain_name":null,"distance":0},{"name":"Old Navy","code":null,"latitude":41.15563,"longitude":-81.86283,"address":"1155 N Court St, MEDINA OH","chain_name":null,"distance":0},{"name":"Old Navy","code":null,"latitude":41.65196,"longitude":-81.37923,"address":"7317 Mentor Ave, MENTOR OH","chain_name":null,"distance":0},{"name":"Old Navy","code":null,"latitude":41.21085,"longitude":-80.75267,"address":"5555 Youngstown Warren Rd, NILES OH","chain_name":null,"distance":0},{"name":"Old Navy","code":null,"latitude":40.87595,"longitude":-81.43214,"address":"6687 Strip Ave NW, NORTH CANTON OH","chain_name":null,"distance":0},{"name":"Old Navy","code":null,"latitude":39.92551,"longitude":-82.83103,"address":"2736 Brice Rd, REYNOLDSBURG OH","chain_name":null,"distance":0},{"name":"Old Navy","code":null,"latitude":40.06766,"longitude":-80.86298,"address":"67800 Mall Rd, SAINT CLAIRSVILLE OH","chain_name":null,"distance":0},{"name":"Old Navy","code":null,"latitude":41.39275,"longitude":-81.4463,"address":"6025 Kruse Dr, SOLON OH","chain_name":null,"distance":0},{"name":"Old Navy","code":null,"latitude":39.94759,"longitude":-83.8521,"address":"1475 Upper Valley Pike, SPRINGFIELD OH","chain_name":null,"distance":0},{"name":"Old Navy","code":null,"latitude":41.31404,"longitude":-81.82924,"address":"18260 Royalton Rd, STRONGSVILLE OH","chain_name":null,"distance":0},{"name":"Old Navy","code":null,"latitude":41.02417,"longitude":-80.65077,"address":"377 Boardman Poland Rd Ste A, YOUNGSTOWN OH","chain_name":null,"distance":0},{"name":"Old Navy","code":null,"latitude":39.98936,"longitude":-82.02339,"address":"3575 Maple Ave, ZANESVILLE OH","chain_name":null,"distance":0},{"name":"Old Navy","code":null,"latitude":36.39095,"longitude":-97.9187,"address":"3326 W Owen K Garriott Rd, ENID OK","chain_name":null,"distance":0},{"name":"Old Navy","code":null,"latitude":34.60254,"longitude":-98.39111,"address":"149 Central Mall, LAWTON OK","chain_name":null,"distance":0},{"name":"Old Navy","code":null,"latitude":35.21863,"longitude":-97.49142,"address":"3367 W Main St, NORMAN OK","chain_name":null,"distance":0},{"name":"Old Navy","code":null,"latitude":35.60843,"longitude":-97.55129,"address":"2210 W Memorial Rd, OKLAHOMA CITY OK","chain_name":null,"distance":0},{"name":"Old Navy","code":null,"latitude":35.52545,"longitude":-97.53534,"address":"1711 Belle Isle Blvd, OKLAHOMA CITY OK","chain_name":null,"distance":0},{"name":"Old Navy","code":null,"latitude":36.12877,"longitude":-97.05895,"address":"605 N Main St, STILLWATER OK","chain_name":null,"distance":0},{"name":"Old Navy","code":null,"latitude":36.0607,"longitude":-95.87972,"address":"8722 E 71st St, TULSA OK","chain_name":null,"distance":0},{"name":"Old Navy","code":null,"latitude":36.10452,"longitude":-95.9187,"address":"5201 E 41st St, TULSA OK","chain_name":null,"distance":0},{"name":"Old Navy","code":null,"latitude":44.41391,"longitude":-79.71129,"address":"468 Bayfield St N, BARRIE ON","chain_name":null,"distance":0},{"name":"Old Navy","code":null,"latitude":43.71568,"longitude":-79.7253,"address":"25 Peel Centre Dr, BRAMPTON ON","chain_name":null,"distance":0},{"name":"Old Navy","code":null,"latitude":43.34632,"longitude":-79.79592,"address":"777 Guelph Line, BURLINGTON ON","chain_name":null,"distance":0},{"name":"Old Navy","code":null,"latitude":43.41211,"longitude":-80.31992,"address":"70 Pinebush Rd, CAMBRIDGE ON","chain_name":null,"distance":0},{"name":"Old Navy","code":null,"latitude":45.43162,"longitude":-75.61214,"address":"2280 City Park Dr, GLOUCESTER ON","chain_name":null,"distance":0},{"name":"Old Navy","code":null,"latitude":43.2168,"longitude":-79.86457,"address":"999 Upper Wentworth St, HAMILTON ON","chain_name":null,"distance":0},{"name":"Old Navy","code":null,"latitude":44.25643,"longitude":-76.56845,"address":"636 Gardiners Rd, KINGSTON ON","chain_name":null,"distance":0},{"name":"Old Navy","code":null,"latitude":43.86636,"longitude":-79.2879,"address":"5000 Hwy 7 E, MARKMAM ON","chain_name":null,"distance":0},{"name":"Old Navy","code":null,"latitude":43.59064,"longitude":-79.64094,"address":"100 City Centre Dr, MISSISSAUGA ON","chain_name":null,"distance":0},{"name":"Old Navy","code":null,"latitude":43.55769,"longitude":-79.70443,"address":"5100 Erin Mills Pky, MISSISSAUGA ON","chain_name":null,"distance":0},{"name":"Old Navy","code":null,"latitude":45.34922,"longitude":-75.80493,"address":"100 Bayshore Dr, NEPEAN ON","chain_name":null,"distance":0},{"name":"Old Navy","code":null,"latitude":44.05804,"longitude":-79.48121,"address":"17600 Yonge St, NEWMARKET ON","chain_name":null,"distance":0},{"name":"Old Navy","code":null,"latitude":43.89405,"longitude":-78.87913,"address":"419 King St W, OSHAWA ON","chain_name":null,"distance":0},{"name":"Old Navy","code":null,"latitude":43.72453,"longitude":-79.29047,"address":"6 Lebovic Ave, SCARBOROUGH ON","chain_name":null,"distance":0},{"name":"Old Navy","code":null,"latitude":43.7765,"longitude":-79.25414,"address":"300 Borough Dr, SCARBOROUGH ON","chain_name":null,"distance":0},{"name":"Old Navy","code":null,"latitude":43.13355,"longitude":-79.22381,"address":"221 Glendale Ave, ST CATHARINES ON","chain_name":null,"distance":0},{"name":"Old Navy","code":null,"latitude":43.80942,"longitude":-79.45158,"address":"1 Promenade Cir, THORNHILL ON","chain_name":null,"distance":0},{"name":"Old Navy","code":null,"latitude":43.65496,"longitude":-79.38044,"address":"260 Yonge St, TORONTO ON","chain_name":null,"distance":0},{"name":"Old Navy","code":null,"latitude":42.27849,"longitude":-83.00775,"address":"3100 Howard Ave, WINDSOR ON","chain_name":null,"distance":0},{"name":"Old Navy","code":null,"latitude":45.53725,"longitude":-122.86345,"address":"18065 NW Evergreen Pkwy, BEAVERTON OR","chain_name":null,"distance":0},{"name":"Old Navy","code":null,"latitude":45.49628,"longitude":-122.80913,"address":"3115 SW Cedar Hills Blvd, BEAVERTON OR","chain_name":null,"distance":0},{"name":"Old Navy","code":null,"latitude":44.05504,"longitude":-121.26519,"address":"2600 NE Highway 20, BEND OR","chain_name":null,"distance":0},{"name":"Old Navy","code":null,"latitude":45.433,"longitude":-122.57453,"address":"8646 SE Sunnyside Rd, CLACKAMAS OR","chain_name":null,"distance":0},{"name":"Old Navy","code":null,"latitude":44.06632,"longitude":-123.07479,"address":"30 Oakway Ctr, EUGENE OR","chain_name":null,"distance":0},{"name":"Old Navy","code":null,"latitude":45.50597,"longitude":-122.4402,"address":"747 NW 12th St, GRESHAM OR","chain_name":null,"distance":0},{"name":"Old Navy","code":null,"latitude":42.37126,"longitude":-122.85612,"address":"3535 Crater Lake Hwy, MEDFORD OR","chain_name":null,"distance":0},{"name":"Old Navy","code":null,"latitude":45.61289,"longitude":-122.68628,"address":"1752 Jantzen Beach Ctr, PORTLAND OR","chain_name":null,"distance":0},{"name":"Old Navy","code":null,"latitude":44.94145,"longitude":-122.98336,"address":"831 Lancaster Dr NE, SALEM OR","chain_name":null,"distance":0},{"name":"Old Navy","code":null,"latitude":40.47057,"longitude":-78.40671,"address":"1 Logan Valley Mall Ste 920, ALTOONA PA","chain_name":null,"distance":0},{"name":"Old Navy","code":null,"latitude":40.22247,"longitude":-76.93036,"address":"3507 Capital City Mall Dr, CAMP HILL PA","chain_name":null,"distance":0},{"name":"Old Navy","code":null,"latitude":41.11556,"longitude":-78.73267,"address":"690 Shaffer Rd, DU BOIS PA","chain_name":null,"distance":0},{"name":"Old Navy","code":null,"latitude":42.06545,"longitude":-80.10354,"address":"2088 Interchange Rd, ERIE PA","chain_name":null,"distance":0},{"name":"Old Navy","code":null,"latitude":40.02293,"longitude":-75.62788,"address":"277 Main St, EXTON PA","chain_name":null,"distance":0},{"name":"Old Navy","code":null,"latitude":40.18713,"longitude":-74.8665,"address":"140 Commerce Blvd, FAIRLESS HILLS PA","chain_name":null,"distance":0},{"name":"Old Navy","code":null,"latitude":40.32979,"longitude":-79.52378,"address":"Route 30 E, GREENSBURG PA","chain_name":null,"distance":0},{"name":"Old Navy","code":null,"latitude":40.31079,"longitude":-76.80159,"address":"5125 Jonestown Rd Ste 415, HARRISBURG PA","chain_name":null,"distance":0},{"name":"Old Navy","code":null,"latitude":40.41363,"longitude":-79.9051,"address":"560 Waterfront Dr E, HOMESTEAD PA","chain_name":null,"distance":0},{"name":"Old Navy","code":null,"latitude":40.10702,"longitude":-75.12404,"address":"901 Old York Rd, JENKINTOWN PA","chain_name":null,"distance":0},{"name":"Old Navy","code":null,"latitude":40.08555,"longitude":-75.39465,"address":"160 N Gulph Rd, KING OF PRUSSIA PA","chain_name":null,"distance":0},{"name":"Old Navy","code":null,"latitude":40.06636,"longitude":-76.31546,"address":"1700 Fruitville Pike Ste F, LANCASTER PA","chain_name":null,"distance":0},{"name":"Old Navy","code":null,"latitude":40.67196,"longitude":-80.31353,"address":"340 Beaver Valley Mall, MONACA PA","chain_name":null,"distance":0},{"name":"Old Navy","code":null,"latitude":40.43861,"longitude":-79.7664,"address":"4120 William Penn Hwy, MONROEVILLE PA","chain_name":null,"distance":0},{"name":"Old Navy","code":null,"latitude":40.02867,"longitude":-75.0996,"address":"4640 Roosevelt Blvd, PHILADELPHIA PA","chain_name":null,"distance":0},{"name":"Old Navy","code":null,"latitude":39.92424,"longitude":-75.14323,"address":"1851 S Columbus Blvd, PHILADELPHIA PA","chain_name":null,"distance":0},{"name":"Old Navy","code":null,"latitude":39.95161,"longitude":-75.15668,"address":"1001 Market St, PHILADELPHIA PA","chain_name":null,"distance":0},{"name":"Old Navy","code":null,"latitude":40.49981,"longitude":-79.8529,"address":"923 Freeport Rd, PITTSBURGH PA","chain_name":null,"distance":0},{"name":"Old Navy","code":null,"latitude":40.55562,"longitude":-80.02168,"address":"8000 McKnight Rd Ste 2158, PITTSBURGH PA","chain_name":null,"distance":0},{"name":"Old Navy","code":null,"latitude":40.10186,"longitude":-75.29246,"address":"2440 Chemical Rd, PLYMOUTH MEETING PA","chain_name":null,"distance":0},{"name":"Old Navy","code":null,"latitude":41.46064,"longitude":-75.65699,"address":"100 Viewmont Mall, SCRANTON PA","chain_name":null,"distance":0},{"name":"Old Navy","code":null,"latitude":39.93937,"longitude":-75.34697,"address":"400 S State Rd, SPRINGFIELD PA","chain_name":null,"distance":0},{"name":"Old Navy","code":null,"latitude":40.21186,"longitude":-75.10913,"address":"976 W Street Rd, WARMINSTER PA","chain_name":null,"distance":0},{"name":"Old Navy","code":null,"latitude":40.1633,"longitude":-80.27567,"address":"1500 W Chestnut St, WASHINGTON PA","chain_name":null,"distance":0},{"name":"Old Navy","code":null,"latitude":40.33065,"longitude":-79.93223,"address":"3075 Clairton Rd, WEST MIFFLIN PA","chain_name":null,"distance":0},{"name":"Old Navy","code":null,"latitude":40.64598,"longitude":-75.49358,"address":"2631 Macarthur Rd, WHITEHALL PA","chain_name":null,"distance":0},{"name":"Old Navy","code":null,"latitude":41.22139,"longitude":-75.78334,"address":"437 Arena Hub Plz, WILKES BARRE PA","chain_name":null,"distance":0},{"name":"Old Navy","code":null,"latitude":40.00215,"longitude":-75.27347,"address":"60 E Wynnewood Rd, WYNNEWOOD PA","chain_name":null,"distance":0},{"name":"Old Navy","code":null,"latitude":39.98409,"longitude":-76.7392,"address":"351 Loucks Rd, YORK PA","chain_name":null,"distance":0},{"name":"Old Navy","code":null,"latitude":41.81056,"longitude":-71.41803,"address":"144 Providence Pl, PROVIDENCE RI","chain_name":null,"distance":0},{"name":"Old Navy","code":null,"latitude":41.87029,"longitude":-71.52469,"address":"371 Putnam Pike, SMITHFIELD RI","chain_name":null,"distance":0},{"name":"Old Navy","code":null,"latitude":41.72358,"longitude":-71.4805,"address":"400 Bald Hill Rd, WARWICK RI","chain_name":null,"distance":0},{"name":"Old Navy","code":null,"latitude":34.50286,"longitude":-82.60271,"address":"142 Station Dr, ANDERSON SC","chain_name":null,"distance":0},{"name":"Old Navy","code":null,"latitude":32.24036,"longitude":-80.81563,"address":"1460 Fording Island Rd, BLUFFTON SC","chain_name":null,"distance":0},{"name":"Old Navy","code":null,"latitude":32.79233,"longitude":-80.03091,"address":"2070 Sam Rittenberg Blvd, CHARLESTON SC","chain_name":null,"distance":0},{"name":"Old Navy","code":null,"latitude":34.06762,"longitude":-81.16628,"address":"140 Harbison Blvd, COLUMBIA SC","chain_name":null,"distance":0},{"name":"Old Navy","code":null,"latitude":34.06455,"longitude":-80.95778,"address":"7201 Two Notch Rd, COLUMBIA SC","chain_name":null,"distance":0},{"name":"Old Navy","code":null,"latitude":34.83002,"longitude":-82.30428,"address":"1117 Woodruff Rd, GREENVILLE SC","chain_name":null,"distance":0},{"name":"Old Navy","code":null,"latitude":34.89044,"longitude":-82.40179,"address":"3251 N Pleasantburg Dr, GREENVILLE SC","chain_name":null,"distance":0},{"name":"Old Navy","code":null,"latitude":34.20884,"longitude":-82.1834,"address":"507 Bypass 72 NW, GREENWOOD SC","chain_name":null,"distance":0},{"name":"Old Navy","code":null,"latitude":32.82936,"longitude":-79.83284,"address":"1720 Towne Centre Way, MOUNT PLEASANT SC","chain_name":null,"distance":0},{"name":"Old Navy","code":null,"latitude":32.94188,"longitude":-80.04012,"address":"7620 Rivers Ave, N CHARLESTON SC","chain_name":null,"distance":0},{"name":"Old Navy","code":null,"latitude":34.94276,"longitude":-81.99801,"address":"660 Spartan Blvd, SPARTANBURG SC","chain_name":null,"distance":0},{"name":"Old Navy","code":null,"latitude":35.97023,"longitude":-86.80885,"address":"1618 Service Merchandise Blvd, BRENTWOOD TN","chain_name":null,"distance":0},{"name":"Old Navy","code":null,"latitude":35.03907,"longitude":-85.15579,"address":"2220 Hamilton Place Blvd, CHATTANOOGA TN","chain_name":null,"distance":0},{"name":"Old Navy","code":null,"latitude":36.58799,"longitude":-87.29344,"address":"2801 Wilma Rudolph Blvd, CLARKSVILLE TN","chain_name":null,"distance":0},{"name":"Old Navy","code":null,"latitude":35.06504,"longitude":-89.7573,"address":"3075 Village Shops Dr, GERMANTOWN TN","chain_name":null,"distance":0},{"name":"Old Navy","code":null,"latitude":35.1548,"longitude":-85.24858,"address":"5756 Highway 153, HIXSON TN","chain_name":null,"distance":0},{"name":"Old Navy","code":null,"latitude":36.3485,"longitude":-82.39958,"address":"3211 Peoples St, JOHNSON CITY TN","chain_name":null,"distance":0},{"name":"Old Navy","code":null,"latitude":36.03102,"longitude":-83.87351,"address":"3000A N Mall Rd, KNOXVILLE TN","chain_name":null,"distance":0},{"name":"Old Navy","code":null,"latitude":35.92673,"longitude":-84.03489,"address":"218 Morrell Rd, KNOXVILLE TN","chain_name":null,"distance":0},{"name":"Old Navy","code":null,"latitude":35.9022,"longitude":-84.13694,"address":"11028 Parkside Dr, KNOXVILLE TN","chain_name":null,"distance":0},{"name":"Old Navy","code":null,"latitude":36.30764,"longitude":-86.68369,"address":"2295 Gallatin Pike N, MADISON TN","chain_name":null,"distance":0},{"name":"Old Navy","code":null,"latitude":35.12841,"longitude":-89.94714,"address":"3440 Poplar Ave, MEMPHIS TN","chain_name":null,"distance":0},{"name":"Old Navy","code":null,"latitude":35.04883,"longitude":-89.83031,"address":"3619 Riverdale Rd, MEMPHIS TN","chain_name":null,"distance":0},{"name":"Old Navy","code":null,"latitude":35.19871,"longitude":-89.79367,"address":"8085 Giacosa Pl, MEMPHIS TN","chain_name":null,"distance":0},{"name":"Old Navy","code":null,"latitude":35.84664,"longitude":-86.42646,"address":"1954 Old Fort Pkwy, MURFREESBORO TN","chain_name":null,"distance":0},{"name":"Old Navy","code":null,"latitude":36.07816,"longitude":-86.94872,"address":"7620 Highway 70 S, NASHVILLE TN","chain_name":null,"distance":0},{"name":"Old Navy","code":null,"latitude":36.19806,"longitude":-86.69157,"address":"139 Opry Mills Dr, NASHVILLE TN","chain_name":null,"distance":0},{"name":"Old Navy","code":null,"latitude":35.18296,"longitude":-101.93819,"address":"2710 S Soncy Rd, AMARILLO TX","chain_name":null,"distance":0},{"name":"Old Navy","code":null,"latitude":32.68169,"longitude":-97.1245,"address":"1106 W Arbrook Blvd, ARLINGTON TX","chain_name":null,"distance":0},{"name":"Old Navy","code":null,"latitude":30.25639,"longitude":-97.81064,"address":"2901 S Capital Of Texas Hwy, AUSTIN TX","chain_name":null,"distance":0},{"name":"Old Navy","code":null,"latitude":30.38861,"longitude":-97.74352,"address":"9607 Research Blvd, AUSTIN TX","chain_name":null,"distance":0},{"name":"Old Navy","code":null,"latitude":30.29884,"longitude":-97.72017,"address":"1000 E 41st St, AUSTIN TX","chain_name":null,"distance":0},{"name":"Old Navy","code":null,"latitude":30.12755,"longitude":-94.16014,"address":"6155 Eastex Fwy, BEAUMONT TX","chain_name":null,"distance":0},{"name":"Old Navy","code":null,"latitude":25.95996,"longitude":-97.50639,"address":"2780 Pablo Kisel Blvd, BROWNSVILLE TX","chain_name":null,"distance":0},{"name":"Old Navy","code":null,"latitude":32.59324,"longitude":-96.93821,"address":"386 E Fm 1382, CEDAR HILL TX","chain_name":null,"distance":0},{"name":"Old Navy","code":null,"latitude":30.47001,"longitude":-97.80202,"address":"11066 Pecan Park Blvd, CEDAR PARK TX","chain_name":null,"distance":0},{"name":"Old Navy","code":null,"latitude":30.61221,"longitude":-96.31558,"address":"2050 Texas Ave S, COLLEGE STATION TX","chain_name":null,"distance":0},{"name":"Old Navy","code":null,"latitude":30.1802,"longitude":-95.45139,"address":"19075 Interstate 45 S, CONROE TX","chain_name":null,"distance":0},{"name":"Old Navy","code":null,"latitude":27.71197,"longitude":-97.3797,"address":"5425 S Padre Island Dr, CORPUS CHRISTI TX","chain_name":null,"distance":0},{"name":"Old Navy","code":null,"latitude":32.93014,"longitude":-96.82078,"address":"13350 Dallas Pkwy, DALLAS TX","chain_name":null,"distance":0},{"name":"Old Navy","code":null,"latitude":31.77507,"longitude":-106.38394,"address":"8401 Gateway Blvd W, EL PASO TX","chain_name":null,"distance":0},{"name":"Old Navy","code":null,"latitude":31.81811,"longitude":-106.54487,"address":"750 Sunland Park Dr, EL PASO TX","chain_name":null,"distance":0},{"name":"Old Navy","code":null,"latitude":32.67501,"longitude":-97.39822,"address":"4801 Overton Ridge Blvd, FORT WORTH TX","chain_name":null,"distance":0},{"name":"Old Navy","code":null,"latitude":32.74226,"longitude":-97.43402,"address":"1734 Green Oaks Rd, FORT WORTH TX","chain_name":null,"distance":0},{"name":"Old Navy","code":null,"latitude":33.11342,"longitude":-96.80584,"address":"3333 Preston Rd, FRISCO TX","chain_name":null,"distance":0},{"name":"Old Navy","code":null,"latitude":32.96805,"longitude":-97.03688,"address":"3000 Grapevine Mills Pkwy, GRAPEVINE TX","chain_name":null,"distance":0},{"name":"Old Navy","code":null,"latitude":29.95919,"longitude":-95.54211,"address":"1002 Willowbrook Mall, HOUSTON TX","chain_name":null,"distance":0},{"name":"Old Navy","code":null,"latitude":29.6981,"longitude":-95.29389,"address":"580 Gulfgate Center Mall, HOUSTON TX","chain_name":null,"distance":0},{"name":"Old Navy","code":null,"latitude":29.73655,"longitude":-95.57063,"address":"11081 Westheimer Rd, HOUSTON TX","chain_name":null,"distance":0},{"name":"Old Navy","code":null,"latitude":29.74106,"longitude":-95.4613,"address":"5000 Westheimer Rd, HOUSTON TX","chain_name":null,"distance":0},{"name":"Old Navy","code":null,"latitude":29.98357,"longitude":-95.50131,"address":"13839 Breck St, HOUSTON TX","chain_name":null,"distance":0},{"name":"Old Navy","code":null,"latitude":29.87753,"longitude":-95.64547,"address":"6867 Highway 6 N, HOUSTON TX","chain_name":null,"distance":0},{"name":"Old Navy","code":null,"latitude":29.68842,"longitude":-95.46048,"address":"260 Meyerland Plaza Mall, HOUSTON TX","chain_name":null,"distance":0},{"name":"Old Navy","code":null,"latitude":29.85497,"longitude":-95.51517,"address":"13788 Northwest Fwy, HOUSTON TX","chain_name":null,"distance":0},{"name":"Old Navy","code":null,"latitude":30.01438,"longitude":-95.2631,"address":"20510 Highway 59 N, HUMBLE TX","chain_name":null,"distance":0},{"name":"Old Navy","code":null,"latitude":32.82606,"longitude":-97.20132,"address":"868 NE Mall Blvd, HURST TX","chain_name":null,"distance":0},{"name":"Old Navy","code":null,"latitude":32.84087,"longitude":-96.99416,"address":"3638 Irving Mall, IRVING TX","chain_name":null,"distance":0},{"name":"Old Navy","code":null,"latitude":29.7793,"longitude":-95.80685,"address":"5000 Katy Mills Cir, KATY TX","chain_name":null,"distance":0},{"name":"Old Navy","code":null,"latitude":31.09467,"longitude":-97.72081,"address":"2100 S W S Young Dr, KILLEEN TX","chain_name":null,"distance":0},{"name":"Old Navy","code":null,"latitude":27.57641,"longitude":-99.50101,"address":"7605 San Dario Ave, LAREDO TX","chain_name":null,"distance":0},{"name":"Old Navy","code":null,"latitude":33.00779,"longitude":-96.97486,"address":"2325 S Stemmons Fwy, LEWISVILLE TX","chain_name":null,"distance":0},{"name":"Old Navy","code":null,"latitude":32.541,"longitude":-94.75506,"address":"422 W Loop 281, LONGVIEW TX","chain_name":null,"distance":0},{"name":"Old Navy","code":null,"latitude":33.53767,"longitude":-101.92221,"address":"6249 Slide Rd, LUBBOCK TX","chain_name":null,"distance":0},{"name":"Old Navy","code":null,"latitude":26.18807,"longitude":-98.23245,"address":"1815 S 10th St, MCALLEN TX","chain_name":null,"distance":0},{"name":"Old Navy","code":null,"latitude":32.81103,"longitude":-96.61864,"address":"1515 N Town East Blvd, MESQUITE TX","chain_name":null,"distance":0},{"name":"Old Navy","code":null,"latitude":31.9352,"longitude":-102.09758,"address":"4511 N Midkiff Rd, MIDLAND TX","chain_name":null,"distance":0},{"name":"Old Navy","code":null,"latitude":29.64944,"longitude":-95.15218,"address":"5778 Fairmont Pkwy, PASADENA TX","chain_name":null,"distance":0},{"name":"Old Navy","code":null,"latitude":33.01938,"longitude":-96.71415,"address":"801 W 15th St, PLANO TX","chain_name":null,"distance":0},{"name":"Old Navy","code":null,"latitude":33.0231,"longitude":-96.79534,"address":"1701 Preston Rd, PLANO TX","chain_name":null,"distance":0},{"name":"Old Navy","code":null,"latitude":32.89709,"longitude":-96.46253,"address":"2875 Market Center Dr, ROCKWALL TX","chain_name":null,"distance":0},{"name":"Old Navy","code":null,"latitude":30.48314,"longitude":-97.68091,"address":"2701A Parker Rd, ROUND ROCK TX","chain_name":null,"distance":0},{"name":"Old Navy","code":null,"latitude":31.42807,"longitude":-100.49468,"address":"4001 Southwest Blvd, SAN ANGELO TX","chain_name":null,"distance":0},{"name":"Old Navy","code":null,"latitude":29.48084,"longitude":-98.59497,"address":"5601 Bandera Rd, SAN ANTONIO TX","chain_name":null,"distance":0},{"name":"Old Navy","code":null,"latitude":29.55188,"longitude":-98.58535,"address":"11745 W Interstate Hwy 10, SAN ANTONIO TX","chain_name":null,"distance":0},{"name":"Old Navy","code":null,"latitude":29.49315,"longitude":-98.47983,"address":"255 E Basse Rd, SAN ANTONIO TX","chain_name":null,"distance":0},{"name":"Old Navy","code":null,"latitude":29.60582,"longitude":-98.46884,"address":"18030 San Pedro Ave, SAN ANTONIO TX","chain_name":null,"distance":0},{"name":"Old Navy","code":null,"latitude":29.55106,"longitude":-98.66466,"address":"11659 Bandera Rd, SAN ANTONIO TX","chain_name":null,"distance":0},{"name":"Old Navy","code":null,"latitude":29.3565,"longitude":-98.53037,"address":"2310 SW Military Dr, SAN ANTONIO TX","chain_name":null,"distance":0},{"name":"Old Navy","code":null,"latitude":29.57118,"longitude":-98.32485,"address":"8328 Agora Pkwy, SELMA TX","chain_name":null,"distance":0},{"name":"Old Navy","code":null,"latitude":33.68077,"longitude":-96.60771,"address":"Hwy 75 & Loy Lake Rd, SHERMAN TX","chain_name":null,"distance":0},{"name":"Old Navy","code":null,"latitude":32.93883,"longitude":-97.10294,"address":"2950 E Southlake Blvd, SOUTHLAKE TX","chain_name":null,"distance":0},{"name":"Old Navy","code":null,"latitude":29.59595,"longitude":-95.61956,"address":"2575 Town Center Blvd N, SUGAR LAND TX","chain_name":null,"distance":0},{"name":"Old Navy","code":null,"latitude":30.22636,"longitude":-97.82215,"address":"5601 Brodie Ln, SUNSET VALLEY TX","chain_name":null,"distance":0},{"name":"Old Navy","code":null,"latitude":32.30012,"longitude":-95.30052,"address":"4601 S Broadway Ave, TYLER TX","chain_name":null,"distance":0},{"name":"Old Navy","code":null,"latitude":28.86423,"longitude":-96.9968,"address":"7800 N Navarro St, VICTORIA TX","chain_name":null,"distance":0},{"name":"Old Navy","code":null,"latitude":29.54164,"longitude":-95.1386,"address":"1003 W Bay Area Blvd, WEBSTER TX","chain_name":null,"distance":0},{"name":"Old Navy","code":null,"latitude":33.87035,"longitude":-98.5328,"address":"3111 Midwestern Pkwy, WICHITA FALLS TX","chain_name":null,"distance":0},{"name":"Old Navy","code":null,"latitude":37.11541,"longitude":-113.552,"address":"245 Red Cliffs Dr, SAINT GEORGE UT","chain_name":null,"distance":0},{"name":"Old Navy","code":null,"latitude":40.72529,"longitude":-111.85818,"address":"1168 E 2100 S, SALT LAKE CITY UT","chain_name":null,"distance":0},{"name":"Old Navy","code":null,"latitude":40.76052,"longitude":-111.87284,"address":"634 E 400 S, SALT LAKE CITY UT","chain_name":null,"distance":0},{"name":"Old Navy","code":null,"latitude":40.5659,"longitude":-111.89089,"address":"10210 S State St, SANDY UT","chain_name":null,"distance":0},{"name":"Old Navy","code":null,"latitude":40.62139,"longitude":-111.97891,"address":"7113 Plaza Center Dr, WEST JORDAN UT","chain_name":null,"distance":0},{"name":"Old Navy","code":null,"latitude":38.83727,"longitude":-77.05161,"address":"3621 Jefferson Davis Hwy, ALEXANDRIA VA","chain_name":null,"distance":0},{"name":"Old Navy","code":null,"latitude":38.05044,"longitude":-78.50191,"address":"945 Emmet St N, CHARLOTTESVILLE VA","chain_name":null,"distance":0},{"name":"Old Navy","code":null,"latitude":36.77247,"longitude":-76.22918,"address":"1322 Greenbrier Pkwy, CHESAPEAKE VA","chain_name":null,"distance":0},{"name":"Old Navy","code":null,"latitude":39.03262,"longitude":-77.42039,"address":"21100 Dulles Town Cir, DULLES VA","chain_name":null,"distance":0},{"name":"Old Navy","code":null,"latitude":38.85939,"longitude":-77.36757,"address":"12209 Fair Lakes Promenade Dr, FAIRFAX VA","chain_name":null,"distance":0},{"name":"Old Navy","code":null,"latitude":38.85315,"longitude":-77.12977,"address":"5800 Crossroads Center Way, FALLS CHURCH VA","chain_name":null,"distance":0},{"name":"Old Navy","code":null,"latitude":38.29876,"longitude":-77.51154,"address":"1260 Carl D Silver Pkwy, FREDERICKSBURG VA","chain_name":null,"distance":0},{"name":"Old Navy","code":null,"latitude":37.67415,"longitude":-77.46059,"address":"10101 Brook Rd, GLEN ALLEN VA","chain_name":null,"distance":0},{"name":"Old Navy","code":null,"latitude":38.80161,"longitude":-77.52666,"address":"11096 Bulloch Dr, MANASSAS VA","chain_name":null,"distance":0},{"name":"Old Navy","code":null,"latitude":37.41906,"longitude":-77.63152,"address":"4848 Commonwealth Centre Pkwy, MIDLOTHIAN VA","chain_name":null,"distance":0},{"name":"Old Navy","code":null,"latitude":37.11005,"longitude":-76.49728,"address":"12300 Jefferson Ave, NEWPORT NEWS VA","chain_name":null,"distance":0},{"name":"Old Navy","code":null,"latitude":36.85568,"longitude":-76.20087,"address":"5900 E Virginia Beach Blvd, NORFOLK VA","chain_name":null,"distance":0},{"name":"Old Navy","code":null,"latitude":37.5823,"longitude":-77.49923,"address":"1601 Willow Lawn Dr, RICHMOND VA","chain_name":null,"distance":0},{"name":"Old Navy","code":null,"latitude":37.3092,"longitude":-79.96347,"address":"4802 Valley View Blvd NW, ROANOKE VA","chain_name":null,"distance":0},{"name":"Old Navy","code":null,"latitude":38.77154,"longitude":-77.17087,"address":"6711 Frontier Dr, SPRINGFIELD VA","chain_name":null,"distance":0},{"name":"Old Navy","code":null,"latitude":36.82005,"longitude":-76.06722,"address":"701 Lynnhaven Pkwy, VIRGINIA BEACH VA","chain_name":null,"distance":0},{"name":"Old Navy","code":null,"latitude":36.95052,"longitude":-81.11284,"address":"235 Commonwealth Dr, WYTHEVILLE VA","chain_name":null,"distance":0},{"name":"Old Navy","code":null,"latitude":44.47943,"longitude":-73.21286,"address":"37 Church St, BURLINGTON VT","chain_name":null,"distance":0},{"name":"Old Navy","code":null,"latitude":47.29658,"longitude":-122.24711,"address":"1101 Supermall Way, AUBURN WA","chain_name":null,"distance":0},{"name":"Old Navy","code":null,"latitude":47.61717,"longitude":-122.13242,"address":"15600 NE 8th St, BELLEVUE WA","chain_name":null,"distance":0},{"name":"Old Navy","code":null,"latitude":47.57402,"longitude":-122.16961,"address":"4037 Factoria Blvd SE, BELLEVUE WA","chain_name":null,"distance":0},{"name":"Old Navy","code":null,"latitude":48.7842,"longitude":-122.48614,"address":"1 Bellis Fair Pkwy, BELLINGHAM WA","chain_name":null,"distance":0},{"name":"Old Navy","code":null,"latitude":46.21219,"longitude":-119.10909,"address":"559 Columbia Ctr, KENNEWICK WA","chain_name":null,"distance":0},{"name":"Old Navy","code":null,"latitude":47.16455,"longitude":-122.51517,"address":"5810 Lakewood Towne Center Blv, LAKEWOOD WA","chain_name":null,"distance":0},{"name":"Old Navy","code":null,"latitude":47.8222,"longitude":-122.27079,"address":"19401 Alderwood Mall Pkwy, LYNNWOOD WA","chain_name":null,"distance":0},{"name":"Old Navy","code":null,"latitude":47.03715,"longitude":-122.93891,"address":"1200 Cooper Point Rd SW, OLYMPIA WA","chain_name":null,"distance":0},{"name":"Old Navy","code":null,"latitude":47.15832,"longitude":-122.29319,"address":"3500 S Meridian, PUYALLUP WA","chain_name":null,"distance":0},{"name":"Old Navy","code":null,"latitude":47.61205,"longitude":-122.33535,"address":"601 Pine St, SEATTLE WA","chain_name":null,"distance":0},{"name":"Old Navy","code":null,"latitude":47.67573,"longitude":-117.21837,"address":"14022 E Indiana Ave, SPOKANE VALLEY WA","chain_name":null,"distance":0},{"name":"Old Navy","code":null,"latitude":47.21389,"longitude":-122.46822,"address":"4502 S Steele St, TACOMA WA","chain_name":null,"distance":0},{"name":"Old Navy","code":null,"latitude":47.44784,"longitude":-122.26221,"address":"17470 Southcenter Pkwy, TUKWILA WA","chain_name":null,"distance":0},{"name":"Old Navy","code":null,"latitude":46.57023,"longitude":-120.47962,"address":"1716 E Washington Ave, UNION GAP WA","chain_name":null,"distance":0},{"name":"Old Navy","code":null,"latitude":45.65642,"longitude":-122.58362,"address":"8700 NE Vancouver Mall Dr, VANCOUVER WA","chain_name":null,"distance":0},{"name":"Old Navy","code":null,"latitude":47.4406,"longitude":-120.32504,"address":"1310 N Miller St, WENATCHEE WA","chain_name":null,"distance":0},{"name":"Old Navy","code":null,"latitude":43.03277,"longitude":-88.10706,"address":"95 N Moorland Rd, BROOKFIELD WI","chain_name":null,"distance":0},{"name":"Old Navy","code":null,"latitude":44.77663,"longitude":-91.43681,"address":"4800 Golf Rd, EAU CLAIRE WI","chain_name":null,"distance":0},{"name":"Old Navy","code":null,"latitude":44.26332,"longitude":-88.47657,"address":"4733 W Grande Market Dr, GRAND CHUTE WI","chain_name":null,"distance":0},{"name":"Old Navy","code":null,"latitude":44.4939,"longitude":-88.07018,"address":"110 Bay Park Sq, GREEN BAY WI","chain_name":null,"distance":0},{"name":"Old Navy","code":null,"latitude":42.9483,"longitude":-88.00819,"address":"5300 S 76th St, GREENDALE WI","chain_name":null,"distance":0},{"name":"Old Navy","code":null,"latitude":42.71348,"longitude":-88.97998,"address":"2900 Deerfield Dr, JANESVILLE WI","chain_name":null,"distance":0},{"name":"Old Navy","code":null,"latitude":43.06413,"longitude":-89.52662,"address":"239 Junction Rd Spc D, MADISON WI","chain_name":null,"distance":0},{"name":"Old Navy","code":null,"latitude":43.13022,"longitude":-89.29591,"address":"2348 E Springs Dr, MADISON WI","chain_name":null,"distance":0},{"name":"Old Navy","code":null,"latitude":43.18285,"longitude":-87.96319,"address":"9094 N Green Bay Rd, MILWAUKEE WI","chain_name":null,"distance":0},{"name":"Old Navy","code":null,"latitude":38.4162,"longitude":-82.26028,"address":"210 Mall Rd, BARBOURSVILLE WV","chain_name":null,"distance":0},{"name":"Old Navy","code":null,"latitude":39.31204,"longitude":-80.27593,"address":"2399 Meadowbrook Mall, BRIDGEPORT WV","chain_name":null,"distance":0},{"name":"Old Navy","code":null,"latitude":40.52878,"longitude":-105.07799,"address":"108 W Troutman Pkwy, FORT COLLINS CO","chain_name":null,"distance":0},{"name":"Old Navy","code":null,"latitude":40.77666,"longitude":-89.67477,"address":"5201 W War Memorial Dr, PEORIA IL","chain_name":null,"distance":0},{"name":"Old Navy","code":null,"latitude":39.75413,"longitude":-89.70652,"address":"3261 S Veterans Pkwy, SPRINGFIELD IL","chain_name":null,"distance":0},{"name":"Old Navy","code":null,"latitude":38.996,"longitude":-84.65395,"address":"7719 Mall Rd, FLORENCE KY","chain_name":null,"distance":0},{"name":"Old Navy","code":null,"latitude":38.78647,"longitude":-90.41696,"address":"5555 Saint Louis Mills Blvd, HAZELWOOD MO","chain_name":null,"distance":0},{"name":"Old Navy","code":null,"latitude":39.11022,"longitude":-119.77289,"address":"911 Topsy Ln, CARSON CITY NV","chain_name":null,"distance":0},{"name":"Old Navy","code":null,"latitude":40.92816,"longitude":-73.85663,"address":"6K Mall Walk, YONKERS NY","chain_name":null,"distance":0},{"name":"Old Navy","code":null,"latitude":43.86353,"longitude":-79.03764,"address":"20 Kingston Rd W, AJAX ON","chain_name":null,"distance":0},{"name":"Old Navy","code":null,"latitude":43.61953,"longitude":-79.55321,"address":"177 N Queen St, ETOBICOKE ON","chain_name":null,"distance":0},{"name":"Old Navy","code":null,"latitude":41.08652,"longitude":-111.98402,"address":"1782 Woodland Park Dr, LAYTON UT","chain_name":null,"distance":0},{"name":"Old Navy","code":null,"latitude":41.75081,"longitude":-111.83428,"address":"1050 N Main St, LOGAN UT","chain_name":null,"distance":0},{"name":"Old Navy","code":null,"latitude":40.62307,"longitude":-111.85536,"address":"7123 S 1300 E, MIDVALE UT","chain_name":null,"distance":0},{"name":"Old Navy","code":null,"latitude":40.27375,"longitude":-111.69999,"address":"246 W University Pkwy, OREM UT","chain_name":null,"distance":0},{"name":"Old Navy","code":null,"latitude":34.46118,"longitude":-93.05775,"address":"321 Cornerstone Blvd, HOT SPRINGS AR","chain_name":null,"distance":0},{"name":"Old Navy","code":null,"latitude":45.50273,"longitude":-73.57046,"address":"705 Rue Sainte-Catherine O, MONTREAL QC","chain_name":null,"distance":0},{"name":"Old Navy","code":null,"latitude":45.47418,"longitude":-73.47072,"address":"2151 Boul Lapiniere, BROSSARD QC","chain_name":null,"distance":0},{"name":"Old Navy","code":null,"latitude":45.59836,"longitude":-73.56617,"address":"7999 Boul Les Galeries-D'Anjou, ANJOU QC","chain_name":null,"distance":0},{"name":"Old Navy","code":null,"latitude":45.51064,"longitude":-73.37466,"address":"1241 Boul Des Promenades, SAINT-BRUNO QC","chain_name":null,"distance":0},{"name":"Old Navy","code":null,"latitude":45.56886,"longitude":-73.74933,"address":"3035 Boul Le Carrefour, LAVAL QC","chain_name":null,"distance":0},{"name":"Old Navy","code":null,"latitude":45.47323,"longitude":-73.80767,"address":"6815 Transcanada Hwy, POINTE-CLAIRE QC","chain_name":null,"distance":0},{"name":"Old Navy","code":null,"latitude":49.12303,"longitude":-122.66412,"address":"20202 66th Ave #210, LANGLEY BC","chain_name":null,"distance":0},{"name":"Old Navy","code":null,"latitude":46.76951,"longitude":-71.28411,"address":"2700 Laurier, SAINTE-FOY QC","chain_name":null,"distance":0},{"name":"Old Navy","code":null,"latitude":34.0102,"longitude":-85.98902,"address":"312 E Meighan Blvd, GADSDEN AL","chain_name":null,"distance":0},{"name":"Old Navy","code":null,"latitude":32.69104,"longitude":-85.40082,"address":"2263 Tiger Town Pkwy, OPELIKA AL","chain_name":null,"distance":0},{"name":"Old Navy","code":null,"latitude":33.37869,"longitude":-111.81026,"address":"1055 E Baseline Rd, GILBERT AZ","chain_name":null,"distance":0},{"name":"Old Navy","code":null,"latitude":32.34059,"longitude":-111.01296,"address":"7401 N La Cholla Blvd, TUCSON AZ","chain_name":null,"distance":0},{"name":"Old Navy","code":null,"latitude":48.4518,"longitude":-123.39586,"address":"3130 3170 Tillicum Rd, VICTORIA BC","chain_name":null,"distance":0},{"name":"Old Navy","code":null,"latitude":37.96179,"longitude":-121.73654,"address":"5869 Lone Tree Way, ANTIOCH CA","chain_name":null,"distance":0},{"name":"Old Navy","code":null,"latitude":33.82364,"longitude":-117.51541,"address":"3417 Grand Oaks, CORONA CA","chain_name":null,"distance":0},{"name":"Old Navy","code":null,"latitude":33.82914,"longitude":-117.84863,"address":"1500 E Village Way, ORANGE CA","chain_name":null,"distance":0},{"name":"Old Navy","code":null,"latitude":33.72761,"longitude":-116.40246,"address":"72349 Highway 111, PALM DESERT CA","chain_name":null,"distance":0},{"name":"Old Navy","code":null,"latitude":34.10674,"longitude":-117.56953,"address":"10788 Foothill Blvd, RANCHO CUCAMONGA CA","chain_name":null,"distance":0},{"name":"Old Navy","code":null,"latitude":41.82377,"longitude":-72.88356,"address":"110 Albany Tpke, CANTON CT","chain_name":null,"distance":0},{"name":"Old Navy","code":null,"latitude":41.99013,"longitude":-72.58165,"address":"25 Hazard Ave, ENFIELD CT","chain_name":null,"distance":0},{"name":"Old Navy","code":null,"latitude":41.81513,"longitude":-72.5558,"address":"801 Evergreen Way, SOUTH WINDSOR CT","chain_name":null,"distance":0},{"name":"Old Navy","code":null,"latitude":39.6713,"longitude":-75.66452,"address":"361 W Main St, CHRISTIANA DE","chain_name":null,"distance":0},{"name":"Old Navy","code":null,"latitude":30.26283,"longitude":-81.52451,"address":"10261 River Marsh Dr, JACKSONVILLE FL","chain_name":null,"distance":0},{"name":"Old Navy","code":null,"latitude":28.22668,"longitude":-80.69872,"address":"2281 Town Center Ave, VIERA FL","chain_name":null,"distance":0},{"name":"Old Navy","code":null,"latitude":34.2953,"longitude":-83.85242,"address":"855 Dawsonville Hwy, GAINESVILLE GA","chain_name":null,"distance":0},{"name":"Old Navy","code":null,"latitude":32.00441,"longitude":-81.11795,"address":"7804 Abercorn St, SAVANNAH GA","chain_name":null,"distance":0},{"name":"Old Navy","code":null,"latitude":41.55922,"longitude":-93.78735,"address":"6805 Mills Civic Pkwy, WEST DES MOINES IA","chain_name":null,"distance":0},{"name":"Old Navy","code":null,"latitude":42.15442,"longitude":-88.33588,"address":"1824 S Randall Rd, ALGONQUIN IL","chain_name":null,"distance":0},{"name":"Old Navy","code":null,"latitude":39.21219,"longitude":-85.87887,"address":"1171 N National Rd, COLUMBUS IN","chain_name":null,"distance":0},{"name":"Old Navy","code":null,"latitude":36.95005,"longitude":-86.42522,"address":"2625 Scottsville Rd, BOWLING GREEN KY","chain_name":null,"distance":0},{"name":"Old Navy","code":null,"latitude":37.02836,"longitude":-88.71763,"address":"5161 Hinkleville Rd, PADUCAH KY","chain_name":null,"distance":0},{"name":"Old Navy","code":null,"latitude":42.47223,"longitude":-71.21158,"address":"43 Middlesex Tpke, BURLINGTON MA","chain_name":null,"distance":0},{"name":"Old Navy","code":null,"latitude":42.19077,"longitude":-71.76968,"address":"70 Worcester Providence Tpke, MILLBURY MA","chain_name":null,"distance":0},{"name":"Old Navy","code":null,"latitude":49.88548,"longitude":-97.20136,"address":"830 St James St, WINNIPEG MB","chain_name":null,"distance":0},{"name":"Old Navy","code":null,"latitude":39.42884,"longitude":-76.62621,"address":"170 W Ridgely Rd, LUTHERVILLE MD","chain_name":null,"distance":0},{"name":"Old Navy","code":null,"latitude":39.58462,"longitude":-76.98861,"address":"200 Clifton Blvd, WESTMINSTER MD","chain_name":null,"distance":0},{"name":"Old Navy","code":null,"latitude":42.91267,"longitude":-85.57747,"address":"3665 28th St SE Ste 8A, GRAND RAPIDS MI","chain_name":null,"distance":0},{"name":"Old Navy","code":null,"latitude":43.5752,"longitude":-84.76188,"address":"4208 E Blue Grass Rd, MOUNT PLEASANT MI","chain_name":null,"distance":0},{"name":"Old Navy","code":null,"latitude":37.29667,"longitude":-89.56604,"address":"207 W Park Mall, CAPE GIRARDEAU MO","chain_name":null,"distance":0},{"name":"Old Navy","code":null,"latitude":38.77502,"longitude":-90.70015,"address":"2243 Highway K, O FALLON MO","chain_name":null,"distance":0},{"name":"Old Navy","code":null,"latitude":35.867,"longitude":-78.53817,"address":"5900 Poyner Anchor, RALEIGH NC","chain_name":null,"distance":0},{"name":"Old Navy","code":null,"latitude":42.07317,"longitude":-78.41214,"address":"1743 Plaza Dr, OLEAN NY","chain_name":null,"distance":0},{"name":"Old Navy","code":null,"latitude":42.78275,"longitude":-73.89283,"address":"402 Balltown Rd, SCHENECTADY NY","chain_name":null,"distance":0},{"name":"Old Navy","code":null,"latitude":39.76744,"longitude":-84.05138,"address":"2720 Towne Dr, BEAVERCREEK OH","chain_name":null,"distance":0},{"name":"Old Navy","code":null,"latitude":39.96153,"longitude":-83.12517,"address":"1852 Hilliard Rome Rd, COLUMBUS OH","chain_name":null,"distance":0},{"name":"Old Navy","code":null,"latitude":43.51377,"longitude":-80.24216,"address":"435 Stone Rd W, GUELPH ON","chain_name":null,"distance":0},{"name":"Old Navy","code":null,"latitude":42.92922,"longitude":-81.21935,"address":"1270 Wellington Rd, LONDON ON","chain_name":null,"distance":0},{"name":"Old Navy","code":null,"latitude":45.53204,"longitude":-122.6523,"address":"2201 Lloyd Ctr, PORTLAND OR","chain_name":null,"distance":0},{"name":"Old Navy","code":null,"latitude":40.23904,"longitude":-75.24313,"address":"33 Airport Sq, NORTH WALES PA","chain_name":null,"distance":0},{"name":"Old Navy","code":null,"latitude":41.51178,"longitude":-71.31773,"address":"199 Connell Hwy, NEWPORT RI","chain_name":null,"distance":0},{"name":"Old Navy","code":null,"latitude":34.18896,"longitude":-79.8063,"address":"1945 W Palmetto St, FLORENCE SC","chain_name":null,"distance":0},{"name":"Old Navy","code":null,"latitude":36.15487,"longitude":-85.51572,"address":"377 W Jackson St, COOKEVILLE TN","chain_name":null,"distance":0},{"name":"Old Navy","code":null,"latitude":35.66795,"longitude":-88.84221,"address":"1101 Vann Dr, JACKSON TN","chain_name":null,"distance":0},{"name":"Old Navy","code":null,"latitude":32.57095,"longitude":-97.3198,"address":"12868 South Fwy, BURLESON TX","chain_name":null,"distance":0},{"name":"Old Navy","code":null,"latitude":33.19161,"longitude":-97.09932,"address":"1800 S Loop 288, DENTON TX","chain_name":null,"distance":0},{"name":"Old Navy","code":null,"latitude":31.36835,"longitude":-94.70853,"address":"4505 S Medford Dr, LUFKIN TX","chain_name":null,"distance":0},{"name":"Old Navy","code":null,"latitude":33.17168,"longitude":-96.64393,"address":"2950 Craig Dr, MC KINNEY TX","chain_name":null,"distance":0},{"name":"Old Navy","code":null,"latitude":33.45365,"longitude":-94.10243,"address":"4246 Saint Michael Dr, TEXARKANA TX","chain_name":null,"distance":0},{"name":"Old Navy","code":null,"latitude":31.50672,"longitude":-97.10719,"address":"2416 W Loop 340, WACO TX","chain_name":null,"distance":0},{"name":"Old Navy","code":null,"latitude":40.37702,"longitude":-111.81606,"address":"678 W Main St, AMERICAN FORK UT","chain_name":null,"distance":0},{"name":"Old Navy","code":null,"latitude":48.45056,"longitude":-122.33865,"address":"1883 Marketplace Dr, BURLINGTON WA","chain_name":null,"distance":0},{"name":"Old Navy","code":null,"latitude":43.03862,"longitude":-87.91197,"address":"161 W Wisconsin Ave, MILWAUKEE WI","chain_name":null,"distance":0},{"name":"Old Navy","code":null,"latitude":42.70444,"longitude":-87.8522,"address":"2380 S Greenbay Rd, RACINE WI","chain_name":null,"distance":0},{"name":"Old Navy","code":null,"latitude":44.9246,"longitude":-89.65304,"address":"3651 Rib Mountain Dr, WAUSAU WI","chain_name":null,"distance":0},{"name":"Old Navy","code":null,"latitude":32.9398,"longitude":-96.6093,"address":"420 Coneflower Dr, GARLAND TX","chain_name":null,"distance":0},{"name":"Old Navy","code":null,"latitude":50.99667,"longitude":-114.07137,"address":"2525 36th St Ne, CALGARY AB","chain_name":null,"distance":0},{"name":"Old Navy","code":null,"latitude":53.45315,"longitude":-113.48467,"address":"1978 99th St, EDMONTON AB","chain_name":null,"distance":0},{"name":"Old Navy","code":null,"latitude":30.37464,"longitude":-87.68291,"address":"2601 S McKenzie St, FOLEY AL","chain_name":null,"distance":0},{"name":"Old Navy","code":null,"latitude":30.72486,"longitude":-87.91489,"address":"10200 Eastern Shore Blvd, SPANISH FORT AL","chain_name":null,"distance":0},{"name":"Old Navy","code":null,"latitude":35.09099,"longitude":-92.41414,"address":"700 Elsinger Blvd, CONWAY AR","chain_name":null,"distance":0},{"name":"Old Navy","code":null,"latitude":33.9852,"longitude":-118.39484,"address":"289 Fox Hills Mall, CULVER CITY CA","chain_name":null,"distance":0},{"name":"Old Navy","code":null,"latitude":37.01863,"longitude":-121.56075,"address":"950 Renz Ln, GILROY CA","chain_name":null,"distance":0},{"name":"Old Navy","code":null,"latitude":37.63603,"longitude":-122.42053,"address":"1150 El Camino Real, SAN BRUNO CA","chain_name":null,"distance":0},{"name":"Old Navy","code":null,"latitude":37.2506,"longitude":-121.86235,"address":"925 Blossom Hill Rd, SAN JOSE CA","chain_name":null,"distance":0},{"name":"Old Navy","code":null,"latitude":39.59779,"longitude":-104.69278,"address":"23901 E Orchard Rd, AURORA CO","chain_name":null,"distance":0},{"name":"Old Navy","code":null,"latitude":28.26137,"longitude":-81.43435,"address":"3256 N John Young Pkwy, KISSIMMEE FL","chain_name":null,"distance":0},{"name":"Old Navy","code":null,"latitude":28.79487,"longitude":-81.33588,"address":"1400 Rinehart Rd, SANFORD FL","chain_name":null,"distance":0},{"name":"Old Navy","code":null,"latitude":33.64878,"longitude":-84.39158,"address":"261 19th St NW, ATLANTA GA","chain_name":null,"distance":0},{"name":"Old Navy","code":null,"latitude":42.45988,"longitude":-96.31022,"address":"5001 Sergeant Rd, SIOUX CITY IA","chain_name":null,"distance":0},{"name":"Old Navy","code":null,"latitude":41.59727,"longitude":-87.5519,"address":"490 River Oaks W, CALUMET CITY IL","chain_name":null,"distance":0},{"name":"Old Navy","code":null,"latitude":42.23673,"longitude":-87.94375,"address":"413 N Milwaukee Ave, VERNON HILLS IL","chain_name":null,"distance":0},{"name":"Old Navy","code":null,"latitude":39.91092,"longitude":-86.26425,"address":"5910 W 86th St, INDIANAPOLIS IN","chain_name":null,"distance":0},{"name":"Old Navy","code":null,"latitude":39.69064,"longitude":-86.3997,"address":"313 Metropolis Mile, PLAINFIELD IN","chain_name":null,"distance":0},{"name":"Old Navy","code":null,"latitude":32.49983,"longitude":-92.05607,"address":"4700 Millhaven Rd, MONROE LA","chain_name":null,"distance":0},{"name":"Old Navy","code":null,"latitude":42.46302,"longitude":-71.02498,"address":"1277 Broadway, SAUGUS MA","chain_name":null,"distance":0},{"name":"Old Navy","code":null,"latitude":44.82554,"longitude":-68.75784,"address":"480 Stillwater Ave, BANGOR ME","chain_name":null,"distance":0},{"name":"Old Navy","code":null,"latitude":45.02765,"longitude":-84.71653,"address":"2450 W M 32, GAYLORD MI","chain_name":null,"distance":0},{"name":"Old Navy","code":null,"latitude":44.16618,"longitude":-93.25879,"address":"6750 W Frontage Rd, MEDFORD MN","chain_name":null,"distance":0},{"name":"Old Navy","code":null,"latitude":45.54992,"longitude":-94.2066,"address":"3959 2nd St S, SAINT CLOUD MN","chain_name":null,"distance":0},{"name":"Old Navy","code":null,"latitude":38.95762,"longitude":-92.37154,"address":"207 N Stadium Blvd, COLUMBIA MO","chain_name":null,"distance":0},{"name":"Old Navy","code":null,"latitude":38.51164,"longitude":-90.44672,"address":"725 Gravois Rd, FENTON MO","chain_name":null,"distance":0},{"name":"Old Navy","code":null,"latitude":38.97317,"longitude":-94.60647,"address":"8600 Ward Pkwy, KANSAS CITY MO","chain_name":null,"distance":0},{"name":"Old Navy","code":null,"latitude":36.03028,"longitude":-79.48452,"address":"1453 University Dr, BURLINGTON NC","chain_name":null,"distance":0},{"name":"Old Navy","code":null,"latitude":35.583,"longitude":-77.37333,"address":"530C Greenville Blvd SE # C, GREENVILLE NC","chain_name":null,"distance":0},{"name":"Old Navy","code":null,"latitude":39.9389,"longitude":-75.02641,"address":"2100 Route 38, CHERRY HILL NJ","chain_name":null,"distance":0},{"name":"Old Navy","code":null,"latitude":41.87926,"longitude":-80.75288,"address":"3315 N Ridge Rd E, ASHTABULA OH","chain_name":null,"distance":0},{"name":"Old Navy","code":null,"latitude":43.72832,"longitude":-79.45338,"address":"1 Yorkdale Rd, NORTH YORK ON","chain_name":null,"distance":0},{"name":"Old Navy","code":null,"latitude":45.42602,"longitude":-75.69221,"address":"50 Rideau St, OTTAWA ON","chain_name":null,"distance":0},{"name":"Old Navy","code":null,"latitude":44.6289,"longitude":-123.07948,"address":"2095 14th Ave SE, ALBANY OR","chain_name":null,"distance":0},{"name":"Old Navy","code":null,"latitude":40.44631,"longitude":-80.17787,"address":"180 Quinn Dr, PITTSBURGH PA","chain_name":null,"distance":0},{"name":"Old Navy","code":null,"latitude":40.34468,"longitude":-75.97,"address":"1045 Woodland Rd, READING PA","chain_name":null,"distance":0},{"name":"Old Navy","code":null,"latitude":32.40823,"longitude":-99.77673,"address":"3601 Catclaw Dr, ABILENE TX","chain_name":null,"distance":0},{"name":"Old Navy","code":null,"latitude":30.6329,"longitude":-97.69314,"address":"1019 W University Ave, GEORGETOWN TX","chain_name":null,"distance":0},{"name":"Old Navy","code":null,"latitude":41.18786,"longitude":-111.98437,"address":"4125 Riverdale Rd, OGDEN UT","chain_name":null,"distance":0},{"name":"Old Navy","code":null,"latitude":36.82409,"longitude":-76.40948,"address":"4107 Portsmouth Blvd, CHESAPEAKE VA","chain_name":null,"distance":0},{"name":"Old Navy","code":null,"latitude":38.43414,"longitude":-78.84658,"address":"1925 E Market St, HARRISONBURG VA","chain_name":null,"distance":0},{"name":"Old Navy","code":null,"latitude":38.91914,"longitude":-77.22595,"address":"1961 Chain Bridge Rd, MCLEAN VA","chain_name":null,"distance":0},{"name":"Old Navy","code":null,"latitude":37.5057,"longitude":-77.60893,"address":"11500 Midlothian Tpke, RICHMOND VA","chain_name":null,"distance":0},{"name":"Old Navy","code":null,"latitude":43.58063,"longitude":-72.96108,"address":"610 Diamond Run Mall, RUTLAND VT","chain_name":null,"distance":0},{"name":"Old Navy","code":null,"latitude":47.91162,"longitude":-122.21513,"address":"1402 SE Everett Mall Way, EVERETT WA","chain_name":null,"distance":0},{"name":"Old Navy","code":null,"latitude":47.65424,"longitude":-122.68027,"address":"9551 Ridgetop Blvd NW, SILVERDALE WA","chain_name":null,"distance":0},{"name":"Old Navy","code":null,"latitude":43.09048,"longitude":-88.76449,"address":"642 Linmar Ln, JOHNSON CREEK WI","chain_name":null,"distance":0},{"name":"Old Navy","code":null,"latitude":43.88253,"longitude":-91.17175,"address":"9344 State Road 16, ONALASKA WI","chain_name":null,"distance":0},{"name":"Old Navy","code":null,"latitude":39.64639,"longitude":-80.08529,"address":"4021 University Town Centre Dr, MORGANTOWN WV","chain_name":null,"distance":0},{"name":"Old Navy","code":null,"latitude":39.30125,"longitude":-81.54833,"address":"100 Grand Central Ave, VIENNA WV","chain_name":null,"distance":0},{"name":"Old Navy","code":null,"latitude":33.22422,"longitude":-86.78975,"address":"300 Colonial Promenade Pkwy, ALABASTER AL","chain_name":null,"distance":0},{"name":"Old Navy","code":null,"latitude":33.92593,"longitude":-118.13076,"address":"12090 Lakewood Blvd, DOWNEY CA","chain_name":null,"distance":0},{"name":"Old Navy","code":null,"latitude":38.44909,"longitude":-104.60557,"address":"5819 N Elizabeth St, PUEBLO CO","chain_name":null,"distance":0},{"name":"Old Navy","code":null,"latitude":38.29066,"longitude":-76.52927,"address":"45215 Worth Ave, CALIFORNIA MD","chain_name":null,"distance":0},{"name":"Old Navy","code":null,"latitude":42.2601,"longitude":-83.2108,"address":"3260 Fairlane Dr, ALLEN PARK MI","chain_name":null,"distance":0},{"name":"Old Navy","code":null,"latitude":39.3903,"longitude":-84.49903,"address":"3505 Princeton Road, HAMILTON OH","chain_name":null,"distance":0},{"name":"Old Navy","code":null,"latitude":37.24958,"longitude":-77.38874,"address":"721 SOUTHPARK BLVD, COLONIAL HEIGHTS VA","chain_name":null,"distance":0},{"name":"Old Navy","code":null,"latitude":39.15632,"longitude":-78.17408,"address":"2440 S Pleasant Valley Rd, WINCHESTER VA","chain_name":null,"distance":0},{"name":"Old Navy","code":null,"latitude":52.23213,"longitude":-113.84387,"address":"2004 50 Ave, RED DEER AB","chain_name":null,"distance":0},{"name":"Old Navy","code":null,"latitude":36.80801,"longitude":-119.85924,"address":"3675 W Shaw Ave, FRESNO CA","chain_name":null,"distance":0},{"name":"Old Navy","code":null,"latitude":33.65116,"longitude":-117.74658,"address":"71 Fortune Dr, IRVINE CA","chain_name":null,"distance":0},{"name":"Old Navy","code":null,"latitude":38.31395,"longitude":-85.76858,"address":"1025 Veterans Pkwy, CLARKSVILLE IN","chain_name":null,"distance":0},{"name":"Old Navy","code":null,"latitude":49.82994,"longitude":-97.11467,"address":"1225 St. Mary's Rd, WINNEPEG MB","chain_name":null,"distance":0},{"name":"Old Navy","code":null,"latitude":38.41177,"longitude":-75.56775,"address":"2637 N Salisbury Blvd, SALISBURY MD","chain_name":null,"distance":0},{"name":"Old Navy","code":null,"latitude":31.31672,"longitude":-89.42473,"address":"6143 U S Highway 98, HATTIESBURG MS","chain_name":null,"distance":0},{"name":"Old Navy","code":null,"latitude":35.38063,"longitude":-77.93293,"address":"1205 N Berkeley Blvd, GOLDSBORO NC","chain_name":null,"distance":0},{"name":"Old Navy","code":null,"latitude":42.95652,"longitude":-71.43554,"address":"1500 S Willow St, MANCHESTER NH","chain_name":null,"distance":0},{"name":"Old Navy","code":null,"latitude":42.95453,"longitude":-76.91491,"address":"755 State Route 318, WATERLOO NY","chain_name":null,"distance":0},{"name":"Old Navy","code":null,"latitude":43.20995,"longitude":-77.45245,"address":"1034 Ridge Rd, WEBSTER NY","chain_name":null,"distance":0},{"name":"Old Navy","code":null,"latitude":29.5629,"longitude":-95.38464,"address":"2708 Smith Ranch Rd, PEARLAND TX","chain_name":null,"distance":0},{"name":"Old Navy","code":null,"latitude":43.98413,"longitude":-88.5834,"address":"3001 S Washburn St, OSHKOSH WI","chain_name":null,"distance":0},{"name":"Old Navy","code":null,"latitude":41.17137,"longitude":-80.07517,"address":"1911 Leesburg Grove City Rd, GROVE CITY PA","chain_name":null,"distance":0}]