[{"name":"Olive Garden Italian Restaurant","code":null,"latitude":42.88312,"longitude":-85.7496,"address":"4499 Potomac Avenue Southwest, Grandville MI","chain_name":null,"distance":0},{"name":"Olive Garden Italian Restaurant","code":null,"latitude":46.60268,"longitude":-120.5035,"address":"222 East Yakima Avenue, Yakima WA","chain_name":null,"distance":0},{"name":"Olive Garden Italian Restaurant","code":null,"latitude":43.49624,"longitude":-112.0527,"address":"1305 West Broadway Street, Idaho Falls ID","chain_name":null,"distance":0},{"name":"Olive Garden Italian Restaurant","code":null,"latitude":33.87193,"longitude":-117.742,"address":"22633 Oakcrest Circle, Yorba Linda CA","chain_name":null,"distance":0},{"name":"Olive Garden Italian Restaurant","code":null,"latitude":32.75236,"longitude":-117.2068,"address":"3215 Sports Arena Boulevard, San Diego CA","chain_name":null,"distance":0},{"name":"Olive Garden Italian Restaurant","code":null,"latitude":33.91626,"longitude":-117.8831,"address":"270 Brea Mall, Brea CA","chain_name":null,"distance":0},{"name":"Olive Garden Italian Restaurant","code":null,"latitude":34.42102,"longitude":-118.5629,"address":"27003 McBean Parkway, Santa Clarita CA","chain_name":null,"distance":0},{"name":"Olive Garden Italian Restaurant","code":null,"latitude":32.34723,"longitude":-86.2222,"address":"2700 Eastern Boulevard, Montgomery AL","chain_name":null,"distance":0},{"name":"Olive Garden Italian Restaurant","code":null,"latitude":41.03642,"longitude":-111.9331,"address":"675 West South Ring Road, Kaysville UT","chain_name":null,"distance":0},{"name":"Olive Garden Italian Restaurant","code":null,"latitude":39.87803,"longitude":-83.0373,"address":"1514 Stringtown Road, Grove City OH","chain_name":null,"distance":0},{"name":"Olive Garden Italian Restaurant","code":null,"latitude":28.47127,"longitude":-81.4035,"address":"5900 Lake Ellenor Drive, Orlando FL","chain_name":null,"distance":0},{"name":"Olive Garden Italian Restaurant","code":null,"latitude":39.91421,"longitude":-104.9725,"address":"1151 East 120th Avenue, Denver CO","chain_name":null,"distance":0},{"name":"Olive Garden Italian Restaurant","code":null,"latitude":41.84998,"longitude":-87.8111,"address":"7513 West Cermak Road, Riverside IL","chain_name":null,"distance":0},{"name":"Olive Garden Italian Restaurant","code":null,"latitude":28.91825,"longitude":-81.2958,"address":"2530 Enterprise Road, Orange City FL","chain_name":null,"distance":0},{"name":"Olive Garden Italian Restaurant","code":null,"latitude":34.22405,"longitude":-119.1518,"address":"1891 East Ventura Boulevard, Oxnard CA","chain_name":null,"distance":0},{"name":"Olive Garden Italian Restaurant","code":null,"latitude":33.80271,"longitude":-118.0129,"address":"6874 Katella Avenue, Cypress CA","chain_name":null,"distance":0},{"name":"Olive Garden Italian Restaurant","code":null,"latitude":39.03232,"longitude":-77.4099,"address":"45970 Waterview Plaza, Herndon VA","chain_name":null,"distance":0},{"name":"Olive Garden Italian Restaurant","code":null,"latitude":38.91526,"longitude":-77.2262,"address":"8133 Leesburg Pike, Vienna VA","chain_name":null,"distance":0},{"name":"Olive Garden Italian Restaurant","code":null,"latitude":26.25016,"longitude":-80.2534,"address":"1555 North University Drive, Coral Springs FL","chain_name":null,"distance":0},{"name":"Olive Garden Italian Restaurant","code":null,"latitude":42.14082,"longitude":-72.4975,"address":"1380 Boston Road, Springfield MA","chain_name":null,"distance":0},{"name":"Olive Garden Italian Restaurant","code":null,"latitude":40.72093,"longitude":-111.8538,"address":"2272 South 1300 East, Salt Lake City UT","chain_name":null,"distance":0},{"name":"Olive Garden Italian Restaurant","code":null,"latitude":39.6705,"longitude":-75.7196,"address":"1279 New Churchmans Road, Newark DE","chain_name":null,"distance":0},{"name":"Olive Garden Italian Restaurant","code":null,"latitude":29.94209,"longitude":-95.5699,"address":"9632 West Fm 1960 Road, Houston TX","chain_name":null,"distance":0},{"name":"Olive Garden Italian Restaurant","code":null,"latitude":34.02777,"longitude":-84.3346,"address":"905 Holcomb Bridge Road, Roswell GA","chain_name":null,"distance":0},{"name":"Olive Garden Italian Restaurant","code":null,"latitude":38.04695,"longitude":-84.4962,"address":"Lexington KY","chain_name":null,"distance":0},{"name":"Olive Garden Italian Restaurant","code":null,"latitude":38.77305,"longitude":-121.2657,"address":"1160 Galleria Boulevard, Roseville CA","chain_name":null,"distance":0},{"name":"Olive Garden Italian Restaurant","code":null,"latitude":43.08709,"longitude":-77.6315,"address":"532 Jefferson Road, Rochester NY","chain_name":null,"distance":0},{"name":"Olive Garden Italian Restaurant","code":null,"latitude":38.94531,"longitude":-104.8008,"address":"7815 North Academy Boulevard, Colorado Springs CO","chain_name":null,"distance":0},{"name":"Olive Garden Italian Restaurant","code":null,"latitude":26.18899,"longitude":-98.2254,"address":"222 West Expressway 83, Mcallen TX","chain_name":null,"distance":0},{"name":"Olive Garden Italian Restaurant","code":null,"latitude":43.88328,"longitude":-91.1714,"address":"9413 State Road 16, Onalaska WI","chain_name":null,"distance":0},{"name":"Olive Garden Italian Restaurant","code":null,"latitude":40.14291,"longitude":-82.989,"address":"1250 Polaris Parkway, Columbus OH","chain_name":null,"distance":0},{"name":"Olive Garden Italian Restaurant","code":null,"latitude":37.75939,"longitude":-121.4622,"address":"3140 Naglee Road, Tracy CA","chain_name":null,"distance":0},{"name":"Olive Garden Italian Restaurant","code":null,"latitude":34.60305,"longitude":-118.1861,"address":"1051 W Rancho Vista Blvd, Palmdale CA","chain_name":null,"distance":0},{"name":"Olive Garden Italian Restaurant","code":null,"latitude":33.73052,"longitude":-116.4041,"address":"72225 Highway 111, Palm Desert CA","chain_name":null,"distance":0},{"name":"Olive Garden Italian Restaurant","code":null,"latitude":32.68276,"longitude":-97.3961,"address":"4700 Southwest Loop 820, Fort Worth TX","chain_name":null,"distance":0},{"name":"Olive Garden Italian Restaurant","code":null,"latitude":38.59813,"longitude":-121.425,"address":"1780 Challenge Way, Sacramento CA","chain_name":null,"distance":0},{"name":"Olive Garden Italian Restaurant","code":null,"latitude":38.84991,"longitude":-77.1185,"address":"3548 S Jefferson Street # 52, Falls Church VA","chain_name":null,"distance":0},{"name":"Olive Garden Italian Restaurant","code":null,"latitude":43.03201,"longitude":-82.4561,"address":"4210 24th Avenue, Fort Gratiot MI","chain_name":null,"distance":0},{"name":"Olive Garden Italian Restaurant","code":null,"latitude":42.24404,"longitude":-83.7373,"address":"445 East Eisenhower Parkway, Ann Arbor MI","chain_name":null,"distance":0},{"name":"Olive Garden Italian Restaurant","code":null,"latitude":30.18213,"longitude":-81.5558,"address":"10144 Philips Highway, Jacksonville FL","chain_name":null,"distance":0},{"name":"Olive Garden Italian Restaurant","code":null,"latitude":36.32695,"longitude":-119.314,"address":"4110 South Mooney Boulevard, Visalia CA","chain_name":null,"distance":0},{"name":"Olive Garden Italian Restaurant","code":null,"latitude":29.78315,"longitude":-95.5368,"address":"1000 Memorial City Way, Houston TX","chain_name":null,"distance":0},{"name":"Olive Garden Italian Restaurant","code":null,"latitude":39.18792,"longitude":-76.7987,"address":"8315 Benson Drive, Columbia MD","chain_name":null,"distance":0},{"name":"Olive Garden Italian Restaurant","code":null,"latitude":40.2846,"longitude":-74.0502,"address":"230 State Route 35 South, Eatontown NJ","chain_name":null,"distance":0},{"name":"Olive Garden Italian Restaurant","code":null,"latitude":42.95499,"longitude":-71.4358,"address":"1888 South Willow Street, Manchester NH","chain_name":null,"distance":0},{"name":"Olive Garden Italian Restaurant","code":null,"latitude":36.29507,"longitude":-86.7001,"address":"1711 Gallatin Pike North, Madison TN","chain_name":null,"distance":0},{"name":"Olive Garden Italian Restaurant","code":null,"latitude":33.61139,"longitude":-117.7211,"address":"24256 El Toro Road, Laguna Hills CA","chain_name":null,"distance":0},{"name":"Olive Garden Italian Restaurant","code":null,"latitude":37.69108,"longitude":-97.2446,"address":"323 North Rock Road, Wichita KS","chain_name":null,"distance":0},{"name":"Olive Garden Italian Restaurant","code":null,"latitude":35.36953,"longitude":-80.7135,"address":"8010 Concord Mills Boulevard, Concord NC","chain_name":null,"distance":0},{"name":"Olive Garden Italian Restaurant","code":null,"latitude":38.84197,"longitude":-104.7574,"address":"513 North Academy Boulevard, Colorado Springs CO","chain_name":null,"distance":0},{"name":"Olive Garden Italian Restaurant","code":null,"latitude":45.02799,"longitude":-93.0294,"address":"1749 Beam Avenue, Saint Paul MN","chain_name":null,"distance":0},{"name":"Olive Garden Italian Restaurant","code":null,"latitude":33.51704,"longitude":-117.1611,"address":"29025 Overland Drive, Temecula CA","chain_name":null,"distance":0},{"name":"Olive Garden Italian Restaurant","code":null,"latitude":43.0539,"longitude":-76.0785,"address":"3147 East Erie Boulevard, De Witt NY","chain_name":null,"distance":0},{"name":"Olive Garden Italian Restaurant","code":null,"latitude":39.61952,"longitude":-105.0911,"address":"5380 South Wadsworth Boulevard, Littleton CO","chain_name":null,"distance":0},{"name":"Olive Garden Italian Restaurant","code":null,"latitude":41.07913,"longitude":-111.9783,"address":"Kaysville UT","chain_name":null,"distance":0},{"name":"Olive Garden Italian Restaurant","code":null,"latitude":34.14643,"longitude":-118.2552,"address":"101 N Brand Blvd, Glendale CA","chain_name":null,"distance":0},{"name":"Olive Garden Italian Restaurant","code":null,"latitude":34.07122,"longitude":-117.5572,"address":"4403 Mills Circle, Ontario CA","chain_name":null,"distance":0},{"name":"Olive Garden Italian Restaurant","code":null,"latitude":39.77198,"longitude":-84.0498,"address":"2865 Centre Drive, Fairborn OH","chain_name":null,"distance":0},{"name":"Olive Garden Italian Restaurant","code":null,"latitude":47.82097,"longitude":-122.2903,"address":"4221 196th Street Southwest, Lynnwood WA","chain_name":null,"distance":0},{"name":"Olive Garden Italian Restaurant","code":null,"latitude":37.37404,"longitude":-122.0509,"address":"1081 W Olive Ave, Sunnyvale CA","chain_name":null,"distance":0},{"name":"Olive Garden Italian Restaurant","code":null,"latitude":42.19888,"longitude":-83.21,"address":"15355 Eureka Road, Southgate MI","chain_name":null,"distance":0},{"name":"Olive Garden Italian Restaurant","code":null,"latitude":41.51053,"longitude":-87.5355,"address":"5220 West 211th Street, Chicago Heights IL","chain_name":null,"distance":0},{"name":"Olive Garden Italian Restaurant","code":null,"latitude":30.1696,"longitude":-85.6502,"address":"2397 Martin Luther King J, Panama City FL","chain_name":null,"distance":0},{"name":"Olive Garden Italian Restaurant","code":null,"latitude":27.54793,"longitude":-99.5027,"address":"5319 San Dario Avenue, Laredo TX","chain_name":null,"distance":0},{"name":"Olive Garden Italian Restaurant","code":null,"latitude":36.16038,"longitude":-115.0619,"address":"80 North Nellis Boulevard, Las Vegas NV","chain_name":null,"distance":0},{"name":"Olive Garden Italian Restaurant","code":null,"latitude":39.07167,"longitude":-84.3089,"address":"475 Ohio Pike, Cincinnati OH","chain_name":null,"distance":0},{"name":"Olive Garden Italian Restaurant","code":null,"latitude":41.69993,"longitude":-83.6466,"address":"5120 Monroe Street, Toledo OH","chain_name":null,"distance":0},{"name":"Olive Garden Italian Restaurant","code":null,"latitude":34.08617,"longitude":-117.698,"address":"9251 Monte Vista Avenue, Montclair CA","chain_name":null,"distance":0},{"name":"Olive Garden Italian Restaurant","code":null,"latitude":28.8239,"longitude":-81.79,"address":"10026 US Highway 441, Leesburg FL","chain_name":null,"distance":0},{"name":"Olive Garden Italian Restaurant","code":null,"latitude":26.65111,"longitude":-80.2083,"address":"10280 West Forest Hill Boulevard, Wellington FL","chain_name":null,"distance":0},{"name":"Olive Garden Italian Restaurant","code":null,"latitude":42.90872,"longitude":-78.7608,"address":"2011 Walden Avenue, Buffalo NY","chain_name":null,"distance":0},{"name":"Olive Garden Italian Restaurant","code":null,"latitude":33.93465,"longitude":-84.3379,"address":"4749 Ashford Dunwoody Road, Roswell GA","chain_name":null,"distance":0},{"name":"Olive Garden Italian Restaurant","code":null,"latitude":33.21502,"longitude":-96.636,"address":"1700 North Central Expressway, Mckinney TX","chain_name":null,"distance":0},{"name":"Olive Garden Italian Restaurant","code":null,"latitude":43.0605,"longitude":-89.5033,"address":"7017 Mineral Point Road, Madison WI","chain_name":null,"distance":0},{"name":"Olive Garden Italian Restaurant","code":null,"latitude":41.37235,"longitude":-81.8439,"address":"17500 Bagley Road, Berea OH","chain_name":null,"distance":0},{"name":"Olive Garden Italian Restaurant","code":null,"latitude":42.21944,"longitude":-85.5893,"address":"6700 South Westnedge Avenue, Portage MI","chain_name":null,"distance":0},{"name":"Olive Garden Italian Restaurant","code":null,"latitude":35.57335,"longitude":-97.6739,"address":"1844 Northwest Expressway Street, Oklahoma City OK","chain_name":null,"distance":0},{"name":"Olive Garden Italian Restaurant","code":null,"latitude":34.23536,"longitude":-118.5629,"address":"19724 Nordhoff Pl, Chatsworth CA","chain_name":null,"distance":0},{"name":"Olive Garden Italian Restaurant","code":null,"latitude":37.34955,"longitude":-79.1856,"address":"4038 Wards Road, Lynchburg VA","chain_name":null,"distance":0},{"name":"Olive Garden Italian Restaurant","code":null,"latitude":30.19751,"longitude":-93.2492,"address":"1721 West Prien Lake Road, Lake Charles LA","chain_name":null,"distance":0},{"name":"Olive Garden Italian Restaurant","code":null,"latitude":43.63408,"longitude":-70.321,"address":"200 Gorham Road, South Portland ME","chain_name":null,"distance":0},{"name":"Olive Garden Italian Restaurant","code":null,"latitude":39.03243,"longitude":-95.762,"address":"1925 Southwest Wanamaker Road, Topeka KS","chain_name":null,"distance":0},{"name":"Olive Garden Italian Restaurant","code":null,"latitude":35.83575,"longitude":-83.572,"address":"1570 Parkway, Sevierville TN","chain_name":null,"distance":0},{"name":"Olive Garden Italian Restaurant","code":null,"latitude":33.64787,"longitude":-78.94,"address":"4701 South Kings Highway, Myrtle Beach SC","chain_name":null,"distance":0},{"name":"Olive Garden Italian Restaurant","code":null,"latitude":41.20958,"longitude":-80.7489,"address":"5740 Youngstown Warren Road, Niles OH","chain_name":null,"distance":0},{"name":"Olive Garden Italian Restaurant","code":null,"latitude":39.72405,"longitude":-121.8062,"address":"2020 Business Lane, Chico CA","chain_name":null,"distance":0},{"name":"Olive Garden Italian Restaurant","code":null,"latitude":35.07866,"longitude":-106.5152,"address":"601 Juan Tabo Boulevard Northeast, Albuquerque NM","chain_name":null,"distance":0},{"name":"Olive Garden Italian Restaurant","code":null,"latitude":30.15199,"longitude":-95.4488,"address":"26715 Interstate 45, Spring TX","chain_name":null,"distance":0},{"name":"Olive Garden Italian Restaurant","code":null,"latitude":43.03653,"longitude":-88.1397,"address":"18180 West Bluemound Road, Brookfield WI","chain_name":null,"distance":0},{"name":"Olive Garden Italian Restaurant","code":null,"latitude":29.15703,"longitude":-82.178,"address":"3363 Southwest College Road, Ocala FL","chain_name":null,"distance":0},{"name":"Olive Garden Italian Restaurant","code":null,"latitude":39.73438,"longitude":-82.6242,"address":"2093 Schorrway Drive Northwest, Lancaster OH","chain_name":null,"distance":0},{"name":"Olive Garden Italian Restaurant","code":null,"latitude":28.99484,"longitude":-82.5219,"address":"8306 North Citrus Springs Boulevard, Citrus Spgs FL","chain_name":null,"distance":0},{"name":"Olive Garden Italian Restaurant","code":null,"latitude":39.84148,"longitude":-88.9512,"address":"444 East Main Street, Decatur IL","chain_name":null,"distance":0},{"name":"Olive Garden Italian Restaurant","code":null,"latitude":41.72702,"longitude":-72.7575,"address":"1445 New Britain Avenue, West Hartford CT","chain_name":null,"distance":0},{"name":"Olive Garden Italian Restaurant","code":null,"latitude":45.41745,"longitude":-122.7427,"address":"6355 Meadows Road, Lake Oswego OR","chain_name":null,"distance":0},{"name":"Olive Garden Italian Restaurant","code":null,"latitude":47.15659,"longitude":-122.3038,"address":"3803 9th Street Southwest, Puyallup WA","chain_name":null,"distance":0},{"name":"Olive Garden Italian Restaurant","code":null,"latitude":40.63506,"longitude":-75.4753,"address":"715 Grape Street, Whitehall PA","chain_name":null,"distance":0},{"name":"Olive Garden Italian Restaurant","code":null,"latitude":39.38525,"longitude":-77.4068,"address":"5609 Spectrum Drive, Frederick MD","chain_name":null,"distance":0},{"name":"Olive Garden Italian Restaurant","code":null,"latitude":33.39401,"longitude":-111.6971,"address":"6201 East Southern Avenue, Mesa AZ","chain_name":null,"distance":0},{"name":"Olive Garden Italian Restaurant","code":null,"latitude":34.1401,"longitude":-118.0209,"address":"430 East Huntington Drive, Arcadia CA","chain_name":null,"distance":0},{"name":"Olive Garden Italian Restaurant","code":null,"latitude":29.61312,"longitude":-90.7559,"address":"1757 Mrtn Lthr Kng Jr, Houma LA","chain_name":null,"distance":0},{"name":"Olive Garden Italian Restaurant","code":null,"latitude":42.34355,"longitude":-87.9014,"address":"961 Lakehurst, Waukegan IL","chain_name":null,"distance":0},{"name":"Olive Garden Italian Restaurant","code":null,"latitude":41.56031,"longitude":-90.5772,"address":"330 West Kimberly Road, Davenport IA","chain_name":null,"distance":0},{"name":"Olive Garden Italian Restaurant","code":null,"latitude":43.60848,"longitude":-116.2841,"address":"320 North Milwaukee Street, Boise ID","chain_name":null,"distance":0},{"name":"Olive Garden Italian Restaurant","code":null,"latitude":36.04953,"longitude":-79.8347,"address":"3000 High Point Road, Greensboro NC","chain_name":null,"distance":0},{"name":"Olive Garden Italian Restaurant","code":null,"latitude":37.61154,"longitude":-77.5201,"address":"7113 West Broad Street, Richmond VA","chain_name":null,"distance":0},{"name":"Olive Garden Italian Restaurant","code":null,"latitude":41.78799,"longitude":-88.0936,"address":"Lisle IL","chain_name":null,"distance":0},{"name":"Olive Garden Italian Restaurant","code":null,"latitude":41.72718,"longitude":-85.9721,"address":"3003 Brittany Court, Elkhart IN","chain_name":null,"distance":0},{"name":"Olive Garden Italian Restaurant","code":null,"latitude":26.61906,"longitude":-80.1343,"address":"5801 Lake Worth Road, Greenacres FL","chain_name":null,"distance":0},{"name":"Olive Garden Italian Restaurant","code":null,"latitude":41.75418,"longitude":-111.8342,"address":"1220 North Main Street, Logan UT","chain_name":null,"distance":0},{"name":"Olive Garden Italian Restaurant","code":null,"latitude":39.66745,"longitude":-80.0349,"address":"1000 University Town Cent, Morgantown WV","chain_name":null,"distance":0},{"name":"Olive Garden Italian Restaurant","code":null,"latitude":42.91264,"longitude":-85.5716,"address":"3883 28th Street Southeast, Grand Rapids MI","chain_name":null,"distance":0},{"name":"Olive Garden Italian Restaurant","code":null,"latitude":41.7525,"longitude":-87.7458,"address":"4801 West 77th Street, Burbank IL","chain_name":null,"distance":0},{"name":"Olive Garden Italian Restaurant","code":null,"latitude":42.95889,"longitude":-88.0083,"address":"4760 76th Street, Milwaukee WI","chain_name":null,"distance":0},{"name":"Olive Garden Italian Restaurant","code":null,"latitude":39.76382,"longitude":-86.341,"address":"10243 East US Highway 36, Avon IN","chain_name":null,"distance":0},{"name":"Olive Garden Italian Restaurant","code":null,"latitude":27.93978,"longitude":-82.3244,"address":"2602 W Brandon Boulevard, Brandon FL","chain_name":null,"distance":0},{"name":"Olive Garden Italian Restaurant","code":null,"latitude":42.37764,"longitude":-87.9407,"address":"5590 Northridge Drive, Gurnee IL","chain_name":null,"distance":0},{"name":"Olive Garden Italian Restaurant","code":null,"latitude":28.09243,"longitude":-81.9738,"address":"3911 US Highway 98 North, Lakeland FL","chain_name":null,"distance":0},{"name":"Olive Garden Italian Restaurant","code":null,"latitude":42.38404,"longitude":-83.3334,"address":"14000 Middlebelt Road, Livonia MI","chain_name":null,"distance":0},{"name":"Olive Garden Italian Restaurant","code":null,"latitude":32.95438,"longitude":-96.838,"address":"4240 Belt Line Road, Addison TX","chain_name":null,"distance":0},{"name":"Olive Garden Italian Restaurant","code":null,"latitude":43.46014,"longitude":-83.9754,"address":"3630 Bay Road, Saginaw MI","chain_name":null,"distance":0},{"name":"Olive Garden Italian Restaurant","code":null,"latitude":35.03944,"longitude":-85.1553,"address":"2200 Hamilton Place Boulevard, Chattanooga TN","chain_name":null,"distance":0},{"name":"Olive Garden Italian Restaurant","code":null,"latitude":47.73315,"longitude":-116.7943,"address":"525 West Canfield Avenue, Coeur D Alene ID","chain_name":null,"distance":0},{"name":"Olive Garden Italian Restaurant","code":null,"latitude":47.45574,"longitude":-122.2538,"address":"310 Strander Boulevard, Tukwila WA","chain_name":null,"distance":0},{"name":"Olive Garden Italian Restaurant","code":null,"latitude":41.2496,"longitude":-76.9673,"address":"1825 East 3rd Street, Williamsport PA","chain_name":null,"distance":0},{"name":"Olive Garden Italian Restaurant","code":null,"latitude":34.06661,"longitude":-117.2753,"address":"460 East Hospitality Lane, San Bernardino CA","chain_name":null,"distance":0},{"name":"Olive Garden Italian Restaurant","code":null,"latitude":34.94145,"longitude":-80.9796,"address":"519 John Ross Parkway, Rock Hill SC","chain_name":null,"distance":0},{"name":"Olive Garden Italian Restaurant","code":null,"latitude":35.05662,"longitude":-106.5539,"address":"10500 10500 Coors Boulevar, Albuquerque NM","chain_name":null,"distance":0},{"name":"Olive Garden Italian Restaurant","code":null,"latitude":33.30577,"longitude":-111.9019,"address":"3430 West Chandler Boulevard, Chandler AZ","chain_name":null,"distance":0},{"name":"Olive Garden Italian Restaurant","code":null,"latitude":35.19103,"longitude":-101.8831,"address":"4121 West Interstate 40, Amarillo TX","chain_name":null,"distance":0},{"name":"Olive Garden Italian Restaurant","code":null,"latitude":41.18869,"longitude":-111.983,"address":"4079 Riverdale Road, Ogden UT","chain_name":null,"distance":0},{"name":"Olive Garden Italian Restaurant","code":null,"latitude":30.30963,"longitude":-89.8256,"address":"168 Northshore Boulevard, Slidell LA","chain_name":null,"distance":0},{"name":"Olive Garden Italian Restaurant","code":null,"latitude":35.59237,"longitude":-82.5307,"address":"121 Tunnel Road, Asheville NC","chain_name":null,"distance":0},{"name":"Olive Garden Italian Restaurant","code":null,"latitude":40.51172,"longitude":-111.8817,"address":"Draper UT","chain_name":null,"distance":0},{"name":"Olive Garden Italian Restaurant","code":null,"latitude":39.71097,"longitude":-105.0832,"address":"7655 West Alameda Avenue, Lakewood CO","chain_name":null,"distance":0},{"name":"Olive Garden Italian Restaurant","code":null,"latitude":35.60854,"longitude":-97.5614,"address":"2639 W Memorial Rd, Oklahoma City OK","chain_name":null,"distance":0},{"name":"Olive Garden Italian Restaurant","code":null,"latitude":28.0326,"longitude":-82.428,"address":"2801 East Busch Boulevard, Tampa FL","chain_name":null,"distance":0},{"name":"Olive Garden Italian Restaurant","code":null,"latitude":29.50838,"longitude":-98.3984,"address":"7920 North IH 35, San Antonio TX","chain_name":null,"distance":0},{"name":"Olive Garden Italian Restaurant","code":null,"latitude":34.8205,"longitude":-82.3412,"address":"2695 Laurens Road, Greenville SC","chain_name":null,"distance":0},{"name":"Olive Garden Italian Restaurant","code":null,"latitude":38.79355,"longitude":-90.6172,"address":"5815 Suemandy Road, Saint Peters MO","chain_name":null,"distance":0},{"name":"Olive Garden Italian Restaurant","code":null,"latitude":32.83411,"longitude":-97.2073,"address":"8020 Bedford Euless Road, North Richland Hills TX","chain_name":null,"distance":0},{"name":"Olive Garden Italian Restaurant","code":null,"latitude":33.72954,"longitude":-84.7496,"address":"6710 Douglas Boulevard, Douglasville GA","chain_name":null,"distance":0},{"name":"Olive Garden Italian Restaurant","code":null,"latitude":42.51792,"longitude":-83.0286,"address":"30600 Van Dyke Avenue, Warren MI","chain_name":null,"distance":0},{"name":"Olive Garden Italian Restaurant","code":null,"latitude":41.89904,"longitude":-71.3552,"address":"1240 Newport Avenue, Attleboro MA","chain_name":null,"distance":0},{"name":"Olive Garden Italian Restaurant","code":null,"latitude":35.35209,"longitude":-94.3491,"address":"7515 Rogers, Fort Smith AR","chain_name":null,"distance":0},{"name":"Olive Garden Italian Restaurant","code":null,"latitude":39.63698,"longitude":-84.2204,"address":"2789 Miamisburg Centervil, Dayton OH","chain_name":null,"distance":0},{"name":"Olive Garden Italian Restaurant","code":null,"latitude":41.67292,"longitude":-70.3051,"address":"1095 Iyannough Road, Hyannis MA","chain_name":null,"distance":0},{"name":"Olive Garden Italian Restaurant","code":null,"latitude":36.11464,"longitude":-115.1318,"address":"1545 East Flamingo Road, Las Vegas NV","chain_name":null,"distance":0},{"name":"Olive Garden Italian Restaurant","code":null,"latitude":40.65261,"longitude":-73.8675,"address":"505 Gateway Drive, Brooklyn NY","chain_name":null,"distance":0},{"name":"Olive Garden Italian Restaurant","code":null,"latitude":41.02438,"longitude":-80.6377,"address":"853 Boardman Poland Road, Youngstown OH","chain_name":null,"distance":0},{"name":"Olive Garden Italian Restaurant","code":null,"latitude":41.83415,"longitude":-88.0195,"address":"1211 Butterfield Road, Downers Grove IL","chain_name":null,"distance":0},{"name":"Olive Garden Italian Restaurant","code":null,"latitude":40.24603,"longitude":-77.0248,"address":"6520 Carlisle Pike, Mechanicsburg PA","chain_name":null,"distance":0},{"name":"Olive Garden Italian Restaurant","code":null,"latitude":48.79424,"longitude":-122.4857,"address":"4276 Meridian Street, Bellingham WA","chain_name":null,"distance":0},{"name":"Olive Garden Italian Restaurant","code":null,"latitude":34.73524,"longitude":-86.6248,"address":"3730 University Drive Northwest, Huntsville AL","chain_name":null,"distance":0},{"name":"Olive Garden Italian Restaurant","code":null,"latitude":33.96222,"longitude":-118.0314,"address":"13500 Whittier Boulevard, Whittier CA","chain_name":null,"distance":0},{"name":"Olive Garden Italian Restaurant","code":null,"latitude":29.66712,"longitude":-98.6326,"address":"15814 West IH 10, San Antonio TX","chain_name":null,"distance":0},{"name":"Olive Garden Italian Restaurant","code":null,"latitude":42.09383,"longitude":-76.8021,"address":"3288 Chambers Road South, Elmira NY","chain_name":null,"distance":0},{"name":"Olive Garden Italian Restaurant","code":null,"latitude":42.44815,"longitude":-96.3505,"address":"4290 Sergeant, Sioux City IA","chain_name":null,"distance":0},{"name":"Olive Garden Italian Restaurant","code":null,"latitude":30.23709,"longitude":-97.7917,"address":"3940 South Lamar Boulevard, Austin TX","chain_name":null,"distance":0},{"name":"Olive Garden Italian Restaurant","code":null,"latitude":37.73416,"longitude":-97.4626,"address":"2641 North Maize Road, Wichita KS","chain_name":null,"distance":0},{"name":"Olive Garden Italian Restaurant","code":null,"latitude":42.70737,"longitude":-83.2912,"address":"700 Brown Road, Auburn Hills MI","chain_name":null,"distance":0},{"name":"Olive Garden Italian Restaurant","code":null,"latitude":36.15543,"longitude":-115.2075,"address":"1361 South Decatur Boulevard, Las Vegas NV","chain_name":null,"distance":0},{"name":"Olive Garden Italian Restaurant","code":null,"latitude":41.25945,"longitude":-96.0294,"address":"7505 Dodge Street, Omaha NE","chain_name":null,"distance":0},{"name":"Olive Garden Italian Restaurant","code":null,"latitude":43.20524,"longitude":-77.6721,"address":"100 Paddy Creek Circle, Rochester NY","chain_name":null,"distance":0},{"name":"Olive Garden Italian Restaurant","code":null,"latitude":37.72745,"longitude":-122.4761,"address":"3251 20th Avenue, San Francisco CA","chain_name":null,"distance":0},{"name":"Olive Garden Italian Restaurant","code":null,"latitude":34.56137,"longitude":-82.6904,"address":"200 Station Drive, Anderson SC","chain_name":null,"distance":0},{"name":"Olive Garden Italian Restaurant","code":null,"latitude":40.68571,"longitude":-75.2534,"address":"50 Kunkle Drive, Easton PA","chain_name":null,"distance":0},{"name":"Olive Garden Italian Restaurant","code":null,"latitude":32.78035,"longitude":-116.9139,"address":"9800 Mission Gorge Road, El Cajon CA","chain_name":null,"distance":0},{"name":"Olive Garden Italian Restaurant","code":null,"latitude":29.42288,"longitude":-98.4844,"address":"849 E Commerce Street, San Antonio TX","chain_name":null,"distance":0},{"name":"Olive Garden Italian Restaurant","code":null,"latitude":35.19661,"longitude":-80.7685,"address":"4336 East Independence Boulevard, Charlotte NC","chain_name":null,"distance":0},{"name":"Olive Garden Italian Restaurant","code":null,"latitude":34.11641,"longitude":-80.8845,"address":"10136 Two Notch Road, Columbia SC","chain_name":null,"distance":0},{"name":"Olive Garden Italian Restaurant","code":null,"latitude":26.55486,"longitude":-81.8719,"address":"12870 South Cleveland Avenue, Fort Myers FL","chain_name":null,"distance":0},{"name":"Olive Garden Italian Restaurant","code":null,"latitude":30.02051,"longitude":-90.2501,"address":"1315 West Esplanade Avenue, Kenner LA","chain_name":null,"distance":0},{"name":"Olive Garden Italian Restaurant","code":null,"latitude":38.2793545189577,"longitude":-85.7373419748472,"address":"1230 Veterans Parkway, jeffersonville IN","chain_name":null,"distance":0},{"name":"Olive Garden Italian Restaurant","code":null,"latitude":39.9464,"longitude":-82.0046,"address":"907 Howard Street, Zanesville OH","chain_name":null,"distance":0},{"name":"Olive Garden Italian Restaurant","code":null,"latitude":30.6686,"longitude":-87.852,"address":"30500 State Highway 181, Spanish Fort AL","chain_name":null,"distance":0},{"name":"Olive Garden Italian Restaurant","code":null,"latitude":44.35886,"longitude":-69.797,"address":"205 Civic Center Drive, Augusta ME","chain_name":null,"distance":0},{"name":"Olive Garden Italian Restaurant","code":null,"latitude":40.74599,"longitude":-73.5988,"address":"1246 Old Country Road, Westbury NY","chain_name":null,"distance":0},{"name":"Olive Garden Italian Restaurant","code":null,"latitude":32.54176,"longitude":-84.9495,"address":"5555 Whittlesey Boulevard, Columbus GA","chain_name":null,"distance":0},{"name":"Olive Garden Italian Restaurant","code":null,"latitude":33.71798,"longitude":-117.989,"address":"16811 Beach Boulevard, Huntington Beach CA","chain_name":null,"distance":0},{"name":"Olive Garden Italian Restaurant","code":null,"latitude":39.45059,"longitude":-74.6416,"address":"4413 Black Horse Park, Mays Landing NJ","chain_name":null,"distance":0},{"name":"Olive Garden Italian Restaurant","code":null,"latitude":28.49408,"longitude":-81.4369,"address":"4101 Conroy Road, Orlando FL","chain_name":null,"distance":0},{"name":"Olive Garden Italian Restaurant","code":null,"latitude":34.84017,"longitude":-87.637,"address":"375 Cox Creek Parkway, Florence AL","chain_name":null,"distance":0},{"name":"Olive Garden Italian Restaurant","code":null,"latitude":33.93876,"longitude":-117.2629,"address":"22880 Centerpoint Dr, Moreno Valley CA","chain_name":null,"distance":0},{"name":"Olive Garden Italian Restaurant","code":null,"latitude":28.66377,"longitude":-81.3666,"address":"300 West 436, Altamonte Springs FL","chain_name":null,"distance":0},{"name":"Olive Garden Italian Restaurant","code":null,"latitude":40.68549,"longitude":-80.0708,"address":"1716 Route 228, Cranberry Twp PA","chain_name":null,"distance":0},{"name":"Olive Garden Italian Restaurant","code":null,"latitude":39.93878,"longitude":-75.0249,"address":"2314 Route 38, Cherry Hill NJ","chain_name":null,"distance":0},{"name":"Olive Garden Italian Restaurant","code":null,"latitude":32.69844,"longitude":-114.5997,"address":"1720 East 16th Street, Yuma AZ","chain_name":null,"distance":0},{"name":"Olive Garden Italian Restaurant","code":null,"latitude":36.80835,"longitude":-119.7046,"address":"389 Shaw Avenue, Clovis CA","chain_name":null,"distance":0},{"name":"Olive Garden Italian Restaurant","code":null,"latitude":33.57091,"longitude":-84.3424,"address":"1176 Mount Zion Road, Morrow GA","chain_name":null,"distance":0},{"name":"Olive Garden Italian Restaurant","code":null,"latitude":45.48952,"longitude":-122.7969,"address":"11650 SW Canyon Road, Beaverton OR","chain_name":null,"distance":0},{"name":"Olive Garden Italian Restaurant","code":null,"latitude":44.43993,"longitude":-73.2099,"address":"1025 Shelburne Road, South Burlington VT","chain_name":null,"distance":0},{"name":"Olive Garden Italian Restaurant","code":null,"latitude":32.81907,"longitude":-83.6967,"address":"3709 Bloomfield Rd, Macon GA","chain_name":null,"distance":0},{"name":"Olive Garden Italian Restaurant","code":null,"latitude":33.00931,"longitude":-96.7073,"address":"700 North Central Expressway, Plano TX","chain_name":null,"distance":0},{"name":"Olive Garden Italian Restaurant","code":null,"latitude":28.1176,"longitude":-82.3816,"address":"17011 Palm Pointe Drive, Tampa FL","chain_name":null,"distance":0},{"name":"Olive Garden Italian Restaurant","code":null,"latitude":45.49743,"longitude":-122.4094,"address":"2330 Southeast Burnside Road, Gresham OR","chain_name":null,"distance":0},{"name":"Olive Garden Italian Restaurant","code":null,"latitude":35.39162,"longitude":-97.5527,"address":"2321 Southwest 74th Street, Oklahoma City OK","chain_name":null,"distance":0},{"name":"Olive Garden Italian Restaurant","code":null,"latitude":39.03556,"longitude":-94.4171,"address":"13910 East US Highway 40, Independence MO","chain_name":null,"distance":0},{"name":"Olive Garden Italian Restaurant","code":null,"latitude":39.7153,"longitude":-89.7052,"address":"2991 South Veterans Parkway, Springfield IL","chain_name":null,"distance":0},{"name":"Olive Garden Italian Restaurant","code":null,"latitude":41.99001,"longitude":-72.58,"address":"41 Hazard Avenue, Enfield CT","chain_name":null,"distance":0},{"name":"Olive Garden Italian Restaurant","code":null,"latitude":47.65922,"longitude":-117.422,"address":"221 North Wall Street, Spokane WA","chain_name":null,"distance":0},{"name":"Olive Garden Italian Restaurant","code":null,"latitude":40.17821,"longitude":-74.8815,"address":"2245 East Lincoln Highway, Langhorne PA","chain_name":null,"distance":0},{"name":"Olive Garden Italian Restaurant","code":null,"latitude":31.08739,"longitude":-97.7115,"address":"2811 East Central Texas Expressway, Killeen TX","chain_name":null,"distance":0},{"name":"Olive Garden Italian Restaurant","code":null,"latitude":30.00486,"longitude":-95.2781,"address":"9632 Fm 1960 By-Pass Road West, Humble TX","chain_name":null,"distance":0},{"name":"Olive Garden Italian Restaurant","code":null,"latitude":32.22143,"longitude":-110.8763,"address":"5410 East Broadway Boulevard, Tucson AZ","chain_name":null,"distance":0},{"name":"Olive Garden Italian Restaurant","code":null,"latitude":40.81339,"longitude":-96.6354,"address":"6100 O Street, Lincoln NE","chain_name":null,"distance":0},{"name":"Olive Garden Italian Restaurant","code":null,"latitude":35.85035,"longitude":-78.5808,"address":"4805 Capital Boulevard, Raleigh NC","chain_name":null,"distance":0},{"name":"Olive Garden Italian Restaurant","code":null,"latitude":45.02075,"longitude":-93.1636,"address":"1525 County Road Centre West, Saint Paul MN","chain_name":null,"distance":0},{"name":"Olive Garden Italian Restaurant","code":null,"latitude":28.55352,"longitude":-81.3391,"address":"3675 East Colonial Drive, Orlando FL","chain_name":null,"distance":0},{"name":"Olive Garden Italian Restaurant","code":null,"latitude":39.92292,"longitude":-82.88,"address":"2600 South Hamilton Road, Columbus OH","chain_name":null,"distance":0},{"name":"Olive Garden Italian Restaurant","code":null,"latitude":36.70754,"longitude":-121.6534,"address":"1580 North Main Street, Salinas CA","chain_name":null,"distance":0},{"name":"Olive Garden Italian Restaurant","code":null,"latitude":32.16334,"longitude":-110.9895,"address":"1213 West Irvington Road, Tucson AZ","chain_name":null,"distance":0},{"name":"Olive Garden Italian Restaurant","code":null,"latitude":29.4034,"longitude":-95.0265,"address":"10212 Emmett F Lowry Expy, Texas City TX","chain_name":null,"distance":0},{"name":"Olive Garden Italian Restaurant","code":null,"latitude":41.47202,"longitude":-75.6339,"address":"1500 Scranton Carbondale, Scranton PA","chain_name":null,"distance":0},{"name":"Olive Garden Italian Restaurant","code":null,"latitude":39.2466,"longitude":-94.5875,"address":"500 Northwest Barry Road, Kansas City MO","chain_name":null,"distance":0},{"name":"Olive Garden Italian Restaurant","code":null,"latitude":33.17657,"longitude":-117.3391,"address":"1884 Marron Road, Carlsbad CA","chain_name":null,"distance":0},{"name":"Olive Garden Italian Restaurant","code":null,"latitude":40.1109,"longitude":-83.0905,"address":"7160 Sawmill Road, Columbus OH","chain_name":null,"distance":0},{"name":"Olive Garden Italian Restaurant","code":null,"latitude":40.77825,"longitude":-74.0645,"address":"500 State Highway No3, Secaucus NJ","chain_name":null,"distance":0},{"name":"Olive Garden Italian Restaurant","code":null,"latitude":35.66919,"longitude":-88.8585,"address":"1067 Vann Drive, Jackson TN","chain_name":null,"distance":0},{"name":"Olive Garden Italian Restaurant","code":null,"latitude":34.55291,"longitude":-112.4108,"address":"3060 East State Route 69, Prescott AZ","chain_name":null,"distance":0},{"name":"Olive Garden Italian Restaurant","code":null,"latitude":38.40119,"longitude":-75.57,"address":"2316 North Salisbury Boulevard, Salisbury MD","chain_name":null,"distance":0},{"name":"Olive Garden Italian Restaurant","code":null,"latitude":29.66922,"longitude":-95.5491,"address":"9080 Southwest Freeway, Houston TX","chain_name":null,"distance":0},{"name":"Olive Garden Italian Restaurant","code":null,"latitude":40.2191,"longitude":-85.3891,"address":"304 West McGalliard Road, Muncie IN","chain_name":null,"distance":0},{"name":"Olive Garden Italian Restaurant","code":null,"latitude":41.80551,"longitude":-72.5655,"address":"1550 Pleasant Valley Road, Manchester CT","chain_name":null,"distance":0},{"name":"Olive Garden Italian Restaurant","code":null,"latitude":35.57335,"longitude":-97.6739,"address":"6628 NW Expressway Street, Oklahoma City OK","chain_name":null,"distance":0},{"name":"Olive Garden Italian Restaurant","code":null,"latitude":42.26752,"longitude":-84.4529,"address":"3500 Oneil Drive, Jackson MI","chain_name":null,"distance":0},{"name":"Olive Garden Italian Restaurant","code":null,"latitude":42.22751,"longitude":-87.9411,"address":"701 North Milwaukee Avenue, Vernon Hills IL","chain_name":null,"distance":0},{"name":"Olive Garden Italian Restaurant","code":null,"latitude":38.00539,"longitude":-121.8568,"address":"4195 Century Boulevard, Pittsburg CA","chain_name":null,"distance":0},{"name":"Olive Garden Italian Restaurant","code":null,"latitude":38.91263,"longitude":-94.7599,"address":"15090 West 119th Street, Olathe KS","chain_name":null,"distance":0},{"name":"Olive Garden Italian Restaurant","code":null,"latitude":47.19159,"longitude":-122.4604,"address":"1921 South 72nd Street, Tacoma WA","chain_name":null,"distance":0},{"name":"Olive Garden Italian Restaurant","code":null,"latitude":28.38605,"longitude":-81.5078,"address":"12361 State Road 535, Orlando FL","chain_name":null,"distance":0},{"name":"Olive Garden Italian Restaurant","code":null,"latitude":40.02212,"longitude":-105.2599,"address":"2685 Pearl Street, Boulder CO","chain_name":null,"distance":0},{"name":"Olive Garden Italian Restaurant","code":null,"latitude":40.43981,"longitude":-86.127,"address":"4015 South Lafountain Street, Kokomo IN","chain_name":null,"distance":0},{"name":"Olive Garden Italian Restaurant","code":null,"latitude":39.15555,"longitude":-75.4772,"address":"263 Dupont Highway, Dover DE","chain_name":null,"distance":0},{"name":"Olive Garden Italian Restaurant","code":null,"latitude":38.13565,"longitude":-122.2139,"address":"1176 Admiral Callaghan Lane, Vallejo CA","chain_name":null,"distance":0},{"name":"Olive Garden Italian Restaurant","code":null,"latitude":37.05494,"longitude":-94.4749,"address":"3031 John Q Hammons Boulevard, Joplin MO","chain_name":null,"distance":0},{"name":"Olive Garden Italian Restaurant","code":null,"latitude":40.39096,"longitude":-104.7144,"address":"2285 Greeley Mall, Greeley CO","chain_name":null,"distance":0},{"name":"Olive Garden Italian Restaurant","code":null,"latitude":28.56653,"longitude":-81.206,"address":"11882 East Colonial Drive, Orlando FL","chain_name":null,"distance":0},{"name":"Olive Garden Italian Restaurant","code":null,"latitude":36.21841,"longitude":-115.2448,"address":"6850 West Cheyenne Avenue, Las Vegas NV","chain_name":null,"distance":0},{"name":"Olive Garden Italian Restaurant","code":null,"latitude":41.13593,"longitude":-81.6402,"address":"3924 Medina Road, Akron OH","chain_name":null,"distance":0},{"name":"Olive Garden Italian Restaurant","code":null,"latitude":37.50355,"longitude":-77.5756,"address":"9750 Midlothian Turnpike, Richmond VA","chain_name":null,"distance":0},{"name":"Olive Garden Italian Restaurant","code":null,"latitude":43.51507,"longitude":-96.7655,"address":"3121 West 41st Street, Sioux Falls SD","chain_name":null,"distance":0},{"name":"Olive Garden Italian Restaurant","code":null,"latitude":41.25842,"longitude":-73.0115,"address":"439 Boston Post Road, Orange CT","chain_name":null,"distance":0},{"name":"Olive Garden Italian Restaurant","code":null,"latitude":29.54527,"longitude":-95.3838,"address":"2808 Smith Ranch Road, Pearland TX","chain_name":null,"distance":0},{"name":"Olive Garden Italian Restaurant","code":null,"latitude":33.63795,"longitude":-112.2283,"address":"7889 West Bell Road, Peoria AZ","chain_name":null,"distance":0},{"name":"Olive Garden Italian Restaurant","code":null,"latitude":36.06228,"longitude":-95.8861,"address":"7019 South Memorial Drive, Tulsa OK","chain_name":null,"distance":0},{"name":"Olive Garden Italian Restaurant","code":null,"latitude":36.06778,"longitude":-80.2984,"address":"466 Hanes Mall Boulevard, Winston Salem NC","chain_name":null,"distance":0},{"name":"Olive Garden Italian Restaurant","code":null,"latitude":33.54212,"longitude":-101.9225,"address":"5702 Slide Road, Lubbock TX","chain_name":null,"distance":0},{"name":"Olive Garden Italian Restaurant","code":null,"latitude":40.14162,"longitude":-75.1173,"address":"2328 West Moreland Road, Willow Grove PA","chain_name":null,"distance":0},{"name":"Olive Garden Italian Restaurant","code":null,"latitude":34.45425,"longitude":-93.0657,"address":"4108 Central Avenue, Hot Springs AR","chain_name":null,"distance":0},{"name":"Olive Garden Italian Restaurant","code":null,"latitude":47.03998,"longitude":-122.9317,"address":"2400 Capitol Mall Drive Southwest, Olympia WA","chain_name":null,"distance":0},{"name":"Olive Garden Italian Restaurant","code":null,"latitude":44.72758,"longitude":-85.6459,"address":"2800 North US Highway 31 South, Traverse City MI","chain_name":null,"distance":0},{"name":"Olive Garden Italian Restaurant","code":null,"latitude":31.45174,"longitude":-100.488,"address":"4399 West Houston Harte Expressway, San Angelo TX","chain_name":null,"distance":0},{"name":"Olive Garden Italian Restaurant","code":null,"latitude":38.61412,"longitude":-76.9232,"address":"3620 Crain Highway, Waldorf MD","chain_name":null,"distance":0},{"name":"Olive Garden Italian Restaurant","code":null,"latitude":38.79509,"longitude":-90.6258,"address":"5815 Suemandy Dr, St Peters MO","chain_name":null,"distance":0},{"name":"Olive Garden Italian Restaurant","code":null,"latitude":39.41833,"longitude":-87.4179,"address":"3770 Dixie Bee Road, Terre Haute IN","chain_name":null,"distance":0},{"name":"Olive Garden Italian Restaurant","code":null,"latitude":28.80725,"longitude":-81.3382,"address":"10 Towne Center Circle, Sanford FL","chain_name":null,"distance":0},{"name":"Olive Garden Italian Restaurant","code":null,"latitude":41.93919,"longitude":-88.1065,"address":"332 West Army Trail Road, Bloomingdale IL","chain_name":null,"distance":0},{"name":"Olive Garden Italian Restaurant","code":null,"latitude":38.6654,"longitude":-121.2723,"address":"5445 Sunrise Boulevard, Fair Oaks CA","chain_name":null,"distance":0},{"name":"Olive Garden Italian Restaurant","code":null,"latitude":31.32422,"longitude":-89.358,"address":"4505 Hardy Street, Hattiesburg MS","chain_name":null,"distance":0},{"name":"Olive Garden Italian Restaurant","code":null,"latitude":40.26335,"longitude":-111.667,"address":"504 West 2230 North, Provo UT","chain_name":null,"distance":0},{"name":"Olive Garden Italian Restaurant","code":null,"latitude":40.72861,"longitude":-84.0725,"address":"1936 Roschman Avenue, Lima OH","chain_name":null,"distance":0},{"name":"Olive Garden Italian Restaurant","code":null,"latitude":39.09029,"longitude":-76.8583,"address":"14650 Baltimore Avenue, Laurel MD","chain_name":null,"distance":0},{"name":"Olive Garden Italian Restaurant","code":null,"latitude":44.94649,"longitude":-122.9835,"address":"1302 Lancaster Drive Northeast, Salem OR","chain_name":null,"distance":0},{"name":"Olive Garden Italian Restaurant","code":null,"latitude":39.24664,"longitude":-84.5958,"address":"9654 Colerain Avenue, Cincinnati OH","chain_name":null,"distance":0},{"name":"Olive Garden Italian Restaurant","code":null,"latitude":42.97362,"longitude":-83.78,"address":"G3699 Miller Road, Flint MI","chain_name":null,"distance":0},{"name":"Olive Garden Italian Restaurant","code":null,"latitude":33.50812,"longitude":-82.0231,"address":"2736 Washington Rd, Augusta GA","chain_name":null,"distance":0},{"name":"Olive Garden Italian Restaurant","code":null,"latitude":42.26746,"longitude":-88.9924,"address":"6367 East State Street, Rockford IL","chain_name":null,"distance":0},{"name":"Olive Garden Italian Restaurant","code":null,"latitude":42.72606,"longitude":-84.4154,"address":"5015 Marsh Road, Okemos MI","chain_name":null,"distance":0},{"name":"Olive Garden Italian Restaurant","code":null,"latitude":42.49197,"longitude":-90.721,"address":"3350 Dodge Street, Dubuque IA","chain_name":null,"distance":0},{"name":"Olive Garden Italian Restaurant","code":null,"latitude":32.94087,"longitude":-96.8217,"address":"14180 Dallas Parkway Suite 350, Dallas TX","chain_name":null,"distance":0},{"name":"Olive Garden Italian Restaurant","code":null,"latitude":33.48754,"longitude":-111.926,"address":"3380 North Scottsdale Road, Scottsdale AZ","chain_name":null,"distance":0},{"name":"Olive Garden Italian Restaurant","code":null,"latitude":40.90227,"longitude":-74.5459,"address":"323 Mount Hope Avenue, Rockaway NJ","chain_name":null,"distance":0},{"name":"Olive Garden Italian Restaurant","code":null,"latitude":28.33288,"longitude":-81.485,"address":"5021 West Irlo Bronson Memoria, Kissimmee FL","chain_name":null,"distance":0},{"name":"Olive Garden Italian Restaurant","code":null,"latitude":44.47191,"longitude":-88.0749,"address":"2819 South Oneida Street, Green Bay WI","chain_name":null,"distance":0},{"name":"Olive Garden Italian Restaurant","code":null,"latitude":32.96497,"longitude":-97.154,"address":"301 W Highway 114, Roanoke TX","chain_name":null,"distance":0},{"name":"Olive Garden Italian Restaurant","code":null,"latitude":37.12664,"longitude":-76.511,"address":"12560 Jefferson Avenue, Newport News VA","chain_name":null,"distance":0},{"name":"Olive Garden Italian Restaurant","code":null,"latitude":35.70335,"longitude":-81.2967,"address":"2261 US Highway 70 Southeast, Hickory NC","chain_name":null,"distance":0},{"name":"Olive Garden Italian Restaurant","code":null,"latitude":35.6463,"longitude":-106.006,"address":"3781 Cerrillos Road, Santa Fe NM","chain_name":null,"distance":0},{"name":"Olive Garden Italian Restaurant","code":null,"latitude":33.11605,"longitude":-117.0976,"address":"1107 West Valley Parkway, Escondido CA","chain_name":null,"distance":0},{"name":"Olive Garden Italian Restaurant","code":null,"latitude":31.51369,"longitude":-97.1875,"address":"5921 West Waco Drive, Waco TX","chain_name":null,"distance":0},{"name":"Olive Garden Italian Restaurant","code":null,"latitude":36.82627,"longitude":-76.4106,"address":"4117 Chesapeake Square Boulevard, Chesapeake VA","chain_name":null,"distance":0},{"name":"Olive Garden Italian Restaurant","code":null,"latitude":32.62743,"longitude":-85.4036,"address":"2254 Tiger Town Parkway, Opelika AL","chain_name":null,"distance":0},{"name":"Olive Garden Italian Restaurant","code":null,"latitude":31.98089,"longitude":-81.147,"address":"11333 Abercorn Street, Savannah GA","chain_name":null,"distance":0},{"name":"Olive Garden Italian Restaurant","code":null,"latitude":41.70264,"longitude":-71.4959,"address":"31A Universal Boulevard, Warwick RI","chain_name":null,"distance":0},{"name":"Olive Garden Italian Restaurant","code":null,"latitude":40.96057,"longitude":-90.3848,"address":"1072 Olive Street, Galesburg IL","chain_name":null,"distance":0},{"name":"Olive Garden Italian Restaurant","code":null,"latitude":42.92355,"longitude":-72.3063,"address":"2 Ash Brook Road, Keene NH","chain_name":null,"distance":0},{"name":"Olive Garden Italian Restaurant","code":null,"latitude":45.75316,"longitude":-108.5706,"address":"2201 Grant Road, Billings MT","chain_name":null,"distance":0},{"name":"Olive Garden Italian Restaurant","code":null,"latitude":40.48439,"longitude":-78.4004,"address":"3315 Pleasant Valley Boulevard, Altoona PA","chain_name":null,"distance":0},{"name":"Olive Garden Italian Restaurant","code":null,"latitude":39.97419,"longitude":-76.7643,"address":"1340 Kenneth Road, York PA","chain_name":null,"distance":0},{"name":"Olive Garden Italian Restaurant","code":null,"latitude":39.29643,"longitude":-84.3848,"address":"4900 Fields Ertel Rd, Cincinnati OH","chain_name":null,"distance":0},{"name":"Olive Garden Italian Restaurant","code":null,"latitude":42.09101,"longitude":-76.0335,"address":"1112 Vestal Parkway East, Vestal NY","chain_name":null,"distance":0},{"name":"Olive Garden Italian Restaurant","code":null,"latitude":36.13188,"longitude":-95.9651,"address":"1954 Utica Square, Tulsa OK","chain_name":null,"distance":0},{"name":"Olive Garden Italian Restaurant","code":null,"latitude":42.32907,"longitude":-83.2017,"address":"16151 Ford Road, Dearborn MI","chain_name":null,"distance":0},{"name":"Olive Garden Italian Restaurant","code":null,"latitude":33.46249,"longitude":-94.0724,"address":"3101 Mall Drive, Texarkana TX","chain_name":null,"distance":0},{"name":"Olive Garden Italian Restaurant","code":null,"latitude":41.47047,"longitude":-87.3104,"address":"1900 Southlake Mall, Merrillville IN","chain_name":null,"distance":0},{"name":"Olive Garden Italian Restaurant","code":null,"latitude":35.76051,"longitude":-78.7433,"address":"1809 Walnut Street, Cary NC","chain_name":null,"distance":0},{"name":"Olive Garden Italian Restaurant","code":null,"latitude":27.28116,"longitude":-82.5307,"address":"4900 South Tamiami Trail, Sarasota FL","chain_name":null,"distance":0},{"name":"Olive Garden Italian Restaurant","code":null,"latitude":43.12554,"longitude":-89.3084,"address":"4320 East Towne Boulevard, Madison WI","chain_name":null,"distance":0},{"name":"Olive Garden Italian Restaurant","code":null,"latitude":42.10852,"longitude":-87.9745,"address":"630 East Rand Road, Arlington Heights IL","chain_name":null,"distance":0},{"name":"Olive Garden Italian Restaurant","code":null,"latitude":39.77322,"longitude":-86.0235,"address":"8155 East Washington Street, Indianapolis IN","chain_name":null,"distance":0},{"name":"Olive Garden Italian Restaurant","code":null,"latitude":36.19413,"longitude":-86.7433,"address":"1711 Gallatin Ave, Nashville TN","chain_name":null,"distance":0},{"name":"Olive Garden Italian Restaurant","code":null,"latitude":34.03321,"longitude":-117.6837,"address":"5526 Philadelphia Street, Chino CA","chain_name":null,"distance":0},{"name":"Olive Garden Italian Restaurant","code":null,"latitude":33.90691,"longitude":-118.079,"address":"11171 183rd Street, Cerritos CA","chain_name":null,"distance":0},{"name":"Olive Garden Italian Restaurant","code":null,"latitude":42.69761,"longitude":-87.8522,"address":"6000 Durand Avenue, Racine WI","chain_name":null,"distance":0},{"name":"Olive Garden Italian Restaurant","code":null,"latitude":28.55205,"longitude":-81.4809,"address":"7300 West Colonial Drive, Orlando FL","chain_name":null,"distance":0},{"name":"Olive Garden Italian Restaurant","code":null,"latitude":34.77033,"longitude":-92.3932,"address":"10715 North Rodney Parham Road, Little Rock AR","chain_name":null,"distance":0},{"name":"Olive Garden Italian Restaurant","code":null,"latitude":28.43714,"longitude":-81.4724,"address":"8984 International Drive, Orlando FL","chain_name":null,"distance":0},{"name":"Olive Garden Italian Restaurant","code":null,"latitude":41.59446,"longitude":-87.5586,"address":"16601 Torrence Avenue, Lansing IL","chain_name":null,"distance":0},{"name":"Olive Garden Italian Restaurant","code":null,"latitude":32.81737,"longitude":-96.6307,"address":"3816 Towne Crossing Boulevard, Mesquite TX","chain_name":null,"distance":0},{"name":"Olive Garden Italian Restaurant","code":null,"latitude":40.0788,"longitude":-75.0308,"address":"9280 Roosevelt Boulevard, Philadelphia PA","chain_name":null,"distance":0},{"name":"Olive Garden Italian Restaurant","code":null,"latitude":41.76037,"longitude":-88.2059,"address":"620 South State Route 59, Naperville IL","chain_name":null,"distance":0},{"name":"Olive Garden Italian Restaurant","code":null,"latitude":32.6586,"longitude":-96.8915,"address":"639 North Cockrell Hill Road, Duncanville TX","chain_name":null,"distance":0},{"name":"Olive Garden Italian Restaurant","code":null,"latitude":38.96601,"longitude":-76.9431,"address":"3480 East West Highway, Hyattsville MD","chain_name":null,"distance":0},{"name":"Olive Garden Italian Restaurant","code":null,"latitude":47.65912,"longitude":-122.6929,"address":"3204 Northwest Randall Way, Silverdale WA","chain_name":null,"distance":0},{"name":"Olive Garden Italian Restaurant","code":null,"latitude":33.37847,"longitude":-86.8059,"address":"3450 Galleria Circle, Birmingham AL","chain_name":null,"distance":0},{"name":"Olive Garden Italian Restaurant","code":null,"latitude":34.96028,"longitude":-89.9896,"address":"6615 Airways Boulevard, Southaven MS","chain_name":null,"distance":0},{"name":"Olive Garden Italian Restaurant","code":null,"latitude":37.98596,"longitude":-87.4925,"address":"1100 North Green River Road, Evansville IN","chain_name":null,"distance":0},{"name":"Olive Garden Italian Restaurant","code":null,"latitude":34.19201,"longitude":-79.8366,"address":"2901 West Radio Drive, Florence SC","chain_name":null,"distance":0},{"name":"Olive Garden Italian Restaurant","code":null,"latitude":41.87493,"longitude":-71.0587,"address":"1013 County Street, Taunton MA","chain_name":null,"distance":0},{"name":"Olive Garden Italian Restaurant","code":null,"latitude":37.30028,"longitude":-76.7275,"address":"2150 Richmond Road, Williamsburg VA","chain_name":null,"distance":0},{"name":"Olive Garden Italian Restaurant","code":null,"latitude":36.78013,"longitude":-76.2246,"address":"1631 Ring Road, Chesapeake VA","chain_name":null,"distance":0},{"name":"Olive Garden Italian Restaurant","code":null,"latitude":32.74173,"longitude":-97.0423,"address":"14180 Dallas Parkway, Grand Prairie TX","chain_name":null,"distance":0},{"name":"Olive Garden Italian Restaurant","code":null,"latitude":44.95286,"longitude":-92.9679,"address":"8367 3rd Street North, Saint Paul MN","chain_name":null,"distance":0},{"name":"Olive Garden Italian Restaurant","code":null,"latitude":42.10135,"longitude":-88.2878,"address":"800 North 8th Street, West Dundee IL","chain_name":null,"distance":0},{"name":"Olive Garden Italian Restaurant","code":null,"latitude":30.38655,"longitude":-91.0633,"address":"6911 Siegen Lane, Baton Rouge LA","chain_name":null,"distance":0},{"name":"Olive Garden Italian Restaurant","code":null,"latitude":42.46696,"longitude":-83.4648,"address":"14000 Middlebelt Livonia, Novi MI","chain_name":null,"distance":0},{"name":"Olive Garden Italian Restaurant","code":null,"latitude":39.75676,"longitude":-84.282,"address":"672 Miller Avenue, Dayton OH","chain_name":null,"distance":0},{"name":"Olive Garden Italian Restaurant","code":null,"latitude":33.89181,"longitude":-84.4769,"address":"2467 Cobb Parkway Southeast, Smyrna GA","chain_name":null,"distance":0},{"name":"Olive Garden Italian Restaurant","code":null,"latitude":33.53044,"longitude":-86.7212,"address":"7701 Crestwood Boulevard, Birmingham AL","chain_name":null,"distance":0},{"name":"Olive Garden Italian Restaurant","code":null,"latitude":39.56611,"longitude":-104.9597,"address":"2520 East County Line Road, Littleton CO","chain_name":null,"distance":0},{"name":"Olive Garden Italian Restaurant","code":null,"latitude":35.33905,"longitude":-119.0613,"address":"1701 New Stine Road, Bakersfield CA","chain_name":null,"distance":0},{"name":"Olive Garden Italian Restaurant","code":null,"latitude":28.45029,"longitude":-81.3987,"address":"1555 Sand Lake Road, Orlando FL","chain_name":null,"distance":0},{"name":"Olive Garden Italian Restaurant","code":null,"latitude":35.04909,"longitude":-89.8036,"address":"7778 Winchester Road, Memphis TN","chain_name":null,"distance":0},{"name":"Olive Garden Italian Restaurant","code":null,"latitude":33.10951,"longitude":-96.8054,"address":"2886 Preston Road, Frisco TX","chain_name":null,"distance":0},{"name":"Olive Garden Italian Restaurant","code":null,"latitude":32.9716,"longitude":-96.7438,"address":"9079 Vantage Point Drive, Richardson TX","chain_name":null,"distance":0},{"name":"Olive Garden Italian Restaurant","code":null,"latitude":41.40827,"longitude":-82.6638,"address":"5205 Milan Road, Sandusky OH","chain_name":null,"distance":0},{"name":"Olive Garden Italian Restaurant","code":null,"latitude":40.73629,"longitude":-82.5893,"address":"558 Lexington Springmill, Ontario OH","chain_name":null,"distance":0},{"name":"Olive Garden Italian Restaurant","code":null,"latitude":32.94221,"longitude":-80.0415,"address":"2156 Northwoods Boulevard, North Charleston SC","chain_name":null,"distance":0},{"name":"Olive Garden Italian Restaurant","code":null,"latitude":31.2397,"longitude":-85.431,"address":"3360 Ross Clark Circle, Dothan AL","chain_name":null,"distance":0},{"name":"Olive Garden Italian Restaurant","code":null,"latitude":34.07261,"longitude":-81.1585,"address":"274 Harbison Boulevard, Columbia SC","chain_name":null,"distance":0},{"name":"Olive Garden Italian Restaurant","code":null,"latitude":30.47215,"longitude":-87.2099,"address":"5037 Bayou Boulevard, Pensacola FL","chain_name":null,"distance":0},{"name":"Olive Garden Italian Restaurant","code":null,"latitude":39.15213,"longitude":-78.1765,"address":"2590 South Pleasant Valley Road, Winchester VA","chain_name":null,"distance":0},{"name":"Olive Garden Italian Restaurant","code":null,"latitude":41.70871,"longitude":-86.1874,"address":"6410 Grape Road, Mishawaka IN","chain_name":null,"distance":0},{"name":"Olive Garden Italian Restaurant","code":null,"latitude":36.12171,"longitude":-94.148,"address":"3616 North Mall Avenue, Fayetteville AR","chain_name":null,"distance":0},{"name":"Olive Garden Italian Restaurant","code":null,"latitude":38.52422,"longitude":-90.3562,"address":"5529 South Lindbergh Boulevard, Saint Louis MO","chain_name":null,"distance":0},{"name":"Olive Garden Italian Restaurant","code":null,"latitude":40.7972,"longitude":-74.3415,"address":"277 Eisenhower Parkway, Livingston NJ","chain_name":null,"distance":0},{"name":"Olive Garden Italian Restaurant","code":null,"latitude":39.82359,"longitude":-86.2588,"address":"5515 West 38th Street, Indianapolis IN","chain_name":null,"distance":0},{"name":"Olive Garden Italian Restaurant","code":null,"latitude":40.76497,"longitude":-111.8931,"address":"77 West 200 South, Salt Lake City UT","chain_name":null,"distance":0},{"name":"Olive Garden Italian Restaurant","code":null,"latitude":34.0119,"longitude":-84.5639,"address":"429 Ernest W Barrett Pkw, Kennesaw GA","chain_name":null,"distance":0},{"name":"Olive Garden Italian Restaurant","code":null,"latitude":40.42671,"longitude":-74.3814,"address":"777 State Route 18, East Brunswick NJ","chain_name":null,"distance":0},{"name":"Olive Garden Italian Restaurant","code":null,"latitude":43.32935,"longitude":-73.6709,"address":"756 Upper Glen Street, Queensbury NY","chain_name":null,"distance":0},{"name":"Olive Garden Italian Restaurant","code":null,"latitude":45.43303,"longitude":-122.5737,"address":"8700 Southeast Sunnyside Road, Clackamas OR","chain_name":null,"distance":0},{"name":"Olive Garden Italian Restaurant","code":null,"latitude":39.85011,"longitude":-75.5381,"address":"223 Wilmington W Chester, Chadds Ford PA","chain_name":null,"distance":0},{"name":"Olive Garden Italian Restaurant","code":null,"latitude":29.56801,"longitude":-98.4821,"address":"13730 San Pedro Avenue, San Antonio TX","chain_name":null,"distance":0},{"name":"Olive Garden Italian Restaurant","code":null,"latitude":37.04259,"longitude":-76.383,"address":"1049 West Mercury Boulevard, Hampton VA","chain_name":null,"distance":0},{"name":"Olive Garden Italian Restaurant","code":null,"latitude":40.1369,"longitude":-88.2434,"address":"30 East Anthony Drive, Champaign IL","chain_name":null,"distance":0},{"name":"Olive Garden Italian Restaurant","code":null,"latitude":40.53209,"longitude":-105.077,"address":"3905 South College Avenue, Fort Collins CO","chain_name":null,"distance":0},{"name":"Olive Garden Italian Restaurant","code":null,"latitude":39.8196,"longitude":-75.551,"address":"305 Rocky Run Parkway, Wilmington DE","chain_name":null,"distance":0},{"name":"Olive Garden Italian Restaurant","code":null,"latitude":40.5858,"longitude":-122.3508,"address":"1025 Dana Drive, Redding CA","chain_name":null,"distance":0},{"name":"Olive Garden Italian Restaurant","code":null,"latitude":38.95689,"longitude":-94.6632,"address":"6750 West 95th Street, Shawnee Mission KS","chain_name":null,"distance":0},{"name":"Olive Garden Italian Restaurant","code":null,"latitude":44.27275,"longitude":-88.4764,"address":"1275 North Casaloma Drive, Appleton WI","chain_name":null,"distance":0},{"name":"Olive Garden Italian Restaurant","code":null,"latitude":39.56873,"longitude":-76.9788,"address":"500 Gorsuch Road, Westminster MD","chain_name":null,"distance":0},{"name":"Olive Garden Italian Restaurant","code":null,"latitude":37.67349,"longitude":-121.0386,"address":"2200 Plaza Parkway, Modesto CA","chain_name":null,"distance":0},{"name":"Olive Garden Italian Restaurant","code":null,"latitude":40.75665,"longitude":-73.9863,"address":"2 Times Square, New York NY","chain_name":null,"distance":0},{"name":"Olive Garden Italian Restaurant","code":null,"latitude":44.74651,"longitude":-93.2954,"address":"1451 County Road 42 West, Burnsville MN","chain_name":null,"distance":0},{"name":"Olive Garden Italian Restaurant","code":null,"latitude":40.81531,"longitude":-77.8986,"address":"1945 Waddle Road, State College PA","chain_name":null,"distance":0},{"name":"Olive Garden Italian Restaurant","code":null,"latitude":35.6097,"longitude":-97.5627,"address":"2639 West Memorial Road, Oklahoma City OK","chain_name":null,"distance":0},{"name":"Olive Garden Italian Restaurant","code":null,"latitude":29.47205,"longitude":-98.6136,"address":"6155 Northwest Loop 410, San Antonio TX","chain_name":null,"distance":0},{"name":"Olive Garden Italian Restaurant","code":null,"latitude":39.16994,"longitude":-75.518,"address":"263 North Dupont Highway, Dover DE","chain_name":null,"distance":0},{"name":"Olive Garden Italian Restaurant","code":null,"latitude":41.66007,"longitude":-81.3638,"address":"7740 Mentor Avenue, Mentor OH","chain_name":null,"distance":0},{"name":"Olive Garden Italian Restaurant","code":null,"latitude":40.41782,"longitude":-86.8291,"address":"4151 State Road 26 East, Lafayette IN","chain_name":null,"distance":0},{"name":"Olive Garden Italian Restaurant","code":null,"latitude":40.41862,"longitude":-80.0456,"address":"971 Greentree Road, Pittsburgh PA","chain_name":null,"distance":0},{"name":"Olive Garden Italian Restaurant","code":null,"latitude":40.85128,"longitude":-81.4342,"address":"4810 Dressler Road Northwest, Canton OH","chain_name":null,"distance":0},{"name":"Olive Garden Italian Restaurant","code":null,"latitude":38.41561,"longitude":-82.2596,"address":"12 Mall Road, Barboursville WV","chain_name":null,"distance":0},{"name":"Olive Garden Italian Restaurant","code":null,"latitude":41.24407,"longitude":-75.8525,"address":"561 Arena Hub Plaza, Wilkes Barre PA","chain_name":null,"distance":0},{"name":"Olive Garden Italian Restaurant","code":null,"latitude":41.23565,"longitude":-96.1833,"address":"16929 Lakeside Hills Court, Omaha NE","chain_name":null,"distance":0},{"name":"Olive Garden Italian Restaurant","code":null,"latitude":43.15411,"longitude":-86.2043,"address":"1651 Sternberg Road, Muskegon MI","chain_name":null,"distance":0},{"name":"Olive Garden Italian Restaurant","code":null,"latitude":33.95744,"longitude":-84.131,"address":"3565 Mall Boulevard, Duluth GA","chain_name":null,"distance":0},{"name":"Olive Garden Italian Restaurant","code":null,"latitude":28.60315,"longitude":-81.3653,"address":"665 North Orlando Avenue, Winter Park FL","chain_name":null,"distance":0},{"name":"Olive Garden Italian Restaurant","code":null,"latitude":45.55347,"longitude":-94.2141,"address":"12 Division Street, Waite Park MN","chain_name":null,"distance":0},{"name":"Olive Garden Italian Restaurant","code":null,"latitude":40.34727,"longitude":-75.966,"address":"1700 Crossing Drive, Reading PA","chain_name":null,"distance":0},{"name":"Olive Garden Italian Restaurant","code":null,"latitude":40.30305,"longitude":-79.5144,"address":"1085 East Pittsburgh Street, Greensburg PA","chain_name":null,"distance":0},{"name":"Olive Garden Italian Restaurant","code":null,"latitude":29.81613,"longitude":-95.4643,"address":"10830 Northwest Freeway, Houston TX","chain_name":null,"distance":0},{"name":"Olive Garden Italian Restaurant","code":null,"latitude":28.07902,"longitude":-80.6627,"address":"2508 West New Haven Avenue, Melbourne FL","chain_name":null,"distance":0},{"name":"Olive Garden Italian Restaurant","code":null,"latitude":28.66496,"longitude":-81.4159,"address":"30 W State Road 436, Altamonte Springs FL","chain_name":null,"distance":0},{"name":"Olive Garden Italian Restaurant","code":null,"latitude":42.46234,"longitude":-92.3295,"address":"1315 East San Marnan Drive, Waterloo IA","chain_name":null,"distance":0},{"name":"Olive Garden Italian Restaurant","code":null,"latitude":35.2173,"longitude":-97.489,"address":"117 Ed Noble Parkway, Norman OK","chain_name":null,"distance":0},{"name":"Olive Garden Italian Restaurant","code":null,"latitude":35.2271,"longitude":-80.8432,"address":"8225 Northlake Commons Boulevard, Charlotte NC","chain_name":null,"distance":0},{"name":"Olive Garden Italian Restaurant","code":null,"latitude":39.84672,"longitude":-74.9884,"address":"202 Laurel Oak Road, Voorhees NJ","chain_name":null,"distance":0},{"name":"Olive Garden Italian Restaurant","code":null,"latitude":45.13689,"longitude":-93.2716,"address":"150 Coon Rapids Boulevard Northwest, Minneapolis MN","chain_name":null,"distance":0},{"name":"Olive Garden Italian Restaurant","code":null,"latitude":41.04315,"longitude":-74.1151,"address":"66 State Route 17, Ramsey NJ","chain_name":null,"distance":0},{"name":"Olive Garden Italian Restaurant","code":null,"latitude":35.90729,"longitude":-84.1329,"address":"10923 Parkside Drive, Knoxville TN","chain_name":null,"distance":0},{"name":"Olive Garden Italian Restaurant","code":null,"latitude":47.70872,"longitude":-122.3258,"address":"300 NE Northgate Way, Seattle WA","chain_name":null,"distance":0},{"name":"Olive Garden Italian Restaurant","code":null,"latitude":32.54207,"longitude":-94.7473,"address":"104 West Loop 281, Longview TX","chain_name":null,"distance":0},{"name":"Olive Garden Italian Restaurant","code":null,"latitude":35.1752,"longitude":-111.6633,"address":"2550 South Beulah Boulevard, Flagstaff AZ","chain_name":null,"distance":0},{"name":"Olive Garden Italian Restaurant","code":null,"latitude":41.68633,"longitude":-91.6034,"address":"930 25th Avenue, Coralville IA","chain_name":null,"distance":0},{"name":"Olive Garden Italian Restaurant","code":null,"latitude":37.25038,"longitude":-121.8641,"address":"940 Blossom Hill Road, San Jose CA","chain_name":null,"distance":0},{"name":"Olive Garden Italian Restaurant","code":null,"latitude":45.09157,"longitude":-93.4335,"address":"12520 Elm Creek Boulevard North, Maple Grove MN","chain_name":null,"distance":0},{"name":"Olive Garden Italian Restaurant","code":null,"latitude":32.97891,"longitude":-117.0823,"address":"11555 Carmel Mountain Road, San Diego CA","chain_name":null,"distance":0},{"name":"Olive Garden Italian Restaurant","code":null,"latitude":44.07081,"longitude":-123.1059,"address":"1077 Valley River Drive, Eugene OR","chain_name":null,"distance":0},{"name":"Olive Garden Italian Restaurant","code":null,"latitude":36.07085,"longitude":-115.077,"address":"4400 East Sunset Road, Henderson NV","chain_name":null,"distance":0},{"name":"Olive Garden Italian Restaurant","code":null,"latitude":41.42088,"longitude":-81.909,"address":"25984 Lorain Road, North Olmsted OH","chain_name":null,"distance":0},{"name":"Olive Garden Italian Restaurant","code":null,"latitude":34.79436,"longitude":-92.2321,"address":"2943 Lakewood Village Drive, North Little Rock AR","chain_name":null,"distance":0},{"name":"Olive Garden Italian Restaurant","code":null,"latitude":40.68496,"longitude":-74.3243,"address":"275 Us Highway 22, Springfield NJ","chain_name":null,"distance":0},{"name":"Olive Garden Italian Restaurant","code":null,"latitude":28.35708,"longitude":-80.6965,"address":"205 East Merritt Island Causeway, Merritt Island FL","chain_name":null,"distance":0},{"name":"Olive Garden Italian Restaurant","code":null,"latitude":33.69804,"longitude":-78.8774,"address":"1405 North Kings Highway, Myrtle Beach SC","chain_name":null,"distance":0},{"name":"Olive Garden Italian Restaurant","code":null,"latitude":43.19555,"longitude":-76.2022,"address":"4125 State Route 31, Clay NY","chain_name":null,"distance":0},{"name":"Olive Garden Italian Restaurant","code":null,"latitude":38.31914,"longitude":-81.7174,"address":"111 Crossing Terrace Boulevard, Charleston WV","chain_name":null,"distance":0},{"name":"Olive Garden Italian Restaurant","code":null,"latitude":32.67234,"longitude":-97.1348,"address":"4604 South Cooper Street, Arlington TX","chain_name":null,"distance":0},{"name":"Olive Garden Italian Restaurant","code":null,"latitude":35.14573,"longitude":-85.2493,"address":"5525 Highway 153, Hixson TN","chain_name":null,"distance":0},{"name":"Olive Garden Italian Restaurant","code":null,"latitude":40.75929,"longitude":-73.9848,"address":"201 W 47th St, New York NY","chain_name":null,"distance":0},{"name":"Olive Garden Italian Restaurant","code":null,"latitude":33.58006,"longitude":-112.1205,"address":"10223 North Metro Parkway East, Phoenix AZ","chain_name":null,"distance":0},{"name":"Olive Garden Italian Restaurant","code":null,"latitude":38.7917,"longitude":-77.5131,"address":"7501 Broken Branch Lane, Manassas VA","chain_name":null,"distance":0},{"name":"Olive Garden Italian Restaurant","code":null,"latitude":42.29879,"longitude":-71.3933,"address":"1 Worcester Road, Framingham MA","chain_name":null,"distance":0},{"name":"Olive Garden Italian Restaurant","code":null,"latitude":42.72297,"longitude":-73.8011,"address":"178 Wolf Rd, Colonie NY","chain_name":null,"distance":0},{"name":"Olive Garden Italian Restaurant","code":null,"latitude":40.56411,"longitude":-80.0241,"address":"8400 McKnight Road, Pittsburgh PA","chain_name":null,"distance":0},{"name":"Olive Garden Italian Restaurant","code":null,"latitude":42.64242,"longitude":-83.1319,"address":"2615 South Rochester Road, Rochester Hills MI","chain_name":null,"distance":0},{"name":"Olive Garden Italian Restaurant","code":null,"latitude":35.58302,"longitude":-77.3733,"address":"520 Greenville Boulevard Southeast, Greenville NC","chain_name":null,"distance":0},{"name":"Olive Garden Italian Restaurant","code":null,"latitude":30.64448,"longitude":-96.313,"address":"510 Earl Rudder Freeway South, College Station TX","chain_name":null,"distance":0},{"name":"Olive Garden Italian Restaurant","code":null,"latitude":38.96447,"longitude":-92.3567,"address":"1300 Interstate 70 Drive Southwest, Columbia MO","chain_name":null,"distance":0},{"name":"Olive Garden Italian Restaurant","code":null,"latitude":44.77857,"longitude":-91.4327,"address":"4920 Golf Road, Eau Claire WI","chain_name":null,"distance":0},{"name":"Olive Garden Italian Restaurant","code":null,"latitude":36.15906,"longitude":-115.3321,"address":"10800 West Charleston Boulevard, Las Vegas NV","chain_name":null,"distance":0},{"name":"Olive Garden Italian Restaurant","code":null,"latitude":33.47678,"longitude":-112.2206,"address":"2626 N 75th Avenue, Phoenix AZ","chain_name":null,"distance":0},{"name":"Olive Garden Italian Restaurant","code":null,"latitude":38.99198,"longitude":-84.6518,"address":"7844 Mall Road, Florence KY","chain_name":null,"distance":0},{"name":"Olive Garden Italian Restaurant","code":null,"latitude":37.30652,"longitude":-79.9659,"address":"1925 Valley View Boulevard Northwest, Roanoke VA","chain_name":null,"distance":0},{"name":"Olive Garden Italian Restaurant","code":null,"latitude":38.92677,"longitude":-76.7106,"address":"4101 Town Center Boulevard, Bowie MD","chain_name":null,"distance":0},{"name":"Olive Garden Italian Restaurant","code":null,"latitude":39.48139,"longitude":-119.7913,"address":"4900 South Virginia Street, Reno NV","chain_name":null,"distance":0},{"name":"Olive Garden Italian Restaurant","code":null,"latitude":29.6152,"longitude":-95.2143,"address":"12711 Gulf Freeway, Houston TX","chain_name":null,"distance":0},{"name":"Olive Garden Italian Restaurant","code":null,"latitude":33.93383,"longitude":-118.12,"address":"9253 Firestone Boulevard, Downey CA","chain_name":null,"distance":0},{"name":"Olive Garden Italian Restaurant","code":null,"latitude":41.37509,"longitude":-73.4874,"address":"36 Backus Avenue, Danbury CT","chain_name":null,"distance":0},{"name":"Olive Garden Italian Restaurant","code":null,"latitude":32.62796,"longitude":-117.086,"address":"585 I Street, Chula Vista CA","chain_name":null,"distance":0},{"name":"Olive Garden Italian Restaurant","code":null,"latitude":32.93162,"longitude":-96.6212,"address":"4840 North George Bush Highway, Garland TX","chain_name":null,"distance":0},{"name":"Olive Garden Italian Restaurant","code":null,"latitude":40.06515,"longitude":-76.3437,"address":"910 Plaza Boulevard, Lancaster PA","chain_name":null,"distance":0},{"name":"Olive Garden Italian Restaurant","code":null,"latitude":36.3408,"longitude":-82.3751,"address":"1903 North Roan Street, Johnson City TN","chain_name":null,"distance":0},{"name":"Olive Garden Italian Restaurant","code":null,"latitude":28.00403,"longitude":-81.7236,"address":"405 Cypress Gardens Boulevard, Winter Haven FL","chain_name":null,"distance":0},{"name":"Olive Garden Italian Restaurant","code":null,"latitude":39.67354,"longitude":-104.8659,"address":"2390 South Havana Street, Aurora CO","chain_name":null,"distance":0},{"name":"Olive Garden Italian Restaurant","code":null,"latitude":40.86903,"longitude":-73.0815,"address":"257 Centereach Mall, Centereach NY","chain_name":null,"distance":0},{"name":"Olive Garden Italian Restaurant","code":null,"latitude":30.54017,"longitude":-97.6689,"address":"100 Sundance Parkway, Round Rock TX","chain_name":null,"distance":0},{"name":"Olive Garden Italian Restaurant","code":null,"latitude":46.86174,"longitude":-96.8554,"address":"4339 13th Avenue South, Fargo ND","chain_name":null,"distance":0},{"name":"Olive Garden Italian Restaurant","code":null,"latitude":33.59733,"longitude":-111.9761,"address":"4868 East Cactus Road, Scottsdale AZ","chain_name":null,"distance":0},{"name":"Olive Garden Italian Restaurant","code":null,"latitude":40.56028,"longitude":-111.8908,"address":"10540 South State Street, Sandy UT","chain_name":null,"distance":0},{"name":"Olive Garden Italian Restaurant","code":null,"latitude":25.76968,"longitude":-80.3287,"address":"8201 West Flagler Street, Miami FL","chain_name":null,"distance":0},{"name":"Olive Garden Italian Restaurant","code":null,"latitude":38.60251,"longitude":-90.4599,"address":"12990 Manchester Road, Des Peres MO","chain_name":null,"distance":0},{"name":"Olive Garden Italian Restaurant","code":null,"latitude":33.3493,"longitude":-111.9558,"address":"1010 West Elliot Road, Tempe AZ","chain_name":null,"distance":0},{"name":"Olive Garden Italian Restaurant","code":null,"latitude":43.22303,"longitude":-71.4919,"address":"223 Loudon Road, Concord NH","chain_name":null,"distance":0},{"name":"Olive Garden Italian Restaurant","code":null,"latitude":26.18179,"longitude":-97.7151,"address":"1802 West Lincoln Street, Harlingen TX","chain_name":null,"distance":0},{"name":"Olive Garden Italian Restaurant","code":null,"latitude":33.81281,"longitude":-118.3511,"address":"23442 Hawthorne Boulevard, Torrance CA","chain_name":null,"distance":0},{"name":"Olive Garden Italian Restaurant","code":null,"latitude":32.39465,"longitude":-90.1454,"address":"6347 I 55 North, Jackson MS","chain_name":null,"distance":0},{"name":"Olive Garden Italian Restaurant","code":null,"latitude":41.61508,"longitude":-87.8533,"address":"15215 South La Grange Road, Orland Park IL","chain_name":null,"distance":0},{"name":"Olive Garden Italian Restaurant","code":null,"latitude":26.00771,"longitude":-80.3005,"address":"11425 Pines Boulevard, Pembroke Pines FL","chain_name":null,"distance":0},{"name":"Olive Garden Italian Restaurant","code":null,"latitude":41.11902,"longitude":-81.4781,"address":"480 Howe Avenue, Cuyahoga Falls OH","chain_name":null,"distance":0},{"name":"Olive Garden Italian Restaurant","code":null,"latitude":42.6961,"longitude":-71.4378,"address":"422 Middlesex Road, Tyngsboro MA","chain_name":null,"distance":0},{"name":"Olive Garden Italian Restaurant","code":null,"latitude":42.6254,"longitude":-82.9892,"address":"13835 Lakeside Circle, Sterling Heights MI","chain_name":null,"distance":0},{"name":"Olive Garden Italian Restaurant","code":null,"latitude":30.37125,"longitude":-97.7267,"address":"8833 Burnet Road, Austin TX","chain_name":null,"distance":0},{"name":"Olive Garden Italian Restaurant","code":null,"latitude":34.06399,"longitude":-83.9899,"address":"3220 Buford Drive, Buford GA","chain_name":null,"distance":0},{"name":"Olive Garden Italian Restaurant","code":null,"latitude":35.93057,"longitude":-84.0276,"address":"7206 Kingston Pike, Knoxville TN","chain_name":null,"distance":0},{"name":"Olive Garden Italian Restaurant","code":null,"latitude":40.0658836,"longitude":-75.0414787,"address":"Roosevelt Boulevard, Philadelphia PA","chain_name":null,"distance":0},{"name":"Olive Garden Italian Restaurant","code":null,"latitude":40.03888,"longitude":-75.5236,"address":"1010 Pittsburgh Mills Blv, Tarentum PA","chain_name":null,"distance":0},{"name":"Olive Garden Italian Restaurant","code":null,"latitude":38.29582,"longitude":-77.5109,"address":"2811 Plank Road, Fredericksburg VA","chain_name":null,"distance":0},{"name":"Olive Garden Italian Restaurant","code":null,"latitude":39.82694,"longitude":-75.1001,"address":"1500 Almonesson Road, Woodbury NJ","chain_name":null,"distance":0},{"name":"Olive Garden Italian Restaurant","code":null,"latitude":35.08661,"longitude":-80.8779,"address":"9421 Pineville Matthews R, Pineville NC","chain_name":null,"distance":0},{"name":"Olive Garden Italian Restaurant","code":null,"latitude":40.48808,"longitude":-88.9509,"address":"1701 East Empire Street, Bloomington IL","chain_name":null,"distance":0},{"name":"Olive Garden Italian Restaurant","code":null,"latitude":40.73408,"longitude":-89.6176,"address":"3915 West War Memorial Drive, Peoria IL","chain_name":null,"distance":0},{"name":"Olive Garden Italian Restaurant","code":null,"latitude":32.98881,"longitude":-96.9404,"address":"2418 South I Highway 35E, Lewisville TX","chain_name":null,"distance":0},{"name":"Olive Garden Italian Restaurant","code":null,"latitude":41.45831,"longitude":-81.4878,"address":"3725 Orange Place, Beachwood OH","chain_name":null,"distance":0},{"name":"Olive Garden Italian Restaurant","code":null,"latitude":26.3476,"longitude":-80.1539,"address":"22161 Powerline Road, Boca Raton FL","chain_name":null,"distance":0},{"name":"Olive Garden Italian Restaurant","code":null,"latitude":39.85636,"longitude":-105.0568,"address":"5581 West 88th Avenue, Westminster CO","chain_name":null,"distance":0},{"name":"Olive Garden Italian Restaurant","code":null,"latitude":33.18227,"longitude":-97.1018,"address":"2809 South Interstate 35 East, Denton TX","chain_name":null,"distance":0},{"name":"Olive Garden Italian Restaurant","code":null,"latitude":29.70376,"longitude":-98.0917,"address":"1354 North Ih 35, New Braunfels TX","chain_name":null,"distance":0},{"name":"Olive Garden Italian Restaurant","code":null,"latitude":33.8955,"longitude":-118.3957,"address":"2610 North Sepulveda Boulevard, Manhattan Beach CA","chain_name":null,"distance":0},{"name":"Olive Garden Italian Restaurant","code":null,"latitude":36.58509,"longitude":-87.2953,"address":"2782 Wilma Rudolph Boulevard, Clarksville TN","chain_name":null,"distance":0},{"name":"Olive Garden Italian Restaurant","code":null,"latitude":27.71282,"longitude":-97.38,"address":"5258 South Padre Island Drive, Corpus Christi TX","chain_name":null,"distance":0},{"name":"Olive Garden Italian Restaurant","code":null,"latitude":32.57121,"longitude":-97.3186,"address":"12870 South Freeway, Burleson TX","chain_name":null,"distance":0},{"name":"Olive Garden Italian Restaurant","code":null,"latitude":40.34805,"longitude":-80.0496,"address":"6000 Oxford Drive, Bethel Park PA","chain_name":null,"distance":0},{"name":"Olive Garden Italian Restaurant","code":null,"latitude":27.46143,"longitude":-82.5754,"address":"4420 14th Street West, Bradenton FL","chain_name":null,"distance":0},{"name":"Olive Garden Italian Restaurant","code":null,"latitude":39.90518,"longitude":-86.0618,"address":"6130 East 82nd Street, Indianapolis IN","chain_name":null,"distance":0},{"name":"Olive Garden Italian Restaurant","code":null,"latitude":41.59466,"longitude":-93.7544,"address":"3600 Westown Parkway, West Des Moines IA","chain_name":null,"distance":0},{"name":"Olive Garden Italian Restaurant","code":null,"latitude":30.3204,"longitude":-81.5523,"address":"9465 Atlantic Boulevard, Jacksonville FL","chain_name":null,"distance":0},{"name":"Olive Garden Italian Restaurant","code":null,"latitude":36.64592,"longitude":-93.2869,"address":"3790 West 76 Country Boulevard, Branson MO","chain_name":null,"distance":0},{"name":"Olive Garden Italian Restaurant","code":null,"latitude":42.52458,"longitude":-71.7722,"address":"3 Orchard Hill Park Drive, Leominster MA","chain_name":null,"distance":0},{"name":"Olive Garden Italian Restaurant","code":null,"latitude":33.82669,"longitude":-117.8359,"address":"2330 North Tustin Street, Orange CA","chain_name":null,"distance":0},{"name":"Olive Garden Italian Restaurant","code":null,"latitude":39.91533,"longitude":-86.2254,"address":"8840 Signature, Indianapolis IN","chain_name":null,"distance":0},{"name":"Olive Garden Italian Restaurant","code":null,"latitude":45.51821,"longitude":-122.562,"address":"9830 Southeast Washington Street, Portland OR","chain_name":null,"distance":0},{"name":"Olive Garden Italian Restaurant","code":null,"latitude":34.89069,"longitude":-82.4051,"address":"3290 North Pleasantburg Drive, Greenville SC","chain_name":null,"distance":0},{"name":"Olive Garden Italian Restaurant","code":null,"latitude":26.13797,"longitude":-81.7829,"address":"1565 5th Avenue South, Naples FL","chain_name":null,"distance":0},{"name":"Olive Garden Italian Restaurant","code":null,"latitude":40.67955,"longitude":-73.4326,"address":"5598 Sunrise Highway, Massapequa NY","chain_name":null,"distance":0},{"name":"Olive Garden Italian Restaurant","code":null,"latitude":29.69162,"longitude":-95.4157,"address":"1010 Old Spanish Trail, Houston TX","chain_name":null,"distance":0},{"name":"Olive Garden Italian Restaurant","code":null,"latitude":40.08573,"longitude":-82.9552,"address":"2365 East Dublin Granville Road, Columbus OH","chain_name":null,"distance":0},{"name":"Olive Garden Italian Restaurant","code":null,"latitude":35.20436,"longitude":-89.7794,"address":"8405 US Highway 64, Memphis TN","chain_name":null,"distance":0},{"name":"Olive Garden Italian Restaurant","code":null,"latitude":37.06475,"longitude":-88.739,"address":"5150 Hinkleville Road, Paducah KY","chain_name":null,"distance":0},{"name":"Olive Garden Italian Restaurant","code":null,"latitude":32.77855,"longitude":-117.0069,"address":"5500 Grossmont Center Drive, La Mesa CA","chain_name":null,"distance":0},{"name":"Olive Garden Italian Restaurant","code":null,"latitude":26.19517,"longitude":-80.1119,"address":"5550 North Federal Highway, Fort Lauderdale FL","chain_name":null,"distance":0},{"name":"Olive Garden Italian Restaurant","code":null,"latitude":38.66854,"longitude":-90.5942,"address":"17198 Chesterfield Airport, Chesterfield MO","chain_name":null,"distance":0},{"name":"Olive Garden Italian Restaurant","code":null,"latitude":28.03982,"longitude":-82.7382,"address":"29461 US Highway 19 North, Clearwater FL","chain_name":null,"distance":0},{"name":"Olive Garden Italian Restaurant","code":null,"latitude":39.37429,"longitude":-76.4725,"address":"8245 Perry Hall Boulevard, Nottingham MD","chain_name":null,"distance":0},{"name":"Olive Garden Italian Restaurant","code":null,"latitude":32.44113,"longitude":-93.7175,"address":"7150 Youree Drive, Shreveport LA","chain_name":null,"distance":0},{"name":"Olive Garden Italian Restaurant","code":null,"latitude":26.10953,"longitude":-80.2502,"address":"807 South University Drive, Plantation FL","chain_name":null,"distance":0},{"name":"Olive Garden Italian Restaurant","code":null,"latitude":28.66411,"longitude":-81.4127,"address":"Altamonte Springs FL","chain_name":null,"distance":0},{"name":"Olive Garden Italian Restaurant","code":null,"latitude":36.82337,"longitude":-76.067,"address":"683 Lynnhaven Parkway, Virginia Beach VA","chain_name":null,"distance":0},{"name":"Olive Garden Italian Restaurant","code":null,"latitude":41.68894,"longitude":-88.1257,"address":"215 South Weber Road, Bolingbrook IL","chain_name":null,"distance":0},{"name":"Olive Garden Italian Restaurant","code":null,"latitude":47.71107,"longitude":-122.1887,"address":"11325 Northeast 124th Street, Kirkland WA","chain_name":null,"distance":0},{"name":"Olive Garden Italian Restaurant","code":null,"latitude":44.96995,"longitude":-93.3454,"address":"5235 Wayzata Boulevard, Minneapolis MN","chain_name":null,"distance":0},{"name":"Olive Garden Italian Restaurant","code":null,"latitude":28.2986,"longitude":-82.7061,"address":"9690 US Highway 19, Port Richey FL","chain_name":null,"distance":0},{"name":"Olive Garden Italian Restaurant","code":null,"latitude":39.49313,"longitude":-84.3348,"address":"6710 Roosevelt Parkway, Middletown OH","chain_name":null,"distance":0},{"name":"Olive Garden Italian Restaurant","code":null,"latitude":37.71632,"longitude":-87.1256,"address":"5204 Frederica Street, Owensboro KY","chain_name":null,"distance":0},{"name":"Olive Garden Italian Restaurant","code":null,"latitude":31.77327,"longitude":-106.3792,"address":"8401 Gateway Boulevard W, El Paso TX","chain_name":null,"distance":0},{"name":"Olive Garden Italian Restaurant","code":null,"latitude":36.04478,"longitude":-86.6625,"address":"1131 Bell Road, Antioch TN","chain_name":null,"distance":0},{"name":"Olive Garden Italian Restaurant","code":null,"latitude":44.02643,"longitude":-92.4879,"address":"380 17th Avenue Northwest, Rochester MN","chain_name":null,"distance":0},{"name":"Olive Garden Italian Restaurant","code":null,"latitude":37.30223,"longitude":-89.576,"address":"3259 William Street, Cape Girardeau MO","chain_name":null,"distance":0},{"name":"Olive Garden Italian Restaurant","code":null,"latitude":43.09687,"longitude":-70.797,"address":"2048 Woodbury Avenue, Newington NH","chain_name":null,"distance":0},{"name":"Olive Garden Italian Restaurant","code":null,"latitude":32.28659,"longitude":-110.9768,"address":"300 West Wetmore Road, Tucson AZ","chain_name":null,"distance":0},{"name":"Olive Garden Italian Restaurant","code":null,"latitude":39.30903,"longitude":-81.5523,"address":"109 Grand Central Avenue, Parkersburg WV","chain_name":null,"distance":0},{"name":"Olive Garden Italian Restaurant","code":null,"latitude":31.81847,"longitude":-106.5445,"address":"740 Sunland Park Drive, El Paso TX","chain_name":null,"distance":0},{"name":"Olive Garden Italian Restaurant","code":null,"latitude":39.31125,"longitude":-84.4874,"address":"7179 Dixie Highway, Fairfield OH","chain_name":null,"distance":0},{"name":"Olive Garden Italian Restaurant","code":null,"latitude":33.62983,"longitude":-112.339,"address":"13379 West Grand Avenue, Surprise AZ","chain_name":null,"distance":0},{"name":"Olive Garden Italian Restaurant","code":null,"latitude":42.04716,"longitude":-88.1267,"address":"1925 West Golf Road, Schaumburg IL","chain_name":null,"distance":0},{"name":"Olive Garden Italian Restaurant","code":null,"latitude":41.17087,"longitude":-76.8711,"address":"1200 Bethlehem Park, Montgomery PA","chain_name":null,"distance":0},{"name":"Olive Garden Italian Restaurant","code":null,"latitude":33.68159,"longitude":-117.8122,"address":"3955 Alton Parkway, Irvine CA","chain_name":null,"distance":0},{"name":"Olive Garden Italian Restaurant","code":null,"latitude":40.6349,"longitude":-111.889,"address":"6305 South State Street, Salt Lake City UT","chain_name":null,"distance":0},{"name":"Olive Garden Italian Restaurant","code":null,"latitude":29.19478,"longitude":-81.0611,"address":"1725 West International Speedw, Daytona Beach FL","chain_name":null,"distance":0},{"name":"Olive Garden Italian Restaurant","code":null,"latitude":33.1918,"longitude":-87.5257,"address":"2100 McFarland Boulevard East, Tuscaloosa AL","chain_name":null,"distance":0},{"name":"Olive Garden Italian Restaurant","code":null,"latitude":41.46312,"longitude":-74.3725,"address":"200 North Galleria Drive, Middletown NY","chain_name":null,"distance":0},{"name":"Olive Garden Italian Restaurant","code":null,"latitude":29.72993,"longitude":-95.6441,"address":"2750 Highway 6 South, Houston TX","chain_name":null,"distance":0},{"name":"Olive Garden Italian Restaurant","code":null,"latitude":25.94325,"longitude":-80.1482,"address":"18101 Biscayne Boulevard, Aventura FL","chain_name":null,"distance":0},{"name":"Olive Garden Italian Restaurant","code":null,"latitude":27.89451,"longitude":-82.7843,"address":"10500 Ulmerton Road, Largo FL","chain_name":null,"distance":0},{"name":"Olive Garden Italian Restaurant","code":null,"latitude":34.14626,"longitude":-118.255,"address":"101 North Brand Boulevard, Glendale CA","chain_name":null,"distance":0},{"name":"Olive Garden Italian Restaurant","code":null,"latitude":41.92126,"longitude":-88.2707,"address":"3785 East Main Street, Saint Charles IL","chain_name":null,"distance":0},{"name":"Olive Garden Italian Restaurant","code":null,"latitude":38.34759,"longitude":-122.7168,"address":"6430 Redwood Drive, Rohnert Park CA","chain_name":null,"distance":0},{"name":"Olive Garden Italian Restaurant","code":null,"latitude":41.60538,"longitude":-83.6644,"address":"1919 South Reynolds Road, Toledo OH","chain_name":null,"distance":0},{"name":"Olive Garden Italian Restaurant","code":null,"latitude":39.17026,"longitude":-86.5724,"address":"320 North Jacob Drive, Bloomington IN","chain_name":null,"distance":0},{"name":"Olive Garden Italian Restaurant","code":null,"latitude":32.49649,"longitude":-92.0609,"address":"4781 Pecanland Mall Drive, Monroe LA","chain_name":null,"distance":0},{"name":"Olive Garden Italian Restaurant","code":null,"latitude":43.17758,"longitude":-88.0174,"address":"8531 West Brown Deer Road, Milwaukee WI","chain_name":null,"distance":0},{"name":"Olive Garden Italian Restaurant","code":null,"latitude":38.63764,"longitude":-77.2981,"address":"14405 Gideon Drive, Woodbridge VA","chain_name":null,"distance":0},{"name":"Olive Garden Italian Restaurant","code":null,"latitude":30.45504,"longitude":-97.8263,"address":"12827 Ranch Road 620 North, Austin TX","chain_name":null,"distance":0},{"name":"Olive Garden Italian Restaurant","code":null,"latitude":42.1565,"longitude":-71.065,"address":"401 Technology Center Drive, Stoughton MA","chain_name":null,"distance":0},{"name":"Olive Garden Italian Restaurant","code":null,"latitude":38.85271,"longitude":-77.1199,"address":"3548 52 S Jefferson Street, Falls Church VA","chain_name":null,"distance":0},{"name":"Olive Garden Italian Restaurant","code":null,"latitude":40.00242,"longitude":-75.2242,"address":"83 East City Avenue, Bala Cynwyd PA","chain_name":null,"distance":0},{"name":"Olive Garden Italian Restaurant","code":null,"latitude":37.42454,"longitude":-122.1444,"address":"2515 El Camino Real, Palo Alto CA","chain_name":null,"distance":0},{"name":"Olive Garden Italian Restaurant","code":null,"latitude":41.62947,"longitude":-73.916,"address":"741 South Road, Poughkeepsie NY","chain_name":null,"distance":0},{"name":"Olive Garden Italian Restaurant","code":null,"latitude":37.64756,"longitude":-122.1069,"address":"24688 Hesperian Boulevard, Hayward CA","chain_name":null,"distance":0},{"name":"Olive Garden Italian Restaurant","code":null,"latitude":42.06505,"longitude":-80.0931,"address":"5945 Peach Street, Erie PA","chain_name":null,"distance":0},{"name":"Olive Garden Italian Restaurant","code":null,"latitude":42.47808,"longitude":-82.9492,"address":"24845 Gratiot Avenue, Eastpointe MI","chain_name":null,"distance":0},{"name":"Olive Garden Italian Restaurant","code":null,"latitude":40.02792,"longitude":-82.4436,"address":"898 Hebron Rd, Heath OH","chain_name":null,"distance":0},{"name":"Olive Garden Italian Restaurant","code":null,"latitude":40.70938,"longitude":-80.1018,"address":"1716 Route 228, Cranberry Township PA","chain_name":null,"distance":0},{"name":"Olive Garden Italian Restaurant","code":null,"latitude":41.38041,"longitude":-81.7421,"address":"8383 Day Drive, Cleveland OH","chain_name":null,"distance":0},{"name":"Olive Garden Italian Restaurant","code":null,"latitude":32.03578,"longitude":-102.1201,"address":"2705 West Loop 250 North, Midland TX","chain_name":null,"distance":0},{"name":"Olive Garden Italian Restaurant","code":null,"latitude":33.39306,"longitude":-111.8586,"address":"1261 W Southern Avenue, Mesa AZ","chain_name":null,"distance":0},{"name":"Olive Garden Italian Restaurant","code":null,"latitude":32.86232,"longitude":-96.8966,"address":"10280 Technology Boulevard East, Dallas TX","chain_name":null,"distance":0},{"name":"Olive Garden Italian Restaurant","code":null,"latitude":27.23783,"longitude":-80.2699,"address":"3447 Northwest Federal Highway, Jensen Beach FL","chain_name":null,"distance":0},{"name":"Olive Garden Italian Restaurant","code":null,"latitude":40.31102,"longitude":-76.8016,"address":"5102 Jonestown Road, Harrisburg PA","chain_name":null,"distance":0},{"name":"Olive Garden Italian Restaurant","code":null,"latitude":34.30102,"longitude":-88.7074,"address":"3242 North Gloster Street, Tupelo MS","chain_name":null,"distance":0},{"name":"Olive Garden Italian Restaurant","code":null,"latitude":29.27075,"longitude":-81.0299,"address":"880 South Atlantic Avenue, Ormond Beach FL","chain_name":null,"distance":0},{"name":"Olive Garden Italian Restaurant","code":null,"latitude":37.53246,"longitude":-121.9987,"address":"39145 Farwell Drive, Fremont CA","chain_name":null,"distance":0},{"name":"Olive Garden Italian Restaurant","code":null,"latitude":40.29457,"longitude":-74.6822,"address":"3345 US Highway 1, Trenton NJ","chain_name":null,"distance":0},{"name":"Olive Garden Italian Restaurant","code":null,"latitude":37.15777,"longitude":-93.2626,"address":"3105 South Glenstone Avenue, Springfield MO","chain_name":null,"distance":0},{"name":"Olive Garden Italian Restaurant","code":null,"latitude":32.92186,"longitude":-97.0806,"address":"301 West State Highway 114, Grapevine TX","chain_name":null,"distance":0},{"name":"Olive Garden Italian Restaurant","code":null,"latitude":39.08967,"longitude":-108.6043,"address":"2420 Highway 6 And 50, Grand Junction CO","chain_name":null,"distance":0},{"name":"Olive Garden Italian Restaurant","code":null,"latitude":42.48281,"longitude":-83.4751,"address":"43300 Crescent Boulevard, Novi MI","chain_name":null,"distance":0},{"name":"Olive Garden Italian Restaurant","code":null,"latitude":41.37197,"longitude":-81.8224,"address":"17500 Bagley Road, Cleveland OH","chain_name":null,"distance":0},{"name":"Olive Garden Italian Restaurant","code":null,"latitude":29.62621,"longitude":-82.3737,"address":"3440 Southwest Archer Road, Gainesville FL","chain_name":null,"distance":0},{"name":"Olive Garden Italian Restaurant","code":null,"latitude":37.99044,"longitude":-84.5238,"address":"3385 Nicholasville Road, Lexington KY","chain_name":null,"distance":0},{"name":"Olive Garden Italian Restaurant","code":null,"latitude":35.26693,"longitude":-81.1338,"address":"432 Cox Road, Gastonia NC","chain_name":null,"distance":0},{"name":"Olive Garden Italian Restaurant","code":null,"latitude":42.35208,"longitude":-71.6173,"address":"728 Donald Lynch Boulevard, Marlborough MA","chain_name":null,"distance":0},{"name":"Olive Garden Italian Restaurant","code":null,"latitude":34.19264,"longitude":-118.3303,"address":"1741 North Victory Place, Burbank CA","chain_name":null,"distance":0},{"name":"Olive Garden Italian Restaurant","code":null,"latitude":33.99397,"longitude":-117.9201,"address":"17585 Castleton Street, City Of Industry CA","chain_name":null,"distance":0},{"name":"Olive Garden Italian Restaurant","code":null,"latitude":38.60149,"longitude":-89.9871,"address":"25 Ludwig Drive, Fairview Heights IL","chain_name":null,"distance":0},{"name":"Olive Garden Italian Restaurant","code":null,"latitude":40.07376,"longitude":-85.6528,"address":"4118 South Scatterfield Road, Anderson IN","chain_name":null,"distance":0},{"name":"Olive Garden Italian Restaurant","code":null,"latitude":35.14832,"longitude":-106.5866,"address":"6301 San Mateo Boulevard Northeast, Albuquerque NM","chain_name":null,"distance":0},{"name":"Olive Garden Italian Restaurant","code":null,"latitude":42.01161,"longitude":-87.7114,"address":"3303 West Touhy Avenue, Lincolnwood IL","chain_name":null,"distance":0},{"name":"Olive Garden Italian Restaurant","code":null,"latitude":38.22669,"longitude":-85.5779,"address":"1320 South Hurstbourne Parkway, Louisville KY","chain_name":null,"distance":0},{"name":"Olive Garden Italian Restaurant","code":null,"latitude":39.9855,"longitude":-74.1791,"address":"1277 Hooper Avenue, Toms River NJ","chain_name":null,"distance":0},{"name":"Olive Garden Italian Restaurant","code":null,"latitude":39.08988,"longitude":-108.6049,"address":"2416 Highway 6 And 50, Grand Junction CO","chain_name":null,"distance":0},{"name":"Olive Garden Italian Restaurant","code":null,"latitude":30.43771,"longitude":-84.2654,"address":"1103 Apalachee Parkway, Tallahassee FL","chain_name":null,"distance":0},{"name":"Olive Garden Italian Restaurant","code":null,"latitude":38.85927,"longitude":-77.3902,"address":"12980 Fair Lakes Shopping, Fairfax VA","chain_name":null,"distance":0},{"name":"Olive Garden Italian Restaurant","code":null,"latitude":28.56177,"longitude":-81.1583,"address":"Orlando FL","chain_name":null,"distance":0},{"name":"Olive Garden Italian Restaurant","code":null,"latitude":27.83321,"longitude":-82.6802,"address":"6700 US Highway 19 North, Pinellas Park FL","chain_name":null,"distance":0},{"name":"Olive Garden Italian Restaurant","code":null,"latitude":39.63532,"longitude":-86.1266,"address":"1274 US Highway 31 North, Greenwood IN","chain_name":null,"distance":0},{"name":"Olive Garden Italian Restaurant","code":null,"latitude":41.05561,"longitude":-83.5926,"address":"15115 East US Route 224, Findlay OH","chain_name":null,"distance":0},{"name":"Olive Garden Italian Restaurant","code":null,"latitude":26.71748,"longitude":-80.0909,"address":"1890 Palm Beach Lakes Blv, West Palm Beach FL","chain_name":null,"distance":0},{"name":"Olive Garden Italian Restaurant","code":null,"latitude":41.3748,"longitude":-72.141,"address":"850 Hartford Turnpike, Waterford CT","chain_name":null,"distance":0},{"name":"Olive Garden Italian Restaurant","code":null,"latitude":47.28698,"longitude":-122.3137,"address":"35030 Enchanted Parkway South, Federal Way WA","chain_name":null,"distance":0},{"name":"Olive Garden Italian Restaurant","code":null,"latitude":30.38753,"longitude":-86.4096,"address":"34970 Emerald Coast Parkway, Destin FL","chain_name":null,"distance":0},{"name":"Olive Garden Italian Restaurant","code":null,"latitude":42.02766,"longitude":-91.6296,"address":"367 Collins Road Northeast, Cedar Rapids IA","chain_name":null,"distance":0},{"name":"Olive Garden Italian Restaurant","code":null,"latitude":42.36232,"longitude":-122.8571,"address":"3125 Crater Lake Highway, Medford OR","chain_name":null,"distance":0},{"name":"Olive Garden Italian Restaurant","code":null,"latitude":35.07046,"longitude":-78.9512,"address":"234 North McPherson Church Road, Fayetteville NC","chain_name":null,"distance":0},{"name":"Olive Garden Italian Restaurant","code":null,"latitude":44.10481,"longitude":-103.2174,"address":"160 Disk Drive, Rapid City SD","chain_name":null,"distance":0},{"name":"Olive Garden Italian Restaurant","code":null,"latitude":40.74258,"longitude":-73.9933,"address":"696 Avenue Of The Americ, New York NY","chain_name":null,"distance":0},{"name":"Olive Garden Italian Restaurant","code":null,"latitude":44.85766,"longitude":-93.3384,"address":"4701 West 80th Street, Minneapolis MN","chain_name":null,"distance":0},{"name":"Olive Garden Italian Restaurant","code":null,"latitude":29.96429,"longitude":-95.5419,"address":"7525 Fm 1960 Road West, Houston TX","chain_name":null,"distance":0},{"name":"Olive Garden Italian Restaurant","code":null,"latitude":41.64088,"longitude":-70.9887,"address":"80 North Dartmouth Mall, North Dartmouth MA","chain_name":null,"distance":0},{"name":"Olive Garden Italian Restaurant","code":null,"latitude":44.83921,"longitude":-68.7433,"address":"741 Hogan Road, Bangor ME","chain_name":null,"distance":0},{"name":"Olive Garden Italian Restaurant","code":null,"latitude":30.40331,"longitude":-86.6039,"address":"216 Miracle Strip Parkway South, Fort Walton Beach FL","chain_name":null,"distance":0},{"name":"Olive Garden Italian Restaurant","code":null,"latitude":33.93974,"longitude":-83.4624,"address":"3666 Atlanta Highway, Athens GA","chain_name":null,"distance":0},{"name":"Olive Garden Italian Restaurant","code":null,"latitude":26.53648,"longitude":-80.0909,"address":"1001 North Congress Avenue, Boynton Beach FL","chain_name":null,"distance":0},{"name":"Olive Garden Italian Restaurant","code":null,"latitude":32.83722,"longitude":-96.9984,"address":"4001 West Airport Freeway, Irving TX","chain_name":null,"distance":0},{"name":"Olive Garden Italian Restaurant","code":null,"latitude":30.19431,"longitude":-81.7412,"address":"6050 Youngerman Circle, Jacksonville FL","chain_name":null,"distance":0},{"name":"Olive Garden Italian Restaurant","code":null,"latitude":38.75894,"longitude":-90.4356,"address":"3552 Pennridge Drive, Bridgeton MO","chain_name":null,"distance":0},{"name":"Olive Garden Italian Restaurant","code":null,"latitude":33.69653,"longitude":-84.0887,"address":"3011 Turner Hill Road, Lithonia GA","chain_name":null,"distance":0},{"name":"Olive Garden Italian Restaurant","code":null,"latitude":32.71892,"longitude":-97.4412,"address":"925 Alta Mere Drive, Fort Worth TX","chain_name":null,"distance":0},{"name":"Olive Garden Italian Restaurant","code":null,"latitude":42.78475,"longitude":-78.8111,"address":"3701 McKinley Parkway, Blasdell NY","chain_name":null,"distance":0},{"name":"Olive Garden Italian Restaurant","code":null,"latitude":27.01226,"longitude":-82.1447,"address":"1341 Tamiami Trail, Port Charlotte FL","chain_name":null,"distance":0},{"name":"Olive Garden Italian Restaurant","code":null,"latitude":32.41185,"longitude":-99.7745,"address":"3210 South Clack Street, Abilene TX","chain_name":null,"distance":0},{"name":"Olive Garden Italian Restaurant","code":null,"latitude":45.65514,"longitude":-122.5912,"address":"8101 Northeast Parkway Drive, Vancouver WA","chain_name":null,"distance":0},{"name":"Olive Garden Italian Restaurant","code":null,"latitude":36.8554,"longitude":-76.2,"address":"5920 East Virginia Beach Boulevard, Norfolk VA","chain_name":null,"distance":0},{"name":"Olive Garden Italian Restaurant","code":null,"latitude":47.91172,"longitude":-122.2153,"address":"1321 Southeast Everett Mall Way, Everett WA","chain_name":null,"distance":0},{"name":"Olive Garden Italian Restaurant","code":null,"latitude":41.11774,"longitude":-85.1811,"address":"315 W Coliseum Boulevard, Fort Wayne IN","chain_name":null,"distance":0},{"name":"Olive Garden Italian Restaurant","code":null,"latitude":40.43286,"longitude":-79.7911,"address":"260 Mall Boulevard, Monroeville PA","chain_name":null,"distance":0},{"name":"Olive Garden Italian Restaurant","code":null,"latitude":46.6027,"longitude":-120.5041,"address":"222 Yakima Ave, Yakima WA","chain_name":null,"distance":0},{"name":"Olive Garden Italian Restaurant","code":null,"latitude":32.28915,"longitude":-95.3035,"address":"5520 South Broadway Avenue, Tyler TX","chain_name":null,"distance":0},{"name":"Olive Garden Italian Restaurant","code":null,"latitude":33.41013,"longitude":-84.745,"address":"212 Newnan Crossing By-Pass, Newnan GA","chain_name":null,"distance":0},{"name":"Olive Garden Italian Restaurant","code":null,"latitude":30.08626,"longitude":-94.1365,"address":"585 Interstate 10 North, Beaumont TX","chain_name":null,"distance":0},{"name":"Olive Garden Italian Restaurant","code":null,"latitude":40.45543,"longitude":-80.1621,"address":"6000 Robinson Center Drive, Pittsburgh PA","chain_name":null,"distance":0},{"name":"Olive Garden Italian Restaurant","code":null,"latitude":42.99097,"longitude":-78.8168,"address":"3951 Maple Road, Buffalo NY","chain_name":null,"distance":0},{"name":"Olive Garden Italian Restaurant","code":null,"latitude":46.80543,"longitude":-92.1635,"address":"901 Mall Drive, Duluth MN","chain_name":null,"distance":0},{"name":"Olive Garden Italian Restaurant","code":null,"latitude":43.05478,"longitude":-76.0761,"address":"3147 Erie Boulevard East, Syracuse NY","chain_name":null,"distance":0},{"name":"Olive Garden Italian Restaurant","code":null,"latitude":46.22556,"longitude":-119.2334,"address":"1420 North Louisiana Street, Kennewick WA","chain_name":null,"distance":0},{"name":"Olive Garden Italian Restuarant","code":null,"latitude":28.8381308,"longitude":-82.3565962,"address":"2151 East Gulf to Lake Hwy, Inverness FL","chain_name":null,"distance":0},{"name":"olive garden","code":null,"latitude":44.167600115123,"longitude":-94.0028462476857,"address":"mankato MN","chain_name":null,"distance":0}]