[{"name":"PACIFIC SUN","code":null,"latitude":37.30918,"longitude":-81.23739,"address":"ROUTE 460 %26 HIGHWAY 25, BLUEFIELD WV","chain_name":null,"distance":0},{"name":"PACIFIC SUN","code":null,"latitude":43.64427,"longitude":-72.93075,"address":"ROUTE 7 SOUTH, RUTLAND VT","chain_name":null,"distance":0},{"name":"PACIFIC SUN","code":null,"latitude":41.7295,"longitude":-72.82601,"address":"500 WESTFARMS MALL, FARMINGTON CT","chain_name":null,"distance":0},{"name":"Pacific Sunwear","code":null,"latitude":35.60949,"longitude":-115.38953,"address":"32100 LAS VEGAS BLVD. SOUTH SUITE 430, PRIMM NV","chain_name":null,"distance":0},{"name":"PACIFIC SUN","code":null,"latitude":40.15661,"longitude":-74.42914,"address":"537 MONMOUTH ROAD, JACKSON NJ","chain_name":null,"distance":0},{"name":"PACIFIC SUN","code":null,"latitude":30.17725,"longitude":-92.06281,"address":"5725 JOHNSTON STREET SPACE #129, LAFAYETTE LA","chain_name":null,"distance":0},{"name":"PACIFIC SUN","code":null,"latitude":40.66772,"longitude":-111.95805,"address":"3601 SOUTH 2700 W F103, WEST VALLEY UT","chain_name":null,"distance":0},{"name":"Pacific Sunwear","code":null,"latitude":42.72096,"longitude":-84.42164,"address":"1982 W. GRAND RIVER AVENUE, OKEMOS MI","chain_name":null,"distance":0},{"name":"Pacific Sunwear","code":null,"latitude":41.23342,"longitude":-80.44819,"address":"3335 EAST STATE STREET, HERMITAGE PA","chain_name":null,"distance":0},{"name":"Pacific Sunwear","code":null,"latitude":30.66859,"longitude":-88.1042,"address":"3231 BEL AIR MALL SPACE #G-11, MOBILE AL","chain_name":null,"distance":0},{"name":"Pacific Sunwear","code":null,"latitude":41.40784,"longitude":-75.66829,"address":"229 THE MALL AT STEAMTOWN, SCRANTON PA","chain_name":null,"distance":0},{"name":"Pacific Sunwear","code":null,"latitude":40.89441,"longitude":-79.90601,"address":"101 CLEARVIEW CIRCLE, BUTLER PA","chain_name":null,"distance":0},{"name":"Pacific Sunwear","code":null,"latitude":37.99018,"longitude":-84.52417,"address":"3401 NICKOLASVILLE ROAD, LEXINGTON KY","chain_name":null,"distance":0},{"name":"Pacific Sunwear","code":null,"latitude":34.48947,"longitude":-112.4517,"address":"3250 GATEWAY BLVD, PRESCOTT AZ","chain_name":null,"distance":0},{"name":"Pacific Sunwear","code":null,"latitude":34.07332,"longitude":-118.35636,"address":"189 THE GROVE DR, LOS ANGELES CA","chain_name":null,"distance":0},{"name":"Pacific Sunwear","code":null,"latitude":41.63303,"longitude":-93.69767,"address":"101 MERLE HAY TOWER, DES MOINES IA","chain_name":null,"distance":0},{"name":"Pacific Sunwear","code":null,"latitude":42.08329,"longitude":-71.04707,"address":"200 WESTGATE DR. SPACE E127, BROCKTON MA","chain_name":null,"distance":0},{"name":"PACIFIC SUN","code":null,"latitude":37.37122,"longitude":-120.52004,"address":"713 MERCED MALL, MERCED CA","chain_name":null,"distance":0},{"name":"PACIFIC SUN","code":null,"latitude":34.13543,"longitude":-118.05429,"address":"400 S. BALDWIN AVENUE, ARCADIA CA","chain_name":null,"distance":0},{"name":"PACIFIC SUN","code":null,"latitude":40.95643,"longitude":-74.23862,"address":"WILLOWBROOK MALL, WAYNE NJ","chain_name":null,"distance":0},{"name":"Pacific Sunwear","code":null,"latitude":37.1233,"longitude":-113.53376,"address":"1770 EAST RED CLIFFS DRIVE, ST. GEORGE UT","chain_name":null,"distance":0},{"name":"Pacific Sunwear","code":null,"latitude":35.0346,"longitude":-85.15622,"address":"2100 HAMILTON PLACE BLVD., CHATTANOOGA TN","chain_name":null,"distance":0},{"name":"PACIFIC SUN","code":null,"latitude":44.33975,"longitude":-69.73438,"address":"8 STEVEN KING DRIVE, AUGUSTA ME","chain_name":null,"distance":0},{"name":"PACIFIC SUN","code":null,"latitude":40.2539,"longitude":-76.83043,"address":"3501 PAXTON ST. SUITE J8, HARRISBURG PA","chain_name":null,"distance":0},{"name":"PACIFIC SUN","code":null,"latitude":27.90172,"longitude":-81.58321,"address":"451 EAGLE RIDGE DR, LAKE WALES FL","chain_name":null,"distance":0},{"name":"Pacific Sunwear","code":null,"latitude":34.07462,"longitude":-81.15547,"address":"100 COLUMBIANA CIRCLE #1454, COLUMBIA SC","chain_name":null,"distance":0},{"name":"PACIFIC SUN","code":null,"latitude":35.37148,"longitude":-80.71854,"address":"8111 CONCORD MILLS BLVD., CONCORD NC","chain_name":null,"distance":0},{"name":"PACIFIC SUN","code":null,"latitude":35.36377,"longitude":-94.37464,"address":"5111 ROGERS AVE. SUITE 154, FORT SMITH AR","chain_name":null,"distance":0},{"name":"PACIFIC SUN","code":null,"latitude":41.30242,"longitude":-81.3456,"address":"549 SOUTH CHILLICOTHE ROAD, AURORA OH","chain_name":null,"distance":0},{"name":"PACIFIC SUN","code":null,"latitude":33.61125,"longitude":-117.67387,"address":"704 THE SHOPS AT MISSION VIEJO, MISSION VIEJO CA","chain_name":null,"distance":0},{"name":"Pacific Sunwear","code":null,"latitude":26.65097,"longitude":-80.2074,"address":"10300 W. FOREST HILL BLVD, WELLINGTON FL","chain_name":null,"distance":0},{"name":"Pacific Sunwear","code":null,"latitude":44.85563,"longitude":-93.24168,"address":"162 NORTH GARDEN, BLOOMINGTON MN","chain_name":null,"distance":0},{"name":"Pacific Sunwear","code":null,"latitude":41.75529,"longitude":-111.83441,"address":"1300 NORTH MAIN STREET, LOGAN UT","chain_name":null,"distance":0},{"name":"Pacific Sunwear","code":null,"latitude":30.16743,"longitude":-95.45377,"address":"1201 LAKE WOODLANDS DRIVE, THE WOODLANDS TX","chain_name":null,"distance":0},{"name":"Pacific Sunwear","code":null,"latitude":40.54365,"longitude":-105.07452,"address":"215 E. FOOTHILLS PARKWAY, FT. COLLINS CO","chain_name":null,"distance":0},{"name":"Pacific Sunwear","code":null,"latitude":37.44265,"longitude":-122.17027,"address":"206 STANFORD SHOPPING CENTER, PALO ALTO CA","chain_name":null,"distance":0},{"name":"Pacific Sunwear","code":null,"latitude":34.47038,"longitude":-117.3491,"address":"14400 BEAR VALLEY BLVD., VICTORVILLE CA","chain_name":null,"distance":0},{"name":"Pacific Sunwear","code":null,"latitude":40.55503,"longitude":-74.30179,"address":"250 WOODBRIDGE CENTER DRIVE, WOODBRIDGE NJ","chain_name":null,"distance":0},{"name":"Pacific Sunwear","code":null,"latitude":41.96644,"longitude":-73.98906,"address":"1300 ULSTER AVENUE, KINGSTON NY","chain_name":null,"distance":0},{"name":"Pacific Sunwear","code":null,"latitude":35.60989,"longitude":-97.5584,"address":"2501 W. MEMORIAL ROAD, OKLAHOMA CITY OK","chain_name":null,"distance":0},{"name":"Pacific Sunwear","code":null,"latitude":40.23531,"longitude":-75.24168,"address":"203 MONTGOMERY MALL, NORTH WALES PA","chain_name":null,"distance":0},{"name":"PACIFIC SUN","code":null,"latitude":43.65806,"longitude":-84.24722,"address":"6800 EASTMAN AVE. A140, MIDLAND MI","chain_name":null,"distance":0},{"name":"PACIFIC SUN","code":null,"latitude":39.41378,"longitude":-104.87517,"address":"5050 FACTORY SHOPS BLVD., CASTLE ROCK CO","chain_name":null,"distance":0},{"name":"PACIFIC SUN","code":null,"latitude":40.67941,"longitude":-73.43441,"address":"509 SUNRISE MALL, MASSAPEQUA NY","chain_name":null,"distance":0},{"name":"Pacific Sunwear","code":null,"latitude":41.75875,"longitude":-71.21879,"address":"262 SWANSEA MALL DR., SWANSEA MA","chain_name":null,"distance":0},{"name":"PACIFIC SUN","code":null,"latitude":29.47859,"longitude":-98.61191,"address":"6301 NW LOOP 410, SAN ANTONIO TX","chain_name":null,"distance":0},{"name":"PACIFIC SUN","code":null,"latitude":45.2483,"longitude":-93.65308,"address":"6415 LA BEAUX AVENUE NE, ALBERTVILLE MN","chain_name":null,"distance":0},{"name":"Pacific Sunwear","code":null,"latitude":39.68876,"longitude":-86.41101,"address":"2798 FUTURA PARK WAY #155, PLAINFIELD IN","chain_name":null,"distance":0},{"name":"PACIFIC SUN","code":null,"latitude":46.73763,"longitude":-100.68038,"address":"717 KIRKWOOD PLAZA, BISMARCK ND","chain_name":null,"distance":0},{"name":"Pacific Sunwear","code":null,"latitude":41.08069,"longitude":-111.97824,"address":"1064 LAYTON HILLS MALL, LAYTON UT","chain_name":null,"distance":0},{"name":"PACIFIC SUN","code":null,"latitude":35.67169,"longitude":-105.96288,"address":"4250 CERRILLOS ROAD, SANTA FE NM","chain_name":null,"distance":0},{"name":"Pacific Sunwear","code":null,"latitude":41.59552,"longitude":-93.75171,"address":"1551 VALLEY WEST DRIVE, WEST DES MOINES IA","chain_name":null,"distance":0},{"name":"PACIFIC SUN","code":null,"latitude":41.6606,"longitude":-70.29737,"address":"769 IYANOUGH RD. SPACE #133, HYANNIS MA","chain_name":null,"distance":0},{"name":"Pacific Sunwear","code":null,"latitude":34.42171,"longitude":-103.19648,"address":"2809 NORTH PRINCE STREET, CLOVIS NM","chain_name":null,"distance":0},{"name":"PACIFIC SUN","code":null,"latitude":39.82059,"longitude":-75.54726,"address":"4737 CONCORD PIKE, WILMINGTON DE","chain_name":null,"distance":0},{"name":"Pacific Sunwear","code":null,"latitude":39.10996,"longitude":-96.5448,"address":"100 MANHATTAN TOWN CENTER #275, MANHATTAN KS","chain_name":null,"distance":0},{"name":"Pacific Sunwear","code":null,"latitude":37.6364,"longitude":-122.42095,"address":"1150 EL CAMINO REAL, SAN BRUNO CA","chain_name":null,"distance":0},{"name":"PACIFIC SUN","code":null,"latitude":39.94663,"longitude":-74.96241,"address":"400 ROUTE 38, MOORESTOWN NJ","chain_name":null,"distance":0},{"name":"Pacific Sunwear","code":null,"latitude":40.91799,"longitude":-74.07825,"address":"1045 GARDEN STATE PLAZA, PARAMUS NJ","chain_name":null,"distance":0},{"name":"Pacific Sunwear","code":null,"latitude":37.32336,"longitude":-121.94594,"address":"2855 STEVENS CREEK BLVD., SANTA CLARA CA","chain_name":null,"distance":0},{"name":"Pacific Sunwear","code":null,"latitude":39.90535,"longitude":-79.74692,"address":"1344 MALL RUN ROAD, UNIONTOWN PA","chain_name":null,"distance":0},{"name":"PACIFIC SUN","code":null,"latitude":38.65061,"longitude":-90.56642,"address":"59 CHESTERFIELD MALL, CHESTERFIELD MO","chain_name":null,"distance":0},{"name":"Pacific Sunwear","code":null,"latitude":33.87069,"longitude":-118.35266,"address":"1815 HAWTHORNE BLVD., REDONDO BEACH CA","chain_name":null,"distance":0},{"name":"PACIFIC SUN","code":null,"latitude":41.2354,"longitude":-75.8033,"address":"EAST END BLVD., WILKES BARRE PA","chain_name":null,"distance":0},{"name":"PACIFIC SUN","code":null,"latitude":39.07628,"longitude":-84.27636,"address":"4601%2f516 EASTGATE BLVD, CINCINNATI OH","chain_name":null,"distance":0},{"name":"PACIFIC SUN","code":null,"latitude":34.23908,"longitude":-118.55354,"address":"9301 TAMPA AVENUE, NORTHRIDGE CA","chain_name":null,"distance":0},{"name":"Pacific Sunwear","code":null,"latitude":41.1603,"longitude":-104.80628,"address":"1400 DELL RANGE BLVE SUITE #12, CHEYENNE WY","chain_name":null,"distance":0},{"name":"Pacific Sunwear","code":null,"latitude":32.79211,"longitude":-80.03096,"address":"2070 SAM RITTENBERG BLVD. SPACE #C424, CHARLESTON SC","chain_name":null,"distance":0},{"name":"PACIFIC SUN","code":null,"latitude":41.98354,"longitude":-70.74112,"address":"INDEPENDENCE MALL WAY, KINGSTON MA","chain_name":null,"distance":0},{"name":"Pacific Sunwear","code":null,"latitude":30.02029,"longitude":-90.24851,"address":"1401 WEST ESPLANADE AVE., KENNER LA","chain_name":null,"distance":0},{"name":"Pacific Sunwear","code":null,"latitude":46.73255,"longitude":-117.03329,"address":"2012 W. PULLMAN ROAD, MOSCOW ID","chain_name":null,"distance":0},{"name":"Pacific Sunwear","code":null,"latitude":42.17814,"longitude":-76.86761,"address":"3300 CHAMBERS ROAD SO., HORSEHEADS NY","chain_name":null,"distance":0},{"name":"Pacific Sunwear","code":null,"latitude":47.51625,"longitude":-111.28674,"address":"1200 10TH AVE SOUTH, GREATFALLS MT","chain_name":null,"distance":0},{"name":"PACIFIC SUN","code":null,"latitude":43.51486,"longitude":-96.77451,"address":"4001 W. 41ST STREET, SIOUX FALLS SD","chain_name":null,"distance":0},{"name":"Pacific Sunwear","code":null,"latitude":32.52867,"longitude":-93.70589,"address":"2950 E. TEXAS STREET, BOSSIER CITY LA","chain_name":null,"distance":0},{"name":"PACIFIC SUN","code":null,"latitude":27.63916,"longitude":-80.45423,"address":"6200 20TH ST. #649B, VERO BEACH FL","chain_name":null,"distance":0},{"name":"Pacific Sunwear","code":null,"latitude":29.19757,"longitude":-81.05088,"address":"1700 W. INTL. SPEEDWAY BLVD., DAYTONA BEACH FL","chain_name":null,"distance":0},{"name":"PACIFIC SUN","code":null,"latitude":35.14328,"longitude":-111.1751,"address":"4650 N US HIGHWAY 89, FLAGSTAFF AZ","chain_name":null,"distance":0},{"name":"Pacific Sunwear","code":null,"latitude":28.33726,"longitude":-81.41963,"address":"3260 N. JOHN YOUNG PKWY., KISSIMMEE FL","chain_name":null,"distance":0},{"name":"Pacific Sunwear","code":null,"latitude":45.09401,"longitude":-93.43852,"address":"12465 ELM CREEK BLVD. A12, MAPLE GROVE MN","chain_name":null,"distance":0},{"name":"PACIFIC SUN","code":null,"latitude":36.09986,"longitude":-95.92235,"address":"4107 S. YALE AVE SPACE 122, TULSA OK","chain_name":null,"distance":0},{"name":"Pacific Sunwear","code":null,"latitude":40.95709,"longitude":-74.07006,"address":"1050 PARAMUS PARK, PARAMUS NJ","chain_name":null,"distance":0},{"name":"PACIFIC SUN","code":null,"latitude":43.03904,"longitude":-76.06612,"address":"3649 ERIE BLVD EAST, DEWITT NY","chain_name":null,"distance":0},{"name":"PACIFIC SUN","code":null,"latitude":33.59981,"longitude":-111.98394,"address":"4550 E. CACTUS ROAD, PHOENIX AZ","chain_name":null,"distance":0},{"name":"PACIFIC SUN","code":null,"latitude":32.50062,"longitude":-92.06388,"address":"4700 MILHAVEN ROAD, MONROE LA","chain_name":null,"distance":0},{"name":"Pacific Sunwear","code":null,"latitude":39.82206,"longitude":-76.99685,"address":"1155 CARLISLE STREET #604, HANOVER PA","chain_name":null,"distance":0},{"name":"PACIFIC SUN","code":null,"latitude":37.55158,"longitude":-77.56675,"address":"9200 STONY POINT PARKWAY, RICHMOND VA","chain_name":null,"distance":0},{"name":"PACIFIC SUN","code":null,"latitude":44.04535,"longitude":-121.3156,"address":"425 POWER HOUSE ROAD, BEND OR","chain_name":null,"distance":0},{"name":"PACIFIC SUN","code":null,"latitude":38.57282,"longitude":-92.25465,"address":"3600 COUNTRY CLUB DRIVE SPACE #114, JEFFERSON CITY MO","chain_name":null,"distance":0},{"name":"PACIFIC SUN","code":null,"latitude":36.16656,"longitude":-115.15544,"address":"505 SOUTH GRAND CENTRAL PARKWAY, LAS VEGAS NV","chain_name":null,"distance":0},{"name":"Pacific Sunwear","code":null,"latitude":25.86673,"longitude":-80.31712,"address":"1675 WEST 49TH STREET, HIALEAH FL","chain_name":null,"distance":0},{"name":"PACIFIC SUN","code":null,"latitude":43.78446,"longitude":-88.47567,"address":"835 WEST JOHNSON STREET, FOND DU LAC WI","chain_name":null,"distance":0},{"name":"Pacific Sunwear","code":null,"latitude":30.0037,"longitude":-90.1564,"address":"3301 VETERANS MEMORIAL BLVD. SUITE 54E, METAIRIE LA","chain_name":null,"distance":0},{"name":"Pacific Sunwear","code":null,"latitude":41.52441,"longitude":-87.26894,"address":"2109 SOUTHLAKE MALL, HOBART IN","chain_name":null,"distance":0},{"name":"Pacific Sunwear","code":null,"latitude":41.58516,"longitude":-93.76331,"address":"101 JORDAN CREEK PARKWAY SUITE 12310, WEST DES MOINES IA","chain_name":null,"distance":0},{"name":"PACIFIC SUN","code":null,"latitude":38.67798,"longitude":-121.26711,"address":"6060 SUNRISE MALL, CITRUS HEIGHTS CA","chain_name":null,"distance":0},{"name":"PACIFIC SUN","code":null,"latitude":34.19045,"longitude":-118.60586,"address":"6600 TOPANGA CANYON BLVD., CANOGA PARK CA","chain_name":null,"distance":0},{"name":"Pacific Sunwear","code":null,"latitude":42.71265,"longitude":-89.00141,"address":"2500 MILTON AVENUE, JANESVILLE WI","chain_name":null,"distance":0},{"name":"PACIFIC SUN","code":null,"latitude":41.55045,"longitude":-72.80363,"address":"470 LEWIS AVENUE, MERIDEN CT","chain_name":null,"distance":0},{"name":"PACIFIC SUN","code":null,"latitude":34.07261,"longitude":-80.85481,"address":"7201 TWO NOTCH ROAD SPACE BU 628, COLUMBIA SC","chain_name":null,"distance":0},{"name":"Pacific Sunwear","code":null,"latitude":42.15405,"longitude":-88.33566,"address":"1916 S. RANDALL ROAD, ALGONQUIN IL","chain_name":null,"distance":0},{"name":"Pacific Sunwear","code":null,"latitude":35.73778,"longitude":-83.99297,"address":"197 FOOTHILLS MALL DR, MARYVILLE TN","chain_name":null,"distance":0},{"name":"Pacific Sunwear","code":null,"latitude":34.76204,"longitude":-84.93217,"address":"2150 E. WALNUT AVE., DALTON GA","chain_name":null,"distance":0},{"name":"PACIFIC SUN","code":null,"latitude":40.1386,"longitude":-74.94968,"address":"707 NESHAMINY MALL, BENSALEM PA","chain_name":null,"distance":0},{"name":"PACIFIC SUN","code":null,"latitude":32.28892,"longitude":-110.97811,"address":"4500 N. ORACLE ROAD, TUCSON AZ","chain_name":null,"distance":0},{"name":"Pacific Sunwear","code":null,"latitude":34.95236,"longitude":-120.43333,"address":"142 TOWN CENTER EAST, SANTA MARIA CA","chain_name":null,"distance":0},{"name":"Pacific Sunwear","code":null,"latitude":41.80484,"longitude":-87.93212,"address":"154 OAKBROOK SHOPPING CENTER, OAKBROOK IL","chain_name":null,"distance":0},{"name":"Pacific Sunwear","code":null,"latitude":36.01684,"longitude":-78.90901,"address":"1058 WEST CLUB BLVD, DURHAM NC","chain_name":null,"distance":0},{"name":"Pacific Sunwear","code":null,"latitude":41.88336,"longitude":-88.01252,"address":"203 YORKTOWN, LOMBARD IL","chain_name":null,"distance":0},{"name":"Pacific Sunwear","code":null,"latitude":43.12335,"longitude":-89.30254,"address":"161 EAST TOWNE MALL, MADISON WI","chain_name":null,"distance":0},{"name":"Pacific Sunwear","code":null,"latitude":39.04415,"longitude":-77.03987,"address":"11160 VIERS MILL ROAD SPACE 144, WHEATON MD","chain_name":null,"distance":0},{"name":"Pacific Sunwear","code":null,"latitude":38.25812,"longitude":-122.05346,"address":"1350 TRAVIS BLVD., FAIRFIELD CA","chain_name":null,"distance":0},{"name":"Pacific Sunwear","code":null,"latitude":37.69247,"longitude":-121.92643,"address":"1252 STONERIDGE MALL, PLEASANTON CA","chain_name":null,"distance":0},{"name":"Pacific Sunwear","code":null,"latitude":32.80738,"longitude":-116.96745,"address":"341 PARKWAY PLAZA, EL CAJON CA","chain_name":null,"distance":0},{"name":"PACIFIC SUN","code":null,"latitude":34.21675,"longitude":-77.90567,"address":"3500 OREANDER DRIVE, WILMINGTON NC","chain_name":null,"distance":0},{"name":"Pacific Sunwear","code":null,"latitude":41.94517,"longitude":-83.38468,"address":"2121 N MONROE STREET, MONROE MI","chain_name":null,"distance":0},{"name":"PACIFIC SUN","code":null,"latitude":27.54697,"longitude":-99.50298,"address":"5300 N. SAN DARIO, LAREDO TX","chain_name":null,"distance":0},{"name":"Pacific Sunwear","code":null,"latitude":35.83302,"longitude":-83.5728,"address":"1645 PARKWAY, SEVIERVILLE TN","chain_name":null,"distance":0},{"name":"PACIFIC SUN","code":null,"latitude":39.43109,"longitude":-75.04032,"address":"3849 SOUTH DELSEA DRIVE, VINELAND NJ","chain_name":null,"distance":0},{"name":"PACIFIC SUN","code":null,"latitude":40.22071,"longitude":-85.37276,"address":"3501 N GRANVILLE AVE, MUNCIE IN","chain_name":null,"distance":0},{"name":"PACIFIC SUN","code":null,"latitude":43.43335,"longitude":-73.70517,"address":"ROUTE 9, LAKE GEORGE NY","chain_name":null,"distance":0},{"name":"PACIFIC SUN","code":null,"latitude":30.47335,"longitude":-87.21223,"address":"5100 N. NINTH AVENUE, PENSACOLA FL","chain_name":null,"distance":0},{"name":"PACIFIC SUN","code":null,"latitude":44.17202,"longitude":-93.26022,"address":"6750 W. FRONTAGE SUITE 416, MEDFORD MN","chain_name":null,"distance":0},{"name":"PACIFIC SUN","code":null,"latitude":33.30555,"longitude":-111.90275,"address":"3499 W. CHANDLER BLVD, CHANDLER AZ","chain_name":null,"distance":0},{"name":"Pacific Sunwear","code":null,"latitude":41.11694,"longitude":-81.46558,"address":"2000 BRITTAIN, AKRON OH","chain_name":null,"distance":0},{"name":"PACIFIC SUN","code":null,"latitude":32.40254,"longitude":-99.75773,"address":"4310 BUFFALO GAP RD., ABILENE TX","chain_name":null,"distance":0},{"name":"Pacific Sunwear","code":null,"latitude":35.18331,"longitude":-106.78048,"address":"10000 COORS BYPASS N.W., ALBUQUERQUE NM","chain_name":null,"distance":0},{"name":"PACIFIC SUN","code":null,"latitude":41.9455,"longitude":-71.34735,"address":"999 S. WASHINGTON STREET, N. ATTLEBOROUGH MA","chain_name":null,"distance":0},{"name":"Pacific Sunwear","code":null,"latitude":34.2678,"longitude":-119.25117,"address":"3301-2242 E. MAIN STREET, VENTURA CA","chain_name":null,"distance":0},{"name":"PACIFIC SUN","code":null,"latitude":41.22966,"longitude":-73.21981,"address":"5065 MAIN STREET, TRUMBULL CT","chain_name":null,"distance":0},{"name":"PACIFIC SUN","code":null,"latitude":33.50214,"longitude":-111.93039,"address":"7014-2101 E. CAMELBACK ROAD, SCOTTSDALE AZ","chain_name":null,"distance":0},{"name":"PACIFIC SUN","code":null,"latitude":40.63599,"longitude":-111.88924,"address":"6191 S. STATE STREET #315, MURRAY UT","chain_name":null,"distance":0},{"name":"Pacific Sunwear","code":null,"latitude":36.97678,"longitude":-121.95594,"address":"1855 41ST AVENUE SPACE #F6, CAPITOLA CA","chain_name":null,"distance":0},{"name":"Pacific Sunwear","code":null,"latitude":41.64051,"longitude":-70.99131,"address":"200 N DARTMOUTH MALL, DARTMOUTH MA","chain_name":null,"distance":0},{"name":"Pacific Sunwear","code":null,"latitude":28.00507,"longitude":-81.92291,"address":"1540 TOWN CENTER DRIVE, LAKELAND FL","chain_name":null,"distance":0},{"name":"PACIFIC SUN","code":null,"latitude":26.1208,"longitude":-80.25531,"address":"8000 BROWARD MALL SPACE #230, PLANTATION FL","chain_name":null,"distance":0},{"name":"PACIFIC SUN","code":null,"latitude":42.26105,"longitude":-85.18168,"address":"5775 BECKLEY ROAD, BATTLE CREEK MI","chain_name":null,"distance":0},{"name":"Pacific Sunwear","code":null,"latitude":37.32562,"longitude":-122.01428,"address":"10123 N. WOLFE ROAD, CUPERTINO CA","chain_name":null,"distance":0},{"name":"PACIFIC SUN","code":null,"latitude":40.00717,"longitude":-76.69604,"address":"ONE YORK GALLERIA, YORK PA","chain_name":null,"distance":0},{"name":"Pacific Sunwear","code":null,"latitude":38.08027,"longitude":-78.47296,"address":"1620 RIO ROAD, CHARLOTTESVILLE VA","chain_name":null,"distance":0},{"name":"PACIFIC SUN","code":null,"latitude":35.31004,"longitude":-80.89391,"address":"6801 NORTHLAKE MALL DRIVE SPACE 180, CHARLOTTE NC","chain_name":null,"distance":0},{"name":"PACIFIC SUN","code":null,"latitude":29.98342,"longitude":-95.57929,"address":"7925 FM 1960 WEST, HOUSTON TX","chain_name":null,"distance":0},{"name":"PACIFIC SUN","code":null,"latitude":39.96771,"longitude":-76.77447,"address":"6115 WEST MANCHESTER MALL SPACE 665, YORK PA","chain_name":null,"distance":0},{"name":"Pacific Sunwear","code":null,"latitude":36.64722,"longitude":-79.43053,"address":"325 PIEDMONT DRIVE SPACE 140, DANVILLE VA","chain_name":null,"distance":0},{"name":"PACIFIC SUN","code":null,"latitude":31.79468,"longitude":-106.36793,"address":"8401 GATEWAY BLVD. WEST SPACE G01, EL PASO TX","chain_name":null,"distance":0},{"name":"Pacific Sunwear","code":null,"latitude":43.10444,"longitude":-73.74205,"address":"3065 ROUTE 50, WILTON NY","chain_name":null,"distance":0},{"name":"PACIFIC SUN","code":null,"latitude":35.9869,"longitude":-80.0045,"address":"921 EASTCHESTER DRIVE, HIGH POINT NC","chain_name":null,"distance":0},{"name":"Pacific Sunwear","code":null,"latitude":34.70705,"longitude":-86.58909,"address":"2801 MEMORIAL PARKWAY SOUTH, HUNTSVILLE AL","chain_name":null,"distance":0},{"name":"PACIFIC SUN","code":null,"latitude":42.76668,"longitude":-71.22692,"address":"99 ROCKINGHAM PARK BLVD., SALEM NH","chain_name":null,"distance":0},{"name":"PACIFIC SUN","code":null,"latitude":28.55684,"longitude":-81.51865,"address":"9401 W. COLONIAL DRIVE, OCOEE FL","chain_name":null,"distance":0},{"name":"Pacific Sunwear","code":null,"latitude":40.70436,"longitude":-75.27389,"address":"149 PALMER PARK MALL C-4, EASTON PA","chain_name":null,"distance":0},{"name":"PACIFIC SUN","code":null,"latitude":32.29989,"longitude":-95.30067,"address":"4601 S BROADWAY, TYLER TX","chain_name":null,"distance":0},{"name":"PACIFIC SUN","code":null,"latitude":40.60092,"longitude":-74.62524,"address":"400 COMMONS WAY SPACE #315, BRIDGEWATER NJ","chain_name":null,"distance":0},{"name":"PACIFIC SUN","code":null,"latitude":41.95957,"longitude":-87.81579,"address":"4174-E NORTH HARLEM AVE. SPACE 130, NORRIDGE IL","chain_name":null,"distance":0},{"name":"PACIFIC SUN","code":null,"latitude":43.08448,"longitude":-77.63747,"address":"720 MIRACLE MILE DRIVE, ROCHESTER NY","chain_name":null,"distance":0},{"name":"Pacific Sunwear","code":null,"latitude":35.08143,"longitude":-81.71134,"address":"140 FACTORY SHOPS BLVD., GAFFNEY SC","chain_name":null,"distance":0},{"name":"Pacific Sunwear","code":null,"latitude":40.58091,"longitude":-111.89353,"address":"10450 SOUTH STATE CENTER, SANDY UT","chain_name":null,"distance":0},{"name":"PACIFIC SUN","code":null,"latitude":43.15047,"longitude":-86.20566,"address":"5600 HARVEY STREET, MUSKEGON MI","chain_name":null,"distance":0},{"name":"Pacific Sunwear","code":null,"latitude":39.71795,"longitude":-104.95216,"address":"3000 E. FIRST AVENUE, DENVER CO","chain_name":null,"distance":0},{"name":"Pacific Sunwear","code":null,"latitude":33.95727,"longitude":-84.13343,"address":"2100 PLEASANT HILL ROAD, DULUTH GA","chain_name":null,"distance":0},{"name":"Pacific Sunwear","code":null,"latitude":41.6908,"longitude":-91.60842,"address":"1451 CORAL RIDGE AVE., CORALVILLE IA","chain_name":null,"distance":0},{"name":"PACIFIC SUN","code":null,"latitude":43.06598,"longitude":-88.09648,"address":"95 N. MOORLAND ROAD SPACE #D-8, BROOKFIELD WI","chain_name":null,"distance":0},{"name":"Pacific Sunwear","code":null,"latitude":33.94855,"longitude":-80.375,"address":"1057 BROAD STREET SUITE 60, SUMTER SC","chain_name":null,"distance":0},{"name":"Pacific Sunwear","code":null,"latitude":36.03936,"longitude":-79.48224,"address":"172 BURLINGTON MALL, BURLINGTON NC","chain_name":null,"distance":0},{"name":"Pacific Sunwear","code":null,"latitude":29.97096,"longitude":-93.89304,"address":"3100 HIGHWAY 365, PORT ARTHUR TX","chain_name":null,"distance":0},{"name":"Pacific Sunwear","code":null,"latitude":36.77643,"longitude":-76.23011,"address":"1401 GREENBRIER PKWY S., CHESAPEAKE VA","chain_name":null,"distance":0},{"name":"Pacific Sunwear","code":null,"latitude":34.84814,"longitude":-117.08241,"address":"2590 MERCANTILE WAY, BARSTOW CA","chain_name":null,"distance":0},{"name":"PACIFIC SUN","code":null,"latitude":43.097,"longitude":-82.51125,"address":"4350 24TH AVENUE SPACE #124, PORT HURON MI","chain_name":null,"distance":0},{"name":"PACIFIC SUN","code":null,"latitude":40.29427,"longitude":-76.64726,"address":"79 OUTLET SQUARE, HERSHEY PA","chain_name":null,"distance":0},{"name":"PACIFIC SUN","code":null,"latitude":45.55347,"longitude":-94.20533,"address":"4201 W. DIVISION, ST. CLOUD MN","chain_name":null,"distance":0},{"name":"PACIFIC SUN","code":null,"latitude":39.38466,"longitude":-77.40957,"address":"5500 BUCKEYESTOWN PIKE, FREDERICK MD","chain_name":null,"distance":0},{"name":"PACIFIC SUN","code":null,"latitude":39.15104,"longitude":-77.2059,"address":"701 RUSSELL AVENUE, GAITHERSBURG MD","chain_name":null,"distance":0},{"name":"PACIFIC SUN","code":null,"latitude":42.12454,"longitude":-75.9733,"address":"601-635 HARRY L DRIVE, JOHNSON CITY NY","chain_name":null,"distance":0},{"name":"PACIFIC SUN","code":null,"latitude":34.21806,"longitude":-119.062,"address":"690 VENTURA BLVD., CAMARILLO CA","chain_name":null,"distance":0},{"name":"PACIFIC SUN","code":null,"latitude":30.19779,"longitude":-93.24932,"address":"496 W. PRIEN LAKE ROAD, LAKE CHARLES LA","chain_name":null,"distance":0},{"name":"Pacific Sunwear","code":null,"latitude":34.15757,"longitude":-118.43804,"address":"14006 RIVERSIDE DRIVE, SHERMAN OAKS CA","chain_name":null,"distance":0},{"name":"Pacific Sunwear","code":null,"latitude":40.91697,"longitude":-72.66214,"address":"1770 W. MAIN ST., RIVERHEAD NY","chain_name":null,"distance":0},{"name":"Pacific Sunwear","code":null,"latitude":39.76407,"longitude":-89.7046,"address":"2501 WEST WABASH AVE., SPRINGFIELD IL","chain_name":null,"distance":0},{"name":"Pacific Sunwear","code":null,"latitude":40.78245,"longitude":-74.35378,"address":"112 EISENHOWER PARKWAY, LIVINGSTON NJ","chain_name":null,"distance":0},{"name":"PACIFIC SUN","code":null,"latitude":40.85525,"longitude":-81.42642,"address":"4176 BELDEN VILLAGE MALL N.W., CANTON OH","chain_name":null,"distance":0},{"name":"PACIFIC SUN","code":null,"latitude":40.82568,"longitude":-96.61551,"address":"6100, LINCOLN NE","chain_name":null,"distance":0},{"name":"PACIFIC SUN","code":null,"latitude":37.53646,"longitude":-122.29878,"address":"452 HILLSDALE MALL, SAN MATEO CA","chain_name":null,"distance":0},{"name":"Pacific Sunwear","code":null,"latitude":37.99973,"longitude":-121.84203,"address":"2550 SOMERSVILLE ROAD, ANTIOCH CA","chain_name":null,"distance":0},{"name":"PACIFIC SUN","code":null,"latitude":37.96174,"longitude":-121.74795,"address":"5867-F LONE TREE WAY, ANTIOCH CA","chain_name":null,"distance":0},{"name":"PACIFIC SUN","code":null,"latitude":42.22376,"longitude":-87.96683,"address":"626 HAWTHORN SHOPPING CENTER, VERNON HILLS IL","chain_name":null,"distance":0},{"name":"Pacific Sunwear","code":null,"latitude":32.74016,"longitude":-97.43375,"address":"2060 GREEN OAKS ROAD, FORT WORTH TX","chain_name":null,"distance":0},{"name":"Pacific Sunwear","code":null,"latitude":38.79717,"longitude":-90.62046,"address":"1260 MID RIVERS MALL, ST. PETERS MO","chain_name":null,"distance":0},{"name":"PACIFIC SUN","code":null,"latitude":30.12751,"longitude":-94.15979,"address":"6155 EASTEX FREEWAY, BEAUMONT TX","chain_name":null,"distance":0},{"name":"Pacific Sunwear","code":null,"latitude":41.04673,"longitude":-75.35182,"address":"1000 ROUTE 611 G14, TANNERSVILLE PA","chain_name":null,"distance":0},{"name":"Pacific Sunwear","code":null,"latitude":38.2943,"longitude":-77.51266,"address":"240 SPOTSYLVANIA MALL, FREDERICKSBURG VA","chain_name":null,"distance":0},{"name":"PACIFIC SUN","code":null,"latitude":29.61838,"longitude":-82.38411,"address":"3964 SW ARCHER RD #W-102, GAINESVILLE FL","chain_name":null,"distance":0},{"name":"Pacific Sunwear","code":null,"latitude":35.84599,"longitude":-86.42609,"address":"1720 OLD FORT PARKWAY, MURFREESBORO TN","chain_name":null,"distance":0},{"name":"PACIFIC SUN","code":null,"latitude":33.01057,"longitude":-96.70856,"address":"811 N. CENTRAL EXPRESSWAY, PLANO TX","chain_name":null,"distance":0},{"name":"PACIFIC SUN","code":null,"latitude":32.67757,"longitude":-97.39547,"address":"4800 S. HULEN STREET, FT. WORTH TX","chain_name":null,"distance":0},{"name":"PACIFIC SUN","code":null,"latitude":42.94839,"longitude":-88.0085,"address":"5300 SOUTH 76TH STREET, GREENDALE WI","chain_name":null,"distance":0},{"name":"Pacific Sunwear","code":null,"latitude":37.65433,"longitude":-77.62327,"address":"11800 WEST BROAD STREET #2036, RICHMOND VA","chain_name":null,"distance":0},{"name":"Pacific Sunwear","code":null,"latitude":36.06378,"longitude":-115.04047,"address":"1300 W. SUNSET ROAD, HENDERSON NV","chain_name":null,"distance":0},{"name":"PACIFIC SUN","code":null,"latitude":37.2506,"longitude":-121.86243,"address":"925 BLOSSOM HILL ROAD, SAN JOSE CA","chain_name":null,"distance":0},{"name":"Pacific Sunwear","code":null,"latitude":36.33884,"longitude":-82.37418,"address":"2011 NORTH ROAN STREET, JOHNSON CITY TN","chain_name":null,"distance":0},{"name":"Pacific Sunwear","code":null,"latitude":35.0052,"longitude":-80.55734,"address":"2115-707 W. ROOSEVELT BLVD, MONROE NC","chain_name":null,"distance":0},{"name":"Pacific Sunwear","code":null,"latitude":33.10227,"longitude":-96.80561,"address":"2601 PRESTON ROAD, FRISCO TX","chain_name":null,"distance":0},{"name":"Pacific Sunwear","code":null,"latitude":40.14344,"longitude":-75.12049,"address":"2500 W. MORELAND ROAD, WILLOW GROVE PA","chain_name":null,"distance":0},{"name":"Pacific Sunwear","code":null,"latitude":41.80962,"longitude":-72.5477,"address":"194 BUCKLAND HILLS DRIVE SUITE #2082, MANCHESTER CT","chain_name":null,"distance":0},{"name":"Pacific Sunwear","code":null,"latitude":44.51235,"longitude":-88.07052,"address":"303 BAY PARK SQUARE #399, GREEN BAY WI","chain_name":null,"distance":0},{"name":"Pacific Sunwear","code":null,"latitude":42.16204,"longitude":-88.05247,"address":"20530 N. RAND ROAD, DEER PARK IL","chain_name":null,"distance":0},{"name":"Pacific Sunwear","code":null,"latitude":28.05327,"longitude":-82.44922,"address":"12218 UNIVERSITY MALL COURT, TAMPA FL","chain_name":null,"distance":0},{"name":"Pacific Sunwear","code":null,"latitude":36.34978,"longitude":-86.77425,"address":"1000 TWO MILE PARKWAY, GOODLETTSVILLE TN","chain_name":null,"distance":0},{"name":"PACIFIC SUN","code":null,"latitude":39.40471,"longitude":-76.60158,"address":"825 DULANEY VALLEY ROAD, TOWSON MD","chain_name":null,"distance":0},{"name":"Pacific Sunwear","code":null,"latitude":38.97679,"longitude":-76.73161,"address":"1524 EMERALD WAY SPACE #B09, BOWIE MD","chain_name":null,"distance":0},{"name":"PACIFIC SUN","code":null,"latitude":33.38474,"longitude":-111.967,"address":"5000 ARIZONA MILLS PKWY., TEMPE AZ","chain_name":null,"distance":0},{"name":"Pacific Sunwear","code":null,"latitude":33.90769,"longitude":-117.45799,"address":"1277 GALLERIA AT TYLER, RIVERSIDE CA","chain_name":null,"distance":0},{"name":"PACIFIC SUN","code":null,"latitude":47.70863,"longitude":-122.32462,"address":"401 NE NORTHGATE WAY, SEATTLE WA","chain_name":null,"distance":0},{"name":"PACIFIC SUN","code":null,"latitude":39.83112,"longitude":-84.84684,"address":"3801 NATIONAL ROAD EAST, RICHMOND IN","chain_name":null,"distance":0},{"name":"Pacific Sunwear","code":null,"latitude":38.43967,"longitude":-122.71764,"address":"1065 SANTA ROSA PLAZA, SANTA ROSA CA","chain_name":null,"distance":0},{"name":"Pacific Sunwear","code":null,"latitude":40.38917,"longitude":-104.70917,"address":"2050 GREELEY MALL, GREELEY CO","chain_name":null,"distance":0},{"name":"PACIFIC SUN","code":null,"latitude":35.18649,"longitude":-101.92823,"address":"7701 W. I-40, AMARILLO TX","chain_name":null,"distance":0},{"name":"Pacific Sunwear","code":null,"latitude":48.46443,"longitude":-122.34041,"address":"201 CASCADE MALL DRIVE, BURLINGTON WA","chain_name":null,"distance":0},{"name":"PACIFIC SUN","code":null,"latitude":33.67243,"longitude":-116.41625,"address":"72-840 HWY 111, PALM DESERT CA","chain_name":null,"distance":0},{"name":"PACIFIC SUN","code":null,"latitude":41.99779,"longitude":-72.58479,"address":"90 ELM STREET, ENFIELD CT","chain_name":null,"distance":0},{"name":"PACIFIC SUN","code":null,"latitude":40.7527,"longitude":-89.63486,"address":"5201 W WAR MEMORIAL DR, PEORIA IL","chain_name":null,"distance":0},{"name":"Pacific Sunwear","code":null,"latitude":30.62764,"longitude":-96.30463,"address":"1500 HARVEY ROAD, COLLEGE STATION TX","chain_name":null,"distance":0},{"name":"Pacific Sunwear","code":null,"latitude":47.67038,"longitude":-122.12029,"address":"16495 NE 74TH STREET C-140, REDMOND WA","chain_name":null,"distance":0},{"name":"Pacific Sunwear","code":null,"latitude":30.47238,"longitude":-84.29171,"address":"2415 N. MONROE ST, TALAHASSEE FL","chain_name":null,"distance":0},{"name":"Pacific Sunwear","code":null,"latitude":42.59189,"longitude":-114.45605,"address":"1485 POLE LINE ROAD E., TWIN FALLS ID","chain_name":null,"distance":0},{"name":"PACIFIC SUN","code":null,"latitude":28.49079,"longitude":-81.42993,"address":"4200 CONROY ROAD, ORLANDO FL","chain_name":null,"distance":0},{"name":"Pacific Sunwear","code":null,"latitude":34.06739,"longitude":-83.98679,"address":"3333 BUFORD DRIVE, BUFORD GA","chain_name":null,"distance":0},{"name":"PACIFIC SUN","code":null,"latitude":31.97776,"longitude":-81.09066,"address":"7804 ABERCORN EXTENSION, SAVANNAH GA","chain_name":null,"distance":0},{"name":"Pacific Sunwear","code":null,"latitude":42.14751,"longitude":-70.8455,"address":"1775 WASHINGTON ST., HANOVER MA","chain_name":null,"distance":0},{"name":"Pacific Sunwear","code":null,"latitude":38.99453,"longitude":-84.65269,"address":"2028 FLORENCE MALL ROAD, FLORENCE KY","chain_name":null,"distance":0},{"name":"PACIFIC SUN","code":null,"latitude":36.12351,"longitude":-94.14529,"address":"4201 NORTH SHILOH DRIVE, FAYETTEVILLE AR","chain_name":null,"distance":0},{"name":"PACIFIC SUN","code":null,"latitude":33.53964,"longitude":-101.92235,"address":"6002 SLIDE ROAD, LUBBOCK TX","chain_name":null,"distance":0},{"name":"PACIFIC SUN","code":null,"latitude":40.66365,"longitude":-74.17392,"address":"651 KAPKOWSKI ROAD, ELIZABETH NJ","chain_name":null,"distance":0},{"name":"Pacific Sunwear","code":null,"latitude":44.00599,"longitude":-92.47799,"address":"333 APACHE MALL SUITE #416, ROCHESTER MN","chain_name":null,"distance":0},{"name":"PACIFIC SUN","code":null,"latitude":42.44788,"longitude":-96.34851,"address":"4400 SERGEANT ROAD, SIOUX CITY IA","chain_name":null,"distance":0},{"name":"Pacific Sunwear","code":null,"latitude":26.18311,"longitude":-98.23353,"address":"2200 S. 10TH STREET, MCALLEN TX","chain_name":null,"distance":0},{"name":"PACIFIC SUN","code":null,"latitude":33.69157,"longitude":-84.08885,"address":"8000 MALL PARKWAY, LITHONIA GA","chain_name":null,"distance":0},{"name":"PACIFIC SUN","code":null,"latitude":41.39412,"longitude":-82.6508,"address":"4314 MILAN ROAD, SANDUSKY OH","chain_name":null,"distance":0},{"name":"Pacific Sunwear","code":null,"latitude":42.38201,"longitude":-71.13444,"address":"100 CAMBRIDGESIDE PLACE SPACE #E-128, CAMBRIDGE MA","chain_name":null,"distance":0},{"name":"PACIFIC SUN","code":null,"latitude":41.82774,"longitude":-71.41529,"address":"66 PROVIDENCE PLACE, PROVIDENCE RI","chain_name":null,"distance":0},{"name":"PACIFIC SUN","code":null,"latitude":43.63441,"longitude":-70.33778,"address":"364 MAINE MALL ROAD, SOUTH PORTLAND ME","chain_name":null,"distance":0},{"name":"Pacific Sunwear","code":null,"latitude":47.31395,"longitude":-122.3149,"address":"1927 S. COMMONS, FEDERAL WAY WA","chain_name":null,"distance":0},{"name":"PACIFIC SUN","code":null,"latitude":42.96504,"longitude":-78.79579,"address":"712 ALBERTA DRIVE SPACE #521, AMHERST NY","chain_name":null,"distance":0},{"name":"Pacific Sunwear","code":null,"latitude":40.41337,"longitude":-74.1494,"address":"2130 ROUTE 35 #B05, HOLMDEL NJ","chain_name":null,"distance":0},{"name":"PACIFIC SUN","code":null,"latitude":29.59148,"longitude":-98.39548,"address":"6909 NORTH LOOP 1604 EAST J13A, SAN ANTONIO TX","chain_name":null,"distance":0},{"name":"Pacific Sunwear","code":null,"latitude":41.05309,"longitude":-83.61337,"address":"1800 TIFFIN AVENUE, FINDLAY OH","chain_name":null,"distance":0},{"name":"Pacific Sunwear","code":null,"latitude":33.87044,"longitude":-98.53274,"address":"3111 MIDWESTERN PARKWAY, WICHITA FALLS TX","chain_name":null,"distance":0},{"name":"PACIFIC SUN","code":null,"latitude":33.69026,"longitude":-117.89385,"address":"901 SOUTH COAST DR, COSTA MESA CA","chain_name":null,"distance":0},{"name":"PACIFIC SUN","code":null,"latitude":29.74073,"longitude":-95.46377,"address":"5085 WESTHEIMER, HOUSTON TX","chain_name":null,"distance":0},{"name":"PACIFIC SUN","code":null,"latitude":39.55939,"longitude":-104.87282,"address":"8505 PARK MEADOWS CENTER DRIVE, LITTLETON CO","chain_name":null,"distance":0},{"name":"Pacific Sunwear","code":null,"latitude":33.91335,"longitude":-117.88598,"address":"1050 BREA MALL, BREA CA","chain_name":null,"distance":0},{"name":"PACIFIC SUN","code":null,"latitude":42.57034,"longitude":-73.26915,"address":"OLD STATE ROAD, LANESBORO MA","chain_name":null,"distance":0},{"name":"PACIFIC SUN","code":null,"latitude":37.67947,"longitude":-97.24752,"address":"7700 E. KELLOGG, WICHITA KS","chain_name":null,"distance":0},{"name":"PACIFIC SUN","code":null,"latitude":36.12574,"longitude":-115.13721,"address":"3506 S. MARYLAND PARKWAY, LAS VEGAS NV","chain_name":null,"distance":0},{"name":"PACIFIC SUN","code":null,"latitude":31.81798,"longitude":-106.54528,"address":"750 SUNLAND PARK DR UNIT L-46, EL PASO TX","chain_name":null,"distance":0},{"name":"Pacific Sunwear","code":null,"latitude":37.36736,"longitude":-79.17501,"address":"3405 CANDLERS MOUNTAIN ROAD, LYNCHBURG VA","chain_name":null,"distance":0},{"name":"PACIFIC SUN","code":null,"latitude":40.29815,"longitude":-74.07083,"address":"ROUTE 35 %26 36, EATONTOWN NJ","chain_name":null,"distance":0},{"name":"Pacific Sunwear","code":null,"latitude":40.33833,"longitude":-75.97297,"address":"1665 STATE HILL ROAD, WYOMISSING PA","chain_name":null,"distance":0},{"name":"PACIFIC SUN","code":null,"latitude":36.80848,"longitude":-119.7765,"address":"617 EAST SHAW AVENUE, FRESNO CA","chain_name":null,"distance":0},{"name":"Pacific Sunwear","code":null,"latitude":41.8792,"longitude":-84.0432,"address":"1357 S. MAIN ST., ADRIAN MI","chain_name":null,"distance":0},{"name":"Pacific Sunwear","code":null,"latitude":34.05071,"longitude":-84.29551,"address":"2074 NORTH POINT CIRCLE, ALPHARETTA GA","chain_name":null,"distance":0},{"name":"Pacific Sunwear","code":null,"latitude":28.23558,"longitude":-80.7025,"address":"2251 TOWN CENTER AVE #121, VIERA FL","chain_name":null,"distance":0},{"name":"PACIFIC SUN","code":null,"latitude":42.3544,"longitude":-71.61193,"address":"601 DONALD LYNCH BLVD., MARLBOROUGH MA","chain_name":null,"distance":0},{"name":"Pacific Sunwear","code":null,"latitude":42.072,"longitude":-80.09736,"address":"245 MILLCREEK MALL, ERIE PA","chain_name":null,"distance":0},{"name":"Pacific Sunwear","code":null,"latitude":33.0063,"longitude":-96.97218,"address":"2401 SOUTH STEMMONS FWY, LEWISVILLE TX","chain_name":null,"distance":0},{"name":"Pacific Sunwear","code":null,"latitude":37.09084,"longitude":-94.477,"address":"101 NORTH RANGE LINE RD., JOPLIN MO","chain_name":null,"distance":0},{"name":"Pacific Sunwear","code":null,"latitude":41.56024,"longitude":-90.61528,"address":"320 W. KIMBERLY RD., DAVENPORT IA","chain_name":null,"distance":0},{"name":"Pacific Sunwear","code":null,"latitude":34.01491,"longitude":-118.49381,"address":"330 SANTA MONICA PLACE, SANTA MONICA CA","chain_name":null,"distance":0},{"name":"Pacific Sunwear","code":null,"latitude":36.84967,"longitude":-76.28954,"address":"300 MONTICELLO AVENUE, NORFOLK VA","chain_name":null,"distance":0},{"name":"Pacific Sunwear","code":null,"latitude":32.8085,"longitude":-96.62631,"address":"2063 TOWN EAST MALL #1086, MESQUITE TX","chain_name":null,"distance":0},{"name":"Pacific Sunwear","code":null,"latitude":42.68916,"longitude":-73.85261,"address":"#1 CROSSGATES MALL ROAD, ALBANY NY","chain_name":null,"distance":0},{"name":"Pacific Sunwear","code":null,"latitude":41.4535,"longitude":-74.36478,"address":"1 GALLERIA DRIVE, MIDDLETOWN NY","chain_name":null,"distance":0},{"name":"Pacific Sunwear","code":null,"latitude":40.68293,"longitude":-75.14903,"address":"1200 HIGHWAY 22 EAST, PHILLIPSBURG NJ","chain_name":null,"distance":0},{"name":"Pacific Sunwear","code":null,"latitude":25.7828,"longitude":-80.37744,"address":"11401 NW 12TH STREET #314, MIAMI FL","chain_name":null,"distance":0},{"name":"PACIFIC SUN","code":null,"latitude":28.38567,"longitude":-81.49643,"address":"8200 VINELAND AVENUE, ORLANDO FL","chain_name":null,"distance":0},{"name":"Pacific Sunwear","code":null,"latitude":42.98049,"longitude":-83.77206,"address":"3229 S. LINDEN RD., FLINT MI","chain_name":null,"distance":0},{"name":"Pacific Sunwear","code":null,"latitude":37.6741,"longitude":-122.4703,"address":"26 SERRAMONTE CENTER, DALY CITY CA","chain_name":null,"distance":0},{"name":"PACIFIC SUN","code":null,"latitude":39.19985,"longitude":-84.37764,"address":"7875 MONTGOMERY RD., CINCINNATI OH","chain_name":null,"distance":0},{"name":"Pacific Sunwear","code":null,"latitude":38.64505,"longitude":-77.29945,"address":"2700 POTOMAC MILLS CIRCLE, WOODBRIDGE VA","chain_name":null,"distance":0},{"name":"Pacific Sunwear","code":null,"latitude":30.16972,"longitude":-85.65022,"address":"2174 COVE BOULEVARD, PANAMA CITY FL","chain_name":null,"distance":0},{"name":"PACIFIC SUN","code":null,"latitude":41.01874,"longitude":-80.66271,"address":"7401 MARKET STREET, YOUNGSTOWN OH","chain_name":null,"distance":0},{"name":"Pacific Sunwear","code":null,"latitude":39.96859,"longitude":-83.01016,"address":"210 COLUMBUS CITY CENTER, COLUMBUS OH","chain_name":null,"distance":0},{"name":"Pacific Sunwear","code":null,"latitude":36.18517,"longitude":-119.36637,"address":"1511 RETHERFORD STREET, TULARE CA","chain_name":null,"distance":0},{"name":"Pacific Sunwear","code":null,"latitude":27.01152,"longitude":-82.14341,"address":"1441 TAMIAMI TRAIL, PORT CHARLOTTE FL","chain_name":null,"distance":0},{"name":"PACIFIC SUN","code":null,"latitude":41.46835,"longitude":-90.50732,"address":"4500-16TH STREET, MOLINE IL","chain_name":null,"distance":0},{"name":"Pacific Sunwear","code":null,"latitude":41.57889,"longitude":-88.16568,"address":"3340 MALL LOOP DRIVE, JOLIET IL","chain_name":null,"distance":0},{"name":"Pacific Sunwear","code":null,"latitude":40.33807,"longitude":-79.9376,"address":"3075 CLAIRTON ROAD, WEST MIFFLIN PA","chain_name":null,"distance":0},{"name":"PACIFIC SUN","code":null,"latitude":28.46797,"longitude":-81.39195,"address":"THE FLORIDA MALL, ORLANDO FL","chain_name":null,"distance":0},{"name":"Pacific Sunwear","code":null,"latitude":38.60985,"longitude":-121.44372,"address":"1689 ARDEN WAY SPACE #2170, SACRAMENTO CA","chain_name":null,"distance":0},{"name":"Pacific Sunwear","code":null,"latitude":38.6459,"longitude":-121.18875,"address":"13000 FOLSOM BLVD., FOLSOM CA","chain_name":null,"distance":0},{"name":"PACIFIC SUN","code":null,"latitude":33.8712,"longitude":-112.15165,"address":"4250 W. ANTHEM WAY SUITE 665, ANTHEM AZ","chain_name":null,"distance":0},{"name":"Pacific Sunwear","code":null,"latitude":29.77855,"longitude":-95.53996,"address":"303 MEMORIAL CITY MALL, HOUSTON TX","chain_name":null,"distance":0},{"name":"PACIFIC SUN","code":null,"latitude":40.11485,"longitude":-75.28557,"address":"500 W. GERMANTOWN PIKE, PLYMOUTH MTG PA","chain_name":null,"distance":0},{"name":"Pacific Sunwear","code":null,"latitude":38.55709,"longitude":-90.38363,"address":"106 CRESTWOOD PLAZA, CRESTWOOD MO","chain_name":null,"distance":0},{"name":"PACIFIC SUN","code":null,"latitude":44.27301,"longitude":-88.4698,"address":"4301 W. WISCONSIN AVENUE, APPLETON WI","chain_name":null,"distance":0},{"name":"Pacific Sunwear","code":null,"latitude":28.66421,"longitude":-81.23566,"address":"1315 OVIEDO MARKETPLACE BLVD., OCOEE FL","chain_name":null,"distance":0},{"name":"PACIFIC SUN","code":null,"latitude":39.02207,"longitude":-77.1468,"address":"7101 DEMOCRACY BLVD., BETHESDA MD","chain_name":null,"distance":0},{"name":"Pacific Sunwear","code":null,"latitude":29.49334,"longitude":-98.47959,"address":"255 EAST BASSE ROAD, SAN ANTONIO TX","chain_name":null,"distance":0},{"name":"PACIFIC SUN","code":null,"latitude":40.41706,"longitude":-74.41578,"address":"755 STATE ROUTE 18 SUITE 920, EAST BRUNSWICK NJ","chain_name":null,"distance":0},{"name":"Pacific Sunwear","code":null,"latitude":40.04978,"longitude":-82.91542,"address":"115 EASTON TOWN CENTER, COLUMBUS OH","chain_name":null,"distance":0},{"name":"PACIFIC SUN","code":null,"latitude":42.95421,"longitude":-76.92199,"address":"655 ROUTE 318, WATERLOO NY","chain_name":null,"distance":0},{"name":"Pacific Sunwear","code":null,"latitude":40.56364,"longitude":-83.11986,"address":"1509 MARION WALDO ROAD, MARION OH","chain_name":null,"distance":0},{"name":"Pacific Sunwear","code":null,"latitude":42.64529,"longitude":-83.32617,"address":"315 N. TELEGRAPH, WATERFORD MI","chain_name":null,"distance":0},{"name":"Pacific Sunwear","code":null,"latitude":34.0992,"longitude":-117.5639,"address":"12534 N MAIN STREET, RANCHO CUCAMONGA CA","chain_name":null,"distance":0},{"name":"Pacific Sunwear","code":null,"latitude":39.35913,"longitude":-74.43562,"address":"10 NORTH MICHIGAN AVENUE #545, ATLANTIC CITY NJ","chain_name":null,"distance":0},{"name":"Pacific Sunwear","code":null,"latitude":47.65628,"longitude":-122.68788,"address":"10315 SILVERDALE WAY, SILVERDALE WA","chain_name":null,"distance":0},{"name":"PACIFIC SUN","code":null,"latitude":33.61732,"longitude":-117.87829,"address":"881 NEWPORT CENTER DR., NEWPORT BEACH CA","chain_name":null,"distance":0},{"name":"PACIFIC SUN","code":null,"latitude":37.7215,"longitude":-87.12435,"address":"5000 FREDERICA STREET, OWENSBORO KY","chain_name":null,"distance":0},{"name":"PACIFIC SUN","code":null,"latitude":39.58537,"longitude":-105.0233,"address":"7301 S. SANTA FE DR. #722, LITTLETON CO","chain_name":null,"distance":0},{"name":"Pacific Sunwear","code":null,"latitude":31.06975,"longitude":-97.36936,"address":"3111 S 31ST ST, TEMPLE TX","chain_name":null,"distance":0},{"name":"Pacific Sunwear","code":null,"latitude":39.49107,"longitude":-74.7407,"address":"256 HAMILTON MALL, MAYS LANDING NJ","chain_name":null,"distance":0},{"name":"PACIFIC SUN","code":null,"latitude":34.35335,"longitude":-84.04701,"address":"800 HWY 400 SOUTH, DAWSONVILLE GA","chain_name":null,"distance":0},{"name":"PACIFIC SUN","code":null,"latitude":45.6565,"longitude":-122.58206,"address":"8700 VANCOUVER MALL DRIVE, #133, VANCOUVER WA","chain_name":null,"distance":0},{"name":"Pacific Sunwear","code":null,"latitude":33.70168,"longitude":-117.35439,"address":"17600 COLLIER AVE, LAKE ELSINORE CA","chain_name":null,"distance":0},{"name":"Pacific Sunwear","code":null,"latitude":33.74938,"longitude":-118.01422,"address":"1074 WESTMINSTER MALL, WESTMINSTER CA","chain_name":null,"distance":0},{"name":"PACIFIC SUN","code":null,"latitude":32.03259,"longitude":-102.129,"address":"4511 N. MIDKIFF, MIDLAND TX","chain_name":null,"distance":0},{"name":"Pacific Sunwear","code":null,"latitude":42.01178,"longitude":-87.71241,"address":"3333 W. TOUHY AVE, LINCOLNWOOD IL","chain_name":null,"distance":0},{"name":"PACIFIC SUN","code":null,"latitude":33.68613,"longitude":-96.58231,"address":"4800 N. TEXOMA PARKWAY, SHERMAN TX","chain_name":null,"distance":0},{"name":"Pacific Sunwear","code":null,"latitude":40.3924,"longitude":-86.85389,"address":"2415 SAGAMORE PKWY SOUTH, LAFAYETTE IN","chain_name":null,"distance":0},{"name":"PACIFIC SUN","code":null,"latitude":31.25309,"longitude":-85.42651,"address":"900 COMMONS DRIVE, DOTHAN AL","chain_name":null,"distance":0},{"name":"PACIFIC SUN","code":null,"latitude":31.31099,"longitude":-94.72508,"address":"4600 SOUTH MEDFORD DRIVE #1068, LUFKIN TX","chain_name":null,"distance":0},{"name":"Pacific Sunwear","code":null,"latitude":30.37647,"longitude":-87.68314,"address":"2601 S. MC KENZIE ST., FOLEY AL","chain_name":null,"distance":0},{"name":"Pacific Sunwear","code":null,"latitude":40.73708,"longitude":-73.24327,"address":"1701 SUNRISE HWY, BAY SHORE NY","chain_name":null,"distance":0},{"name":"PACIFIC SUN","code":null,"latitude":32.22149,"longitude":-110.86718,"address":"5870 E. BROADWAY, TUCSON AZ","chain_name":null,"distance":0},{"name":"PACIFIC SUN","code":null,"latitude":38.14651,"longitude":-92.62505,"address":"4540 HIGHWAY 54, OSAGE BEACH MO","chain_name":null,"distance":0},{"name":"PACIFIC SUN","code":null,"latitude":33.65132,"longitude":-117.74694,"address":"71 FORTUNE DRIVE #924, IRVINE CA","chain_name":null,"distance":0},{"name":"Pacific Sunwear","code":null,"latitude":37.75927,"longitude":-121.46236,"address":"3200 N NAGLEE ROAD, TRACY CA","chain_name":null,"distance":0},{"name":"PACIFIC SUN","code":null,"latitude":47.39839,"longitude":-122.25912,"address":"417 RAMSAY WAY #101, KENT WA","chain_name":null,"distance":0},{"name":"PACIFIC SUN","code":null,"latitude":40.03103,"longitude":-82.4432,"address":"771 SOUTH 30TH STREET, HEATH OH","chain_name":null,"distance":0},{"name":"Pacific Sunwear","code":null,"latitude":35.43807,"longitude":-80.605,"address":"1480 CONCORD PARKWAY NORTH, CONCORD NC","chain_name":null,"distance":0},{"name":"PACIFIC SUN","code":null,"latitude":32.69291,"longitude":-97.13211,"address":"3811 SOUTH COOPER STREET SPACE #2176, ARLINGTON TX","chain_name":null,"distance":0},{"name":"PACIFIC SUN","code":null,"latitude":32.87337,"longitude":-117.21079,"address":"4485 LA JOLLA VILLAGE DRIVE, SAN DIEGO CA","chain_name":null,"distance":0},{"name":"Pacific Sunwear","code":null,"latitude":40.21778,"longitude":-111.66054,"address":"1200 TOWNE CENTRE BLVD., PROVO UT","chain_name":null,"distance":0},{"name":"PACIFIC SUN","code":null,"latitude":43.80407,"longitude":-91.14422,"address":"3800 STATE ROAD 16, LA CROSSE WI","chain_name":null,"distance":0},{"name":"PACIFIC SUN","code":null,"latitude":41.21036,"longitude":-80.75066,"address":"5555 YOUNGTOWN WARREN RD., NILES OH","chain_name":null,"distance":0},{"name":"PACIFIC SUN","code":null,"latitude":39.76558,"longitude":-86.157,"address":"49 W. MARYLAND STREET, INDIANAPOLIS IN","chain_name":null,"distance":0},{"name":"Pacific Sunwear","code":null,"latitude":40.74658,"longitude":-73.59563,"address":"1504 OLD COUNTRY ROAD, WESTBURY NY","chain_name":null,"distance":0},{"name":"Pacific Sunwear","code":null,"latitude":37.73074,"longitude":-89.19184,"address":"1237 E. MAIN STREET, CARBONDALE IL","chain_name":null,"distance":0},{"name":"PACIFIC SUN","code":null,"latitude":40.30256,"longitude":-78.8331,"address":"500 GALLERIA DRIVE, JOHNSTOWN PA","chain_name":null,"distance":0},{"name":"PACIFIC SUN","code":null,"latitude":32.81639,"longitude":-83.7053,"address":"3661 EISENHOWER PKWY., MACON GA","chain_name":null,"distance":0},{"name":"PACIFIC SUN","code":null,"latitude":39.57543,"longitude":-76.98255,"address":"400 NORTH CENTER STREET #237, WESTMINSTER MD","chain_name":null,"distance":0},{"name":"Pacific Sunwear","code":null,"latitude":40.14153,"longitude":-82.97741,"address":"1500 POLARIS PARKWAY, COLUMBUS OH","chain_name":null,"distance":0},{"name":"PACIFIC SUN","code":null,"latitude":39.14068,"longitude":-76.60304,"address":"7900 GOVERNOR RICHIE HWY, GLEN BURNIE MD","chain_name":null,"distance":0},{"name":"Pacific Sunwear","code":null,"latitude":39.79594,"longitude":-77.19943,"address":"1863 GETTYSBURG VILLAGE DRIVE, GETTYSBURG PA","chain_name":null,"distance":0},{"name":"PACIFIC SUN","code":null,"latitude":41.38473,"longitude":-72.15762,"address":"850 HARTFORD TURNPIKE, WATERFORD CT","chain_name":null,"distance":0},{"name":"Pacific Sunwear","code":null,"latitude":34.07188,"longitude":-117.55633,"address":"1 MILLS CIRCLE, ONTARIO CA","chain_name":null,"distance":0},{"name":"PACIFIC SUN","code":null,"latitude":42.03878,"longitude":-87.75549,"address":"OLD ORCHARD SHOPPING CENTER, SKOKIE IL","chain_name":null,"distance":0},{"name":"Pacific Sunwear","code":null,"latitude":38.77219,"longitude":-121.26587,"address":"1151 GALLERIA BLVD., ROSEVILLE CA","chain_name":null,"distance":0},{"name":"PACIFIC SUN","code":null,"latitude":41.69808,"longitude":-83.64183,"address":"5001 MONROE STREET, TOLEDO OH","chain_name":null,"distance":0},{"name":"PACIFIC SUN","code":null,"latitude":42.48565,"longitude":-71.21364,"address":"95 BURLINGTON MALL ROAD, BURLINGTON MA","chain_name":null,"distance":0},{"name":"PACIFIC SUN","code":null,"latitude":43.07432,"longitude":-70.80737,"address":"50 FOX RUN MALL, NEWINGTON NH","chain_name":null,"distance":0},{"name":"Pacific Sunwear","code":null,"latitude":33.19234,"longitude":-97.12954,"address":"2201 I-35 EAST SOUTH, DENTON TX","chain_name":null,"distance":0},{"name":"PACIFIC SUN","code":null,"latitude":30.32429,"longitude":-97.71574,"address":"6001 AIRPORT BLVD., AUSTIN TX","chain_name":null,"distance":0},{"name":"Pacific Sunwear","code":null,"latitude":39.29034,"longitude":-84.46667,"address":"11700 PRINCETON PIKE, CINCINNATI OH","chain_name":null,"distance":0},{"name":"PACIFIC SUN","code":null,"latitude":28.47464,"longitude":-81.44942,"address":"4949 INTERNATIONAL DRIVE, ORLANDO FL","chain_name":null,"distance":0},{"name":"Pacific Sunwear","code":null,"latitude":43.0963,"longitude":-78.97405,"address":"1900 MILITARY ROAD, NIAGARA FALLS NY","chain_name":null,"distance":0},{"name":"PACIFIC SUN","code":null,"latitude":36.06197,"longitude":-95.8863,"address":"7021 S. MEMORIAL DRIVE, TULSA OK","chain_name":null,"distance":0},{"name":"PACIFIC SUN","code":null,"latitude":43.6237,"longitude":-83.88808,"address":"4101 WILDER ROAD, BAY CITY MI","chain_name":null,"distance":0},{"name":"Pacific Sunwear","code":null,"latitude":32.29573,"longitude":-88.57046,"address":"1430 BONITA LAKES CIR, MERIDIAN MS","chain_name":null,"distance":0},{"name":"Pacific Sunwear","code":null,"latitude":39.1921,"longitude":-108.60703,"address":"2424 US HIGHWAY 6 %26 50, GRAND JUNCTION CO","chain_name":null,"distance":0},{"name":"PACIFIC SUN","code":null,"latitude":40.73385,"longitude":-73.87208,"address":"90-15 QUEENS BLVD #3013, ELMHURST NY","chain_name":null,"distance":0},{"name":"PACIFIC SUN","code":null,"latitude":25.70444,"longitude":-80.28543,"address":"5701 SUNSET DRIVE, SOUTH MIAMI FL","chain_name":null,"distance":0},{"name":"Pacific Sunwear","code":null,"latitude":32.24099,"longitude":-80.81968,"address":"1414 FORDING ISLAND ROAD, BLUFFTON SC","chain_name":null,"distance":0},{"name":"Pacific Sunwear","code":null,"latitude":31.32387,"longitude":-89.37595,"address":"1000 TURTLE CREEK DRIVE #170, HATTIESBURG MS","chain_name":null,"distance":0},{"name":"Pacific Sunwear","code":null,"latitude":35.13581,"longitude":-85.28672,"address":"206 NORTHGATE MALL, CHATTANOOGA TN","chain_name":null,"distance":0},{"name":"Pacific Sunwear","code":null,"latitude":40.37014,"longitude":-80.66758,"address":"100 MALL DRIVE, STEUBENVILLE OH","chain_name":null,"distance":0},{"name":"Pacific Sunwear","code":null,"latitude":40.628,"longitude":-75.48049,"address":"134 LEHIGH VALLEY MALL, WHITEHALL PA","chain_name":null,"distance":0},{"name":"Pacific Sunwear","code":null,"latitude":35.71771,"longitude":-79.79369,"address":"345 RANDOLPH MALL, ASHEBORO NC","chain_name":null,"distance":0},{"name":"Pacific Sunwear","code":null,"latitude":47.60837,"longitude":-122.20148,"address":"238 BELLEVUE SQUARE, BELLEVUE WA","chain_name":null,"distance":0},{"name":"Pacific Sunwear","code":null,"latitude":30.43444,"longitude":-84.25493,"address":"1500 APALACHEE PARKWAY #2240, TALLAHASSEE FL","chain_name":null,"distance":0},{"name":"Pacific Sunwear","code":null,"latitude":42.95492,"longitude":-71.43591,"address":"1500 S. WILLOW STREET, MANCHESTER NH","chain_name":null,"distance":0},{"name":"PACIFIC SUN","code":null,"latitude":40.7702,"longitude":-82.59197,"address":"679 RICHLAND MALL, MANSFIELD OH","chain_name":null,"distance":0},{"name":"PACIFIC SUN","code":null,"latitude":34.18754,"longitude":-118.88967,"address":"552 WEST HILLCREST, THOUSND OAKS CA","chain_name":null,"distance":0},{"name":"PACIFIC SUN","code":null,"latitude":35.3765,"longitude":-96.92986,"address":"4901 N KICKAPOO ST. SUITE 1578, SHAWNEE OK","chain_name":null,"distance":0},{"name":"PACIFIC SUN","code":null,"latitude":32.84091,"longitude":-116.70693,"address":"5001 WILLOWS ROAD, ALPINE CA","chain_name":null,"distance":0},{"name":"Pacific Sunwear","code":null,"latitude":35.50511,"longitude":-78.32434,"address":"1025 INDUSTRIAL PARK DRIVE #255, SMITHFIELD NC","chain_name":null,"distance":0},{"name":"PACIFIC SUN","code":null,"latitude":29.63249,"longitude":-90.75728,"address":"5953 WEST PARK AVENUE, HOUMA LA","chain_name":null,"distance":0},{"name":"PACIFIC SUN","code":null,"latitude":38.77505,"longitude":-77.50297,"address":"8300 SUDLEY ROAD, MANASSAS VA","chain_name":null,"distance":0},{"name":"Pacific Sunwear","code":null,"latitude":34.51121,"longitude":-82.61745,"address":"3101 NORTH MAIN ST. SPACE S-6, ANDERSON SC","chain_name":null,"distance":0},{"name":"PACIFIC SUN","code":null,"latitude":42.971,"longitude":-78.69681,"address":"4545 TRANSIT ROAD, WILLIAMSVILLE NY","chain_name":null,"distance":0},{"name":"PACIFIC SUN","code":null,"latitude":31.89176,"longitude":-102.34182,"address":"4101 EAST 42ND STREET E6, ODESSA TX","chain_name":null,"distance":0},{"name":"Pacific Sunwear","code":null,"latitude":36.58483,"longitude":-121.90047,"address":"1630 DEL MONTE CENTER, MONTEREY CA","chain_name":null,"distance":0},{"name":"Pacific Sunwear","code":null,"latitude":34.08965,"longitude":-117.29658,"address":"130 INLAND CENTER DR, SAN BERNARDINO CA","chain_name":null,"distance":0},{"name":"Pacific Sunwear","code":null,"latitude":36.07316,"longitude":-80.29775,"address":"3320 SILAS CREEK PARKWAY, WINSTON-SALEM NC","chain_name":null,"distance":0},{"name":"Pacific Sunwear","code":null,"latitude":41.42794,"longitude":-75.58413,"address":"211 VIEWMONT MALL, SCRANTON PA","chain_name":null,"distance":0},{"name":"PACIFIC SUN","code":null,"latitude":47.1583,"longitude":-122.29296,"address":"3500 SOUTH MERIDIAN, PUYALLUP WA","chain_name":null,"distance":0},{"name":"PACIFIC SUN","code":null,"latitude":32.34228,"longitude":-111.01282,"address":"7401 N. LA CHOLLA BLVD., TUSCON AZ","chain_name":null,"distance":0},{"name":"Pacific Sunwear","code":null,"latitude":34.00484,"longitude":-118.15305,"address":"100 CITADEL DRIVE, CITY OF COMMERCE CA","chain_name":null,"distance":0},{"name":"PACIFIC SUN","code":null,"latitude":43.17326,"longitude":-73.06151,"address":"4513 MAIN STREET, MANCHESTER VT","chain_name":null,"distance":0},{"name":"PACIFIC SUN","code":null,"latitude":40.74266,"longitude":-89.6279,"address":"4501 WAR MEMORIAL DRIVE, PEORIA IL","chain_name":null,"distance":0},{"name":"PACIFIC SUN","code":null,"latitude":27.53518,"longitude":-82.50722,"address":"5189 FACTORY SHOPS BLVD., ELLENTON FL","chain_name":null,"distance":0},{"name":"Pacific Sunwear","code":null,"latitude":37.96717,"longitude":-122.06235,"address":"121 SUN VALLEY MALL, CONCORD CA","chain_name":null,"distance":0},{"name":"PACIFIC SUN","code":null,"latitude":37.02027,"longitude":-121.56276,"address":"8155 ARROYO CIRCLE, GILROY CA","chain_name":null,"distance":0},{"name":"Pacific Sunwear","code":null,"latitude":42.03621,"longitude":-71.34706,"address":"1 PREMIUM OUTLETS BLVD., WRENTHAM MA","chain_name":null,"distance":0},{"name":"Pacific Sunwear","code":null,"latitude":38.36733,"longitude":-121.95523,"address":"238 NUT TREE ROAD, VACAVILLE CA","chain_name":null,"distance":0},{"name":"Pacific Sunwear","code":null,"latitude":32.76783,"longitude":-117.14631,"address":"1640 CAMINO DEL RIO N., SAN DIEGO CA","chain_name":null,"distance":0},{"name":"PACIFIC SUN","code":null,"latitude":41.41885,"longitude":-81.90177,"address":"524 GREAT NORTHERN MALL, NORTH OLMSTED OH","chain_name":null,"distance":0},{"name":"Pacific Sunwear","code":null,"latitude":33.93922,"longitude":-117.2666,"address":"22500 TOWNGATE CIRCLE, MORENO VALLEY CA","chain_name":null,"distance":0},{"name":"PACIFIC SUN","code":null,"latitude":38.29555,"longitude":-122.30295,"address":"629 FACTORY STORES DRIVE #657, NAPA CA","chain_name":null,"distance":0},{"name":"Pacific Sunwear","code":null,"latitude":46.84472,"longitude":-114.02393,"address":"2901 BROOKS, MISSOULA MT","chain_name":null,"distance":0},{"name":"PACIFIC SUN","code":null,"latitude":33.52624,"longitude":-117.15793,"address":"40820 WINCHESTER ROAD, TEMECULA CA","chain_name":null,"distance":0},{"name":"Pacific Sunwear","code":null,"latitude":40.77107,"longitude":-73.53021,"address":"212 BROADWAY MALL, HICKSVILLE NY","chain_name":null,"distance":0},{"name":"Pacific Sunwear","code":null,"latitude":38.42961,"longitude":-78.842,"address":"1925 E MARKET ST, HARRISONBURG VA","chain_name":null,"distance":0},{"name":"Pacific Sunwear","code":null,"latitude":34.91389,"longitude":-80.99056,"address":"2301 DALE LYLE BLVD, ROCK HILL SC","chain_name":null,"distance":0},{"name":"Pacific Sunwear","code":null,"latitude":42.91251,"longitude":-85.58979,"address":"3135 28TH STREET SE, GRAND RAPIDS MI","chain_name":null,"distance":0},{"name":"Pacific Sunwear","code":null,"latitude":32.9688,"longitude":-97.03709,"address":"3000 GRAPEVINE MILLS PKWY., GRAPEVINE TX","chain_name":null,"distance":0},{"name":"Pacific Sunwear","code":null,"latitude":41.23595,"longitude":-73.03982,"address":"1201 BOSTON POST ROAD, MILFORD CT","chain_name":null,"distance":0},{"name":"PACIFIC SUN","code":null,"latitude":40.72937,"longitude":-73.6306,"address":"ROOSEVELT FIELD MALL, GARDEN CITY NY","chain_name":null,"distance":0},{"name":"PACIFIC SUN","code":null,"latitude":38.1379,"longitude":-85.67371,"address":"4801-302 OUTER LOOP, LOUISVILLE KY","chain_name":null,"distance":0},{"name":"Pacific Sunwear","code":null,"latitude":47.91221,"longitude":-122.21392,"address":"1402 SE EVERETT MALL WAY, EVERETT WA","chain_name":null,"distance":0},{"name":"Pacific Sunwear","code":null,"latitude":32.50597,"longitude":-84.94521,"address":"3131 MANCHESTER EXPRESSWAY, COLUMBUS GA","chain_name":null,"distance":0},{"name":"PACIFIC SUN","code":null,"latitude":42.92912,"longitude":-78.75619,"address":"GALLERIA DRIVE, BUFFALO NY","chain_name":null,"distance":0},{"name":"Pacific Sunwear","code":null,"latitude":36.80848,"longitude":-119.69563,"address":"1050 SHAW AVENUE, CLOVIS CA","chain_name":null,"distance":0},{"name":"Pacific Sunwear","code":null,"latitude":38.39801,"longitude":-75.57162,"address":"2300 N. SALISBURY BLVD., SALISBURY MD","chain_name":null,"distance":0},{"name":"Pacific Sunwear","code":null,"latitude":29.54071,"longitude":-95.1501,"address":"1338 BAYBROOK MALL, FRIENDSWOOD TX","chain_name":null,"distance":0},{"name":"PACIFIC SUN","code":null,"latitude":39.52397,"longitude":-76.35673,"address":"678D BEL AIR ROAD, BEL AIR MD","chain_name":null,"distance":0},{"name":"Pacific Sunwear","code":null,"latitude":28.07878,"longitude":-80.64919,"address":"1700 WEST NEW HAVEN AVENUE, MELBOURNE FL","chain_name":null,"distance":0},{"name":"PACIFIC SUN","code":null,"latitude":42.24679,"longitude":-88.97512,"address":"CHERRYVALE MALL, ROCKFORD IL","chain_name":null,"distance":0},{"name":"Pacific Sunwear","code":null,"latitude":41.39846,"longitude":-82.11314,"address":"3177 MIDWAY MALL, ELYRIA OH","chain_name":null,"distance":0},{"name":"Pacific Sunwear","code":null,"latitude":39.95518,"longitude":-86.17232,"address":"14511 CLAY TERRACE BLVD. SUITE 120, CARMEL IN","chain_name":null,"distance":0},{"name":"Pacific Sunwear","code":null,"latitude":48.23491,"longitude":-101.30815,"address":"2400 10TH STREET SW, MINOT ND","chain_name":null,"distance":0},{"name":"PACIFIC SUN","code":null,"latitude":33.48006,"longitude":-112.22348,"address":"7611 W. THOMAS RD., PHOENIX AZ","chain_name":null,"distance":0},{"name":"PACIFIC SUN","code":null,"latitude":40.66964,"longitude":-74.48152,"address":"977 VALLEY ROAD #L, GILLETTE NJ","chain_name":null,"distance":0},{"name":"PACIFIC SUN","code":null,"latitude":42.38373,"longitude":-87.95666,"address":"6170 W. GRAND AVE., GURNEE IL","chain_name":null,"distance":0},{"name":"Pacific Sunwear","code":null,"latitude":42.49061,"longitude":-83.47598,"address":"27462 NOVI ROAD, NOVI MI","chain_name":null,"distance":0},{"name":"PACIFIC SUN","code":null,"latitude":28.35707,"longitude":-80.68586,"address":"777 MERRITT ISLAND CAUSEWAY, MERRITT ISLAND FL","chain_name":null,"distance":0},{"name":"PACIFIC SUN","code":null,"latitude":47.4108,"longitude":-120.29043,"address":"511 VALLEY MALL PARKWAY, EAST WENATCHEE WA","chain_name":null,"distance":0},{"name":"Pacific Sunwear","code":null,"latitude":35.21844,"longitude":-97.49283,"address":"3427 W. MAIN, NORMAN OK","chain_name":null,"distance":0},{"name":"PACIFIC SUN","code":null,"latitude":44.94187,"longitude":-122.98316,"address":"831 LANCASTER DRIVE N.E. #190, SALEM OR","chain_name":null,"distance":0},{"name":"PACIFIC SUN","code":null,"latitude":39.62539,"longitude":-79.9896,"address":"9500 MALL ROAD, MORGANTOWN WV","chain_name":null,"distance":0},{"name":"PACIFIC SUN","code":null,"latitude":38.48491,"longitude":-82.65175,"address":"501 WINCHESTER AVE. SUITE #242, ASHLAND KY","chain_name":null,"distance":0},{"name":"PACIFIC SUN","code":null,"latitude":28.05971,"longitude":-82.56245,"address":"8115 CITRUS TOWN CTR MALL, TAMPA FL","chain_name":null,"distance":0},{"name":"PACIFIC SUN","code":null,"latitude":42.20164,"longitude":-71.83904,"address":"385 SOUTHBRIDGE STREET SUITE #N445, AUBURN MA","chain_name":null,"distance":0},{"name":"Pacific Sunwear","code":null,"latitude":34.83618,"longitude":-87.63102,"address":"301 COX CREEK PARKWAY, FLORENCE AL","chain_name":null,"distance":0},{"name":"Pacific Sunwear","code":null,"latitude":46.56426,"longitude":-120.4809,"address":"2529 MAIN STREET, SUITE 138, UNION GAP WA","chain_name":null,"distance":0},{"name":"Pacific Sunwear","code":null,"latitude":48.79313,"longitude":-122.41429,"address":"1 BELLIS FAIR PARKWAY SPACE #224, BELLINGHAM WA","chain_name":null,"distance":0},{"name":"Pacific Sunwear","code":null,"latitude":25.96159,"longitude":-80.14069,"address":"19575 BISCAYNE BLVD. SPACE #1043, AVENTURA FL","chain_name":null,"distance":0},{"name":"Pacific Sunwear","code":null,"latitude":26.84501,"longitude":-80.08192,"address":"3101 PGA BLVD., PALM BEACH GARDENS FL","chain_name":null,"distance":0},{"name":"Pacific Sunwear","code":null,"latitude":29.59453,"longitude":-95.62586,"address":"16535 SOUTHWEST FWY., SUGAR LAND TX","chain_name":null,"distance":0},{"name":"Pacific Sunwear","code":null,"latitude":44.87853,"longitude":-93.32401,"address":"10 SOUTHDALE CENTER, EDINA MN","chain_name":null,"distance":0},{"name":"Pacific Sunwear","code":null,"latitude":33.84245,"longitude":-118.35232,"address":"232 DEL AMO FASHION SQUARE, TORRANCE CA","chain_name":null,"distance":0},{"name":"PACIFIC SUN","code":null,"latitude":33.47033,"longitude":-86.77155,"address":"623 BROOKWOOD VILLAGE, BIRMINGHAM AL","chain_name":null,"distance":0},{"name":"Pacific Sunwear","code":null,"latitude":39.62109,"longitude":-77.77125,"address":"17301 VALLEY MALL ROAD, HAGERSTOWN MD","chain_name":null,"distance":0},{"name":"Pacific Sunwear","code":null,"latitude":39.09445,"longitude":-84.49536,"address":"1 LEVEE WAY, NEWPORT KY","chain_name":null,"distance":0},{"name":"PACIFIC SUN","code":null,"latitude":28.30956,"longitude":-82.70009,"address":"9409 US HWY 19, PORT RICHEY FL","chain_name":null,"distance":0},{"name":"Pacific Sunwear","code":null,"latitude":35.42027,"longitude":-108.76555,"address":"1300 WEST I-40 FRONTAGE ROAD, GALLUP NM","chain_name":null,"distance":0},{"name":"Pacific Sunwear","code":null,"latitude":36.0154,"longitude":-79.87282,"address":"109 FOUR SEASONS TOWN CENTRE, GREENSBORO NC","chain_name":null,"distance":0},{"name":"Pacific Sunwear","code":null,"latitude":39.14182,"longitude":-121.6323,"address":"1215 COLUSA AVENUE, YUBA CITY CA","chain_name":null,"distance":0},{"name":"PACIFIC SUN","code":null,"latitude":42.53056,"longitude":-71.76213,"address":"COMMERCIAL BLVD #17, LEOMINSTER MA","chain_name":null,"distance":0},{"name":"Pacific Sunwear","code":null,"latitude":33.46768,"longitude":-82.07907,"address":"3450 WRIGHTSBORO RD, AUGUSTA GA","chain_name":null,"distance":0},{"name":"Pacific Sunwear","code":null,"latitude":38.86915,"longitude":-77.3721,"address":"11930-L FAIR OAKS, FAIRFAX VA","chain_name":null,"distance":0},{"name":"PACIFIC SUN","code":null,"latitude":33.92995,"longitude":-116.81778,"address":"48400 SEMINOLE DRIVE, CABAZON CA","chain_name":null,"distance":0},{"name":"PACIFIC SUN","code":null,"latitude":41.66137,"longitude":-81.3596,"address":"7850 MENTOR AVENUE, MENTOR OH","chain_name":null,"distance":0},{"name":"PACIFIC SUN","code":null,"latitude":41.37848,"longitude":-73.47713,"address":"7 BACKUS AVENUE, DANBURY CT","chain_name":null,"distance":0},{"name":"PACIFIC SUN","code":null,"latitude":33.12706,"longitude":-117.32319,"address":"5610 PASEO DEL NORTE, CARLSBAD CA","chain_name":null,"distance":0},{"name":"Pacific Sunwear","code":null,"latitude":40.54605,"longitude":-74.33824,"address":"304 MENLO PARK, EDISON NJ","chain_name":null,"distance":0},{"name":"Pacific Sunwear","code":null,"latitude":37.5055,"longitude":-77.60902,"address":"11500 MIDLOTHIAN TURNPIKE SUITE #324, RICHMOND VA","chain_name":null,"distance":0},{"name":"PACIFIC SUN","code":null,"latitude":39.90527,"longitude":-86.06399,"address":"6020 E. 82ND STREET, INDIANAPOLIS IN","chain_name":null,"distance":0},{"name":"Pacific Sunwear","code":null,"latitude":34.31507,"longitude":-88.7036,"address":"1001 BARNES CROSSING ROAD, TUPELO MS","chain_name":null,"distance":0},{"name":"Pacific Sunwear","code":null,"latitude":37.2934,"longitude":-121.99019,"address":"1600 SARATOGA AVENUE SUITE 225, SAN JOSE CA","chain_name":null,"distance":0},{"name":"Pacific Sunwear","code":null,"latitude":32.71449,"longitude":-117.16095,"address":"321 HORTON PLAZA, SAN DIEGO CA","chain_name":null,"distance":0},{"name":"PACIFIC SUN","code":null,"latitude":33.60871,"longitude":-85.82827,"address":"700 QUINTARD DRIVE, OXFORD AL","chain_name":null,"distance":0},{"name":"Pacific Sunwear","code":null,"latitude":41.62704,"longitude":-73.91703,"address":"2001 SOUTH ROAD, POUGHKEEPSIE NY","chain_name":null,"distance":0},{"name":"Pacific Sunwear","code":null,"latitude":39.16377,"longitude":-78.16311,"address":"1850 APPLE BLOSSOM DRIVE, WINCHESTER VA","chain_name":null,"distance":0},{"name":"Pacific Sunwear","code":null,"latitude":30.04,"longitude":-95.25443,"address":"20131 HIGHWAY 59 NORTH, HUMBLE TX","chain_name":null,"distance":0},{"name":"Pacific Sunwear","code":null,"latitude":30.41594,"longitude":-86.65395,"address":"300 MARY ESTHER RD., FT. WALTON BEACH FL","chain_name":null,"distance":0},{"name":"PACIFIC SUN","code":null,"latitude":44.1203,"longitude":-70.22533,"address":"550 CENTER STREET, AUBURN ME","chain_name":null,"distance":0},{"name":"PACIFIC SUN","code":null,"latitude":40.86184,"longitude":-73.11864,"address":"MIDDLE COUNTRY ROAD, LAKE GROVE NY","chain_name":null,"distance":0},{"name":"PACIFIC SUN","code":null,"latitude":47.21853,"longitude":-122.46763,"address":"4502 S. STEELE, TACOMA WA","chain_name":null,"distance":0},{"name":"Pacific Sunwear","code":null,"latitude":33.99344,"longitude":-117.9316,"address":"1600 AZUSA AVENUE #121, CITY OF INDUSTRY CA","chain_name":null,"distance":0},{"name":"Pacific Sunwear","code":null,"latitude":37.68819,"longitude":-121.05005,"address":"3401 DALE ROAD, MODESTO CA","chain_name":null,"distance":0},{"name":"Pacific Sunwear","code":null,"latitude":38.69946,"longitude":-121.69613,"address":"1264 E. GIBSON ROAD F613, WOODLAND CA","chain_name":null,"distance":0},{"name":"Pacific Sunwear","code":null,"latitude":30.30569,"longitude":-89.82584,"address":"150 NORTH SHORE BLVD., SLIDELL LA","chain_name":null,"distance":0},{"name":"PACIFIC SUN","code":null,"latitude":35.1005,"longitude":-78.97088,"address":"429 CROSS CREEK MALL, FAYETTEVILLE NC","chain_name":null,"distance":0},{"name":"Pacific Sunwear","code":null,"latitude":32.61847,"longitude":-83.68442,"address":"2922 WATSON BLVD, CENTERVILLE GA","chain_name":null,"distance":0},{"name":"Pacific Sunwear","code":null,"latitude":33.39312,"longitude":-111.86171,"address":"1445 W. SOUTHERN AVE., MESA AZ","chain_name":null,"distance":0},{"name":"PACIFIC SUN","code":null,"latitude":38.91648,"longitude":-94.64612,"address":"5219 W. 117TH STREET, LEAWOOD KS","chain_name":null,"distance":0},{"name":"Pacific Sunwear","code":null,"latitude":31.98251,"longitude":-81.16117,"address":"14045 ABERCORN STREET, SAVANNAH GA","chain_name":null,"distance":0},{"name":"Pacific Sunwear","code":null,"latitude":41.87899,"longitude":-80.75304,"address":"3315 NO RIDGE EAST, ASHTABULA OH","chain_name":null,"distance":0},{"name":"PACIFIC SUN","code":null,"latitude":32.53812,"longitude":-94.75442,"address":"3500 MCCANN RD., LONGVIEW TX","chain_name":null,"distance":0},{"name":"PACIFIC SUN","code":null,"latitude":34.14572,"longitude":-118.1515,"address":"46 WEST COLORADO BOULEVARD, PASADENA CA","chain_name":null,"distance":0},{"name":"Pacific Sunwear","code":null,"latitude":41.86715,"longitude":-71.05004,"address":"2 GALLERIA MALL DRIVE, EAST TAUNTON MA","chain_name":null,"distance":0},{"name":"Pacific Sunwear","code":null,"latitude":31.27982,"longitude":-92.46314,"address":"3437 MASONIC DR. SUITE #1470, ALEXANDRIA LA","chain_name":null,"distance":0},{"name":"Pacific Sunwear","code":null,"latitude":42.14344,"longitude":-72.48768,"address":"1655 BOSTON ROAD #150%2f151, SPRINGFIELD MA","chain_name":null,"distance":0},{"name":"Pacific Sunwear","code":null,"latitude":39.03507,"longitude":-77.42533,"address":"21100 DULLES TOWNE CIRCLE, STERLING VA","chain_name":null,"distance":0},{"name":"Pacific Sunwear","code":null,"latitude":38.60303,"longitude":-90.44706,"address":"125 W COUNTY CENTER, ST LOUIS MO","chain_name":null,"distance":0},{"name":"Pacific Sunwear","code":null,"latitude":43.22461,"longitude":-71.48886,"address":"270 LOUDON ROAD #1252, CONCORD NH","chain_name":null,"distance":0},{"name":"Pacific Sunwear","code":null,"latitude":29.04737,"longitude":-95.45572,"address":"100 WEST HIGHWAY 332 SUITE #1004, LAKE JACKSON TX","chain_name":null,"distance":0},{"name":"PACIFIC SUN","code":null,"latitude":33.75049,"longitude":-78.958,"address":"4618 FACTORY STORES BLVD., MYRTLE BEACH SC","chain_name":null,"distance":0},{"name":"PACIFIC SUN","code":null,"latitude":40.06899,"longitude":-80.86339,"address":"67800 MALL ROAD, ST CLAIRSVILLE OH","chain_name":null,"distance":0},{"name":"Pacific Sunwear","code":null,"latitude":26.00781,"longitude":-80.29792,"address":"11401 PINES BLVD., PEMBROKE PINES FL","chain_name":null,"distance":0},{"name":"Pacific Sunwear","code":null,"latitude":43.98101,"longitude":-75.95051,"address":"21182 SALMON RUN MALL - LOOP WEST, WATERTOWN NY","chain_name":null,"distance":0},{"name":"Pacific Sunwear","code":null,"latitude":44.7445,"longitude":-93.28431,"address":"1093 BURNSVILLE CENTER, BURNSVILLE MN","chain_name":null,"distance":0},{"name":"Pacific Sunwear","code":null,"latitude":34.78124,"longitude":-77.3391,"address":"308 JACKSONVILLE MALL, JACKSONVILLE NC","chain_name":null,"distance":0},{"name":"Pacific Sunwear","code":null,"latitude":39.98118,"longitude":-74.18155,"address":"1201 HOOPER AVENUE, TOMS RIVER NJ","chain_name":null,"distance":0},{"name":"PACIFIC SUN","code":null,"latitude":39.74386,"longitude":-104.99049,"address":"500 16TH STREET, DENVER CO","chain_name":null,"distance":0},{"name":"Pacific Sunwear","code":null,"latitude":30.84012,"longitude":-83.32062,"address":"1700 NORMAN DR, VALDOSTA GA","chain_name":null,"distance":0},{"name":"Pacific Sunwear","code":null,"latitude":28.80369,"longitude":-81.34075,"address":"267 TOWNE CENTER CIRCLE, SANFORD FL","chain_name":null,"distance":0},{"name":"PACIFIC SUN","code":null,"latitude":42.90848,"longitude":-112.46631,"address":"4155 YELLOWSTONE HIGHWAY, CHUBBUCK ID","chain_name":null,"distance":0},{"name":"Pacific Sunwear","code":null,"latitude":30.38947,"longitude":-88.99036,"address":"2600 BEACH BLVD., BILOXI MS","chain_name":null,"distance":0},{"name":"Pacific Sunwear","code":null,"latitude":39.32045,"longitude":-87.4192,"address":"3401 SOUTH US HIGHWAY 41, TERRE HAUTE IN","chain_name":null,"distance":0},{"name":"PACIFIC SUN","code":null,"latitude":38.91934,"longitude":-77.22097,"address":"7915 L TYSONS CORNER CENTER, MCLEAN VA","chain_name":null,"distance":0},{"name":"PACIFIC SUN","code":null,"latitude":32.5453,"longitude":-117.0413,"address":"4321 CAMINO DE LA PLAZA, SAN DIEGO CA","chain_name":null,"distance":0},{"name":"PACIFIC SUN","code":null,"latitude":27.73392,"longitude":-97.38504,"address":"5488 PADRE STAPLES MALL, CORPUS CHRISTI TX","chain_name":null,"distance":0},{"name":"PACIFIC SUN","code":null,"latitude":41.71506,"longitude":-86.18754,"address":"6051 N. GRAPE ROAD, MISHAWAKA IN","chain_name":null,"distance":0},{"name":"Pacific Sunwear","code":null,"latitude":39.16422,"longitude":-86.49381,"address":"3062 E. THIRD STREET, BLOOMINGTON IN","chain_name":null,"distance":0},{"name":"PACIFIC SUN","code":null,"latitude":42.20675,"longitude":-85.61879,"address":"6650 SOUTH WESTNIDGE, PORTAGE MI","chain_name":null,"distance":0},{"name":"Pacific Sunwear","code":null,"latitude":45.15415,"longitude":-122.87814,"address":"1001 ARNEY ROAD, WOODBURN OR","chain_name":null,"distance":0},{"name":"Pacific Sunwear","code":null,"latitude":27.4883,"longitude":-82.58342,"address":"303 U.S. HWY. 301 BLVD.W., BRADENTON FL","chain_name":null,"distance":0},{"name":"Pacific Sunwear","code":null,"latitude":39.17354,"longitude":-77.55227,"address":"241 FT. EVANS ROAD N.E., LEESBURG VA","chain_name":null,"distance":0},{"name":"PACIFIC SUN","code":null,"latitude":37.78423,"longitude":-122.40768,"address":"865 MARKET STREET, SAN FRANCISCO CA","chain_name":null,"distance":0},{"name":"Pacific Sunwear","code":null,"latitude":40.76092,"longitude":-84.14506,"address":"2400 ELIDA ROAD, LIMA OH","chain_name":null,"distance":0},{"name":"PACIFIC SUN","code":null,"latitude":43.2046,"longitude":-77.69083,"address":"418 GREECE RIDGE CENTER DRIVE, ROCHESTER NY","chain_name":null,"distance":0},{"name":"PACIFIC SUN","code":null,"latitude":44.77503,"longitude":-91.43758,"address":"4800 GOLF ROAD, EAU CLAIRE WI","chain_name":null,"distance":0},{"name":"Pacific Sunwear","code":null,"latitude":32.94407,"longitude":-80.04163,"address":"2150 NORTHWOOD BLVD., NORTH CHARLESTON SC","chain_name":null,"distance":0},{"name":"Pacific Sunwear","code":null,"latitude":28.89385,"longitude":-81.79197,"address":"10401 US HIGHWAY 441, LEESBURG FL","chain_name":null,"distance":0},{"name":"Pacific Sunwear","code":null,"latitude":34.59025,"longitude":-118.21736,"address":"1233 WEST AVENUE P SPACE #941, PALMDALE CA","chain_name":null,"distance":0},{"name":"Pacific Sunwear","code":null,"latitude":31.6136,"longitude":-84.216,"address":"2601 DAWSON RD. #C-5, ALBANY GA","chain_name":null,"distance":0},{"name":"Pacific Sunwear","code":null,"latitude":33.72314,"longitude":-117.79337,"address":"2979 EL CAMINO REAL, TUSTIN CA","chain_name":null,"distance":0},{"name":"PACIFIC SUN","code":null,"latitude":29.92188,"longitude":-81.41043,"address":"500 BELZ OUTLET BLVD., ST. AUGUSTINE FL","chain_name":null,"distance":0},{"name":"PACIFIC SUN","code":null,"latitude":42.02315,"longitude":-91.62709,"address":"4444 FIRST AVE NE, CEDAR RAPIDS IA","chain_name":null,"distance":0},{"name":"PACIFIC SUN","code":null,"latitude":40.29283,"longitude":-76.81433,"address":"ROUTE #22 %26 COLONIAL ROAD, HARRISBURG PA","chain_name":null,"distance":0},{"name":"Pacific Sunwear","code":null,"latitude":35.33947,"longitude":-119.03299,"address":"2701 MING AVENUE, BAKERSFIELD CA","chain_name":null,"distance":0},{"name":"Pacific Sunwear","code":null,"latitude":28.03256,"longitude":-82.72363,"address":"27001 U.S. HWY 19 N., CLEARWATER FL","chain_name":null,"distance":0},{"name":"PACIFIC SUN","code":null,"latitude":44.94634,"longitude":-92.92032,"address":"9140 HUDSON ROAD #509, WOODBURY MN","chain_name":null,"distance":0},{"name":"Pacific Sunwear","code":null,"latitude":39.91344,"longitude":-75.35076,"address":"1250 BALTIMORE PIKE, SPRINGFIELD PA","chain_name":null,"distance":0},{"name":"Pacific Sunwear","code":null,"latitude":33.85927,"longitude":-118.09231,"address":"322 LOS CERRITOS CENTER, CERRITOS CA","chain_name":null,"distance":0},{"name":"Pacific Sunwear","code":null,"latitude":38.98771,"longitude":-76.54793,"address":"1160 ANNAPOLIS MALL, ANNAPOLIS MD","chain_name":null,"distance":0},{"name":"Pacific Sunwear","code":null,"latitude":39.2238,"longitude":-81.57306,"address":"251 GRAND CENTRAL MALL, PARKERSBURG WV","chain_name":null,"distance":0},{"name":"PACIFIC SUN","code":null,"latitude":37.16698,"longitude":-80.42713,"address":"834 NEW RIVER ROAD, CHRISTIANSBURG VA","chain_name":null,"distance":0},{"name":"Pacific Sunwear","code":null,"latitude":43.05763,"longitude":-89.50925,"address":"18 WEST TOWNE MALL, MADISON WI","chain_name":null,"distance":0},{"name":"PACIFIC SUN","code":null,"latitude":41.61857,"longitude":-87.84031,"address":"444 ORLAND SQUARE, ORLAND PARK IL","chain_name":null,"distance":0},{"name":"PACIFIC SUN","code":null,"latitude":42.53726,"longitude":-70.96605,"address":"ROUTES 114 %26 128, PEABODY MA","chain_name":null,"distance":0},{"name":"PACIFIC SUN","code":null,"latitude":39.64091,"longitude":-107.28231,"address":"51027 HIGHWAY 6 %26 24, GLENWOOD SPRINGS CO","chain_name":null,"distance":0},{"name":"PACIFIC SUN","code":null,"latitude":40.243,"longitude":-76.93667,"address":"3535 CAPITAL MALL DRIVE SPACE #631, CAMP HILL PA","chain_name":null,"distance":0},{"name":"Pacific Sunwear","code":null,"latitude":37.32303,"longitude":-121.83565,"address":"2200 EASTRIDGE LOOP #2108, SAN JOSE CA","chain_name":null,"distance":0},{"name":"Pacific Sunwear","code":null,"latitude":45.01616,"longitude":-93.15719,"address":"177 ROSEDALE CENTER, ROSEVILLE MN","chain_name":null,"distance":0},{"name":"Pacific Sunwear","code":null,"latitude":38.94519,"longitude":-104.79566,"address":"1710 BRIARGATE BLVD, COLORADO SPRINGS CO","chain_name":null,"distance":0},{"name":"PACIFIC SUN","code":null,"latitude":37.08439,"longitude":-88.59676,"address":"5101 HINKLEVILLE ROAD, SPACE 590, PADUCAH KY","chain_name":null,"distance":0},{"name":"Pacific Sunwear","code":null,"latitude":35.72242,"longitude":-81.37201,"address":"1960 HIGHWAY 70 SE, HICKORY NC","chain_name":null,"distance":0},{"name":"Pacific Sunwear","code":null,"latitude":44.94374,"longitude":-123.87467,"address":"1500 SE EAST DEVIL'S LAKE, LINCOLN CITY OR","chain_name":null,"distance":0},{"name":"Pacific Sunwear","code":null,"latitude":42.19781,"longitude":-83.2567,"address":"23000 EUREKA ROAD, TAYLOR MI","chain_name":null,"distance":0},{"name":"Pacific Sunwear","code":null,"latitude":35.99358,"longitude":-77.84188,"address":"1100 NORTH WESLEYAN BLVD SPACE 3012, ROCKY MOUNT NC","chain_name":null,"distance":0},{"name":"Pacific Sunwear","code":null,"latitude":38.06489,"longitude":-97.90313,"address":"1500 EAST 11TH, HUTCHINSON KS","chain_name":null,"distance":0},{"name":"Pacific Sunwear","code":null,"latitude":33.17944,"longitude":-117.32688,"address":"2525 EL CAMINO REAL, CARLSBAD CA","chain_name":null,"distance":0},{"name":"Pacific Sunwear","code":null,"latitude":39.38678,"longitude":-85.90247,"address":"3115 OUTLET DR, EDINBURGH IN","chain_name":null,"distance":0},{"name":"PACIFIC SUN","code":null,"latitude":37.27288,"longitude":-107.8837,"address":"800 S. CAMINO DEL RIO, DURANGO CO","chain_name":null,"distance":0},{"name":"Pacific Sunwear","code":null,"latitude":42.62108,"longitude":-83.99342,"address":"1475 NORTH BURKHART ROAD, HOWELL MI","chain_name":null,"distance":0},{"name":"PACIFIC SUN","code":null,"latitude":35.92852,"longitude":-84.0362,"address":"7600 KINGSTON PIKE, KNOXVILLE TN","chain_name":null,"distance":0},{"name":"Pacific Sunwear","code":null,"latitude":44.62876,"longitude":-123.08333,"address":"2161 14TH AVE S.E. #C317, ALBANY OR","chain_name":null,"distance":0},{"name":"PACIFIC SUN","code":null,"latitude":28.66023,"longitude":-81.37722,"address":"451 E. ALTAMONTE AVE. SPACE #813, ALTAMONTE SPRINGS FL","chain_name":null,"distance":0},{"name":"Pacific Sunwear","code":null,"latitude":41.44872,"longitude":-81.92196,"address":"28 MAIN STREET, WESTLAKE OH","chain_name":null,"distance":0},{"name":"Pacific Sunwear","code":null,"latitude":38.95652,"longitude":-94.71981,"address":"11675 W. 95TH STREET SUITE #124, OVERLAND PARK KS","chain_name":null,"distance":0},{"name":"PACIFIC SUN","code":null,"latitude":33.63961,"longitude":-112.22444,"address":"7700-2058 ARROWHEAD TOWNE, GLENDALE AZ","chain_name":null,"distance":0},{"name":"PACIFIC SUN","code":null,"latitude":32.62903,"longitude":-117.08879,"address":"555 BROADWAY, CHULA VISTA CA","chain_name":null,"distance":0},{"name":"Pacific Sunwear","code":null,"latitude":46.20718,"longitude":-119.22322,"address":"330 COLUMBIA CENTER, KENNEWICK WA","chain_name":null,"distance":0},{"name":"PACIFIC SUN","code":null,"latitude":44.03467,"longitude":-71.09414,"address":"ROUTE 16, NORTH CONWAY NH","chain_name":null,"distance":0},{"name":"Pacific Sunwear","code":null,"latitude":32.8287,"longitude":-97.19723,"address":"1101 MELBOURNE RD, HURST TX","chain_name":null,"distance":0},{"name":"Pacific Sunwear","code":null,"latitude":33.84895,"longitude":-84.36462,"address":"3393 PEACHTREE ST. NE, ATLANTA GA","chain_name":null,"distance":0},{"name":"Pacific Sunwear","code":null,"latitude":41.09826,"longitude":-73.96131,"address":"3340 PALISADES CENTER DR #F-302, WEST NYACK NY","chain_name":null,"distance":0},{"name":"Pacific Sunwear","code":null,"latitude":41.31295,"longitude":-81.81967,"address":"1028 SOUTHPARK CENTER, STRONGSVILLE OH","chain_name":null,"distance":0},{"name":"Pacific Sunwear","code":null,"latitude":37.11251,"longitude":-76.4993,"address":"12300 JEFFERSON AVENUE, NEWPORT NEWS VA","chain_name":null,"distance":0},{"name":"Pacific Sunwear","code":null,"latitude":30.70288,"longitude":-87.8932,"address":"30500 STATE HWY. 181 #604, SPANISH FORT AL","chain_name":null,"distance":0},{"name":"Pacific Sunwear","code":null,"latitude":36.32806,"longitude":-119.66954,"address":"1675 W. LACEY BLVD., HANFORD CA","chain_name":null,"distance":0},{"name":"Pacific Sunwear","code":null,"latitude":41.13215,"longitude":-81.61821,"address":"3265 W. MARKET STREET, AKRON OH","chain_name":null,"distance":0},{"name":"PACIFIC SUN","code":null,"latitude":34.44041,"longitude":-119.74807,"address":"3835 STATE STREET, SANTA BARBARA CA","chain_name":null,"distance":0},{"name":"PACIFIC SUN","code":null,"latitude":39.97111,"longitude":-77.64612,"address":"838 CHAMBERSBURG MALL, CHAMBERSBURG PA","chain_name":null,"distance":0},{"name":"PACIFIC SUN","code":null,"latitude":41.38455,"longitude":-81.73954,"address":"7911 W. RIDGEWOOD DRIVE, PARMA OH","chain_name":null,"distance":0},{"name":"Pacific Sunwear","code":null,"latitude":40.77808,"longitude":-73.77755,"address":"212 - 55 26TH AVE, BAYSIDE NY","chain_name":null,"distance":0},{"name":"Pacific Sunwear","code":null,"latitude":44.46517,"longitude":-73.18103,"address":"155 DORSET STREET, S. BURLINGTON VT","chain_name":null,"distance":0},{"name":"Pacific Sunwear","code":null,"latitude":30.00662,"longitude":-95.2883,"address":"2100 SWS YOUNG DRIVE, KILLEEN TX","chain_name":null,"distance":0},{"name":"PACIFIC SUN","code":null,"latitude":43.02594,"longitude":-77.43892,"address":"786 EASTVIEW MALL, VICTOR NY","chain_name":null,"distance":0},{"name":"Pacific Sunwear","code":null,"latitude":33.7043,"longitude":-78.90009,"address":"2000 COASTAL GRAND CIRCLE, MYRTLE BEACH SC","chain_name":null,"distance":0},{"name":"PACIFIC SUN","code":null,"latitude":25.64647,"longitude":-80.33795,"address":"8888 SW 136TH ST #570, MIAMI FL","chain_name":null,"distance":0},{"name":"PACIFIC SUN","code":null,"latitude":33.94089,"longitude":-83.46667,"address":"3700 ATLANTA HIGHWAY, ATHENS GA","chain_name":null,"distance":0},{"name":"Pacific Sunwear","code":null,"latitude":32.62498,"longitude":-85.44603,"address":"1627 OPELIKA RD SUITE 112, AUBURN AL","chain_name":null,"distance":0},{"name":"Pacific Sunwear","code":null,"latitude":39.73484,"longitude":-105.15959,"address":"14500 WEST COLFAX AVE. #435, LAKWOOD CO","chain_name":null,"distance":0},{"name":"PACIFIC SUN","code":null,"latitude":40.76823,"longitude":-111.90393,"address":"66 SOUTH RIO GRANDE ST., SALT LAKE CITY UT","chain_name":null,"distance":0},{"name":"Pacific Sunwear","code":null,"latitude":45.05878,"longitude":-93.31649,"address":"1108 BROOKDALE CENTER SPACE #20C, BROOKLYN CENTER MN","chain_name":null,"distance":0},{"name":"PACIFIC SUN","code":null,"latitude":29.42283,"longitude":-98.48386,"address":"849 E. COMMERCE STREET, SAN ANTONIO TX","chain_name":null,"distance":0},{"name":"Pacific Sunwear","code":null,"latitude":34.04054,"longitude":-118.42764,"address":"10800 WEST PICO BLVD., W. LOS ANGELES CA","chain_name":null,"distance":0},{"name":"PACIFIC SUN","code":null,"latitude":42.33895,"longitude":-83.38498,"address":"35000 WEST WARREN ROAD, WESTLAND MI","chain_name":null,"distance":0},{"name":"Pacific Sunwear","code":null,"latitude":38.41817,"longitude":-104.56775,"address":"3253 DILLON DRIVE SPACE #H20-21, PUEBLO CO","chain_name":null,"distance":0},{"name":"PACIFIC SUN","code":null,"latitude":34.07001,"longitude":-117.92787,"address":"376 PLAZA DRIVE, WEST COVINA CA","chain_name":null,"distance":0},{"name":"PACIFIC SUN","code":null,"latitude":33.3866,"longitude":-86.99433,"address":"5400 KATIE'S WAY, BESSEMER AL","chain_name":null,"distance":0},{"name":"Pacific Sunwear","code":null,"latitude":32.18121,"longitude":-80.7236,"address":"24 SHELTER COVE LANE B7, HILTON HEAD SC","chain_name":null,"distance":0},{"name":"Pacific Sunwear","code":null,"latitude":40.54627,"longitude":-80.0061,"address":"1000 ROSS PARK MALL DRIVE, PITTSBURGH PA","chain_name":null,"distance":0},{"name":"PACIFIC SUN","code":null,"latitude":41.18145,"longitude":-80.06458,"address":"INTERSECTION I-79 %26 ROUTE 208, GROVE CITY PA","chain_name":null,"distance":0},{"name":"Pacific Sunwear","code":null,"latitude":45.50551,"longitude":-122.44109,"address":"1151 NW CIVIC DRIVE SUITE A, GRESHAM OR","chain_name":null,"distance":0},{"name":"Pacific Sunwear","code":null,"latitude":34.26257,"longitude":-118.77098,"address":"1555 SIMI TOWN CENTER WAY #240, SIMI VALLEY CA","chain_name":null,"distance":0},{"name":"Pacific Sunwear","code":null,"latitude":41.24174,"longitude":-76.83191,"address":"300 LYCOMING MALL CIRCLE, PENNSDALE PA","chain_name":null,"distance":0},{"name":"PACIFIC SUN","code":null,"latitude":38.57961,"longitude":-121.50038,"address":"545 DOWNTOWN PLAZA, SACRAMENTO CA","chain_name":null,"distance":0},{"name":"Pacific Sunwear","code":null,"latitude":27.96109,"longitude":-82.5239,"address":"2223 N. WESTSHORE BLVD, TAMPA FL","chain_name":null,"distance":0},{"name":"Pacific Sunwear","code":null,"latitude":39.21533,"longitude":-76.85772,"address":"10300 LITTLE PATUXENT PARKWAY, COLUMBIA MD","chain_name":null,"distance":0},{"name":"PACIFIC SUN","code":null,"latitude":38.77217,"longitude":-77.17584,"address":"6648 SPRINGFIELD MALL, SPRINGFIELD VA","chain_name":null,"distance":0},{"name":"PACIFIC SUN","code":null,"latitude":44.70395,"longitude":-73.49612,"address":"60 SMITHFIELD BLVD, PLATTSBURGH NY","chain_name":null,"distance":0},{"name":"PACIFIC SUN","code":null,"latitude":35.15123,"longitude":-80.82847,"address":"4400 SHARON ROAD, CHARLOTTE NC","chain_name":null,"distance":0},{"name":"PACIFIC SUN","code":null,"latitude":39.24641,"longitude":-84.59595,"address":"9627 COLERAIN AVENUE, CINCINNATI OH","chain_name":null,"distance":0},{"name":"Pacific Sunwear","code":null,"latitude":39.92987,"longitude":-105.13097,"address":"1 WEST FLATIRON CIRCLE, BROOMFIELD CO","chain_name":null,"distance":0},{"name":"PACIFIC SUN","code":null,"latitude":40.20081,"longitude":-75.67898,"address":"ROUTES 724 %26 100, POTTSTOWN PA","chain_name":null,"distance":0},{"name":"Pacific Sunwear","code":null,"latitude":36.12772,"longitude":-115.16792,"address":"3200 LAS VEGAS BLVD SOUTH #205B, LAS VEGAS NV","chain_name":null,"distance":0},{"name":"PACIFIC SUN","code":null,"latitude":25.68876,"longitude":-80.31237,"address":"7349 SW 88TH STREET., MIAMI FL","chain_name":null,"distance":0},{"name":"Pacific Sunwear","code":null,"latitude":42.92431,"longitude":-76.58632,"address":"1579 CLARK STREET ROAD SPACE B8, AUBURN NY","chain_name":null,"distance":0},{"name":"Pacific Sunwear","code":null,"latitude":38.6196,"longitude":-76.92574,"address":"11110 MALL CIRCLE, WALDORF MD","chain_name":null,"distance":0},{"name":"PACIFIC SUN","code":null,"latitude":40.97661,"longitude":-75.17008,"address":"454 ROUTE 611, STROUDSBURG PA","chain_name":null,"distance":0},{"name":"PACIFIC SUN","code":null,"latitude":31.42803,"longitude":-100.49464,"address":"4001 SUNSET DRIVE SUITE 1196, SAN ANGELO TX","chain_name":null,"distance":0},{"name":"PACIFIC SUN","code":null,"latitude":41.87021,"longitude":-71.52186,"address":"371 PUTNAM PIKE, SMITHFIELD RI","chain_name":null,"distance":0},{"name":"Pacific Sunwear","code":null,"latitude":38.71794,"longitude":-75.11298,"address":"220 OCEAN OUTLETS, REHOBOTH BEACH DE","chain_name":null,"distance":0},{"name":"Pacific Sunwear","code":null,"latitude":47.4483,"longitude":-122.26252,"address":"17340 SOUTHCENTER PARKWAY, TUKWILA WA","chain_name":null,"distance":0},{"name":"Pacific Sunwear","code":null,"latitude":33.06889,"longitude":-117.06762,"address":"200 E. VIA RANCHO PARKWAY SP#411, ESCONDIDO CA","chain_name":null,"distance":0},{"name":"Pacific Sunwear","code":null,"latitude":40.45168,"longitude":-80.15779,"address":"100 ROBINSON CENTER DRIVE, PITTSBURGH PA","chain_name":null,"distance":0},{"name":"Pacific Sunwear","code":null,"latitude":40.47299,"longitude":-86.10789,"address":"1229 S. REED ROAD, KOKOMO IN","chain_name":null,"distance":0},{"name":"Pacific Sunwear","code":null,"latitude":33.84469,"longitude":-117.49628,"address":"3383 GRAND OAKS UNIT 101, CORONA CA","chain_name":null,"distance":0},{"name":"Pacific Sunwear","code":null,"latitude":32.38193,"longitude":-86.20687,"address":"1061 EASTDALE MALL, MONTGOMERY AL","chain_name":null,"distance":0},{"name":"Pacific Sunwear","code":null,"latitude":25.78709,"longitude":-80.36859,"address":"1455 N.W. 107TH AVENUE, MIAMI FL","chain_name":null,"distance":0},{"name":"Pacific Sunwear","code":null,"latitude":37.2988,"longitude":-89.57418,"address":"261 WEST PARK MALL, CAPE GIRARDEAU MO","chain_name":null,"distance":0},{"name":"Pacific Sunwear","code":null,"latitude":42.46445,"longitude":-92.32029,"address":"2060 CROSSROADS BLVD. SUITE 218, WATERLOO IA","chain_name":null,"distance":0},{"name":"Pacific Sunwear","code":null,"latitude":42.56139,"longitude":-83.18402,"address":"2800 W. BIG BEAVER RD., TROY MI","chain_name":null,"distance":0},{"name":"PACIFIC SUN","code":null,"latitude":34.84981,"longitude":-82.33766,"address":"700 HAYWOOD ROAD, GREENVILLE SC","chain_name":null,"distance":0},{"name":"PACIFIC SUN","code":null,"latitude":40.96761,"longitude":-74.48511,"address":"RTE 80 %26 MT. HOPE AVE., ROCKAWAY NJ","chain_name":null,"distance":0},{"name":"Pacific Sunwear","code":null,"latitude":40.17889,"longitude":-74.87965,"address":"2300 E. LINCOLN HIGHWAY, LANGHORNE PA","chain_name":null,"distance":0},{"name":"Pacific Sunwear","code":null,"latitude":40.17177,"longitude":-105.09304,"address":"1250 HOVER ROAD SPACE #21, LONGMONT CO","chain_name":null,"distance":0},{"name":"Pacific Sunwear","code":null,"latitude":39.84844,"longitude":-75.00192,"address":"2 ECHELON MALL, VOORHEES NJ","chain_name":null,"distance":0},{"name":"Pacific Sunwear","code":null,"latitude":41.75985,"longitude":-88.20805,"address":"2430 FOX VALLEY CENTER, AURORA IL","chain_name":null,"distance":0},{"name":"PACIFIC SUN","code":null,"latitude":39.98873,"longitude":-82.02299,"address":"3575 MAPLE AVENUE #1148, ZANESVILLE OH","chain_name":null,"distance":0},{"name":"Pacific Sunwear","code":null,"latitude":40.80157,"longitude":-124.17492,"address":"3300 BROADWAY #421, EUREKA CA","chain_name":null,"distance":0},{"name":"Pacific Sunwear","code":null,"latitude":45.43657,"longitude":-122.57905,"address":"12000 SE 82ND AVE., PORTLAND OR","chain_name":null,"distance":0},{"name":"PACIFIC SUN","code":null,"latitude":33.8318,"longitude":-118.09361,"address":"7581 CARSON BLVD., LONG BEACH CA","chain_name":null,"distance":0},{"name":"Pacific Sunwear","code":null,"latitude":47.80829,"longitude":-122.28025,"address":"3000 184TH STREET SW SPACE #348, LYNNWOOD WA","chain_name":null,"distance":0},{"name":"PACIFIC SUN","code":null,"latitude":39.15482,"longitude":-76.72256,"address":"7000 ARUNDEL MILLS CIRCLE, HANOVER MD","chain_name":null,"distance":0},{"name":"Pacific Sunwear","code":null,"latitude":33.57315,"longitude":-84.35397,"address":"1109 SOUTHLAKE MALL, MORROW GA","chain_name":null,"distance":0},{"name":"Pacific Sunwear","code":null,"latitude":42.24243,"longitude":-83.74461,"address":"348 BRIARWOOD CIRCLE, ANN ARBOR MI","chain_name":null,"distance":0},{"name":"PACIFIC SUN","code":null,"latitude":33.02772,"longitude":-96.83127,"address":"6121 WEST PARK BLVD, PLANO TX","chain_name":null,"distance":0},{"name":"Pacific Sunwear","code":null,"latitude":29.80347,"longitude":-94.98699,"address":"1496 SAN JACINTO MALL, BAYTOWN TX","chain_name":null,"distance":0},{"name":"Pacific Sunwear","code":null,"latitude":35.58456,"longitude":-82.5262,"address":"3 SOUTH TUNNEL ROAD, ASHEVILLE NC","chain_name":null,"distance":0},{"name":"PACIFIC SUN","code":null,"latitude":27.23368,"longitude":-82.49747,"address":"8201 TAMIAMI TRAIL, SARASOTA FL","chain_name":null,"distance":0},{"name":"Pacific Sunwear","code":null,"latitude":40.83251,"longitude":-77.79887,"address":"2900 EAST COLLEGE AVENUE, STATE COLLEGE PA","chain_name":null,"distance":0},{"name":"Pacific Sunwear","code":null,"latitude":26.3635,"longitude":-80.13298,"address":"256 TOWN CENTER SPACE #1036, BOCA RATON FL","chain_name":null,"distance":0},{"name":"Pacific Sunwear","code":null,"latitude":37.16453,"longitude":-93.26275,"address":"2825 S. GLENSTONE SPACE #R-05, SPRINGFIELD MO","chain_name":null,"distance":0},{"name":"PACIFIC SUN","code":null,"latitude":42.47249,"longitude":-71.02207,"address":"ROUTE 1 SOUTH, SAUGUS MA","chain_name":null,"distance":0},{"name":"PACIFIC SUN","code":null,"latitude":39.37487,"longitude":-76.4728,"address":"8200 PERRY HALL BLVD., BALTIMORE MD","chain_name":null,"distance":0},{"name":"PACIFIC SUN","code":null,"latitude":36.84112,"longitude":-76.15718,"address":"4582 PEMBROKE MALL, VIRGINIA BEACH VA","chain_name":null,"distance":0},{"name":"PACIFIC SUN","code":null,"latitude":41.55188,"longitude":-73.03525,"address":"495 UNION ST. SUITE #2180, WATERBURY CT","chain_name":null,"distance":0},{"name":"Pacific Sunwear","code":null,"latitude":29.72962,"longitude":-95.64841,"address":"1000 WEST OAKS MALL, HOUSTON TX","chain_name":null,"distance":0},{"name":"Pacific Sunwear","code":null,"latitude":35.77155,"longitude":-78.76318,"address":"1105 WALNUT STREET, RALEIGH NC","chain_name":null,"distance":0},{"name":"PACIFIC SUN","code":null,"latitude":40.06789,"longitude":-76.33939,"address":"735 PARK CITY CENTER, LANCASTER PA","chain_name":null,"distance":0},{"name":"PACIFIC SUN","code":null,"latitude":39.47716,"longitude":-77.94059,"address":"800 FOXCROFT AVE. SPACE 205, MARTINSBURG WV","chain_name":null,"distance":0},{"name":"Pacific Sunwear","code":null,"latitude":39.63666,"longitude":-84.219,"address":"2700 MIAMISBURG-CENTERVILLE RD, DAYTON OH","chain_name":null,"distance":0},{"name":"Pacific Sunwear","code":null,"latitude":44.10477,"longitude":-103.21146,"address":"2200 NORTH MAPLE AVENUE, RAPID CITY SD","chain_name":null,"distance":0},{"name":"Pacific Sunwear","code":null,"latitude":40.34267,"longitude":-80.05947,"address":"2035 SOUTH HILLS VILLAGE, PITTSBURGH PA","chain_name":null,"distance":0},{"name":"Pacific Sunwear","code":null,"latitude":42.53425,"longitude":-82.91275,"address":"32277 GRATIOT AVE, ROSEVILLE MI","chain_name":null,"distance":0},{"name":"Pacific Sunwear","code":null,"latitude":39.73198,"longitude":-82.62447,"address":"1635 RIVER VALLEY CENTER, LANCASTER OH","chain_name":null,"distance":0},{"name":"Pacific Sunwear","code":null,"latitude":40.4067,"longitude":-79.91691,"address":"235 WEST BRIDGE STREET, HOMESTEAD PA","chain_name":null,"distance":0},{"name":"PACIFIC SUN","code":null,"latitude":28.46671,"longitude":-81.45029,"address":"5250 INERNATIONAL DRIVE G22, ORLANDO FL","chain_name":null,"distance":0},{"name":"Pacific Sunwear","code":null,"latitude":32.93057,"longitude":-96.82104,"address":"13350 DALLAS PKWY. SUITE 3370, DALLAS TX","chain_name":null,"distance":0},{"name":"PACIFIC SUN","code":null,"latitude":46.86159,"longitude":-96.79499,"address":"3902 13TH AVENUE SOUTH, FARGO ND","chain_name":null,"distance":0},{"name":"Pacific Sunwear","code":null,"latitude":40.74025,"longitude":-96.67938,"address":"2910 PINE LAKE ROAD, LINCOLN NE","chain_name":null,"distance":0},{"name":"Pacific Sunwear","code":null,"latitude":41.26444,"longitude":-96.06698,"address":"10000 CALIFORNIA STREET, OMAHA NE","chain_name":null,"distance":0},{"name":"PACIFIC SUN","code":null,"latitude":34.97918,"longitude":-90.00138,"address":"6520 TOWNE CENTER LOOP #810, SOUTHAVEN MS","chain_name":null,"distance":0},{"name":"PACIFIC SUN","code":null,"latitude":42.3579,"longitude":-72.5506,"address":"367 RUSSELL STREET SUITE H04, HADLEY MA","chain_name":null,"distance":0},{"name":"PACIFIC SUN","code":null,"latitude":40.25773,"longitude":-74.29119,"address":"3710 ROUTE 9, FREEHOLD NJ","chain_name":null,"distance":0},{"name":"PACIFIC SUN","code":null,"latitude":30.32173,"longitude":-81.55119,"address":"9501 ARLINGTON EXPRESSWAY, JACKSONVILLE FL","chain_name":null,"distance":0},{"name":"PACIFIC SUN","code":null,"latitude":37.67362,"longitude":-97.39558,"address":"4600 W. KELLOGG, WICHITA KS","chain_name":null,"distance":0},{"name":"Pacific Sunwear","code":null,"latitude":42.09853,"longitude":-79.30554,"address":"318 E. FAIRMOUNT AVE, LAKEWOOD NY","chain_name":null,"distance":0},{"name":"PACIFIC SUN","code":null,"latitude":43.18583,"longitude":-76.22235,"address":"4155 ROUTE 31, CLAY NY","chain_name":null,"distance":0},{"name":"PACIFIC SUN","code":null,"latitude":33.72977,"longitude":-84.7478,"address":"6700 DOUGLAS BOULEVARD, DOUGLASVILLE GA","chain_name":null,"distance":0},{"name":"Pacific Sunwear","code":null,"latitude":39.04741,"longitude":-94.35712,"address":"1012 INDEPENDENCE CENTER DR., INDEPENDENCE MO","chain_name":null,"distance":0},{"name":"PACIFIC SUN","code":null,"latitude":41.32645,"longitude":-73.80708,"address":"650 LEE BLVD., YORKTOWN HEIGHTS NY","chain_name":null,"distance":0},{"name":"Pacific Sunwear","code":null,"latitude":42.24738,"longitude":-84.43551,"address":"1850 W. MICHIGAN AVENUE, JACKSON MI","chain_name":null,"distance":0},{"name":"PACIFIC SUN","code":null,"latitude":42.84418,"longitude":-106.26677,"address":"601 SE WYOMING BL SUITE 266, CASPER WY","chain_name":null,"distance":0},{"name":"PACIFIC SUN","code":null,"latitude":40.66915,"longitude":-80.31589,"address":"380 BEAVER VALLEY MALL, MONACA PA","chain_name":null,"distance":0},{"name":"PACIFIC SUN","code":null,"latitude":35.84138,"longitude":-78.67855,"address":"4325 GLENWOOD AVENUE, RALEIGH NC","chain_name":null,"distance":0},{"name":"PACIFIC SUN","code":null,"latitude":28.22226,"longitude":-81.97085,"address":"3800 U.S. HIGHWAY 98 NORTH, LAKELAND FL","chain_name":null,"distance":0},{"name":"Pacific Sunwear","code":null,"latitude":44.1699,"longitude":-93.95268,"address":"1850 ADAMS STREET, MANKATO MN","chain_name":null,"distance":0},{"name":"PACIFIC SUN","code":null,"latitude":44.87569,"longitude":-68.82841,"address":"663 STILLWATER AVENUE SPACE #G-10, BANGOR ME","chain_name":null,"distance":0},{"name":"Pacific Sunwear","code":null,"latitude":39.82824,"longitude":-75.0986,"address":"1750 DEPTFORD CENTER ROAD, DEPTFORD NJ","chain_name":null,"distance":0},{"name":"Pacific Sunwear","code":null,"latitude":34.93886,"longitude":-81.99121,"address":"205 W. BLACKSTOCK RD., SPARTANBURG SC","chain_name":null,"distance":0},{"name":"PACIFIC SUN","code":null,"latitude":41.69976,"longitude":-87.77411,"address":"410 CHICAGO RIDGE MALL DRIVE, CHICAGO RIDGE IL","chain_name":null,"distance":0},{"name":"PACIFIC SUN","code":null,"latitude":36.765,"longitude":-108.15204,"address":"4601 EAST MAIN STREET #870, FARMINGTON NM","chain_name":null,"distance":0},{"name":"PACIFIC SUN","code":null,"latitude":39.60973,"longitude":-105.09321,"address":"8501 W. BOWLES AVE., LITTLETON CO","chain_name":null,"distance":0},{"name":"Pacific Sunwear","code":null,"latitude":34.41318,"longitude":-118.55745,"address":"24201 VALENCIA BLVD., VALENCIA CA","chain_name":null,"distance":0},{"name":"PACIFIC SUN","code":null,"latitude":47.04193,"longitude":-122.92914,"address":"625 BLACK LAKE BLVD., OLYMPIA WA","chain_name":null,"distance":0},{"name":"Pacific Sunwear","code":null,"latitude":39.0342,"longitude":-95.76203,"address":"1801 SW WANAMAKER RD, TOPEKA KS","chain_name":null,"distance":0},{"name":"Pacific Sunwear","code":null,"latitude":48.08831,"longitude":-122.18572,"address":"10600 QUIL CEDA BLVD. #656, TULALIP WA","chain_name":null,"distance":0},{"name":"Pacific Sunwear","code":null,"latitude":36.04762,"longitude":-83.81921,"address":"3001 KNOXVILLE CENTER DRIVE, KNOXVILLE TN","chain_name":null,"distance":0},{"name":"Pacific Sunwear","code":null,"latitude":39.67651,"longitude":-75.65,"address":"139 CHRISTIANA MALL, NEWARK DE","chain_name":null,"distance":0},{"name":"PACIFIC SUN","code":null,"latitude":42.55891,"longitude":-83.11798,"address":"412 W. FOURTEEN MILE RD., TROY MI","chain_name":null,"distance":0},{"name":"Pacific Sunwear","code":null,"latitude":40.02967,"longitude":-75.62445,"address":"294 EXTON SQUARE PARKWAY, EXTON PA","chain_name":null,"distance":0},{"name":"PACIFIC SUN","code":null,"latitude":42.69739,"longitude":-87.84853,"address":"5678 DURAND AVENUE, RACINE WI","chain_name":null,"distance":0},{"name":"Pacific Sunwear","code":null,"latitude":35.13697,"longitude":-120.62931,"address":"333 FIVE CITIES DRIVE, PISMO BEACH CA","chain_name":null,"distance":0},{"name":"Pacific Sunwear","code":null,"latitude":34.08861,"longitude":-117.69387,"address":"2027 MONTCLAIR PLAZA LANE, MONTCLAIR CA","chain_name":null,"distance":0},{"name":"PACIFIC SUN","code":null,"latitude":27.92917,"longitude":-82.3232,"address":"551 BRANDON TOWN CENTER, BRANDON FL","chain_name":null,"distance":0},{"name":"PACIFIC SUN","code":null,"latitude":39.25036,"longitude":-94.67174,"address":"7221 NORTH WEST 86 TERR, KANSAS CITY MO","chain_name":null,"distance":0},{"name":"Pacific Sunwear","code":null,"latitude":40.16375,"longitude":-80.27537,"address":"1500 W. CHESTNUT STREET, WASHINGTON PA","chain_name":null,"distance":0},{"name":"PACIFIC SUN","code":null,"latitude":41.11394,"longitude":-85.13513,"address":"4201 COLDWATER ROAD, FT. WAYNE IN","chain_name":null,"distance":0},{"name":"Pacific Sunwear","code":null,"latitude":39.6342,"longitude":-86.12578,"address":"1251 US 31 NORTH, GREENWOOD IN","chain_name":null,"distance":0},{"name":"PACIFIC SUN","code":null,"latitude":31.51457,"longitude":-97.18654,"address":"6001 WEST WACO DRIVE, WACO TX","chain_name":null,"distance":0},{"name":"PACIFIC SUN","code":null,"latitude":40.07638,"longitude":-83.12998,"address":"5043 TUTTLE CROSSING BLVD., DUBLIN OH","chain_name":null,"distance":0},{"name":"PACIFIC SUN","code":null,"latitude":38.25012,"longitude":-85.62353,"address":"5000 SHELBYVILLE ROAD #1580, LOUISVILLE KY","chain_name":null,"distance":0},{"name":"Pacific Sunwear","code":null,"latitude":29.35659,"longitude":-98.53125,"address":"2310 SW MILITARY DRIVE, SAN ANTONIO TX","chain_name":null,"distance":0},{"name":"Pacific Sunwear","code":null,"latitude":37.41228,"longitude":-121.89625,"address":"122 GREAT MALL DRIVE, MILPITAS CA","chain_name":null,"distance":0},{"name":"Pacific Sunwear","code":null,"latitude":26.13769,"longitude":-80.11527,"address":"2376 E. SUNRISE BLVD., FORT LAUDERDALE FL","chain_name":null,"distance":0},{"name":"Pacific Sunwear","code":null,"latitude":26.09486,"longitude":-80.2511,"address":"2150 S. UNIVERSITY DRIVE, DAVIE FL","chain_name":null,"distance":0},{"name":"Pacific Sunwear","code":null,"latitude":47.67587,"longitude":-117.20608,"address":"14700 EAST INDIANA, SPOKANE WA","chain_name":null,"distance":0},{"name":"PACIFIC SUN","code":null,"latitude":33.12996,"longitude":-96.66155,"address":"820 W. STACY RD., ALLEN TX","chain_name":null,"distance":0},{"name":"PACIFIC SUN","code":null,"latitude":33.57407,"longitude":-112.12466,"address":"9665-A METRO PARKWAY WEST, PHOENIX AZ","chain_name":null,"distance":0},{"name":"Pacific Sunwear","code":null,"latitude":28.55343,"longitude":-81.34165,"address":"3419 EAST COLONIAL DRIVE, ORLANDO FL","chain_name":null,"distance":0},{"name":"PACIFIC SUN","code":null,"latitude":37.25598,"longitude":-77.39535,"address":"56 SOUTHPARK CIRCLE, COLONIAL HEIGHTS VA","chain_name":null,"distance":0},{"name":"PACIFIC SUN","code":null,"latitude":42.74103,"longitude":-84.63187,"address":"5790 W. SAGINAW HIGHWAY, LANSING MI","chain_name":null,"distance":0},{"name":"Pacific Sunwear","code":null,"latitude":32.65571,"longitude":-117.06801,"address":"3030 PLAZA BONITA ROAD SUITE 2072, NATIONAL CITY CA","chain_name":null,"distance":0},{"name":"Pacific Sunwear","code":null,"latitude":33.78995,"longitude":-117.87704,"address":"20 CITY BLVD. WEST SPACE 203, ORANGE CA","chain_name":null,"distance":0},{"name":"PACIFIC SUN","code":null,"latitude":29.7712,"longitude":-95.80891,"address":"5000 KATY MILLS CIRCLE, KATY TX","chain_name":null,"distance":0},{"name":"Pacific Sunwear","code":null,"latitude":42.10034,"longitude":-88.29592,"address":"1326 SPRING HILL MALL, WEST DUNDEE IL","chain_name":null,"distance":0},{"name":"Pacific Sunwear","code":null,"latitude":35.0784,"longitude":-80.87863,"address":"11025 CAROLINA PLACE PKWY. SPACE #A24, PINEVILLE NC","chain_name":null,"distance":0},{"name":"Pacific Sunwear","code":null,"latitude":42.22058,"longitude":-71.02809,"address":"250 GRANITE STREET, BRAINTREE MA","chain_name":null,"distance":0},{"name":"Pacific Sunwear","code":null,"latitude":42.75206,"longitude":-71.46128,"address":"310 DANIEL WEBSTER HWY, SO. NASHUA NH","chain_name":null,"distance":0},{"name":"Pacific Sunwear","code":null,"latitude":39.76196,"longitude":-84.06184,"address":"2727 FAIRFIELD COMMONS, BEAVERCREEK OH","chain_name":null,"distance":0},{"name":"PACIFIC SUN","code":null,"latitude":43.24589,"longitude":-83.77521,"address":"8901 MARKETPLACE DRIVE, BIRCH RUN MI","chain_name":null,"distance":0},{"name":"Pacific Sunwear","code":null,"latitude":39.3058,"longitude":-80.2743,"address":"2660 MEADOWBROOK ROAD SUITE #660, BRIDGEPORT WV","chain_name":null,"distance":0},{"name":"Pacific Sunwear","code":null,"latitude":30.18833,"longitude":-81.49857,"address":"10300 SOUTHSIDE BLVD. SPACE #2230, JACKSONVILLE FL","chain_name":null,"distance":0},{"name":"Pacific Sunwear","code":null,"latitude":33.77666,"longitude":-117.86742,"address":"2800 N. MAIN STREET, SANTA ANA CA","chain_name":null,"distance":0},{"name":"Pacific Sunwear","code":null,"latitude":27.24197,"longitude":-80.2487,"address":"3174 N. WEST FEDERAL HWY., JENSEN BEACH FL","chain_name":null,"distance":0},{"name":"PACIFIC SUN","code":null,"latitude":41.95031,"longitude":-88.11218,"address":"901 STRATFORD SQUARE, BLOOMINGDALE IL","chain_name":null,"distance":0},{"name":"PACIFIC SUN","code":null,"latitude":40.52016,"longitude":-78.36639,"address":"ROUTE 220 %26 GOODS LANE, ALTOONA PA","chain_name":null,"distance":0},{"name":"PACIFIC SUN","code":null,"latitude":36.82019,"longitude":-76.06714,"address":"701 LYNNHAVEN PARKWAY, VIRGINIA BEACH VA","chain_name":null,"distance":0},{"name":"PACIFIC SUN","code":null,"latitude":36.20597,"longitude":-86.69661,"address":"432 OPRY MILLS DRIVE, NASHVILLE TN","chain_name":null,"distance":0},{"name":"PACIFIC SUN","code":null,"latitude":35.58785,"longitude":-77.36895,"address":"714 SE GREENVILLE BLVD, GREENVILLE NC","chain_name":null,"distance":0},{"name":"Pacific Sunwear","code":null,"latitude":33.93715,"longitude":-118.1229,"address":"251 STONEWOOD STREET, DOWNEY CA","chain_name":null,"distance":0},{"name":"Pacific Sunwear","code":null,"latitude":30.37694,"longitude":-86.3491,"address":"10406 EMERALD COAST PKWY WEST, DESTIN FL","chain_name":null,"distance":0},{"name":"PACIFIC SUN","code":null,"latitude":42.78405,"longitude":-78.81098,"address":"3701 MCKINLEY PARKWAY, BUFFALO NY","chain_name":null,"distance":0},{"name":"PACIFIC SUN","code":null,"latitude":42.42411,"longitude":-76.5298,"address":"40 CATHERWOOD ROAD F-21, ITHACA NY","chain_name":null,"distance":0},{"name":"PACIFIC SUN","code":null,"latitude":42.49314,"longitude":-90.71508,"address":"555 JOHN F. KENNEDY RD, DUBUQUE IA","chain_name":null,"distance":0},{"name":"PACIFIC SUN","code":null,"latitude":34.21291,"longitude":-118.6996,"address":"6735 1%2f2 FALLBROOK AVE, WEST HILLS CA","chain_name":null,"distance":0},{"name":"Pacific Sunwear","code":null,"latitude":40.30168,"longitude":-111.67624,"address":"1229 S. STATE E-85, OREM UT","chain_name":null,"distance":0},{"name":"Pacific Sunwear","code":null,"latitude":26.02151,"longitude":-97.53194,"address":"2370 N. EXPRESSWAY, BROWNSVILLE TX","chain_name":null,"distance":0},{"name":"PACIFIC SUN","code":null,"latitude":40.82799,"longitude":-76.88514,"address":"RTS 11 %26 15, SELINSGROVE PA","chain_name":null,"distance":0},{"name":"PACIFIC SUN","code":null,"latitude":34.45111,"longitude":-93.0781,"address":"4501 CENTRAL AVENUE, HOT SPRINGS AR","chain_name":null,"distance":0},{"name":"Pacific Sunwear","code":null,"latitude":42.86042,"longitude":-73.78077,"address":"22 CLIFTON COUNTY RD, CLIFTON PARK NY","chain_name":null,"distance":0},{"name":"Pacific Sunwear","code":null,"latitude":44.72368,"longitude":-85.63603,"address":"3200 S. AIRPORT RD. WEST, TRAVERSE CITY MI","chain_name":null,"distance":0},{"name":"Pacific Sunwear","code":null,"latitude":46.80664,"longitude":-92.1609,"address":"1600 MILLER TRUNK HWY., DULUTH MN","chain_name":null,"distance":0},{"name":"PACIFIC SUN","code":null,"latitude":40.35065,"longitude":-79.52151,"address":"ROUTE 30 EAST, GREENSBURG PA","chain_name":null,"distance":0},{"name":"Pacific Sunwear","code":null,"latitude":32.93356,"longitude":-96.78862,"address":"13331 PRESTON ROAD SPACE #1020, DALLAS TX","chain_name":null,"distance":0},{"name":"Pacific Sunwear","code":null,"latitude":39.9143,"longitude":-75.43078,"address":"1067 W. BALTIMORE PIKE, MEDIA PA","chain_name":null,"distance":0},{"name":"Pacific Sunwear","code":null,"latitude":38.33688,"longitude":-75.10768,"address":"12741 OCEAN GATEWAY, OCEAN CITY MD","chain_name":null,"distance":0},{"name":"PACIFIC SUN","code":null,"latitude":35.10908,"longitude":-106.57089,"address":"6600 MENAUL BLVD NE, ALBUQUERQUE NM","chain_name":null,"distance":0},{"name":"Pacific Sunwear","code":null,"latitude":45.67226,"longitude":-111.07506,"address":"2825 WEST MAIN, BOZEMAN MT","chain_name":null,"distance":0},{"name":"PACIFIC SUN","code":null,"latitude":45.12819,"longitude":-93.25935,"address":"398 NORTHTOWN DRIVE D23, BLAINE MN","chain_name":null,"distance":0},{"name":"PACIFIC SUN","code":null,"latitude":29.78423,"longitude":-95.46489,"address":"7620 KATY FWY, HOUSTON TX","chain_name":null,"distance":0},{"name":"PACIFIC SUN","code":null,"latitude":40.62368,"longitude":-79.7979,"address":"590 PITTSBURGH MILLS CIRCLE SPACE 412, TARENTUM PA","chain_name":null,"distance":0},{"name":"PACIFIC SUN","code":null,"latitude":40.42824,"longitude":-79.75374,"address":"MONROEVILLE MALL, MONROEVILLE PA","chain_name":null,"distance":0},{"name":"Pacific Sunwear","code":null,"latitude":34.14604,"longitude":-118.25499,"address":"110 SOUTH BRAND BLVD., GLENDALE CA","chain_name":null,"distance":0},{"name":"Pacific Sunwear","code":null,"latitude":47.29642,"longitude":-122.24517,"address":"1101 SUPERMALL WAY, AUBURN WA","chain_name":null,"distance":0},{"name":"PACIFIC SUN","code":null,"latitude":36.71674,"longitude":-121.65591,"address":"560 NORTHRIDGE MALL, SALINAS CA","chain_name":null,"distance":0},{"name":"Pacific Sunwear","code":null,"latitude":30.47323,"longitude":-97.7985,"address":"11200 LAKELINE MALL DRIVE, CEDAR PARK TX","chain_name":null,"distance":0},{"name":"Pacific Sunwear","code":null,"latitude":44.06659,"longitude":-123.10725,"address":"293 VALLEY RIVER CENTER M2, EUGENE OR","chain_name":null,"distance":0},{"name":"PACIFIC SUN","code":null,"latitude":39.85639,"longitude":-105.0581,"address":"5423 WEST 88TH AVENUE, WESTMINSTER CO","chain_name":null,"distance":0},{"name":"PACIFIC SUN","code":null,"latitude":40.58636,"longitude":-122.35711,"address":"900 DANA DR, REDDING CA","chain_name":null,"distance":0},{"name":"Pacific Sunwear","code":null,"latitude":33.79054,"longitude":-78.76508,"address":"10177 NORTH KINGS HIGHWAY, MYRTLE BEACH SC","chain_name":null,"distance":0},{"name":"Pacific Sunwear","code":null,"latitude":33.61214,"longitude":-117.70958,"address":"24155 LAGUNA HILLS MALL, LAGUNA HILLS CA","chain_name":null,"distance":0},{"name":"Pacific Sunwear","code":null,"latitude":38.15038,"longitude":-122.79541,"address":"2200 PETALUMA BLVD. NORTH SPACE 420, PETALUMA CA","chain_name":null,"distance":0},{"name":"Pacific Sunwear","code":null,"latitude":39.19023,"longitude":-75.54174,"address":"1365 N. DUPONT HWY, DOVER DE","chain_name":null,"distance":0},{"name":"PACIFIC SUN","code":null,"latitude":43.11942,"longitude":-70.73485,"address":"TIDEWATER OUTLETS 375 US RTE 1, KITTERY ME","chain_name":null,"distance":0},{"name":"Pacific Sunwear","code":null,"latitude":39.7849,"longitude":-106.23407,"address":"145 NORTH STEPHENS WAY A04A, SILVERTHORNE CO","chain_name":null,"distance":0},{"name":"PACIFIC SUN","code":null,"latitude":38.50512,"longitude":-90.33191,"address":"85 SOUTH COUNTY CENTERWAY, ST. LOUIS MO","chain_name":null,"distance":0},{"name":"PACIFIC SUN","code":null,"latitude":47.4607,"longitude":-122.26248,"address":"803 SOUTHCENTER, TUKWILA WA","chain_name":null,"distance":0},{"name":"PACIFIC SUN","code":null,"latitude":35.96587,"longitude":-115.17289,"address":"7400 LAS VEGAS BLVD SOUTH #205B, LAS VEGAS NV","chain_name":null,"distance":0},{"name":"Pacific Sunwear","code":null,"latitude":39.94372,"longitude":-83.8545,"address":"1475 UPPER VALLEY PIKE, SPRINGFIELD OH","chain_name":null,"distance":0},{"name":"PACIFIC SUN","code":null,"latitude":32.93605,"longitude":-96.61971,"address":"435 CEDAR SAGE DR. SPACE J03, GARLAND TX","chain_name":null,"distance":0},{"name":"PACIFIC SUN","code":null,"latitude":38.38656,"longitude":-82.27182,"address":"MALL ROAD %26 I64, BARBOURSVILLE WV","chain_name":null,"distance":0},{"name":"Pacific Sunwear","code":null,"latitude":38.96576,"longitude":-92.37531,"address":"2300 BERNADETTE DRIVE, COLUMBIA MO","chain_name":null,"distance":0},{"name":"Pacific Sunwear","code":null,"latitude":39.1256,"longitude":-94.82928,"address":"1837 VILLAGE WEST PKWY. #113, KANSAS CITY KS","chain_name":null,"distance":0},{"name":"Pacific Sunwear","code":null,"latitude":33.51027,"longitude":-81.71262,"address":"2441 WHISKEY ROAD SO. SUITE 625, AIKEN SC","chain_name":null,"distance":0},{"name":"PACIFIC SUN","code":null,"latitude":43.47722,"longitude":-83.97024,"address":"4829 FASHION SQUARE MALL, SAGINAW MI","chain_name":null,"distance":0},{"name":"PACIFIC SUN","code":null,"latitude":38.31309,"longitude":-85.76377,"address":"757 EAST HWY 131, CLARKSVILLE IN","chain_name":null,"distance":0},{"name":"PACIFIC SUN","code":null,"latitude":32.31192,"longitude":-106.74154,"address":"700 SOUTH TELSHOR BLVD., LAS CRUCES NM","chain_name":null,"distance":0},{"name":"PACIFIC SUN","code":null,"latitude":26.60249,"longitude":-81.87188,"address":"4125 CLEVELAND AVENUE, FT. MYERS FL","chain_name":null,"distance":0},{"name":"PACIFIC SUN","code":null,"latitude":43.06607,"longitude":-75.30619,"address":"ROUTES 5 %26 5 A D05, NEW HARTFORD NY","chain_name":null,"distance":0},{"name":"Pacific Sunwear","code":null,"latitude":35.52113,"longitude":-97.5299,"address":"1901 N.W. EXPRESSWAY, OKLAHOMA CITY OK","chain_name":null,"distance":0},{"name":"Pacific Sunwear","code":null,"latitude":33.85182,"longitude":-118.13394,"address":"2134 MONTEBELL TOWNE CTR, MONTEBELLO CA","chain_name":null,"distance":0},{"name":"PACIFIC SUN","code":null,"latitude":40.48372,"longitude":-81.44706,"address":"400 MILL AVE S.E. SUITE 309, NEW PHILADELPHIA OH","chain_name":null,"distance":0},{"name":"PACIFIC SUN","code":null,"latitude":26.23908,"longitude":-80.24881,"address":"9161 W. ATLANTIC BLVD., CORAL SPRINGS FL","chain_name":null,"distance":0},{"name":"PACIFIC SUN","code":null,"latitude":45.53362,"longitude":-122.65646,"address":"910 LLOYD CENTER, PORTLAND OR","chain_name":null,"distance":0},{"name":"PACIFIC SUN","code":null,"latitude":35.86659,"longitude":-78.57155,"address":"5959 TRIANGLE TOWN BLVD., RALEIGH NC","chain_name":null,"distance":0},{"name":"PACIFIC SUN","code":null,"latitude":30.39101,"longitude":-91.09129,"address":"6401 BLUEBONNET, BATON ROUGE LA","chain_name":null,"distance":0},{"name":"PACIFIC SUN","code":null,"latitude":35.05514,"longitude":-89.68727,"address":"4650 MERCHANTS PARK CIRCLE #810, COLLIERVILLE TN","chain_name":null,"distance":0},{"name":"Pacific Sunwear","code":null,"latitude":39.72725,"longitude":-121.8043,"address":"1950 EAST 20TH STREET, CHICO CA","chain_name":null,"distance":0},{"name":"PACIFIC SUN","code":null,"latitude":33.85182,"longitude":-118.13394,"address":"46 LAKEWOOD CENTER MALL, LAKEWOOD CA","chain_name":null,"distance":0},{"name":"PACIFIC SUN","code":null,"latitude":38.00364,"longitude":-121.3173,"address":"5908 PACIFIC AVE #15, STOCKTON CA","chain_name":null,"distance":0},{"name":"Pacific Sunwear","code":null,"latitude":30.30251,"longitude":-97.81779,"address":"2901 CAPITAL OF TEXAS HWY. SPACE #N-10, UPPER LEVEL, AUSTIN TX","chain_name":null,"distance":0},{"name":"PACIFIC SUN","code":null,"latitude":29.82717,"longitude":-97.98582,"address":"4015 I-35 SOUTH, SAN MARCOS TX","chain_name":null,"distance":0},{"name":"PACIFIC SUN","code":null,"latitude":27.79174,"longitude":-82.73365,"address":"6901 22ND AVENUE, ST. PETERSBURG FL","chain_name":null,"distance":0},{"name":"Pacific Sunwear","code":null,"latitude":41.22914,"longitude":-96.13842,"address":"3001 S. 144TH STREET SUITE #H1, OMAHA NE","chain_name":null,"distance":0},{"name":"PACIFIC SUN","code":null,"latitude":35.36761,"longitude":-77.95662,"address":"621-B BERKELEY BL, GOLDSBORO NC","chain_name":null,"distance":0},{"name":"Pacific Sunwear","code":null,"latitude":45.56223,"longitude":-122.95236,"address":"2270 N W ALLIE AVE, HILLSBORO OR","chain_name":null,"distance":0},{"name":"Pacific Sunwear","code":null,"latitude":34.18943,"longitude":-79.83348,"address":"2701 DAVID MCLEOD BLVD. #1230, FLORENCE SC","chain_name":null,"distance":0},{"name":"PACIFIC SUN","code":null,"latitude":47.70119,"longitude":-117.41122,"address":"4750 N. DIVISION, SPOKANE WA","chain_name":null,"distance":0},{"name":"PACIFIC SUN","code":null,"latitude":40.01601,"longitude":-76.2479,"address":"903 STANLEY K. TANGER BLVD., LANCASTER PA","chain_name":null,"distance":0},{"name":"Pacific Sunwear","code":null,"latitude":34.41879,"longitude":-119.69852,"address":"319 PASEO NUEVO, SANTA BARBARA CA","chain_name":null,"distance":0},{"name":"PACIFIC SUN","code":null,"latitude":43.06954,"longitude":-76.16964,"address":"9508 CAROUSEL CENTER, SYRACUSE NY","chain_name":null,"distance":0},{"name":"Pacific Sunwear","code":null,"latitude":38.59635,"longitude":-89.97586,"address":"134 ST. CLAIR SQUARE, FAIRVIEW HEIGHTS IL","chain_name":null,"distance":0},{"name":"Pacific Sunwear","code":null,"latitude":40.08534,"longitude":-75.39334,"address":"160 N. GULPH ROAD, KING OF PRUSSIA PA","chain_name":null,"distance":0},{"name":"PACIFIC SUN","code":null,"latitude":40.72982,"longitude":-111.54958,"address":"6699 LANDMARK DRIVE, PARK CITY UT","chain_name":null,"distance":0},{"name":"PACIFIC SUN","code":null,"latitude":37.86127,"longitude":-81.19602,"address":"5475 ROBERT C. BYRD DRIVE, MT.HOPE WV","chain_name":null,"distance":0},{"name":"Pacific Sunwear","code":null,"latitude":26.17057,"longitude":-81.79957,"address":"2010 TAMIAMI TRAIL NORTH, NAPLES FL","chain_name":null,"distance":0},{"name":"PACIFIC SUN","code":null,"latitude":39.4735,"longitude":-119.78632,"address":"5136 MEADOWOOD MALL CIRCLE, RENO NV","chain_name":null,"distance":0},{"name":"PACIFIC SUN","code":null,"latitude":43.09,"longitude":-88.76368,"address":"612 W. LINMAR LANE, JOHNSON CREEK WI","chain_name":null,"distance":0},{"name":"Pacific Sunwear","code":null,"latitude":33.37741,"longitude":-86.80617,"address":"3000 RIVERCHASE GALLERIA, BIRMINGHAM AL","chain_name":null,"distance":0},{"name":"Pacific Sunwear","code":null,"latitude":26.14456,"longitude":-80.3222,"address":"12801 W. SUNRISE BLVD, SUNRISE FL","chain_name":null,"distance":0},{"name":"PACIFIC SUN","code":null,"latitude":42.05529,"longitude":-88.05455,"address":"WOODFIELD MALL, SCHAUMBURG IL","chain_name":null,"distance":0},{"name":"Pacific Sunwear","code":null,"latitude":31.52714,"longitude":-110.26066,"address":"2200 EL MERCADO LOOP #1220, SIERRA VISTA AZ","chain_name":null,"distance":0},{"name":"PACIFIC SUN","code":null,"latitude":42.88228,"longitude":-85.75508,"address":"3700 RIVER TOWN PARKWAY, GRANDVILLE MI","chain_name":null,"distance":0},{"name":"PACIFIC SUN","code":null,"latitude":42.70316,"longitude":-83.30665,"address":"4570 BALDWIN ROAD, AUBURN HILLS MI","chain_name":null,"distance":0},{"name":"Pacific Sunwear","code":null,"latitude":35.26521,"longitude":-81.15124,"address":"246 N. NEW HOPE ROAD, GASTONIA NC","chain_name":null,"distance":0},{"name":"Pacific Sunwear","code":null,"latitude":47.72985,"longitude":-116.78909,"address":"200 W. HANLEY AVE SUITE 1409, COEUR D' ALENE ID","chain_name":null,"distance":0},{"name":"PACIFIC SUN","code":null,"latitude":42.03364,"longitude":-87.94059,"address":"999 N. ELMHURST RD. #2585, MOUNT PROSPECT IL","chain_name":null,"distance":0},{"name":"PACIFIC SUN","code":null,"latitude":30.45959,"longitude":-91.08985,"address":"9401 CORTANA PLACE, BATON ROUGE LA","chain_name":null,"distance":0},{"name":"PACIFIC SUN","code":null,"latitude":33.39398,"longitude":-111.69019,"address":"6555 E. SOUTHERN AVENUE, MESA AZ","chain_name":null,"distance":0},{"name":"PACIFIC SUN","code":null,"latitude":44.94302,"longitude":-123.03571,"address":"480 CENTER ST. NE, SALEM OR","chain_name":null,"distance":0},{"name":"Pacific Sunwear","code":null,"latitude":45.48714,"longitude":-122.801,"address":"3195 S.W. CEDAR HILLS BLVD. SPACE #90, BEAVERTON OR","chain_name":null,"distance":0},{"name":"Pacific Sunwear","code":null,"latitude":37.97864,"longitude":-87.48235,"address":"316 EASTLAND %2f 800 NORTH GREEN RIVER RD., EVANSVILLE IN","chain_name":null,"distance":0},{"name":"Pacific Sunwear","code":null,"latitude":42.62503,"longitude":-82.98234,"address":"14600 LAKESIDE CIRCLE, STERLING HEIGHTS MI","chain_name":null,"distance":0},{"name":"PACIFIC SUN","code":null,"latitude":44.96985,"longitude":-89.69955,"address":"C308 WAUSAU CENTER, WAUSAU WI","chain_name":null,"distance":0},{"name":"Pacific Sunwear","code":null,"latitude":36.64346,"longitude":-93.2644,"address":"300 TANGER BLVD, BRANSON MO","chain_name":null,"distance":0},{"name":"PACIFIC SUN","code":null,"latitude":34.32504,"longitude":-85.24445,"address":"993 MT. BERRY SQUARE NE, ROME GA","chain_name":null,"distance":0},{"name":"Pacific Sunwear","code":null,"latitude":27.96099,"longitude":-82.44162,"address":"1600 E. 8TH AVENUE, TAMPA FL","chain_name":null,"distance":0},{"name":"Pacific Sunwear","code":null,"latitude":43.48205,"longitude":-111.98423,"address":"2300 EAST 17TH STREET, IDAHO FALLS ID","chain_name":null,"distance":0},{"name":"PACIFIC SUN","code":null,"latitude":40.66476,"longitude":-111.83914,"address":"4835 S HIGHLAND DRIVE, SALT LAKE CITY UT","chain_name":null,"distance":0},{"name":"Pacific Sunwear","code":null,"latitude":42.29963,"longitude":-71.38209,"address":"1245 WORCESTER STREET, NATICK MA","chain_name":null,"distance":0},{"name":"Pacific Sunwear","code":null,"latitude":47.89227,"longitude":-97.06664,"address":"2800 COLUMBIA ROAD, GRAND FORKS ND","chain_name":null,"distance":0},{"name":"PACIFIC SUN","code":null,"latitude":42.17185,"longitude":-72.64022,"address":"50 HOLYOKE STREET, HOLYOKE MA","chain_name":null,"distance":0},{"name":"PACIFIC SUN","code":null,"latitude":46.1395,"longitude":-122.90444,"address":"351 THREE RIVERS DRIVE #1213, KELSO WA","chain_name":null,"distance":0},{"name":"Pacific Sunwear","code":null,"latitude":36.31145,"longitude":-119.31387,"address":"2129 S. MOONEY BLVD., VISALIA CA","chain_name":null,"distance":0},{"name":"PACIFIC SUN","code":null,"latitude":37.3033,"longitude":-79.95883,"address":"4802 VALLEY VIEW BLVD, ROANOKE VA","chain_name":null,"distance":0},{"name":"PACIFIC SUN","code":null,"latitude":40.46672,"longitude":-105.17046,"address":"5897 SKY POND DRIVE K118, LOVELAND CO","chain_name":null,"distance":0},{"name":"Pacific Sunwear","code":null,"latitude":37.7338,"longitude":-85.8868,"address":"1704 NORTH DIXIE HWY., ELIZABETHTOWN KY","chain_name":null,"distance":0},{"name":"Pacific Sunwear","code":null,"latitude":33.6788,"longitude":-111.97723,"address":"21001 NORTH TATUM BLVD, PHOENIX AZ","chain_name":null,"distance":0},{"name":"Pacific Sunwear","code":null,"latitude":45.76459,"longitude":-108.57629,"address":"300 S. 24TH STREET, BILLINGS MT","chain_name":null,"distance":0},{"name":"Pacific Sunwear","code":null,"latitude":29.60525,"longitude":-98.61324,"address":"15900 LA CANTERA PKWY. #6640, SAN ANTONIO TX","chain_name":null,"distance":0},{"name":"PACIFIC SUN","code":null,"latitude":34.01403,"longitude":-84.56127,"address":"400 ERNEST W. BARRETT PARKWAY, KENNESAW GA","chain_name":null,"distance":0},{"name":"PACIFIC SUN","code":null,"latitude":36.17018,"longitude":-115.19763,"address":"4300 MEADOWS LANE, LAS VEGAS NV","chain_name":null,"distance":0},{"name":"Pacific Sunwear","code":null,"latitude":45.01667,"longitude":-93.02565,"address":"3001 WHITE BEAR AVENUE NE, ST. PAUL MN","chain_name":null,"distance":0},{"name":"Pacific Sunwear","code":null,"latitude":35.23538,"longitude":-84.87863,"address":"200 PAUL HUFF PKWY. SUITE 610, CLEVELAND TN","chain_name":null,"distance":0},{"name":"Pacific Sunwear","code":null,"latitude":38.35331,"longitude":-81.63539,"address":"1109 CHARLESTON TOWN CENTER, CHARLESTON WV","chain_name":null,"distance":0},{"name":"PACIFIC SUN","code":null,"latitude":39.94464,"longitude":-75.02215,"address":"514 CHERRY HILL MALL, CHERRY HILL NJ","chain_name":null,"distance":0},{"name":"PACIFIC SUN","code":null,"latitude":38.84354,"longitude":-104.75883,"address":"750 CITADEL DRIVE EAST, COLORADO SPRINGS CO","chain_name":null,"distance":0},{"name":"Pacific Sunwear","code":null,"latitude":41.05359,"longitude":-73.53583,"address":"100 GREYROCK PLACE, STAMFORD CT","chain_name":null,"distance":0},{"name":"Pacific Sunwear","code":null,"latitude":41.03221,"longitude":-73.76972,"address":"100 MAIN STREET, WHITE PLAINS NY","chain_name":null,"distance":0},{"name":"PACIFIC SUN","code":null,"latitude":29.65952,"longitude":-82.4125,"address":"6417 NEWBERRY ROAD, ORLANDO FL","chain_name":null,"distance":0},{"name":"Pacific Sunwear","code":null,"latitude":31.21944,"longitude":-81.49165,"address":"100 MALL BLVD., BRUNSWICK GA","chain_name":null,"distance":0},{"name":"Pacific Sunwear","code":null,"latitude":44.97034,"longitude":-93.43621,"address":"12315 WAYZATA BLVD., MINNETONKA MN","chain_name":null,"distance":0},{"name":"PACIFIC SUN","code":null,"latitude":33.98515,"longitude":-84.47827,"address":"4475 ROSWELL ROAD SPACE #1020, MARIETTA GA","chain_name":null,"distance":0},{"name":"Pacific Sunwear","code":null,"latitude":41.68988,"longitude":-86.874,"address":"213 LIGHTHOUSE PLACE, MICHIGAN CITY IN","chain_name":null,"distance":0},{"name":"Pacific Sunwear","code":null,"latitude":36.58402,"longitude":-87.29594,"address":"2801 WILMA RUDOLPH BLVD., CLARKSVILLE TN","chain_name":null,"distance":0},{"name":"Pacific Sunwear","code":null,"latitude":40.48837,"longitude":-88.97002,"address":"1615 EAST EMPIRE, BLOOMINGTON IL","chain_name":null,"distance":0},{"name":"PACIFIC SUN","code":null,"latitude":39.61527,"longitude":-83.59874,"address":"8845 FACTORY SHOPS BLVD, JEFFERSONVILLE OH","chain_name":null,"distance":0},{"name":"PACIFIC SUN","code":null,"latitude":43.32991,"longitude":-73.68048,"address":"578 AVIATION RD. #26, QUEENSBURY NY","chain_name":null,"distance":0},{"name":"Pacific Sunwear","code":null,"latitude":40.14002,"longitude":-88.24498,"address":"2000 N. NEIL STREET, CHAMPAIGN IL","chain_name":null,"distance":0},{"name":"PACIFIC SUN","code":null,"latitude":41.31678,"longitude":-74.12662,"address":"452 EVERGEREEN CT., CENTRAL VALLEY NY","chain_name":null,"distance":0},{"name":"PACIFIC SUN","code":null,"latitude":26.53335,"longitude":-80.08244,"address":"801 N. CONGRESS AVENUE SPACE #623, BOYNTON BEACH FL","chain_name":null,"distance":0},{"name":"Pacific Sunwear","code":null,"latitude":37.71204,"longitude":-122.16295,"address":"1299 MARINA BLVD., SAN LEANDRO CA","chain_name":null,"distance":0},{"name":"Pacific Sunwear","code":null,"latitude":44.85631,"longitude":-93.4214,"address":"2600 EDEN PRAIRIE CENTER, EDEN PRAIRIE MN","chain_name":null,"distance":0},{"name":"Pacific Sunwear","code":null,"latitude":43.06454,"longitude":-88.04767,"address":"2500 N. MAYFAIR ROAD, WAUWATOSA WI","chain_name":null,"distance":0},{"name":"PACIFIC SUN","code":null,"latitude":44.47904,"longitude":-73.21262,"address":"49 CHURCH STREET, BURLINGTON VT","chain_name":null,"distance":0},{"name":"Pacific Sunwear","code":null,"latitude":35.20466,"longitude":-89.79199,"address":"2760 N. GERMANTOWN ROAD, MEMPHIS TN","chain_name":null,"distance":0},{"name":"Pacific Sunwear","code":null,"latitude":33.83188,"longitude":-117.84955,"address":"1500 E VILLAGE WAY SUITE 2163, ORANGE CA","chain_name":null,"distance":0},{"name":"PACIFIC SUN","code":null,"latitude":38.00529,"longitude":-122.5447,"address":"4100 NORTHGATE MALL, SAN RAFAEL CA","chain_name":null,"distance":0},{"name":"Pacific Sunwear","code":null,"latitude":42.3419,"longitude":-122.87824,"address":"1600 N. RIVERSIDE, MEDFORD OR","chain_name":null,"distance":0},{"name":"PACIFIC SUN","code":null,"latitude":42.29919,"longitude":-73.22448,"address":"50 WATER ST. SPACE D180, LEE MA","chain_name":null,"distance":0},{"name":"Pacific Sunwear","code":null,"latitude":34.60519,"longitude":-98.39056,"address":"200 SW C AVENUE #25, LAWTON OK","chain_name":null,"distance":0},{"name":"PACIFIC SUN","code":null,"latitude":42.81022,"longitude":-73.98986,"address":"93 WEST CAMPBELL ROAD, SCHENECTADY NY","chain_name":null,"distance":0},{"name":"Pacific Sunwear","code":null,"latitude":40.60648,"longitude":-79.18224,"address":"2334 OAKLAND AVE, INDIANA PA","chain_name":null,"distance":0},{"name":"Pacific Sunwear","code":null,"latitude":37.52808,"longitude":-122.00013,"address":"1075 NEWPARK MALL, NEWARK CA","chain_name":null,"distance":0},{"name":"PACIFIC SUN","code":null,"latitude":28.86669,"longitude":-96.99739,"address":"7800 N. NAVARRO, VICTORIA TX","chain_name":null,"distance":0},{"name":"PACIFIC SUN","code":null,"latitude":41.09791,"longitude":-74.01528,"address":"75 W. ROUTE 59, NANUET NY","chain_name":null,"distance":0},{"name":"Pacific Sunwear","code":null,"latitude":40.29437,"longitude":-74.68194,"address":"246 QUAKER BRIDGE MALL, LAWRENCEVILLE NJ","chain_name":null,"distance":0},{"name":"Pacific Sunwear","code":null,"latitude":43.45902,"longitude":-71.55857,"address":"120 LACONIA ROAD #308, TILTON NH","chain_name":null,"distance":0},{"name":"PACIFIC SUN","code":null,"latitude":41.19695,"longitude":-111.97945,"address":"3651 WALL AVE, OGDEN UT","chain_name":null,"distance":0}]