[{"name":"Party City","code":null,"latitude":25.68727,"longitude":-80.4195141,"address":"13865 SW 88th St, Kendall FL","chain_name":null,"distance":0},{"name":"Party City","code":null,"latitude":33.3809264,"longitude":-111.6027612,"address":"1866 South Signal Butte Rd, Mesa AZ","chain_name":null,"distance":0},{"name":"Party City","code":null,"latitude":42.0776631,"longitude":-72.5272611,"address":"440 North Main Street, East Longmeadow MA","chain_name":null,"distance":0},{"name":"Party City","code":null,"latitude":39.4625508,"longitude":-76.6376027,"address":"9958 York Rd, Cockeysville MD","chain_name":null,"distance":0},{"name":"Party City","code":null,"latitude":38.680433,"longitude":-121.27052,"address":"6302 Sunrise Blvd, Citrus Heights US","chain_name":null,"distance":0},{"name":"Party City","code":null,"latitude":40.8289856,"longitude":-74.1388494,"address":"385 NJ-3, Clifton NJ","chain_name":null,"distance":0},{"name":"Party City","code":null,"latitude":42.1132296,"longitude":-71.4706117,"address":"209 Hartford Ave, Bellingham MA","chain_name":null,"distance":0},{"name":"Party City","code":null,"latitude":26.2743297,"longitude":-80.0976887,"address":"3501 North Federal Hwy, Lighthouse Point FL","chain_name":null,"distance":0},{"name":"Party City","code":null,"latitude":35.6900095,"longitude":-78.5812793,"address":"280 Shenstone Blvd, Garner NC","chain_name":null,"distance":0},{"name":"Party City","code":null,"latitude":38.6760619,"longitude":-121.7578327,"address":"1386 E. Main St., Woodland CA","chain_name":null,"distance":0},{"name":"Party City","code":null,"latitude":26.2462058,"longitude":-80.2539159,"address":"1270 University Dr, Coral Springs FL","chain_name":null,"distance":0},{"name":"Party City","code":null,"latitude":34.0897761,"longitude":-117.6700221,"address":"346 South Mountain, Upland CA","chain_name":null,"distance":0},{"name":"Party City","code":null,"latitude":37.2912864,"longitude":-121.9896046,"address":"1600 Saratoga Ave, San Jose CA","chain_name":null,"distance":0},{"name":"Party City","code":null,"latitude":29.5647873,"longitude":-98.4840696,"address":"13419 San Pedro Ave, San Antonio TX","chain_name":null,"distance":0},{"name":"Party City","code":null,"latitude":26.5843862,"longitude":-81.8698865,"address":"5025 South Cleveland Ave, Ft. Myers FL","chain_name":null,"distance":0},{"name":"Party City","code":null,"latitude":33.6553297,"longitude":-117.9170915,"address":"2200 Harbor Blvd, Costa Mesa CA","chain_name":null,"distance":0},{"name":"Party City","code":null,"latitude":35.2060688,"longitude":-106.6589244,"address":"10254 Coors Bypass NW, Albuquerque NM","chain_name":null,"distance":0},{"name":"Party City","code":null,"latitude":42.7094898,"longitude":-83.3079422,"address":"4846 Baldwin Rd, Orion Township MI","chain_name":null,"distance":0},{"name":"Party City","code":null,"latitude":36.1027756,"longitude":-79.8212545,"address":"2637 Lawndale Dr, Greensboro NC","chain_name":null,"distance":0},{"name":"Party City","code":null,"latitude":40.5545451,"longitude":-74.4321222,"address":"7000 Hadley Rd, South Plainfield NJ","chain_name":null,"distance":0},{"name":"Party City","code":null,"latitude":41.503295,"longitude":-87.7361716,"address":"134 Town Center Rd, Matteson IL","chain_name":null,"distance":0},{"name":"Party City","code":null,"latitude":38.8402805,"longitude":-97.6114237,"address":"2855 Marketplace, Salina KS","chain_name":null,"distance":0},{"name":"Party City","code":null,"latitude":33.828546,"longitude":-118.0843963,"address":"7401 Carson St, Long Beach CA","chain_name":null,"distance":0},{"name":"Party City","code":null,"latitude":34.6908455,"longitude":-118.1710763,"address":"44426 Valley Central Way, Lancaster CA","chain_name":null,"distance":0},{"name":"Party City","code":null,"latitude":29.6277079,"longitude":-95.2353515,"address":"10065 Almeda Genoa Road, Houston TX","chain_name":null,"distance":0},{"name":"Party City","code":null,"latitude":47.6199008,"longitude":-122.1307907,"address":"15600 NE 8th St, Bellevue WA","chain_name":null,"distance":0},{"name":"Party City","code":null,"latitude":44.0043303,"longitude":-88.5801249,"address":"1530 Koeller Road, Oshkosh WI","chain_name":null,"distance":0},{"name":"Party City","code":null,"latitude":30.317714,"longitude":-89.8258103,"address":"61119 Airport Rd, Slidell LA","chain_name":null,"distance":0},{"name":"Party City","code":null,"latitude":26.0120032,"longitude":-80.2491218,"address":"220 University Drive, Pembroke Pines FL","chain_name":null,"distance":0},{"name":"Party City","code":null,"latitude":30.192969,"longitude":-81.7435737,"address":"6001 Argyle Forest Blvd, Jacksonville FL","chain_name":null,"distance":0},{"name":"Party City","code":null,"latitude":42.956133,"longitude":-78.8772434,"address":"2141 Elmwood Ave, Buffalo NY","chain_name":null,"distance":0},{"name":"Party City","code":null,"latitude":39.715679,"longitude":-104.8232068,"address":"14160 East Ellsworth Ave, Aurora CO","chain_name":null,"distance":0},{"name":"Party City","code":null,"latitude":42.2789987,"longitude":-83.2102683,"address":"23195 Outer Dr, Allen Pk MI","chain_name":null,"distance":0},{"name":"Party City","code":null,"latitude":39.7286112,"longitude":-75.0349032,"address":"3501 NJ-42, Turnersville NJ","chain_name":null,"distance":0},{"name":"Party City","code":null,"latitude":41.2376859,"longitude":-75.8546344,"address":"2190 Highland Park Blvd, Wilkes Barre PA","chain_name":null,"distance":0},{"name":"Party City","code":null,"latitude":41.6429044,"longitude":-70.9923757,"address":"86 N. Dartmouth Mall, North Dartmouth MA","chain_name":null,"distance":0},{"name":"Party City","code":null,"latitude":39.291466,"longitude":-84.4682653,"address":"11747 Princeton Pike, Cincinnati OH","chain_name":null,"distance":0},{"name":"Party City","code":null,"latitude":40.2697216,"longitude":-75.6555439,"address":"230 Upland Square Drive, Pottstown PA","chain_name":null,"distance":0},{"name":"Party City","code":null,"latitude":29.9435457,"longitude":-93.9949936,"address":"2770 Hwy 365, Port Arthur TX","chain_name":null,"distance":0},{"name":"Party City","code":null,"latitude":44.9269876,"longitude":-92.9559885,"address":"1505 Queens Dr, Woodbury MN","chain_name":null,"distance":0},{"name":"Party City","code":null,"latitude":34.152654,"longitude":-117.475001,"address":"15242 Summit Ave, Fontana CA","chain_name":null,"distance":0},{"name":"Party City","code":null,"latitude":37.9405973,"longitude":-121.7377853,"address":"2470 Sand Creek Rd, Brentwood CA","chain_name":null,"distance":0},{"name":"Party City","code":null,"latitude":43.046875,"longitude":-76.2333473,"address":"3565 West Genesee St, Syracuse NY","chain_name":null,"distance":0},{"name":"Party City","code":null,"latitude":31.8198722,"longitude":-106.5419194,"address":"655 Sunland Park Dr, El Paso TX","chain_name":null,"distance":0},{"name":"Party City","code":null,"latitude":41.5739795,"longitude":-90.5285605,"address":"5255 Elmore Ave, Davenport IA","chain_name":null,"distance":0},{"name":"Party City","code":null,"latitude":40.6464847,"longitude":-74.4077308,"address":"1684 Route 22 East, Watchung NJ","chain_name":null,"distance":0},{"name":"Party City","code":null,"latitude":41.9028349,"longitude":-87.8506753,"address":"1222 Winston Dr, Melrose Park IL","chain_name":null,"distance":0},{"name":"Party City","code":null,"latitude":47.8893367,"longitude":-97.0676148,"address":"2861 32nd Avenue South, Grand Forks ND","chain_name":null,"distance":0},{"name":"Party City","code":null,"latitude":39.5939993,"longitude":-104.9589343,"address":"6774 South University Blvd., Centennial CO","chain_name":null,"distance":0},{"name":"Party City","code":null,"latitude":38.6736835,"longitude":-90.3856699,"address":"9612 Olive Blvd, Olivette MO","chain_name":null,"distance":0},{"name":"Party City","code":null,"latitude":40.6745694,"longitude":-73.4360073,"address":"5500 Sunrise Hwy, Massapequa NY","chain_name":null,"distance":0},{"name":"Party City","code":null,"latitude":25.6426656,"longitude":-80.3329815,"address":"13615 South Dixie Hwy, Palmetto Bay FL","chain_name":null,"distance":0},{"name":"Party City","code":null,"latitude":26.006725,"longitude":-80.30158,"address":"11460 Pines Blvd, Pembroke Pines FL","chain_name":null,"distance":0},{"name":"Party City","code":null,"latitude":37.6033339,"longitude":-122.0650954,"address":"30761 Dyer St, Union City CA","chain_name":null,"distance":0},{"name":"Party City","code":null,"latitude":42.751511,"longitude":-73.7659508,"address":"579 Troy Schenectady Rd, Latham NY","chain_name":null,"distance":0},{"name":"Party City","code":null,"latitude":38.9785889,"longitude":-76.5457238,"address":"2325 H Forest Dr, Annapolis MD","chain_name":null,"distance":0},{"name":"Party City","code":null,"latitude":40.02927,"longitude":-75.6351123,"address":"201 West Lincoln Hwy, Exton PA","chain_name":null,"distance":0},{"name":"Party City","code":null,"latitude":41.0678298,"longitude":-73.5455572,"address":"2255 Summer St, Stamford CT","chain_name":null,"distance":0},{"name":"Party City","code":null,"latitude":38.922917,"longitude":-76.848706,"address":"9101 Woodmore Centre Drive, Lanham MD","chain_name":null,"distance":0},{"name":"Party City","code":null,"latitude":34.4768366,"longitude":-117.3438529,"address":"12410 Amargosa Rd, Victorville CA","chain_name":null,"distance":0},{"name":"Party City","code":null,"latitude":39.093835,"longitude":-84.2736491,"address":"4450 Eastgate Blvd., Cincinnati OH","chain_name":null,"distance":0},{"name":"Party City","code":null,"latitude":32.7751973,"longitude":-117.1465473,"address":"8330 Rio San Diego Dr, San Diego CA","chain_name":null,"distance":0},{"name":"Party City","code":null,"latitude":41.7822348,"longitude":-87.8721304,"address":"102 Countryside Plz, Countryside IL","chain_name":null,"distance":0},{"name":"Party City","code":null,"latitude":36.8100086,"longitude":-119.6940086,"address":"1205 Shaw Ave, Clovis CA","chain_name":null,"distance":0},{"name":"Party City","code":null,"latitude":36.0556093,"longitude":-79.905664,"address":"5408 Sapp Rd, Greensboro NC","chain_name":null,"distance":0},{"name":"Party City","code":null,"latitude":47.6758743,"longitude":-117.2137044,"address":"13806 E. Indiana Avenue, Spokane Valley WA","chain_name":null,"distance":0},{"name":"Party City","code":null,"latitude":38.7956595,"longitude":-90.624276,"address":"293 Mid Rivers Mall Dr, Saint Peters MO","chain_name":null,"distance":0},{"name":"Party City","code":null,"latitude":39.1309526,"longitude":-84.6100666,"address":"5555 Glenway Ave, Cincinnati OH","chain_name":null,"distance":0},{"name":"Party City","code":null,"latitude":43.0100736,"longitude":-83.6360665,"address":"3837 Lapeer Rd, Flint MI","chain_name":null,"distance":0},{"name":"Party City","code":null,"latitude":43.2083529,"longitude":-77.691622,"address":"2373 Ridge Rd West, Rochester NY","chain_name":null,"distance":0},{"name":"Party City","code":null,"latitude":38.8794887,"longitude":-94.6014903,"address":"13647 Washington Street, Kansas City MO","chain_name":null,"distance":0},{"name":"Party City","code":null,"latitude":33.392525,"longitude":-84.7589976,"address":"553 Bullsboro Dr, Newnan GA","chain_name":null,"distance":0},{"name":"Party City","code":null,"latitude":39.829645,"longitude":-84.839017,"address":"4615 National Rd East, Richmond IN","chain_name":null,"distance":0},{"name":"Party City","code":null,"latitude":35.128708,"longitude":-89.9465642,"address":"3460 Poplar Ave, Memphis TN","chain_name":null,"distance":0},{"name":"Party City","code":null,"latitude":42.5288206,"longitude":-83.1103634,"address":"32011 John R Rd, Madison Heights MI","chain_name":null,"distance":0},{"name":"Party City","code":null,"latitude":36.7893877,"longitude":-76.1104733,"address":"2076-001 South Independence Blvd, Virginia Beach VA","chain_name":null,"distance":0},{"name":"Party City","code":null,"latitude":33.5285682,"longitude":-86.7217061,"address":"1608 Montclair Rd, Birmingham AL","chain_name":null,"distance":0},{"name":"Party City","code":null,"latitude":42.3378728,"longitude":-83.3960028,"address":"35745 Warren Rd, Westland MI","chain_name":null,"distance":0},{"name":"Party City","code":null,"latitude":30.4684442,"longitude":-97.8036055,"address":"11066 Pecan Park Blvd, Cedar Park TX","chain_name":null,"distance":0},{"name":"Party City","code":null,"latitude":42.8238484,"longitude":-86.0947921,"address":"3050 Beeline Rd, Holland MI","chain_name":null,"distance":0},{"name":"Party City","code":null,"latitude":29.7360621,"longitude":-95.5336731,"address":"9525 Westheimer St, Houston TX","chain_name":null,"distance":0},{"name":"Party City","code":null,"latitude":39.0933387,"longitude":-76.855268,"address":"14802 Baltimore Avenue, Laurel MD","chain_name":null,"distance":0},{"name":"Party City","code":null,"latitude":43.085712,"longitude":-75.3203667,"address":"4525 Commercial Dr, New Hartford NY","chain_name":null,"distance":0},{"name":"Party City","code":null,"latitude":42.3515256,"longitude":-71.0713626,"address":"356 Boylston Street, Boston MA","chain_name":null,"distance":0},{"name":"Party City","code":null,"latitude":39.7158397,"longitude":-86.3599946,"address":"2609 East Main St, Plainfield IN","chain_name":null,"distance":0},{"name":"Party City","code":null,"latitude":28.485013,"longitude":-81.426924,"address":"4024 Eastgate Dr, Orlando FL","chain_name":null,"distance":0},{"name":"Party City","code":null,"latitude":33.9866109,"longitude":-84.4251072,"address":"4281 Roswell Rd, Marietta GA","chain_name":null,"distance":0},{"name":"Party City","code":null,"latitude":40.5589945,"longitude":-74.2950008,"address":"455 Green St, Woodbridge NJ","chain_name":null,"distance":0},{"name":"Party City","code":null,"latitude":34.066989,"longitude":-84.1692358,"address":"11720 Medlock Bridge Rd, Johns Creek GA","chain_name":null,"distance":0},{"name":"Party City","code":null,"latitude":29.5952363,"longitude":-95.6180168,"address":"2525 Town Center Blvd, Sugar Land TX","chain_name":null,"distance":0},{"name":"Party City","code":null,"latitude":40.3043114,"longitude":-74.6811631,"address":"670 Nassau Park Blvd., Princenton NJ","chain_name":null,"distance":0},{"name":"Party City","code":null,"latitude":34.0745196,"longitude":-117.8895465,"address":"2620 East Workman Ave, West Covina CA","chain_name":null,"distance":0},{"name":"Party City","code":null,"latitude":33.9856098,"longitude":-118.1023098,"address":"8620 Washington Blvd, Pico Rivera CA","chain_name":null,"distance":0},{"name":"Party City","code":null,"latitude":37.2511925,"longitude":-121.8569066,"address":"863 Blossom Hill Rd, San Jose CA","chain_name":null,"distance":0},{"name":"Party City","code":null,"latitude":33.0390079,"longitude":-96.7027287,"address":"3308 North Central Expwy, Plano TX","chain_name":null,"distance":0},{"name":"Party City","code":null,"latitude":38.5947602,"longitude":-89.9901003,"address":"10845 Lincoln Trail, Fairview Heights IL","chain_name":null,"distance":0},{"name":"Party City","code":null,"latitude":33.4316476,"longitude":-111.8713255,"address":"821 North Dobson Rd, Mesa AZ","chain_name":null,"distance":0},{"name":"Party City","code":null,"latitude":39.2612943,"longitude":-84.6009312,"address":"10204 Colerain Ave, Cincinnati OH","chain_name":null,"distance":0},{"name":"Party City","code":null,"latitude":34.1079286,"longitude":-117.5622317,"address":"11098 Foothill Blvd, Rancho Cucamonga CA","chain_name":null,"distance":0},{"name":"Party City","code":null,"latitude":34.1915814,"longitude":-118.9342501,"address":"2715 Teller Rd, Thousand Oaks CA","chain_name":null,"distance":0},{"name":"Party City","code":null,"latitude":25.8815528,"longitude":-80.3542462,"address":"11860 Hialeah Gardens Blvd, Hialeah Gardens FL","chain_name":null,"distance":0},{"name":"Party City","code":null,"latitude":39.3904608,"longitude":-84.5010483,"address":"3431 Princeton Rd, Fairfield OH","chain_name":null,"distance":0},{"name":"Party City","code":null,"latitude":41.8486909,"longitude":-87.8013654,"address":"7123 Cermak Rd, Berwyn IL","chain_name":null,"distance":0},{"name":"Party City","code":null,"latitude":38.878532,"longitude":-104.7171622,"address":"3036 New Center Point, Colorado Springs CO","chain_name":null,"distance":0},{"name":"Party City","code":null,"latitude":41.7645611,"longitude":-88.2037898,"address":"428 South Route 59, Naperville IL","chain_name":null,"distance":0},{"name":"Party City","code":null,"latitude":42.6640794,"longitude":-84.5456442,"address":"462 East Edgewood Blvd, Lansing MI","chain_name":null,"distance":0},{"name":"Party City","code":null,"latitude":33.2794206,"longitude":-111.7931781,"address":"2770 East Germann Rd, Chandler AZ","chain_name":null,"distance":0},{"name":"Party City","code":null,"latitude":42.3669684,"longitude":-88.2632722,"address":"3392 Shoppers Dr, McHenry IL","chain_name":null,"distance":0},{"name":"Party City","code":null,"latitude":33.8997382,"longitude":-118.368315,"address":"14519 Ocean Gate Ave, Hawthorne CA","chain_name":null,"distance":0},{"name":"Party City","code":null,"latitude":41.5044882,"longitude":-72.8082401,"address":"1238 South Broad, St. Wallingford CT","chain_name":null,"distance":0},{"name":"Party City","code":null,"latitude":42.8163315,"longitude":-71.1050123,"address":"4 Plaistow Road, Plaistow NH","chain_name":null,"distance":0},{"name":"Party City","code":null,"latitude":42.483784,"longitude":-71.1858064,"address":"34 Cambridge Street, Burlington MA","chain_name":null,"distance":0},{"name":"Party City","code":null,"latitude":34.772121,"longitude":-92.398814,"address":"11218 Rodney Parham Rd, Little Rock AR","chain_name":null,"distance":0},{"name":"Party City","code":null,"latitude":34.8320149,"longitude":-82.3023466,"address":"1117 Woodruff Rd, Greenville SC","chain_name":null,"distance":0},{"name":"Party City","code":null,"latitude":39.6301072,"longitude":-86.1239011,"address":"906 US Highway 31 North, Greenwood IN","chain_name":null,"distance":0},{"name":"Party City","code":null,"latitude":38.9489223,"longitude":-92.2963545,"address":"21 Conley Rd, Columbia MO","chain_name":null,"distance":0},{"name":"Party City","code":null,"latitude":42.2273885,"longitude":-88.3188421,"address":"5561 Northwest Hwy, Crystal Lake IL","chain_name":null,"distance":0},{"name":"Party City","code":null,"latitude":28.6621472,"longitude":-81.3521198,"address":"1140 East Altamonte Dr, Altamonte Springs FL","chain_name":null,"distance":0},{"name":"Party City","code":null,"latitude":25.5724257,"longitude":-80.3735475,"address":"20831 South Dixie Hwy, Miami FL","chain_name":null,"distance":0},{"name":"Party City","code":null,"latitude":42.4696722,"longitude":-71.0244162,"address":"880 Broadway, Saugus MA","chain_name":null,"distance":0},{"name":"Party City","code":null,"latitude":32.7071979,"longitude":-97.1151231,"address":"2215 South Cooper St, Arlington TX","chain_name":null,"distance":0},{"name":"Party City","code":null,"latitude":29.6971495,"longitude":-95.299599,"address":"516 Gulfgate Center Mall, Houston TX","chain_name":null,"distance":0},{"name":"Party City","code":null,"latitude":33.8249105,"longitude":-117.5205638,"address":"2415 Tuscany St, Corona CA","chain_name":null,"distance":0},{"name":"Party City","code":null,"latitude":43.1112235,"longitude":-76.1423904,"address":"256 Rte 11, North Syracuse NY","chain_name":null,"distance":0},{"name":"Party City","code":null,"latitude":42.4480988,"longitude":-96.3419865,"address":"5001 Sergeant Rd, Sioux City IA","chain_name":null,"distance":0},{"name":"Party City","code":null,"latitude":38.7710903,"longitude":-90.2607205,"address":"10861 Old Halls Ferry Rd, Ferguson MO","chain_name":null,"distance":0},{"name":"Party City","code":null,"latitude":40.5771131,"longitude":-74.1035993,"address":"2189 Hylan Blvd, Staten Island NY","chain_name":null,"distance":0},{"name":"Party City","code":null,"latitude":40.7719815,"longitude":-73.8350012,"address":"30-10 Whitestone Expressway, College Point NY","chain_name":null,"distance":0},{"name":"Party City","code":null,"latitude":32.6025144,"longitude":-117.080107,"address":"624 Palomar St, Chula Vista CA","chain_name":null,"distance":0},{"name":"Party City","code":null,"latitude":34.0705444,"longitude":-83.9822706,"address":"3205 Woodward Crossing Blvd, Buford GA","chain_name":null,"distance":0},{"name":"Party City","code":null,"latitude":40.8062331,"longitude":-74.3703209,"address":"346 Route 10 W, East Hanover NJ","chain_name":null,"distance":0},{"name":"Party City","code":null,"latitude":32.0032187,"longitude":-81.122851,"address":"8108 Abercorn Extension, Savannah GA","chain_name":null,"distance":0},{"name":"Party City","code":null,"latitude":41.3175636,"longitude":-74.1534175,"address":"128 Bailey Farm Rd, Monroe NY","chain_name":null,"distance":0},{"name":"Party City","code":null,"latitude":41.629002,"longitude":-81.4289098,"address":"36315 Euclid Ave, Willoughby OH","chain_name":null,"distance":0},{"name":"Party City","code":null,"latitude":29.9996133,"longitude":-95.174377,"address":"6705 FM 1960 East, Humble TX","chain_name":null,"distance":0},{"name":"Party City","code":null,"latitude":32.8204871,"longitude":-117.1824075,"address":"4251 Genessee Avenue, San Diego CA","chain_name":null,"distance":0},{"name":"Party City","code":null,"latitude":42.4614984,"longitude":-92.328493,"address":"1415 Flammang Dr, Waterloo IA","chain_name":null,"distance":0},{"name":"Party City","code":null,"latitude":34.1036991,"longitude":-117.8213682,"address":"852 West Arrow Hwy, San Dimas CA","chain_name":null,"distance":0},{"name":"Party City","code":null,"latitude":43.1338907,"longitude":-77.4959717,"address":"1601 Penfield Rd, Rochester NY","chain_name":null,"distance":0},{"name":"Party City","code":null,"latitude":32.8828333,"longitude":-97.2588056,"address":"7620 Denton Hwy, Watauga TX","chain_name":null,"distance":0},{"name":"Party City","code":null,"latitude":39.7636991,"longitude":-86.3393473,"address":"10397 East US Highway 36, Avon IN","chain_name":null,"distance":0},{"name":"Party City","code":null,"latitude":39.1935678,"longitude":-94.5788528,"address":"305 NE Englewood Rd., B, Kansas City MO","chain_name":null,"distance":0},{"name":"Party City","code":null,"latitude":32.7542497,"longitude":-97.4286271,"address":"435 Sherry Ln, Fort Worth TX","chain_name":null,"distance":0},{"name":"Party City","code":null,"latitude":45.430969,"longitude":-122.57325,"address":"8664 SE Sunnyside Rd, Clackamas OR","chain_name":null,"distance":0},{"name":"Party City","code":null,"latitude":32.6194514,"longitude":-85.4110136,"address":"2534 Enterprise Dr, Opelika AL","chain_name":null,"distance":0},{"name":"Party City","code":null,"latitude":32.6833692,"longitude":-97.3975566,"address":"4826 SW Loop 820, Fort Worth TX","chain_name":null,"distance":0},{"name":"Party City","code":null,"latitude":29.821939,"longitude":-95.1676392,"address":"5946 East Sam Houston Pkwy North, Houston TX","chain_name":null,"distance":0},{"name":"Party City","code":null,"latitude":40.9182067,"longitude":-74.0581987,"address":"165 Rte-4 West, Paramus NJ","chain_name":null,"distance":0},{"name":"Party City","code":null,"latitude":29.787305,"longitude":-95.7231574,"address":"20260 - C1 Katy Freeway, Katy TX","chain_name":null,"distance":0},{"name":"Party City","code":null,"latitude":32.3413862,"longitude":-90.0655534,"address":"370 Ridge Way, Flowood MS","chain_name":null,"distance":0},{"name":"Party City","code":null,"latitude":47.4480324,"longitude":-122.2600616,"address":"17356 SouthCenter Pkwy, Tukwila WA","chain_name":null,"distance":0},{"name":"Party City","code":null,"latitude":42.0287493,"longitude":-91.6253855,"address":"1370 Twixt Town Rd, Marion IA","chain_name":null,"distance":0},{"name":"Party City","code":null,"latitude":30.6739172,"longitude":-88.1497289,"address":"300 East Azalea Rd, Mobile AL","chain_name":null,"distance":0},{"name":"Party City","code":null,"latitude":40.7568618,"longitude":-73.689136,"address":"2317 New Hyde Park Rd, New Hyde Park NY","chain_name":null,"distance":0},{"name":"Party City","code":null,"latitude":41.2073049,"longitude":-73.7266232,"address":"3 East Main St, Mt. Kisco NY","chain_name":null,"distance":0},{"name":"Party City","code":null,"latitude":38.8565388,"longitude":-77.3144578,"address":"10700 Fairfax Blvd, Fairfax VA","chain_name":null,"distance":0},{"name":"Party City","code":null,"latitude":33.8867398,"longitude":-84.746553,"address":"4794 Jimmy Lee Smith Pkwy, Hiram GA","chain_name":null,"distance":0},{"name":"Party City","code":null,"latitude":40.636758,"longitude":-73.6411496,"address":"3098 Long Beach Rd, Oceanside NY","chain_name":null,"distance":0},{"name":"Party City","code":null,"latitude":39.7605436,"longitude":-89.7081332,"address":"3163 South Veterans Pkwy, Springfield IL","chain_name":null,"distance":0},{"name":"Party City","code":null,"latitude":39.6401848,"longitude":-84.227056,"address":"137 Springboro Pike, W. Carrollton OH","chain_name":null,"distance":0},{"name":"Party City","code":null,"latitude":41.5758724,"longitude":-88.1526047,"address":"2661 Plainfield Rd, Joliet IL","chain_name":null,"distance":0},{"name":"Party City","code":null,"latitude":40.5834147,"longitude":-122.3578453,"address":"1613 Hilltop Drive, Redding CA","chain_name":null,"distance":0},{"name":"Party City","code":null,"latitude":41.4552873,"longitude":-74.3782146,"address":"470 Rte 211 East, Middletown NY","chain_name":null,"distance":0},{"name":"Party City","code":null,"latitude":35.9094778,"longitude":-78.7812238,"address":"8081-115 Brier Creek Pkwy, Raleigh NC","chain_name":null,"distance":0},{"name":"Party City","code":null,"latitude":36.300806,"longitude":-86.6936659,"address":"2009 Gallatin Pike N, Madison TN","chain_name":null,"distance":0},{"name":"Party City","code":null,"latitude":40.6443231,"longitude":-75.4952917,"address":"2560 Macarthur Rd, Whitehall PA","chain_name":null,"distance":0},{"name":"Party City","code":null,"latitude":29.8744351,"longitude":-95.6453195,"address":"6819 Hwy 6 North, Houston TX","chain_name":null,"distance":0},{"name":"Party City","code":null,"latitude":37.5047616,"longitude":-121.9667708,"address":"43732 Christy St, Fremont CA","chain_name":null,"distance":0},{"name":"Party City","code":null,"latitude":33.1121119,"longitude":-117.0995661,"address":"1270 Auto Park Way, Escondido CA","chain_name":null,"distance":0},{"name":"Party City","code":null,"latitude":43.2039717,"longitude":-77.5566747,"address":"2255 East Ridge Rd, Irondequoit NY","chain_name":null,"distance":0},{"name":"Party City","code":null,"latitude":40.8666283,"longitude":-73.830665,"address":"310-320 Baychester Ave, Bronx NY","chain_name":null,"distance":0},{"name":"Party City","code":null,"latitude":42.9634989,"longitude":-71.4421117,"address":"904 South Willow St, Manchester NH","chain_name":null,"distance":0},{"name":"Party City","code":null,"latitude":33.0641709,"longitude":-117.2640147,"address":"1016 North El Camino Real, Encinitas CA","chain_name":null,"distance":0},{"name":"Party City","code":null,"latitude":39.2464245,"longitude":-94.4613642,"address":"8450 N. Church Road, Kansas City MO","chain_name":null,"distance":0},{"name":"Party City","code":null,"latitude":40.811769,"longitude":-73.9818275,"address":"509 River Rd, Edgewater NJ","chain_name":null,"distance":0},{"name":"Party City","code":null,"latitude":27.7062311,"longitude":-97.3725033,"address":"5425 S. Padre Island Dr., Corpus Christi TX","chain_name":null,"distance":0},{"name":"Party City","code":null,"latitude":37.67327,"longitude":-97.422763,"address":"6866 West Kellogg, Wichita KS","chain_name":null,"distance":0},{"name":"Party City","code":null,"latitude":41.8058578,"longitude":-72.5617752,"address":"1444 Pleasant Valley Road, Manachester CT","chain_name":null,"distance":0},{"name":"Party City","code":null,"latitude":25.9616125,"longitude":-97.5044044,"address":"3000 Pablo Kisel Blvd, Brownsville TX","chain_name":null,"distance":0},{"name":"Party City","code":null,"latitude":40.5902712,"longitude":-73.9392739,"address":"3797-3849 Nostrand Ave, Brooklyn NY","chain_name":null,"distance":0},{"name":"Party City","code":null,"latitude":38.4126715,"longitude":-122.714946,"address":"2675 Santa Rosa Ave, Santa Rosa CA","chain_name":null,"distance":0},{"name":"Party City","code":null,"latitude":43.1248035,"longitude":-89.2999125,"address":"2031 Zeier Rd, Madison WI","chain_name":null,"distance":0},{"name":"Party City","code":null,"latitude":40.0494899,"longitude":-75.0610766,"address":"2201 Cottman Ave, Philadelphia PA","chain_name":null,"distance":0},{"name":"Party City","code":null,"latitude":41.9487077,"longitude":-71.0731162,"address":"270 New Highway, Raynham MA","chain_name":null,"distance":0},{"name":"Party City","code":null,"latitude":38.5907383,"longitude":-90.5853278,"address":"15894 Manchester Rd, Ellisville MO","chain_name":null,"distance":0},{"name":"Party City","code":null,"latitude":41.2893917,"longitude":-73.8303898,"address":"3333 Crompond Rd, Yorktown Heights NY","chain_name":null,"distance":0},{"name":"Party City","code":null,"latitude":41.6833358,"longitude":-81.2950005,"address":"9597 Mentor Ave, Mentor OH","chain_name":null,"distance":0},{"name":"Party City","code":null,"latitude":34.1381427,"longitude":-118.0130412,"address":"622 West Huntington Dr, Monrovia CA","chain_name":null,"distance":0},{"name":"Party City","code":null,"latitude":33.4882691,"longitude":-82.0818,"address":"249 Robert C Daniel, Augusta GA","chain_name":null,"distance":0},{"name":"Party City","code":null,"latitude":33.8378448,"longitude":-117.941095,"address":"418 North Euclid, Anaheim CA","chain_name":null,"distance":0},{"name":"Party City","code":null,"latitude":42.9155359,"longitude":-78.7553693,"address":"145 Galleria Drive, Buffalo NY","chain_name":null,"distance":0},{"name":"Party City","code":null,"latitude":42.2697293,"longitude":-71.1725197,"address":"1457 VFW Parkway, West Roxbury MA","chain_name":null,"distance":0},{"name":"Party City","code":null,"latitude":41.1171249,"longitude":-81.4825873,"address":"278 Howe Ave, Cuyahoga Falls OH","chain_name":null,"distance":0},{"name":"Party City","code":null,"latitude":39.9676389,"longitude":-83.158129,"address":"5364 West Point Plaza Dr, Columbus OH","chain_name":null,"distance":0},{"name":"Party City","code":null,"latitude":33.0404242,"longitude":-80.158433,"address":"432 Azalea Square Blvd, Summerville SC","chain_name":null,"distance":0},{"name":"Party City","code":null,"latitude":37.324244,"longitude":-121.819434,"address":"1986 Tully Rd, San Jose CA","chain_name":null,"distance":0},{"name":"Party City","code":null,"latitude":41.7106498,"longitude":-93.5824678,"address":"2010 SE Delaware Ave, Ankeny IA","chain_name":null,"distance":0},{"name":"Party City","code":null,"latitude":38.8458821,"longitude":-76.8847275,"address":"3316 Donnell Dr, Forestville MD","chain_name":null,"distance":0},{"name":"Party City","code":null,"latitude":41.6515902,"longitude":-87.7382469,"address":"13220 S. Cicero Ave, Crestwood IL","chain_name":null,"distance":0},{"name":"Party City","code":null,"latitude":38.5976996,"longitude":-121.4271729,"address":"1692 Arden Way, Sacramento CA","chain_name":null,"distance":0},{"name":"Party City","code":null,"latitude":38.519675,"longitude":-90.3055355,"address":"2560 Lemay Ferry Rd, Saint Louis MO","chain_name":null,"distance":0},{"name":"Party City","code":null,"latitude":42.5349391,"longitude":-82.9166782,"address":"32469 Gratiot Ave, Roseville MI","chain_name":null,"distance":0},{"name":"Party City","code":null,"latitude":42.1954985,"longitude":-71.7783204,"address":"70 Worcester Providence Tpke, Millbury MA","chain_name":null,"distance":0},{"name":"Party City","code":null,"latitude":42.5494386,"longitude":-70.9564361,"address":"300 Andover St, Peabody MA","chain_name":null,"distance":0},{"name":"Party City","code":null,"latitude":37.6875327,"longitude":-122.1292318,"address":"15584 Hesperian Blvd, San Lorenzo CA","chain_name":null,"distance":0},{"name":"Party City","code":null,"latitude":40.5769947,"longitude":-74.1674401,"address":"2795 Richmond Ave, Staten Island NY","chain_name":null,"distance":0},{"name":"Party City","code":null,"latitude":40.6864086,"longitude":-80.1025577,"address":"20215-20217 Rte 19, Cranberry Township PA","chain_name":null,"distance":0},{"name":"Party City","code":null,"latitude":40.0470452,"longitude":-74.8417492,"address":"2200 Mount Holly Rd, Burlington NJ","chain_name":null,"distance":0},{"name":"Party City","code":null,"latitude":37.9801281,"longitude":-122.0660161,"address":"545 Contra Costa Blvd, Pleasant Hill CA","chain_name":null,"distance":0},{"name":"Party City","code":null,"latitude":41.3938758,"longitude":-81.4458387,"address":"6025 Kruse Dr, Solon OH","chain_name":null,"distance":0},{"name":"Party City","code":null,"latitude":41.8345583,"longitude":-87.663931,"address":"1514 West 33rd St, Chicago IL","chain_name":null,"distance":0},{"name":"Party City","code":null,"latitude":39.2954368,"longitude":-76.5065163,"address":"7929 Eastern Ave, Baltimore MD","chain_name":null,"distance":0},{"name":"Party City","code":null,"latitude":40.681115,"longitude":-75.1474461,"address":"1240 Rte 22, Phillipsburg NJ","chain_name":null,"distance":0},{"name":"Party City","code":null,"latitude":39.3861062,"longitude":-77.4034133,"address":"5600 Urbana Pike, Frederick MD","chain_name":null,"distance":0},{"name":"Party City","code":null,"latitude":38.1338483,"longitude":-122.2193826,"address":"141 Plaza Dr, Vallejo CA","chain_name":null,"distance":0},{"name":"Party City","code":null,"latitude":38.1703271,"longitude":-85.8269719,"address":"4921-A Dixie Highway, Louisville KY","chain_name":null,"distance":0},{"name":"Party City","code":null,"latitude":42.121467,"longitude":-75.9663434,"address":"420 Harry L Dr, Johnson City NY","chain_name":null,"distance":0},{"name":"Party City","code":null,"latitude":41.0437347,"longitude":-73.8020967,"address":"431 Tarrytown Rd, White Plains NY","chain_name":null,"distance":0},{"name":"Party City","code":null,"latitude":28.06398,"longitude":-82.5743915,"address":"12799 Citrus Plaza Dr, Tampa FL","chain_name":null,"distance":0},{"name":"Party City","code":null,"latitude":42.5122498,"longitude":-83.3600313,"address":"29305 Orchard Lake Rd, Farmington Hills MI","chain_name":null,"distance":0},{"name":"Party City","code":null,"latitude":32.7403885,"longitude":-116.9367554,"address":"2883 Jamacha Rd, El Cajon CA","chain_name":null,"distance":0},{"name":"Party City","code":null,"latitude":33.3197314,"longitude":-111.9820178,"address":"4715 East Ray Rd, Phoenix AZ","chain_name":null,"distance":0},{"name":"Party City","code":null,"latitude":42.1264757,"longitude":-71.0675241,"address":"1 Harrison Blvd, Avon MA","chain_name":null,"distance":0},{"name":"Party City","code":null,"latitude":35.1574011,"longitude":-85.2485452,"address":"5756 Highway 153, Hixson TN","chain_name":null,"distance":0},{"name":"Party City","code":null,"latitude":34.2955906,"longitude":-83.8530096,"address":"863 Dawsonville Hwy, Gainesville GA","chain_name":null,"distance":0},{"name":"Party City","code":null,"latitude":39.2005588,"longitude":-76.8121193,"address":"6181 Old Dobbin Ln, Columbia MD","chain_name":null,"distance":0},{"name":"Party City","code":null,"latitude":30.174085,"longitude":-81.630007,"address":"11112-12 San Jose Blvd, Jacksonville FL","chain_name":null,"distance":0},{"name":"Party City","code":null,"latitude":33.948469,"longitude":-118.1549144,"address":"7171 Firestone Blvd, Downey CA","chain_name":null,"distance":0},{"name":"Party City","code":null,"latitude":48.2071647,"longitude":-101.3155574,"address":"1425 24th Avenue SW, Minot ND","chain_name":null,"distance":0},{"name":"Party City","code":null,"latitude":38.8977153,"longitude":-77.4457338,"address":"14409 Chantilly Crossing Ln, Chantilly VA","chain_name":null,"distance":0},{"name":"Party City","code":null,"latitude":38.553083,"longitude":-90.4095442,"address":"10790 Sunset Hills Plaza, St. Louis MO","chain_name":null,"distance":0},{"name":"Party City","code":null,"latitude":32.6532884,"longitude":-117.0898396,"address":"3410 Highland Ave, National City CA","chain_name":null,"distance":0},{"name":"Party City","code":null,"latitude":33.7386401,"longitude":-116.2132354,"address":"42800 Jackson Ave, Indio CA","chain_name":null,"distance":0},{"name":"Party City","code":null,"latitude":35.053846,"longitude":-78.972228,"address":"2065-4 Skibo Rd, Fayetteville NC","chain_name":null,"distance":0},{"name":"Party City","code":null,"latitude":34.9322493,"longitude":-81.99065,"address":"150 East Blackstock Rd, Spartanburg SC","chain_name":null,"distance":0},{"name":"Party City","code":null,"latitude":40.9938833,"longitude":-73.6734431,"address":"435 Boston Post Rd, Portchester NY","chain_name":null,"distance":0},{"name":"Party City","code":null,"latitude":25.9508756,"longitude":-80.1465578,"address":"18861 Biscayne Blvd, Aventura FL","chain_name":null,"distance":0},{"name":"Party City","code":null,"latitude":40.753593,"longitude":-73.9142924,"address":"48-18 Northern Blvd, Long Island City NY","chain_name":null,"distance":0},{"name":"Party City","code":null,"latitude":33.0230044,"longitude":-96.7987851,"address":"1701 Preston Rd, Plano TX","chain_name":null,"distance":0},{"name":"Party City","code":null,"latitude":42.5712148,"longitude":-87.8895012,"address":"7150 Green Bay Rd, Kenosha WI","chain_name":null,"distance":0},{"name":"Party City","code":null,"latitude":34.0675554,"longitude":-81.1630016,"address":"144 Harbison Blvd, Columbia SC","chain_name":null,"distance":0},{"name":"Party City","code":null,"latitude":40.9390414,"longitude":-74.2700584,"address":"1625 Route 23, Wayne NJ","chain_name":null,"distance":0},{"name":"Party City","code":null,"latitude":26.6868205,"longitude":-80.2018757,"address":"520 North State Rd 7, Royal Palm Beach FL","chain_name":null,"distance":0},{"name":"Party City","code":null,"latitude":41.7444005,"longitude":-87.7402187,"address":"8141 South Cicero, Chicago IL","chain_name":null,"distance":0},{"name":"Party City","code":null,"latitude":39.0355216,"longitude":-77.051964,"address":"11006 Veirs Mill Road, Wheaton MD","chain_name":null,"distance":0},{"name":"Party City","code":null,"latitude":30.0893216,"longitude":-95.6325035,"address":"28591 Tomball Parkway, Tomball TX","chain_name":null,"distance":0},{"name":"Party City","code":null,"latitude":34.0689993,"longitude":-117.9775246,"address":"3060 Baldwin Park Blvd, Baldwin Park CA","chain_name":null,"distance":0},{"name":"Party City","code":null,"latitude":40.6267879,"longitude":-73.917087,"address":"2183 B Ralph Ave, Brooklyn NY","chain_name":null,"distance":0},{"name":"Party City","code":null,"latitude":40.818227,"longitude":-74.8404539,"address":"1885 Route 57, Hackettstown NJ","chain_name":null,"distance":0},{"name":"Party City","code":null,"latitude":40.6434757,"longitude":-75.426814,"address":"2404 Catasauqua Rd, Bethlehem PA","chain_name":null,"distance":0},{"name":"Party City","code":null,"latitude":34.3005232,"longitude":-85.1754995,"address":"2702 Martha Berry Highway, Rome GA","chain_name":null,"distance":0},{"name":"Party City","code":null,"latitude":42.6263918,"longitude":-83.0066296,"address":"12220 Hall Rd, Sterling Heights MI","chain_name":null,"distance":0},{"name":"Party City","code":null,"latitude":38.7588208,"longitude":-90.7002276,"address":"2935 Highway K, O'Fallon MO","chain_name":null,"distance":0},{"name":"Party City","code":null,"latitude":38.1396134,"longitude":-85.6759104,"address":"4631 Outer Loop, Louisville KY","chain_name":null,"distance":0},{"name":"Party City","code":null,"latitude":33.9111106,"longitude":-117.8665884,"address":"2485 Imperial Hwy, Brea CA","chain_name":null,"distance":0},{"name":"Party City","code":null,"latitude":26.3693408,"longitude":-80.1718902,"address":"8095 West Glades Rd, Boca Raton FL","chain_name":null,"distance":0},{"name":"Party City","code":null,"latitude":40.8405945,"longitude":-73.2864783,"address":"58 Veterans Memorial Hwy, Commack NY","chain_name":null,"distance":0},{"name":"Party City","code":null,"latitude":40.0500023,"longitude":-82.9237935,"address":"3707 Easton Market, Columbus OH","chain_name":null,"distance":0},{"name":"Party City","code":null,"latitude":41.5270103,"longitude":-93.596682,"address":"6325 SE 14th St, Des Moines IA","chain_name":null,"distance":0},{"name":"Party City","code":null,"latitude":36.118919,"longitude":-115.1358025,"address":"3860 South Maryland Parkway, Las Vegas NV","chain_name":null,"distance":0},{"name":"Party City","code":null,"latitude":30.6648094,"longitude":-87.8450545,"address":"10200 Eastern Shore Blvd, Spanish Fort AL","chain_name":null,"distance":0},{"name":"Party City","code":null,"latitude":43.1477326,"longitude":-86.2059852,"address":"5725 South Harvey St, Muskegon MI","chain_name":null,"distance":0},{"name":"Party City","code":null,"latitude":25.6998508,"longitude":-80.2946931,"address":"6272 South Dixie Hwy, South Miami FL","chain_name":null,"distance":0},{"name":"Party City","code":null,"latitude":33.6536236,"longitude":-117.644702,"address":"27835 Santa Margarita Pkwy, Mission Viejo CA","chain_name":null,"distance":0},{"name":"Party City","code":null,"latitude":34.5999473,"longitude":-118.1494075,"address":"39451 10th St West, Palmdale CA","chain_name":null,"distance":0},{"name":"Party City","code":null,"latitude":33.9581899,"longitude":-84.1385468,"address":"3675 Satellite Blvd, Duluth GA","chain_name":null,"distance":0},{"name":"Party City","code":null,"latitude":27.9490599,"longitude":-82.5062136,"address":"418 North Dale Mabry Hwy, Tampa FL","chain_name":null,"distance":0},{"name":"Party City","code":null,"latitude":34.1898294,"longitude":-118.6233842,"address":"6559 Fallbrook Ave, West Hills CA","chain_name":null,"distance":0},{"name":"Party City","code":null,"latitude":39.5736299,"longitude":-76.9821738,"address":"405 North Center St, Westminster MD","chain_name":null,"distance":0},{"name":"Party City","code":null,"latitude":39.739197,"longitude":-75.6094464,"address":"2101 Kirkwood Hwy, Wilmington DE","chain_name":null,"distance":0},{"name":"Party City","code":null,"latitude":37.1546898,"longitude":-121.6515777,"address":"1007 Cochrane Road, Morgan Hill CA","chain_name":null,"distance":0},{"name":"Party City","code":null,"latitude":40.7411475,"longitude":-73.2113755,"address":"2396 Sunrise Hwy, Islip NY","chain_name":null,"distance":0},{"name":"Party City","code":null,"latitude":41.6188124,"longitude":-87.8552906,"address":"14906 South La Grange Rd, Orland Park IL","chain_name":null,"distance":0},{"name":"Party City","code":null,"latitude":27.8448615,"longitude":-82.6469025,"address":"8051A Dr Martin Luther King Jr St North, St. Petersburg FL","chain_name":null,"distance":0},{"name":"Party City","code":null,"latitude":38.9127077,"longitude":-94.7551862,"address":"14673 West 119th Street, Olathe KS","chain_name":null,"distance":0},{"name":"Party City","code":null,"latitude":34.1874721,"longitude":-118.5560973,"address":"19389 Victory Blvd, Reseda CA","chain_name":null,"distance":0},{"name":"Party City","code":null,"latitude":34.2774956,"longitude":-118.568509,"address":"19927 Rinaldi St, Porter Ranch CA","chain_name":null,"distance":0},{"name":"Party City","code":null,"latitude":36.821677,"longitude":-76.4115811,"address":"4107 Portsmouth Blvd, Chesapeake VA","chain_name":null,"distance":0},{"name":"Party City","code":null,"latitude":36.1832275,"longitude":-86.6369362,"address":"3177 Lebanon Pike, Nashville TN","chain_name":null,"distance":0},{"name":"Party City","code":null,"latitude":32.9505546,"longitude":-96.7357381,"address":"501 West Beltline Rd, Richardson TX","chain_name":null,"distance":0},{"name":"Party City","code":null,"latitude":36.7165579,"longitude":-121.6526399,"address":"1684 North Main St, Salinas CA","chain_name":null,"distance":0},{"name":"Party City","code":null,"latitude":38.7458026,"longitude":-121.256148,"address":"1917 Douglas Blvd, Roseville CA","chain_name":null,"distance":0},{"name":"Party City","code":null,"latitude":40.1411717,"longitude":-82.9818259,"address":"1297 Polaris Pkwy, Columbus OH","chain_name":null,"distance":0},{"name":"Party City","code":null,"latitude":28.0142095,"longitude":-82.7339943,"address":"2539 Countryside Blvd, Clearwater FL","chain_name":null,"distance":0},{"name":"Party City","code":null,"latitude":43.0881077,"longitude":-78.981523,"address":"7220 Niagara Falls Blvd, Niagara Falls NY","chain_name":null,"distance":0},{"name":"Party City","code":null,"latitude":29.6483768,"longitude":-95.1522557,"address":"5786 Fairmont Pkwy, Pasadena TX","chain_name":null,"distance":0},{"name":"Party City","code":null,"latitude":32.5467935,"longitude":-84.941567,"address":"555 Whittlesey Blvd, Columbus GA","chain_name":null,"distance":0},{"name":"Party City","code":null,"latitude":39.5536253,"longitude":-119.7829477,"address":"2825 Northtown Ln, Reno NV","chain_name":null,"distance":0},{"name":"Party City","code":null,"latitude":32.6753557,"longitude":-97.1306414,"address":"1520 West Interstate 20, Arlington TX","chain_name":null,"distance":0},{"name":"Party City","code":null,"latitude":40.2255064,"longitude":-75.2407862,"address":"163 Witchwood Dr, North Wales PA","chain_name":null,"distance":0},{"name":"Party City","code":null,"latitude":38.021912,"longitude":-84.4191907,"address":"2172 Sir Barton Way, Lexington KY","chain_name":null,"distance":0},{"name":"Party City","code":null,"latitude":41.3699101,"longitude":-72.9206717,"address":"2100 Dixwell Ave, Hamden CT","chain_name":null,"distance":0},{"name":"Party City","code":null,"latitude":41.4068066,"longitude":-72.8453476,"address":"356 W Washington Ave, North Haven CT","chain_name":null,"distance":0},{"name":"Party City","code":null,"latitude":35.6729814,"longitude":-105.9529113,"address":"528 Cordova Rd, Santa Fe NM","chain_name":null,"distance":0},{"name":"Party City","code":null,"latitude":27.937594,"longitude":-82.323452,"address":"145 Brandon Town Center Blvd, Brandon FL","chain_name":null,"distance":0},{"name":"Party City","code":null,"latitude":47.661113,"longitude":-122.690537,"address":"3114 NW Randall Way, Silverdale WA","chain_name":null,"distance":0},{"name":"Party City","code":null,"latitude":33.9176799,"longitude":-117.9632152,"address":"1601 West Imperial Hwy, La Habra CA","chain_name":null,"distance":0},{"name":"Party City","code":null,"latitude":40.4828209,"longitude":-88.9506376,"address":"401 North Veterans Pkwy, Bloomington IL","chain_name":null,"distance":0},{"name":"Party City","code":null,"latitude":34.4209018,"longitude":-118.5628679,"address":"27029 McBean Pkwy, Santa Clarita CA","chain_name":null,"distance":0},{"name":"Party City","code":null,"latitude":30.4899597,"longitude":-87.2260989,"address":"6241-A North Davis Highway, Pensacola FL","chain_name":null,"distance":0},{"name":"Party City","code":null,"latitude":34.1258131,"longitude":-118.2647354,"address":"2935 Los Feliz Blvd, Los Angeles CA","chain_name":null,"distance":0},{"name":"Party City","code":null,"latitude":33.7291911,"longitude":-117.9884702,"address":"16100 Beach Blvd, Huntington Beach CA","chain_name":null,"distance":0},{"name":"Party City","code":null,"latitude":34.2818505,"longitude":-118.7897559,"address":"415 Cochran St, Simi Valley CA","chain_name":null,"distance":0},{"name":"Party City","code":null,"latitude":26.1931055,"longitude":-80.2492361,"address":"7344 West Commercial Blvd, Lauderhill FL","chain_name":null,"distance":0},{"name":"Party City","code":null,"latitude":40.369472,"longitude":-80.1050829,"address":"1155 Washington Pike #35, Bridgeville PA","chain_name":null,"distance":0},{"name":"Party City","code":null,"latitude":34.0322262,"longitude":-117.6818247,"address":"5549 B Philadelphia St, Chino CA","chain_name":null,"distance":0},{"name":"Party City","code":null,"latitude":41.9250897,"longitude":-87.7899993,"address":"6560 West Fullerton Ave, Chicago IL","chain_name":null,"distance":0},{"name":"Party City","code":null,"latitude":41.8452044,"longitude":-87.9709346,"address":"2155 West 22nd St, Oakbrook IL","chain_name":null,"distance":0},{"name":"Party City","code":null,"latitude":39.9447891,"longitude":-74.9576074,"address":"1560 Nixon Dr, Moorestown NJ","chain_name":null,"distance":0},{"name":"Party City","code":null,"latitude":34.1854436,"longitude":-118.3498747,"address":"2011 Hollywood Way, Burbank CA","chain_name":null,"distance":0},{"name":"Party City","code":null,"latitude":37.2452999,"longitude":-121.8910324,"address":"1448 Kooser Rd, San Jose CA","chain_name":null,"distance":0},{"name":"Party City","code":null,"latitude":41.935929,"longitude":-71.478133,"address":"622 George Washington Hwy, Lincoln RI","chain_name":null,"distance":0},{"name":"Party City","code":null,"latitude":36.0633536,"longitude":-115.2507611,"address":"7285 Arroyo Crossing Pkwy, Las Vegas NV","chain_name":null,"distance":0},{"name":"Party City","code":null,"latitude":40.7428001,"longitude":-89.6051648,"address":"801 West Lake Ave, Peoria IL","chain_name":null,"distance":0},{"name":"Party City","code":null,"latitude":42.0571233,"longitude":-87.7448931,"address":"9705 Skokie Blvd, Skokie IL","chain_name":null,"distance":0},{"name":"Party City","code":null,"latitude":28.0538382,"longitude":-82.4392001,"address":"1719 East Fowler Ave, Tampa FL","chain_name":null,"distance":0},{"name":"Party City","code":null,"latitude":30.4068624,"longitude":-97.7469995,"address":"11150 Research Blvd, Austin TX","chain_name":null,"distance":0},{"name":"Party City","code":null,"latitude":30.3175628,"longitude":-81.5535902,"address":"9400 Atlantic Blvd, Jacksonville FL","chain_name":null,"distance":0},{"name":"Party City","code":null,"latitude":40.2453878,"longitude":-77.0229276,"address":"6499 Carlisle Pike, Mechanicsburg PA","chain_name":null,"distance":0},{"name":"Party City","code":null,"latitude":33.8558914,"longitude":-117.9259101,"address":"1521 South Harbor Blvd, Fullerton CA","chain_name":null,"distance":0},{"name":"Party City","code":null,"latitude":37.7055686,"longitude":-121.8837292,"address":"4922 Dublin Blvd, Dublin CA","chain_name":null,"distance":0},{"name":"Party City","code":null,"latitude":42.1570286,"longitude":-87.8041951,"address":"227 Skokie Valley Rd, Highland Park IL","chain_name":null,"distance":0},{"name":"Party City","code":null,"latitude":36.2016972,"longitude":-115.2426979,"address":"2301 North Rainbow Blvd, Las Vegas NV","chain_name":null,"distance":0},{"name":"Party City","code":null,"latitude":29.3552789,"longitude":-98.5450958,"address":"2920 SW Military Dr, San Antonio TX","chain_name":null,"distance":0},{"name":"Party City","code":null,"latitude":42.740315,"longitude":-84.6343549,"address":"5847 West Saginaw Hwy, Lansing MI","chain_name":null,"distance":0},{"name":"Party City","code":null,"latitude":41.7285119,"longitude":-72.6195301,"address":"17 Main Street, East Hartford CT","chain_name":null,"distance":0},{"name":"Party City","code":null,"latitude":36.0601125,"longitude":-115.0351261,"address":"520 Mark St, Henderson NV","chain_name":null,"distance":0},{"name":"Party City","code":null,"latitude":39.8681544,"longitude":-105.0512501,"address":"9420 Sheridan Blvd, Westminster CO","chain_name":null,"distance":0},{"name":"Party City","code":null,"latitude":42.5439336,"longitude":-83.7930422,"address":"8057 Challis Rd, Livingston MI","chain_name":null,"distance":0},{"name":"Party City","code":null,"latitude":39.919115,"longitude":-75.3255719,"address":"601 West Baltimore Pike, Springfield PA","chain_name":null,"distance":0},{"name":"Party City","code":null,"latitude":42.2190247,"longitude":-85.586404,"address":"6749 South Westnedge Ave, Portage MI","chain_name":null,"distance":0},{"name":"Party City","code":null,"latitude":33.6542127,"longitude":-83.9981813,"address":"1390 Dogwood Dr SE, Conyers GA","chain_name":null,"distance":0},{"name":"Party City","code":null,"latitude":39.4518821,"longitude":-74.6334514,"address":"530 Consumer Sq, Mays Landing NJ","chain_name":null,"distance":0},{"name":"Party City","code":null,"latitude":32.9846163,"longitude":-96.8890389,"address":"2540 North Josey, Carrollton TX","chain_name":null,"distance":0},{"name":"Party City","code":null,"latitude":41.1197778,"longitude":-85.1385652,"address":"283 East Coliseum Blvd, Fort Wayne IN","chain_name":null,"distance":0},{"name":"Party City","code":null,"latitude":30.3931549,"longitude":-90.0838262,"address":"3371 Hwy 190, Mandeville LA","chain_name":null,"distance":0},{"name":"Party City","code":null,"latitude":35.158398,"longitude":-89.793137,"address":"1250 North Germantown Pkwy, Memphis TN","chain_name":null,"distance":0},{"name":"Party City","code":null,"latitude":35.3850612,"longitude":-119.1080488,"address":"2710 Company Dr, Bakersfield CA","chain_name":null,"distance":0},{"name":"Party City","code":null,"latitude":40.6869266,"longitude":-73.3484438,"address":"737 West Montauk Hwy, West Babylon NY","chain_name":null,"distance":0},{"name":"Party City","code":null,"latitude":33.8830968,"longitude":-84.4616561,"address":"2955 Cobb Parkway, Atlanta GA","chain_name":null,"distance":0},{"name":"Party City","code":null,"latitude":40.8105464,"longitude":-73.951433,"address":"301 W. 125th St., New York NY","chain_name":null,"distance":0},{"name":"Party City","code":null,"latitude":44.8364584,"longitude":-93.1556434,"address":"1279 Promenade Pl, Eagan MN","chain_name":null,"distance":0},{"name":"Party City","code":null,"latitude":25.6869165,"longitude":-80.3641532,"address":"10550 SW 88th St, Miami FL","chain_name":null,"distance":0},{"name":"Party City","code":null,"latitude":35.1373818,"longitude":-80.7343426,"address":"1816 Galleria Blvd, Charlotte NC","chain_name":null,"distance":0},{"name":"Party City","code":null,"latitude":44.7284524,"longitude":-93.2141921,"address":"7365 153rd St, Apple Valley MN","chain_name":null,"distance":0},{"name":"Party City","code":null,"latitude":34.916239,"longitude":-120.4359146,"address":"2410 S Broadway, Santa Maria CA","chain_name":null,"distance":0},{"name":"Party City","code":null,"latitude":43.0208652,"longitude":-85.6890379,"address":"3175 Alpine Ave NW, Walker MI","chain_name":null,"distance":0},{"name":"Party City","code":null,"latitude":35.162484,"longitude":-80.874998,"address":"5401 South Blvd, Charlotte NC","chain_name":null,"distance":0},{"name":"Party City","code":null,"latitude":40.3098201,"longitude":-76.7995798,"address":"5125 Jonestown Rd, East Harrisburg PA","chain_name":null,"distance":0},{"name":"Party City","code":null,"latitude":41.2330634,"longitude":-96.1222931,"address":"13439 West Center Rd, Omaha NE","chain_name":null,"distance":0},{"name":"Party City","code":null,"latitude":45.0301576,"longitude":-93.4555059,"address":"4130 Berkshire Ln, Plymouth MN","chain_name":null,"distance":0},{"name":"Party City","code":null,"latitude":40.8458153,"longitude":-81.9440004,"address":"3793 Burbank Rd, Wooster OH","chain_name":null,"distance":0},{"name":"Party City","code":null,"latitude":33.6284661,"longitude":-111.8927834,"address":"15740 North Pima Rd, Scottsdale AZ","chain_name":null,"distance":0},{"name":"Party City","code":null,"latitude":34.0167625,"longitude":-84.5492753,"address":"50 Barrett Pkwy, Marietta GA","chain_name":null,"distance":0},{"name":"Party City","code":null,"latitude":38.6562147,"longitude":-121.1206099,"address":"2780 East Bidwell St, Folsom CA","chain_name":null,"distance":0},{"name":"Party City","code":null,"latitude":40.7795992,"longitude":-73.0017672,"address":"120 Sunrise Hwy, Patchogue NY","chain_name":null,"distance":0},{"name":"Party City","code":null,"latitude":40.9666129,"longitude":-74.0791185,"address":"669 South Rt. 17, Paramus NJ","chain_name":null,"distance":0},{"name":"Party City","code":null,"latitude":33.6396723,"longitude":-112.2307895,"address":"8026 West Bell Rd, Glendale AZ","chain_name":null,"distance":0},{"name":"Party City","code":null,"latitude":42.2679372,"longitude":-88.9923596,"address":"6370 East State St, Rockford IL","chain_name":null,"distance":0},{"name":"Party City","code":null,"latitude":38.9302152,"longitude":-94.3586165,"address":"967 NE Rice Rd, Lee's Summit MO","chain_name":null,"distance":0},{"name":"Party City","code":null,"latitude":41.3172435,"longitude":-96.0273244,"address":"6404 North 73rd Plaza, Omaha NE","chain_name":null,"distance":0},{"name":"Party City","code":null,"latitude":48.1013491,"longitude":-122.1814876,"address":"3721 116th Str, Marysville WA","chain_name":null,"distance":0},{"name":"Party City","code":null,"latitude":42.7746022,"longitude":-73.8896344,"address":"424 Balltown Rd, Schenectady NY","chain_name":null,"distance":0},{"name":"Party City","code":null,"latitude":30.4139388,"longitude":-97.6710733,"address":"12901 North I-H 35, Austin TX","chain_name":null,"distance":0},{"name":"Party City","code":null,"latitude":37.9792445,"longitude":-87.4739255,"address":"311 North Burkhardt Rd, Evansville IN","chain_name":null,"distance":0},{"name":"Party City","code":null,"latitude":35.4185265,"longitude":-80.6780831,"address":"6110 Bayfield Pkwy, Concord NC","chain_name":null,"distance":0},{"name":"Party City","code":null,"latitude":43.0960394,"longitude":-70.8018769,"address":"2064 Woodbury Ave, Newington NH","chain_name":null,"distance":0},{"name":"Party City","code":null,"latitude":30.4344292,"longitude":-84.2555024,"address":"1739 Apalachee Pkwy, Tallahassee FL","chain_name":null,"distance":0},{"name":"Party City","code":null,"latitude":35.3494802,"longitude":-80.8554906,"address":"9320 Center Lake Drive, Charlotte NC","chain_name":null,"distance":0},{"name":"Party City","code":null,"latitude":41.9593049,"longitude":-73.984806,"address":"950 Miron Ln, Kingston NY","chain_name":null,"distance":0},{"name":"Party City","code":null,"latitude":42.924592,"longitude":-72.3061534,"address":"14 Ash Brook Road, Keene NH","chain_name":null,"distance":0},{"name":"Party City","code":null,"latitude":33.6967869,"longitude":-117.8842874,"address":"3837 S Bristol Street, Santa Ana CA","chain_name":null,"distance":0},{"name":"Party City","code":null,"latitude":47.7578539,"longitude":-122.1531132,"address":"18027 Garden Way, NE, Woodinville WA","chain_name":null,"distance":0},{"name":"Party City","code":null,"latitude":40.9858197,"longitude":-73.8244384,"address":"2642 Central Park Ave, Yonkers NY","chain_name":null,"distance":0},{"name":"Party City","code":null,"latitude":32.5998524,"longitude":-96.937131,"address":"715 N US Hwy 67, Cedar Hill TX","chain_name":null,"distance":0},{"name":"Party City","code":null,"latitude":40.220194,"longitude":-85.3783221,"address":"800 E McGalliard Rd, Muncie IN","chain_name":null,"distance":0},{"name":"Party City","code":null,"latitude":42.0118794,"longitude":-87.7687093,"address":"5651 W. Touhy Avenue, Niles IL","chain_name":null,"distance":0},{"name":"Party City","code":null,"latitude":32.9782864,"longitude":-117.0845137,"address":"11465 Carmel Mountain Rd, San Diego CA","chain_name":null,"distance":0},{"name":"Party City","code":null,"latitude":48.4600564,"longitude":-122.3388156,"address":"147 Cascade Mall Dr, Burlington WA","chain_name":null,"distance":0},{"name":"Party City","code":null,"latitude":25.8087306,"longitude":-80.1951913,"address":"3401 N Miami Avenue, Miami FL","chain_name":null,"distance":0},{"name":"Party City","code":null,"latitude":28.2940913,"longitude":-82.708994,"address":"9442 US Highway 19 N, Port Richey FL","chain_name":null,"distance":0},{"name":"Party City","code":null,"latitude":28.7991884,"longitude":-81.332242,"address":"2171 Wp Ball Blvd, Sanford FL","chain_name":null,"distance":0},{"name":"Party City","code":null,"latitude":42.1902586,"longitude":-88.109716,"address":"795 West Main St, Lake Zurich IL","chain_name":null,"distance":0},{"name":"Party City","code":null,"latitude":40.7281591,"longitude":-73.5057243,"address":"3541 Hempstead Tnpk, Levittown NY","chain_name":null,"distance":0},{"name":"Party City","code":null,"latitude":33.7267388,"longitude":-84.7333035,"address":"2910 Chapel Hill Rd, Douglasville GA","chain_name":null,"distance":0},{"name":"Party City","code":null,"latitude":27.2563671,"longitude":-80.2792457,"address":"4189 NW Federal Hwy, Jensen Beach FL","chain_name":null,"distance":0},{"name":"Party City","code":null,"latitude":26.0456073,"longitude":-80.1585454,"address":"3911 Oakwood Blvd, Hollywood FL","chain_name":null,"distance":0},{"name":"Party City","code":null,"latitude":40.7934322,"longitude":-73.4151214,"address":"610 Broad Hollow Rd (Rte 110), Melville NY","chain_name":null,"distance":0},{"name":"Party City","code":null,"latitude":39.6088519,"longitude":-104.7105448,"address":"23901 East Orchard Rd, Aurora CO","chain_name":null,"distance":0},{"name":"Party City","code":null,"latitude":37.6383658,"longitude":-77.5515579,"address":"9130 West Broad St, Richmond VA","chain_name":null,"distance":0},{"name":"Party City","code":null,"latitude":37.6772701,"longitude":-120.9954298,"address":"2401 McHenry Ave, Modesto CA","chain_name":null,"distance":0},{"name":"Party City","code":null,"latitude":36.8068695,"longitude":-119.8587983,"address":"3623 West Shaw Ave, Fresno CA","chain_name":null,"distance":0},{"name":"Party City","code":null,"latitude":36.0622243,"longitude":-95.8636183,"address":"10111 East 71st St., Tulsa OK","chain_name":null,"distance":0},{"name":"Party City","code":null,"latitude":32.8188665,"longitude":-83.7136318,"address":"4666 Presidential Pkwy, Macon GA","chain_name":null,"distance":0},{"name":"Party City","code":null,"latitude":47.113071,"longitude":-122.290472,"address":"10408 156TH St, Puyallup WA","chain_name":null,"distance":0},{"name":"Party City","code":null,"latitude":47.3665849,"longitude":-122.2046526,"address":"26225 104th Ave, SE, Kent WA","chain_name":null,"distance":0},{"name":"Party City","code":null,"latitude":30.1969642,"longitude":-93.1724325,"address":"3140 East Prien Lake, Lake Charles LA","chain_name":null,"distance":0},{"name":"Party City","code":null,"latitude":39.874262,"longitude":-84.1371112,"address":"8160 Old Troy Pike, Huber Heights OH","chain_name":null,"distance":0},{"name":"Party City","code":null,"latitude":35.039689,"longitude":-85.154212,"address":"2210-B Hamilton Pkwy Blvd, Chattanooga TN","chain_name":null,"distance":0},{"name":"Party City","code":null,"latitude":35.8440031,"longitude":-86.4278285,"address":"1979 Old Fort Pkwy, Murfreesboro TN","chain_name":null,"distance":0},{"name":"Party City","code":null,"latitude":33.1826674,"longitude":-117.3448091,"address":"2130 Vista Way, Oceanside CA","chain_name":null,"distance":0},{"name":"Party City","code":null,"latitude":35.762482,"longitude":-78.7406836,"address":"203 Crossroads Blvd, Cary NC","chain_name":null,"distance":0},{"name":"Party City","code":null,"latitude":41.7512199,"longitude":-88.0112588,"address":"1140 75th St, Downers Grove IL","chain_name":null,"distance":0},{"name":"Party City","code":null,"latitude":33.6598719,"longitude":-84.4997228,"address":"3628 Marketplace Blvd, East Point GA","chain_name":null,"distance":0},{"name":"Party City","code":null,"latitude":30.1760806,"longitude":-92.0785371,"address":"5700 Johnston St, Lafayette LA","chain_name":null,"distance":0},{"name":"Party City","code":null,"latitude":33.925706,"longitude":-118.1268692,"address":"12076 Lakewood Blvd, Downey CA","chain_name":null,"distance":0},{"name":"Party City","code":null,"latitude":32.6586792,"longitude":-97.0613572,"address":"5240 South Highway 360, Grand Prairie TX","chain_name":null,"distance":0},{"name":"Party City","code":null,"latitude":39.71014,"longitude":-105.073335,"address":"7000 West Alameda Ave, Lakewood CO","chain_name":null,"distance":0},{"name":"Party City","code":null,"latitude":44.1708383,"longitude":-93.9505225,"address":"1870 Adams St, Mankato MN","chain_name":null,"distance":0},{"name":"Party City","code":null,"latitude":33.7942283,"longitude":-118.3322985,"address":"25361 Crenshaw Blvd, Torrance CA","chain_name":null,"distance":0},{"name":"Party City","code":null,"latitude":45.6223024,"longitude":-122.5564384,"address":"305E NE Chkalov Dr, Vancouver WA","chain_name":null,"distance":0},{"name":"Party City","code":null,"latitude":27.392314,"longitude":-82.4534909,"address":"8111 Cooper Creek Blvd, University Park FL","chain_name":null,"distance":0},{"name":"Party City","code":null,"latitude":37.7658162,"longitude":-122.4105237,"address":"1685 Bryant St, San Francisco CA","chain_name":null,"distance":0},{"name":"Party City","code":null,"latitude":42.2387199,"longitude":-87.949587,"address":"555 East Townline Road, Vernon Hills IL","chain_name":null,"distance":0},{"name":"Party City","code":null,"latitude":38.4231487,"longitude":-121.4155059,"address":"7440 Laguna Blvd, Elk Grove CA","chain_name":null,"distance":0},{"name":"Party City","code":null,"latitude":41.6675632,"longitude":-88.2060583,"address":"11830 South Route 59, Plainfield IL","chain_name":null,"distance":0},{"name":"Party City","code":null,"latitude":39.0426465,"longitude":-94.3434683,"address":"20130 E. Jackson Drive, Independence MO","chain_name":null,"distance":0},{"name":"Party City","code":null,"latitude":39.5238139,"longitude":-76.3542426,"address":"615 Baltimore Pike, Bel Air MD","chain_name":null,"distance":0},{"name":"Party City","code":null,"latitude":41.759496,"longitude":-71.457389,"address":"162 Hillside Rd, Cranston RI","chain_name":null,"distance":0},{"name":"Party City","code":null,"latitude":26.2087381,"longitude":-81.7703834,"address":"2334 Pine Ridge Rd, Naples FL","chain_name":null,"distance":0},{"name":"Party City","code":null,"latitude":34.1525883,"longitude":-118.4541429,"address":"14735 Ventura Blvd, Sherman Oaks CA","chain_name":null,"distance":0},{"name":"Party City","code":null,"latitude":41.5669376,"longitude":-73.005666,"address":"910 Wolcott Street, Waterbury CT","chain_name":null,"distance":0},{"name":"Party City","code":null,"latitude":41.8311472,"longitude":-88.1081586,"address":"116 Danada Square West, Wheaton IL","chain_name":null,"distance":0},{"name":"Party City","code":null,"latitude":41.3172435,"longitude":-96.0273244,"address":"6404 N 73rd Plz, Omaha NE","chain_name":null,"distance":0},{"name":"Party City","code":null,"latitude":41.6895453,"longitude":-71.4986723,"address":"300 Quaker Lane, Warwick RI","chain_name":null,"distance":0},{"name":"Party City","code":null,"latitude":41.9437317,"longitude":-87.6878049,"address":"3417 North Western Ave, Chicago IL","chain_name":null,"distance":0},{"name":"Party City","code":null,"latitude":35.6993951,"longitude":-81.3058014,"address":"1942 Catawba Valley Blvd SE, Hickory NC","chain_name":null,"distance":0},{"name":"Party City","code":null,"latitude":45.5294145,"longitude":-122.4306955,"address":"22844 NE Park Ln, Troutdale OR","chain_name":null,"distance":0},{"name":"Party City","code":null,"latitude":29.6623078,"longitude":-95.7452569,"address":"5466 West Grand Parkway South, Richmond TX","chain_name":null,"distance":0},{"name":"Party City","code":null,"latitude":42.5164435,"longitude":-83.1887671,"address":"30979 Woodward Ave, Royal Oak MI","chain_name":null,"distance":0},{"name":"Party City","code":null,"latitude":26.7054298,"longitude":-80.1074058,"address":"4262 Okeechobee Blvd, West Palm Beach FL","chain_name":null,"distance":0},{"name":"Party City","code":null,"latitude":47.044568,"longitude":-122.9333583,"address":"2315 4th Ave W., Olympia WA","chain_name":null,"distance":0},{"name":"Party City","code":null,"latitude":40.4510612,"longitude":-80.1805318,"address":"120 Quinn Drive Plaza at the Pointe, Pittsburgh PA","chain_name":null,"distance":0},{"name":"Party City","code":null,"latitude":29.7688846,"longitude":-94.8728093,"address":"3225 Southwest Frwy, Houston TX","chain_name":null,"distance":0},{"name":"Party City","code":null,"latitude":35.086593,"longitude":-80.847493,"address":"7601 Pineville-Matthews Rd, Charlotte NC","chain_name":null,"distance":0},{"name":"Party City","code":null,"latitude":33.3982945,"longitude":-86.8046571,"address":"1615 Montgomery Hwy, Birmingham AL","chain_name":null,"distance":0},{"name":"Party City","code":null,"latitude":37.2512928,"longitude":-77.3911107,"address":"1865 Southpark Blvd, Colonial Heights VA","chain_name":null,"distance":0},{"name":"Party City","code":null,"latitude":40.6827507,"longitude":-80.3018224,"address":"115 Wagner Road, Monaca PA","chain_name":null,"distance":0},{"name":"Party City","code":null,"latitude":32.8562397,"longitude":-96.7504562,"address":"305 Medallion Center, Dallas TX","chain_name":null,"distance":0},{"name":"Party City","code":null,"latitude":33.4223043,"longitude":-86.6819782,"address":"5287 Highway 280, Birmingham AL","chain_name":null,"distance":0},{"name":"Party City","code":null,"latitude":45.6871226,"longitude":-122.6665826,"address":"8920 NE 5th Ave, Vancouver WA","chain_name":null,"distance":0},{"name":"Party City","code":null,"latitude":29.8546213,"longitude":-95.51174,"address":"13760 Northwest Freeway, Houston TX","chain_name":null,"distance":0},{"name":"Party City","code":null,"latitude":38.7714177,"longitude":-77.1701027,"address":"6721 Frontier Dr, Springfield VA","chain_name":null,"distance":0},{"name":"Party City","code":null,"latitude":40.7462818,"longitude":-73.6177375,"address":"192 Glen Cove Road, Carle Place NY","chain_name":null,"distance":0},{"name":"Party City","code":null,"latitude":40.6838058,"longitude":-73.975526,"address":"625 Atlantic Ave, Brooklyn NY","chain_name":null,"distance":0},{"name":"Party City","code":null,"latitude":40.632036,"longitude":-73.948016,"address":"2166 Nostrand Avenue, Brooklyn NY","chain_name":null,"distance":0},{"name":"Party City","code":null,"latitude":26.189452,"longitude":-80.1367564,"address":"843 East Commercial Blvd, Oakland Park FL","chain_name":null,"distance":0},{"name":"Party City","code":null,"latitude":40.0130244,"longitude":-74.9598751,"address":"4004 U.S. 130, Delran NJ","chain_name":null,"distance":0},{"name":"Party City","code":null,"latitude":39.110272,"longitude":-77.5522457,"address":"510-A East Market St, Leesburg VA","chain_name":null,"distance":0},{"name":"Party City","code":null,"latitude":33.5334207,"longitude":-81.7244349,"address":"1396 Whiskey Road, Aiken SC","chain_name":null,"distance":0},{"name":"Party City","code":null,"latitude":36.764021,"longitude":-76.249265,"address":"109 Volvo Parkway Suite 16-19, Chesapeake VA","chain_name":null,"distance":0},{"name":"Party City","code":null,"latitude":40.1695468,"longitude":-74.8503861,"address":"461 Oxford Valley Rd, Fairless Hills PA","chain_name":null,"distance":0},{"name":"Party City","code":null,"latitude":25.9224673,"longitude":-80.1539094,"address":"15947 Biscayne Blvd, North Miami Beach FL","chain_name":null,"distance":0},{"name":"Party City","code":null,"latitude":29.4871668,"longitude":-98.5895794,"address":"5127 NW Loop 410, San Antonio TX","chain_name":null,"distance":0},{"name":"Party City","code":null,"latitude":42.992794,"longitude":-83.7317688,"address":"G - 3549 Miller Rd, Flint MI","chain_name":null,"distance":0},{"name":"Party City","code":null,"latitude":45.0967646,"longitude":-93.4433146,"address":"12810 Elm Creek Blvd, Maple Grove MN","chain_name":null,"distance":0},{"name":"Party City","code":null,"latitude":41.5999491,"longitude":-87.5628278,"address":"450 River Oaks West, Calumet City IL","chain_name":null,"distance":0},{"name":"Party City","code":null,"latitude":45.3185542,"longitude":-93.5639688,"address":"19226 Freeport St NW, Elk River MN","chain_name":null,"distance":0},{"name":"Party City","code":null,"latitude":35.9693215,"longitude":-86.8092212,"address":"1630 Galleria Blvd, Brentwood TN","chain_name":null,"distance":0},{"name":"Party City","code":null,"latitude":36.138543,"longitude":-86.8835371,"address":"6622 Charlotte Pike, Nashville TN","chain_name":null,"distance":0},{"name":"Party City","code":null,"latitude":42.6957669,"longitude":-73.8470679,"address":"165 Washington Avenue Extension, Albany NY","chain_name":null,"distance":0},{"name":"Party City","code":null,"latitude":42.7172082,"longitude":-87.8436641,"address":"5201 Washington Ave, Racine WI","chain_name":null,"distance":0},{"name":"Party City","code":null,"latitude":40.6257064,"longitude":-74.1389706,"address":"1549 Forest Ave, Staten Island NY","chain_name":null,"distance":0},{"name":"Party City","code":null,"latitude":42.6620025,"longitude":-83.1345209,"address":"1328 S Rochester Rd, Rochester Hills MI","chain_name":null,"distance":0},{"name":"Party City","code":null,"latitude":25.7915622,"longitude":-80.3678913,"address":"10650 NW 19th St, Miami FL","chain_name":null,"distance":0},{"name":"Party City","code":null,"latitude":38.4722328,"longitude":-77.4089436,"address":"1240 Stafford Market Place, Stafford VA","chain_name":null,"distance":0},{"name":"Party City","code":null,"latitude":37.745304,"longitude":-97.245326,"address":"3411 North Rock Rd, Wichita KS","chain_name":null,"distance":0},{"name":"Party City","code":null,"latitude":38.2643282,"longitude":-122.0522417,"address":"1335 Gateway Blvd, Fairfield CA","chain_name":null,"distance":0},{"name":"Party City","code":null,"latitude":32.4002045,"longitude":-90.1395469,"address":"900 East County Line Rd, Ridgeland MS","chain_name":null,"distance":0},{"name":"Party City","code":null,"latitude":33.9970346,"longitude":-117.7157599,"address":"4037 Grand Ave, Chino CA","chain_name":null,"distance":0},{"name":"Party City","code":null,"latitude":42.0582758,"longitude":-80.0842879,"address":"1908 Keystone Dr, Erie PA","chain_name":null,"distance":0},{"name":"Party City","code":null,"latitude":40.4645567,"longitude":-86.1047328,"address":"2132 East Blvd, Kokomo IN","chain_name":null,"distance":0},{"name":"Party City","code":null,"latitude":40.8972506,"longitude":-73.7960836,"address":"80 Nardozzi Pl, New Rochelle NY","chain_name":null,"distance":0},{"name":"Party City","code":null,"latitude":42.406798,"longitude":-71.0923474,"address":"3850 Mystic Valley Pkwy, Medford MA","chain_name":null,"distance":0},{"name":"Party City","code":null,"latitude":41.7787035,"longitude":-88.3724174,"address":"2292 West Indian Trail, Aurora IL","chain_name":null,"distance":0},{"name":"Party City","code":null,"latitude":30.3858989,"longitude":-91.0658207,"address":"7054 Siegen Ln, Baton Rouge LA","chain_name":null,"distance":0},{"name":"Party City","code":null,"latitude":40.1517883,"longitude":-105.1301894,"address":"900 S Hover St, Longmont CO","chain_name":null,"distance":0},{"name":"Party City","code":null,"latitude":32.6238013,"longitude":-116.9677412,"address":"2015 Birch Road, Chula Vista CA","chain_name":null,"distance":0},{"name":"Party City","code":null,"latitude":42.9981633,"longitude":-78.8212562,"address":"1565 Niagara Falls Blvd, Amherst NY","chain_name":null,"distance":0},{"name":"Party City","code":null,"latitude":41.173431,"longitude":-87.8540515,"address":"1595 N State Route 50, Bourbonnais IL","chain_name":null,"distance":0},{"name":"Party City","code":null,"latitude":32.1538752,"longitude":-110.9904268,"address":"5367 South Calle Santa Cruz, Tucson AZ","chain_name":null,"distance":0},{"name":"Party City","code":null,"latitude":42.1145685,"longitude":-87.9844619,"address":"111 West Rand Road, Arlington Heights IL","chain_name":null,"distance":0},{"name":"Party City","code":null,"latitude":43.0167113,"longitude":-87.9963524,"address":"6718 W Greenfield Ave, West Allis WI","chain_name":null,"distance":0},{"name":"Party City","code":null,"latitude":28.0968263,"longitude":-81.9738925,"address":"4286 US Highway 98 North, Lakeland FL","chain_name":null,"distance":0},{"name":"Party City","code":null,"latitude":39.4232642,"longitude":-75.0421752,"address":"2154 North 2nd St, Millville NJ","chain_name":null,"distance":0},{"name":"Party City","code":null,"latitude":41.3790334,"longitude":-81.7875657,"address":"6935 Southland Dr, Middleburg Heights OH","chain_name":null,"distance":0},{"name":"Party City","code":null,"latitude":42.383672,"longitude":-87.9705086,"address":"6675 Grand Ave, Gurnee IL","chain_name":null,"distance":0},{"name":"Party City","code":null,"latitude":43.0233924,"longitude":-85.6890623,"address":"3330 Alpine Ave NW, Walker MI","chain_name":null,"distance":0},{"name":"Party City","code":null,"latitude":26.2619632,"longitude":-98.1726106,"address":"305 E. Trenton Road, Edinburg TX","chain_name":null,"distance":0},{"name":"Party City","code":null,"latitude":42.107781,"longitude":-70.7644568,"address":"296 Old Oak Street, Pembroke MA","chain_name":null,"distance":0},{"name":"Party City","code":null,"latitude":32.3449567,"longitude":-86.2216226,"address":"2759 Eastern Blvd, Montgomery AL","chain_name":null,"distance":0},{"name":"Party City","code":null,"latitude":39.014561,"longitude":-77.3755625,"address":"47100 Community Plaza, Sterling VA","chain_name":null,"distance":0},{"name":"Party City","code":null,"latitude":38.3011621,"longitude":-77.5114109,"address":"1280 Carl D Silver Pkwy, Fredericksburg VA","chain_name":null,"distance":0},{"name":"Party City","code":null,"latitude":42.1658895,"longitude":-88.3393433,"address":"704 South Randall Rd, Algonquin IL","chain_name":null,"distance":0},{"name":"Party City","code":null,"latitude":37.9824367,"longitude":-84.5305122,"address":"127 W Tiverton Way, Lexington KY","chain_name":null,"distance":0},{"name":"Party City","code":null,"latitude":27.7879577,"longitude":-82.7252959,"address":"1960 Tyrone Blvd, St. Petersburg FL","chain_name":null,"distance":0},{"name":"Party City","code":null,"latitude":44.4623599,"longitude":-73.182993,"address":"215 Dorset St, South Burlington VT","chain_name":null,"distance":0},{"name":"Party City","code":null,"latitude":33.012855,"longitude":-96.970206,"address":"735 Hebron Pkwy, Lewisville TX","chain_name":null,"distance":0},{"name":"Party City","code":null,"latitude":41.8988553,"longitude":-71.3526299,"address":"1190 Newport Ave, South Atteboro MA","chain_name":null,"distance":0},{"name":"Party City","code":null,"latitude":40.1401825,"longitude":-88.2600737,"address":"2019 North Prospect, Champaign IL","chain_name":null,"distance":0},{"name":"Party City","code":null,"latitude":39.7979922,"longitude":-86.2637481,"address":"5926B Crawfordsville Rd, Speedway IN","chain_name":null,"distance":0},{"name":"Party City","code":null,"latitude":37.4897581,"longitude":-122.2194692,"address":"1289 Veterans Blvd, Redwood City CA","chain_name":null,"distance":0},{"name":"Party City","code":null,"latitude":29.1057924,"longitude":-81.0321423,"address":"5503 S. Williamson Rd., Port Orange FL","chain_name":null,"distance":0},{"name":"Party City","code":null,"latitude":43.8703759,"longitude":-91.2114067,"address":"1228 Crossing Meadows Drive, Onalaska WI","chain_name":null,"distance":0},{"name":"Party City","code":null,"latitude":41.6971861,"longitude":-88.320498,"address":"3060 West Rte 34, Oswego IL","chain_name":null,"distance":0},{"name":"Party City","code":null,"latitude":32.2211313,"longitude":-110.8734607,"address":"5566 E Broadway Blvd, Tucson AZ","chain_name":null,"distance":0},{"name":"Party City","code":null,"latitude":40.0660995,"longitude":-83.0870212,"address":"2630 Bethel, Columbus OH","chain_name":null,"distance":0},{"name":"Party City","code":null,"latitude":41.563913,"longitude":-93.796179,"address":"6503 Mills Civic Pkwy, West Des Moines IA","chain_name":null,"distance":0},{"name":"Party City","code":null,"latitude":39.6708146,"longitude":-104.939291,"address":"2530 S Colorado Road, Denver CO","chain_name":null,"distance":0},{"name":"Party City","code":null,"latitude":44.7738074,"longitude":-93.5052443,"address":"1607 - 17th Avenue E, Shakopee MN","chain_name":null,"distance":0},{"name":"Party City","code":null,"latitude":29.9725521,"longitude":-95.5263175,"address":"6452 FM 1960 West, Houston TX","chain_name":null,"distance":0},{"name":"Party City","code":null,"latitude":40.0382573,"longitude":-85.9915379,"address":"17160 Mercantile Blvd, Noblesville IN","chain_name":null,"distance":0},{"name":"Party City","code":null,"latitude":29.4722835,"longitude":-95.0951662,"address":"2560 Gulf Freeway South, League City TX","chain_name":null,"distance":0},{"name":"Party City","code":null,"latitude":42.9861787,"longitude":-78.693811,"address":"5097 Transit Rd, Buffalo NY","chain_name":null,"distance":0},{"name":"Party City","code":null,"latitude":44.8593546,"longitude":-93.3070457,"address":"7989 1\/2 Southtown Ctr, Bloomington MN","chain_name":null,"distance":0},{"name":"Party City","code":null,"latitude":45.0050092,"longitude":-93.2273833,"address":"1630 New Brighton Blvd, Minneapolis MN","chain_name":null,"distance":0},{"name":"Party City","code":null,"latitude":40.751662,"longitude":-73.9914483,"address":"223 W 34th St, New York NY","chain_name":null,"distance":0},{"name":"Party City","code":null,"latitude":39.286812,"longitude":-76.7615187,"address":"6500 Baltimore National Pike, Catonsville MD","chain_name":null,"distance":0},{"name":"Party City","code":null,"latitude":41.1808814,"longitude":-73.2497115,"address":"2009 Black Rock Turnpike, Fairfield CT","chain_name":null,"distance":0},{"name":"Party City","code":null,"latitude":28.5252887,"longitude":-81.5815557,"address":"3089 Daniels Rd, Winter Garden FL","chain_name":null,"distance":0},{"name":"Party City","code":null,"latitude":30.0040827,"longitude":-90.1530197,"address":"3009 Veterans Memorial Blvd, Metairie LA","chain_name":null,"distance":0},{"name":"Party City","code":null,"latitude":34.0292306,"longitude":-118.4510528,"address":"12121 West Pico Blvd, West Los Angeles CA","chain_name":null,"distance":0},{"name":"Party City","code":null,"latitude":38.9997612,"longitude":-84.6533896,"address":"7646 Mall Rd, Florence KY","chain_name":null,"distance":0},{"name":"Party City","code":null,"latitude":42.2735179,"longitude":-71.7501969,"address":"100 Boston Tpke, Shrewsbury MA","chain_name":null,"distance":0},{"name":"Party City","code":null,"latitude":42.9109188,"longitude":-85.5403959,"address":"5114 28th Street SE, Grand Rapids MI","chain_name":null,"distance":0},{"name":"Party City","code":null,"latitude":38.9415098,"longitude":-76.7361975,"address":"3841 Evergreen Pkwy, Bowie MD","chain_name":null,"distance":0},{"name":"Party City","code":null,"latitude":39.219945,"longitude":-78.1351734,"address":"143 Market Street, Winchester VA","chain_name":null,"distance":0},{"name":"Party City","code":null,"latitude":26.625987,"longitude":-81.940722,"address":"1420 Del Prado Blvd South, Cape Coral FL","chain_name":null,"distance":0},{"name":"Party City","code":null,"latitude":32.8223789,"longitude":-97.2009963,"address":"1323 West Pipeline Rd, Hurst TX","chain_name":null,"distance":0},{"name":"Party City","code":null,"latitude":42.2466793,"longitude":-71.0045324,"address":"100 Granite Street, Quincy MA","chain_name":null,"distance":0},{"name":"Party City","code":null,"latitude":30.019167,"longitude":-90.2377363,"address":"3424 Williams Blvd, Kenner LA","chain_name":null,"distance":0},{"name":"Party City","code":null,"latitude":42.3045367,"longitude":-83.258345,"address":"22938 Micigan Ave, Dearborn MI","chain_name":null,"distance":0},{"name":"Party City","code":null,"latitude":39.7740606,"longitude":-85.979574,"address":"10537 East Washington St, Indianapolis IN","chain_name":null,"distance":0},{"name":"Party City","code":null,"latitude":29.6561127,"longitude":-98.4472736,"address":"23026 US 281 North, San Antonio TX","chain_name":null,"distance":0},{"name":"Party City","code":null,"latitude":41.538447,"longitude":-88.1972418,"address":"988 Brookforest Ave, Shorewood IL","chain_name":null,"distance":0},{"name":"Party City","code":null,"latitude":26.5288492,"longitude":-80.0919672,"address":"339 North Congress Ave, Boynton Beach FL","chain_name":null,"distance":0},{"name":"Party City","code":null,"latitude":42.5486544,"longitude":-71.7630416,"address":"516 N Main Street, Leominster MA","chain_name":null,"distance":0},{"name":"Party City","code":null,"latitude":37.9837635,"longitude":-122.3189468,"address":"3500A Kloseway, Richmond CA","chain_name":null,"distance":0},{"name":"Party City","code":null,"latitude":40.9429023,"longitude":-98.3776611,"address":"2235 North Webb Rd, Grand Island NE","chain_name":null,"distance":0},{"name":"Party City","code":null,"latitude":28.5534051,"longitude":-81.2054903,"address":"331 North Alafaya Trl, Orlando FL","chain_name":null,"distance":0},{"name":"Party City","code":null,"latitude":26.4066699,"longitude":-81.8062039,"address":"8070 Mediterranean Dr, Estero FL","chain_name":null,"distance":0},{"name":"Party City","code":null,"latitude":36.2699305,"longitude":-115.2634125,"address":"7751 West Tropical Pkwy, Las Vegas NV","chain_name":null,"distance":0},{"name":"Party City","code":null,"latitude":32.2050451,"longitude":-110.7870037,"address":"9620 East 22nd St, Tucson AZ","chain_name":null,"distance":0},{"name":"Party City","code":null,"latitude":32.6506498,"longitude":-96.8637448,"address":"39759 LBJ Freeway, Dallas TX","chain_name":null,"distance":0},{"name":"Party City","code":null,"latitude":27.4606635,"longitude":-82.5708417,"address":"845 Cortez Rd West, Bradenton FL","chain_name":null,"distance":0},{"name":"Party City","code":null,"latitude":30.003911,"longitude":-95.2702796,"address":"19739 Hwy 59, Humble TX","chain_name":null,"distance":0},{"name":"Party City","code":null,"latitude":33.7251009,"longitude":-117.7947722,"address":"2826 El Camino Real, Irvine CA","chain_name":null,"distance":0},{"name":"Party City","code":null,"latitude":39.1277599,"longitude":-76.5913664,"address":"8044 Ritchie Hwy, Pasadena MD","chain_name":null,"distance":0},{"name":"Party City","code":null,"latitude":38.2177538,"longitude":-85.6231958,"address":"4048 Taylorsville Rd, Louisville KY","chain_name":null,"distance":0},{"name":"Party City","code":null,"latitude":33.529029,"longitude":-117.153573,"address":"40486 Winchester Rd, Temecula CA","chain_name":null,"distance":0},{"name":"Party City","code":null,"latitude":40.8606295,"longitude":-73.8901235,"address":"1 Fordham Plaza, Bronx NY","chain_name":null,"distance":0},{"name":"Party City","code":null,"latitude":35.5982643,"longitude":-80.8698303,"address":"590 F River Hwy, Mooresville NC","chain_name":null,"distance":0},{"name":"Party City","code":null,"latitude":43.0634454,"longitude":-89.5245008,"address":"223 Junction Rd, Madison WI","chain_name":null,"distance":0},{"name":"Party City","code":null,"latitude":33.9410301,"longitude":-83.4574081,"address":"3658 Atlanta Hwy, Athens GA","chain_name":null,"distance":0},{"name":"Party City","code":null,"latitude":29.5682014,"longitude":-98.3279156,"address":"8226 Agora Pkwy, Schertz TX","chain_name":null,"distance":0},{"name":"Party City","code":null,"latitude":28.5516744,"longitude":-81.3425402,"address":"3220 East Colonial Dr, Orlando FL","chain_name":null,"distance":0},{"name":"Party City","code":null,"latitude":32.838359,"longitude":-97.0038094,"address":"3929 West Airport Frwy, Irving TX","chain_name":null,"distance":0},{"name":"Party City","code":null,"latitude":38.9326969,"longitude":-104.7938926,"address":"1730 East Woodmen Rd, Colorado Springs CO","chain_name":null,"distance":0},{"name":"Party City","code":null,"latitude":31.6160159,"longitude":-84.2194378,"address":"2709 Dawson Road, Albany GA","chain_name":null,"distance":0},{"name":"Party City","code":null,"latitude":37.1090899,"longitude":-76.4918368,"address":"12134 Jefferson Ave, Newport News VA","chain_name":null,"distance":0},{"name":"Party City","code":null,"latitude":32.3411619,"longitude":-111.0142987,"address":"7401 North La Cholla Blvd, Tucson AZ","chain_name":null,"distance":0},{"name":"Party City","code":null,"latitude":41.471773,"longitude":-87.304911,"address":"2565 East 80th Ave, Merrillville IN","chain_name":null,"distance":0},{"name":"Party City","code":null,"latitude":39.2032147,"longitude":-84.3714943,"address":"8063 Montgomery Rd, Cincinnati OH","chain_name":null,"distance":0},{"name":"Party City","code":null,"latitude":29.5628943,"longitude":-98.5862429,"address":"12651 Vance Jackson Rd, San Antonio TX","chain_name":null,"distance":0},{"name":"Party City","code":null,"latitude":27.8576335,"longitude":-97.6323675,"address":"4101 Hwy 77, Corpus Christi TX","chain_name":null,"distance":0},{"name":"Party City","code":null,"latitude":39.9291455,"longitude":-82.7866811,"address":"10701 Blacklick-Eastern Road, Pickerington OH","chain_name":null,"distance":0},{"name":"Party City","code":null,"latitude":41.6372782,"longitude":-72.8749381,"address":"750 Queen Street, Southington CT","chain_name":null,"distance":0},{"name":"Party City","code":null,"latitude":34.2467911,"longitude":-77.8792057,"address":"4715F New Centre Dr, Wilmington NC","chain_name":null,"distance":0},{"name":"Party City","code":null,"latitude":41.3831016,"longitude":-72.1505306,"address":"915 Hartford Tpke, Waterford CT","chain_name":null,"distance":0},{"name":"Party City","code":null,"latitude":42.4952675,"longitude":-90.7169837,"address":"190 John F Kennedy Rd, Dubuque IA","chain_name":null,"distance":0},{"name":"Party City","code":null,"latitude":28.3435927,"longitude":-81.4255897,"address":"2003 West Osceola Pkwy, Kissimmee FL","chain_name":null,"distance":0},{"name":"Party City","code":null,"latitude":40.2090809,"longitude":-75.1073964,"address":"924 West Street Rd, Warminster PA","chain_name":null,"distance":0},{"name":"Party City","code":null,"latitude":36.2981298,"longitude":-119.3116468,"address":"1917 West Caldwell Avenue, Visalia CA","chain_name":null,"distance":0},{"name":"Party City","code":null,"latitude":40.1057825,"longitude":-75.2910886,"address":"2470 Chemical Rd, Plymouth Meeting PA","chain_name":null,"distance":0},{"name":"Party City","code":null,"latitude":37.2986837,"longitude":-89.5795203,"address":"244 Siemers Dr, Cape Girardeau MO","chain_name":null,"distance":0},{"name":"Party City","code":null,"latitude":35.8620576,"longitude":-78.5768251,"address":"3604 Sumner Blvd, Raleigh NC","chain_name":null,"distance":0},{"name":"Party City","code":null,"latitude":34.7985281,"longitude":-92.2363366,"address":"4822 North Hills Blvd, N. Little Rock AR","chain_name":null,"distance":0},{"name":"Party City","code":null,"latitude":33.462724,"longitude":-112.3901699,"address":"15389 West McDowell Rd, Goodyear AZ","chain_name":null,"distance":0},{"name":"Party City","code":null,"latitude":33.8528015,"longitude":-118.353244,"address":"19670 Hawthorne Blvd, Torrance CA","chain_name":null,"distance":0},{"name":"Party City","code":null,"latitude":40.7343811,"longitude":-73.3296037,"address":"1239 Deer Park Ave (Rte 231), North Babylon NY","chain_name":null,"distance":0},{"name":"Party City","code":null,"latitude":33.1911568,"longitude":-97.1029894,"address":"2315 Colorado Blvd, Denton TX","chain_name":null,"distance":0},{"name":"Party City","code":null,"latitude":44.0045067,"longitude":-92.4840366,"address":"1300 Salem Rd SW, Rochester MN","chain_name":null,"distance":0},{"name":"Party City","code":null,"latitude":39.2945986,"longitude":-84.3059944,"address":"9863 Waterstone Blvd, Cincinnati OH","chain_name":null,"distance":0},{"name":"Party City","code":null,"latitude":40.7066176,"longitude":-73.6939531,"address":"1445 Hempstead Tnpk, Elmont NY","chain_name":null,"distance":0},{"name":"Party City","code":null,"latitude":42.2819358,"longitude":-88.0456852,"address":"3050 W Il Rte 60, Mundelein IL","chain_name":null,"distance":0},{"name":"Party City","code":null,"latitude":44.2674309,"longitude":-88.4755142,"address":"4651 Michaels Dr, Appleton WI","chain_name":null,"distance":0},{"name":"Party City","code":null,"latitude":40.5263583,"longitude":-105.0214953,"address":"2924 Council Tree, Fort Collins CO","chain_name":null,"distance":0},{"name":"Party City","code":null,"latitude":41.8725337,"longitude":-88.3428812,"address":"1548 South Randall Rd, Geneva IL","chain_name":null,"distance":0},{"name":"Party City","code":null,"latitude":40.8582486,"longitude":-96.680999,"address":"4720 North 27th St, Lincoln NE","chain_name":null,"distance":0},{"name":"Party City","code":null,"latitude":28.4626589,"longitude":-81.2705623,"address":"7153 Narcoosse Road, Orlando FL","chain_name":null,"distance":0},{"name":"Party City","code":null,"latitude":36.1260472,"longitude":-94.1569524,"address":"50 West Joyce Blvd, Fayetteville AR","chain_name":null,"distance":0},{"name":"Party City","code":null,"latitude":39.0653814,"longitude":-77.1260036,"address":"1500 Rockville Pike, Rockville MD","chain_name":null,"distance":0},{"name":"Party City","code":null,"latitude":29.256597,"longitude":-81.1098203,"address":"1474 West Grenada Blvd, Ormond Beach FL","chain_name":null,"distance":0},{"name":"Party City","code":null,"latitude":42.0473368,"longitude":-88.0828129,"address":"19 Golf Center, Hoffman Estates IL","chain_name":null,"distance":0},{"name":"Party City","code":null,"latitude":37.667184,"longitude":-122.466658,"address":"317 Gellert Blvd, Daly City CA","chain_name":null,"distance":0},{"name":"Party City","code":null,"latitude":45.1944594,"longitude":-93.35229,"address":"3360 124th Ave, Coon Rapids MN","chain_name":null,"distance":0},{"name":"Party City","code":null,"latitude":35.129182,"longitude":-106.5500266,"address":"4410 Wyoming Blvd NE, Albuquerque NM","chain_name":null,"distance":0},{"name":"Party City","code":null,"latitude":44.8955882,"longitude":-93.0811688,"address":"1671 Robert St South, West St. Paul MN","chain_name":null,"distance":0},{"name":"Party City","code":null,"latitude":32.8422208,"longitude":-116.9815414,"address":"9850 Mission Gorge Rd, Santee CA","chain_name":null,"distance":0},{"name":"Party City","code":null,"latitude":47.3141967,"longitude":-122.3155407,"address":"32021 Pacific Hwy South, Federal Way WA","chain_name":null,"distance":0},{"name":"Party City","code":null,"latitude":30.22848,"longitude":-97.8196068,"address":"5601 Brodie Ln, Austin TX","chain_name":null,"distance":0},{"name":"Party City","code":null,"latitude":43.0373504,"longitude":-88.1232634,"address":"16900 West Bluemound Rd, Brookfield WI","chain_name":null,"distance":0},{"name":"Party City","code":null,"latitude":33.8777042,"longitude":-118.2205118,"address":"208 Towne Center Drive, Compton CA","chain_name":null,"distance":0},{"name":"Party City","code":null,"latitude":28.0771328,"longitude":-80.6481031,"address":"1557 West New Haven Ave, Melbourne FL","chain_name":null,"distance":0},{"name":"Party City","code":null,"latitude":39.7312653,"longitude":-82.6205766,"address":"1320 River Valley Blvd, Lancaster OH","chain_name":null,"distance":0},{"name":"Party City","code":null,"latitude":34.3882197,"longitude":-118.5711006,"address":"25670 The Old Rd, Valencia CA","chain_name":null,"distance":0},{"name":"Party City","code":null,"latitude":40.8596647,"longitude":-73.0829441,"address":"253 Centereach Mall, Centereach NY","chain_name":null,"distance":0},{"name":"Party City","code":null,"latitude":44.446005,"longitude":-73.110237,"address":"41 Hawthorne St, Williston VT","chain_name":null,"distance":0},{"name":"Party City","code":null,"latitude":36.087815,"longitude":-80.2888929,"address":"566 S. Stratford Road, Winston-Salem NC","chain_name":null,"distance":0},{"name":"Party City","code":null,"latitude":39.9777152,"longitude":-76.671544,"address":"2801 East Market St, York PA","chain_name":null,"distance":0},{"name":"Party City","code":null,"latitude":35.2581186,"longitude":-81.2508405,"address":"3686 East Franklin Blvd, Gastonia NC","chain_name":null,"distance":0},{"name":"Party City","code":null,"latitude":29.5375444,"longitude":-95.1422812,"address":"1261 West Bay Area Blvd, Webster TX","chain_name":null,"distance":0},{"name":"Party City","code":null,"latitude":43.0871634,"longitude":-77.6244908,"address":"700 Jefferson Road, Rochester NY","chain_name":null,"distance":0},{"name":"Party City","code":null,"latitude":45.0160073,"longitude":-93.1780185,"address":"2487 Fairview Ave North, Roseville MN","chain_name":null,"distance":0},{"name":"Party City","code":null,"latitude":42.0650746,"longitude":-80.1008291,"address":"2070 Interchange Rd, Erie PA","chain_name":null,"distance":0},{"name":"Party City","code":null,"latitude":32.5736637,"longitude":-97.3218152,"address":"12640 South Freeway, Burleson TX","chain_name":null,"distance":0},{"name":"Party City","code":null,"latitude":38.2920129,"longitude":-85.5605457,"address":"10230 Westport Rd, Louisville KY","chain_name":null,"distance":0},{"name":"Party City","code":null,"latitude":39.9952638,"longitude":-86.129074,"address":"14299 Clay Terrace Blvd, Carmel IN","chain_name":null,"distance":0},{"name":"Party City","code":null,"latitude":38.0896861,"longitude":-122.5549063,"address":"208 Vintage Way, Novato CA","chain_name":null,"distance":0},{"name":"Party City","code":null,"latitude":40.7308362,"longitude":-73.8871886,"address":"74-17 Grand Ave, Elmhurst NY","chain_name":null,"distance":0},{"name":"Party City","code":null,"latitude":41.2480098,"longitude":-76.969319,"address":"1738 E. 3rd Street, Williamsport PA","chain_name":null,"distance":0},{"name":"Party City","code":null,"latitude":29.9589765,"longitude":-90.183934,"address":"1000 South Clearview Pkwy, New Orleans LA","chain_name":null,"distance":0},{"name":"Party City","code":null,"latitude":42.1563076,"longitude":-71.2006601,"address":"30 Providence Hwy, Walpole MA","chain_name":null,"distance":0},{"name":"Party City","code":null,"latitude":33.592554,"longitude":-117.6588116,"address":"25410 Marguerite Pkwy, Mission Viejo CA","chain_name":null,"distance":0},{"name":"Party City","code":null,"latitude":26.185884,"longitude":-98.2110353,"address":"732 East Expressway 83, McAllen TX","chain_name":null,"distance":0},{"name":"Party City","code":null,"latitude":40.7364878,"longitude":-73.9955563,"address":"38 West 14th St, New York NY","chain_name":null,"distance":0},{"name":"Party City","code":null,"latitude":34.1523796,"longitude":-118.0816788,"address":"3353 East Foothill Blvd, Pasadena CA","chain_name":null,"distance":0},{"name":"Party City","code":null,"latitude":27.3118254,"longitude":-80.4035245,"address":"1745 NW St Lucie West Blvd, Port St Lucie FL","chain_name":null,"distance":0},{"name":"Party City","code":null,"latitude":33.788621,"longitude":-117.9645821,"address":"9661 Chapman Ave, Garden Grove CA","chain_name":null,"distance":0},{"name":"Party City","code":null,"latitude":25.6554518,"longitude":-80.4149584,"address":"13550 SW 120th St, Miami FL","chain_name":null,"distance":0},{"name":"Party City","code":null,"latitude":32.8003298,"longitude":-80.0280691,"address":"946 Orleans Road, Charleston SC","chain_name":null,"distance":0},{"name":"Party City","code":null,"latitude":40.0993149,"longitude":-75.010942,"address":"10500 Roosevelt Blvd, Philadelphia PA","chain_name":null,"distance":0},{"name":"Party City","code":null,"latitude":42.3757345,"longitude":-71.2521436,"address":"1030 Main Street, Waltham MA","chain_name":null,"distance":0},{"name":"Party City","code":null,"latitude":33.8271297,"longitude":-117.8385358,"address":"1500 East Village, Orange CA","chain_name":null,"distance":0},{"name":"Party City","code":null,"latitude":37.5087232,"longitude":-77.5867135,"address":"10340 Midlothian Turnpike, Richmond VA","chain_name":null,"distance":0},{"name":"Party City","code":null,"latitude":40.8746368,"longitude":-73.1231712,"address":"205 Hallock Rd, Stony Brook NY","chain_name":null,"distance":0},{"name":"Party City","code":null,"latitude":33.222632,"longitude":-96.636626,"address":"2097 North Central Expressway, McKinney TX","chain_name":null,"distance":0},{"name":"Party City","code":null,"latitude":33.1388911,"longitude":-117.191003,"address":"157 South Las Posas Road, San Marcos CA","chain_name":null,"distance":0},{"name":"Party City","code":null,"latitude":37.3219798,"longitude":-122.0361941,"address":"20740 Stevens Creek Blvd., Cupertino CA","chain_name":null,"distance":0},{"name":"Party City","code":null,"latitude":40.6070089,"longitude":-74.6246521,"address":"730 NJ-202, Bridgewater NJ","chain_name":null,"distance":0},{"name":"Party City","code":null,"latitude":39.9146015,"longitude":-86.2234007,"address":"3622 Bethany Rd, Indianapolis IN","chain_name":null,"distance":0},{"name":"Party City","code":null,"latitude":43.6259325,"longitude":-72.3245955,"address":"250 Plainsfield Road Route 12A, West Lebanon NH","chain_name":null,"distance":0},{"name":"Party City","code":null,"latitude":41.951454,"longitude":-88.723873,"address":"2350 Sycamore Road, DeKalb IL","chain_name":null,"distance":0},{"name":"Party City","code":null,"latitude":41.4189481,"longitude":-81.8970671,"address":"24800 Brookpark Road, North Olmsted OH","chain_name":null,"distance":0},{"name":"Party City","code":null,"latitude":25.4795576,"longitude":-80.4621366,"address":"911 North Homestead Blvd, Homestead FL","chain_name":null,"distance":0},{"name":"Party City","code":null,"latitude":39.372037,"longitude":-76.4530369,"address":"5216 Camnpbell Blvd, White Marsh MD","chain_name":null,"distance":0},{"name":"Party City","code":null,"latitude":33.9340719,"longitude":-84.3376455,"address":"4743-A Ashford Dunwoody Road, Atlanta GA","chain_name":null,"distance":0},{"name":"Party City","code":null,"latitude":33.5832697,"longitude":-112.1189682,"address":"2738 West Peoria Ave, Phoenix AZ","chain_name":null,"distance":0},{"name":"Party City","code":null,"latitude":42.4832597,"longitude":-76.4819291,"address":"2309 N Triphammer Road, Ithaca NY","chain_name":null,"distance":0},{"name":"Party City","code":null,"latitude":40.8622272,"longitude":-81.4338722,"address":"5557 Dressler Rd NW, North Canton OH","chain_name":null,"distance":0},{"name":"Party City","code":null,"latitude":41.9879739,"longitude":-72.5793893,"address":"34 Hazard Ave, Enfield CT","chain_name":null,"distance":0},{"name":"Party City","code":null,"latitude":40.8626597,"longitude":-74.5668368,"address":"477 Route 10 East, Randolph NJ","chain_name":null,"distance":0},{"name":"Party City","code":null,"latitude":40.4201398,"longitude":-74.1822531,"address":"3082 NJ-35, Hazlet NJ","chain_name":null,"distance":0},{"name":"Party City","code":null,"latitude":27.2987613,"longitude":-82.4969734,"address":"3670 Bee Ridge Road, Sarasota FL","chain_name":null,"distance":0},{"name":"Party City","code":null,"latitude":41.7985567,"longitude":-71.3337834,"address":"231A Highland Ave, Seekonk MA","chain_name":null,"distance":0},{"name":"Party City","code":null,"latitude":34.7411368,"longitude":-86.6795389,"address":"6275 University Dr NW, Huntsville AL","chain_name":null,"distance":0},{"name":"Party City","code":null,"latitude":41.5665943,"longitude":-87.6364462,"address":"17810 South Halsted, Homewood IL","chain_name":null,"distance":0},{"name":"Party City","code":null,"latitude":38.9995236,"longitude":-76.9099301,"address":"6000 Greenbelt Rd, Greenbelt MD","chain_name":null,"distance":0},{"name":"Party City","code":null,"latitude":44.8523343,"longitude":-93.4306949,"address":"574 Prairie Center Dr, Eden Prairie MN","chain_name":null,"distance":0},{"name":"Party City","code":null,"latitude":32.7962548,"longitude":-116.9365139,"address":"160 North 2nd St, El Cajon CA","chain_name":null,"distance":0},{"name":"Party City","code":null,"latitude":42.0529742,"longitude":-87.8357608,"address":"9471 N Milwaukee Ave, Niles IL","chain_name":null,"distance":0},{"name":"Party City","code":null,"latitude":34.0356653,"longitude":-118.4339142,"address":"2480 South Sepulveda, W. Los Angeles CA","chain_name":null,"distance":0},{"name":"Party City","code":null,"latitude":44.2603308,"longitude":-88.4748848,"address":"4679 West College Ave, Appleton WI","chain_name":null,"distance":0},{"name":"Party City","code":null,"latitude":36.66789,"longitude":-121.812424,"address":"125 Gen Stillwell Dr., Marina CA","chain_name":null,"distance":0},{"name":"Party City","code":null,"latitude":39.824813,"longitude":-74.930636,"address":"79 Rte 73, Voorhees NJ","chain_name":null,"distance":0},{"name":"Party City","code":null,"latitude":41.5983126,"longitude":-87.5656517,"address":"1737 East West Rd, Calumet City IL","chain_name":null,"distance":0},{"name":"Party City","code":null,"latitude":39.9122749,"longitude":-75.1546907,"address":"330 W. Oregon Ave, Philadephia PA","chain_name":null,"distance":0},{"name":"Party City","code":null,"latitude":37.0946441,"longitude":-94.4769063,"address":"430 North Range Line Rd, Joplin MO","chain_name":null,"distance":0},{"name":"Party City","code":null,"latitude":47.9122248,"longitude":-122.2126957,"address":"1402 SE Everett Mall Way, Everett WA","chain_name":null,"distance":0},{"name":"Party City","code":null,"latitude":34.0680707,"longitude":-80.9594655,"address":"7045A Parklane Rd, Columbia SC","chain_name":null,"distance":0},{"name":"Party City","code":null,"latitude":41.6820011,"longitude":-72.7072994,"address":"192 Kitts Ln, Newington CT","chain_name":null,"distance":0},{"name":"Party City","code":null,"latitude":39.9279278,"longitude":-86.0180484,"address":"8600 East 96th St, Fishers IN","chain_name":null,"distance":0},{"name":"Party City","code":null,"latitude":39.9124605,"longitude":-104.9816,"address":"450 East 120 Ave, Northglenn CO","chain_name":null,"distance":0},{"name":"Party City","code":null,"latitude":40.6889514,"longitude":-74.3088584,"address":"2706 Rte 22, Union NJ","chain_name":null,"distance":0},{"name":"Party City","code":null,"latitude":34.0684597,"longitude":-117.5544368,"address":"4440 Ontario Mills Pkwy, Ontario CA","chain_name":null,"distance":0},{"name":"Party City","code":null,"latitude":32.4465236,"longitude":-93.7217593,"address":"6590 Youree Dr, Shreveport LA","chain_name":null,"distance":0},{"name":"Party City","code":null,"latitude":39.3720585,"longitude":-76.6086229,"address":"6311 York Rd, Baltimore MD","chain_name":null,"distance":0},{"name":"Party City","code":null,"latitude":35.0194163,"longitude":-80.5807282,"address":"2885 West Hwy 74, Monroe NC","chain_name":null,"distance":0},{"name":"Party City","code":null,"latitude":34.674651,"longitude":-86.5443447,"address":"2750 Carl T Jones Dr SE, Huntsville AL","chain_name":null,"distance":0},{"name":"Party City","code":null,"latitude":41.7198678,"longitude":-87.7815323,"address":"6440 West 95th St, Chicago Ridge IL","chain_name":null,"distance":0},{"name":"Party City","code":null,"latitude":41.2769091,"longitude":-72.8370361,"address":"854 West Main Street, Branford CT","chain_name":null,"distance":0},{"name":"Party City","code":null,"latitude":33.9570237,"longitude":-118.0207541,"address":"14153 East Whittier Blvd, Whittier CA","chain_name":null,"distance":0},{"name":"Party City","code":null,"latitude":39.2136495,"longitude":-85.8776341,"address":"1171 N. National Ave., Columbus IN","chain_name":null,"distance":0},{"name":"Party City","code":null,"latitude":39.7681967,"longitude":-104.8977632,"address":"7757 East 36th Ave, Denver CO","chain_name":null,"distance":0},{"name":"Party City","code":null,"latitude":33.5986455,"longitude":-111.9856071,"address":"4533 East Cactus Rd, Phoenix AZ","chain_name":null,"distance":0},{"name":"Party City","code":null,"latitude":41.6981815,"longitude":-83.6401903,"address":"4962 Monroe St, Toledo OH","chain_name":null,"distance":0},{"name":"Party City","code":null,"latitude":30.418531,"longitude":-86.6069459,"address":"99 Eglin Pkwy, Fort Walton Beach FL","chain_name":null,"distance":0},{"name":"Party City","code":null,"latitude":45.1263249,"longitude":-93.253317,"address":"640 County Hwy-10, Minneapolis MN","chain_name":null,"distance":0},{"name":"Party City","code":null,"latitude":41.4706514,"longitude":-90.5071758,"address":"4371 16th St, Moline IL","chain_name":null,"distance":0},{"name":"Party City","code":null,"latitude":34.0863824,"longitude":-118.1509405,"address":"2500 W Commonwealth Ave, Alhambra CA","chain_name":null,"distance":0},{"name":"Party City","code":null,"latitude":33.4722932,"longitude":-112.2223485,"address":"7515 West Encanto Blvd, Phoenix AZ","chain_name":null,"distance":0},{"name":"Party City","code":null,"latitude":42.705933,"longitude":-71.4436036,"address":"261 Daniel Webster Hwy, Nashua NH","chain_name":null,"distance":0},{"name":"Party City","code":null,"latitude":39.5628003,"longitude":-104.8812323,"address":"8481 South Yosemite, Littleton CO","chain_name":null,"distance":0},{"name":"Party City","code":null,"latitude":37.1625762,"longitude":-93.2942802,"address":"2840 South Campbell, Springfield MO","chain_name":null,"distance":0},{"name":"Party City","code":null,"latitude":39.2611712,"longitude":-80.2855188,"address":"526 Emily Dr, Clarksburg WV","chain_name":null,"distance":0},{"name":"Party City","code":null,"latitude":39.1968054,"longitude":-76.5976485,"address":"585 East Ordinance Road, Glen Burnie MD","chain_name":null,"distance":0},{"name":"Party City","code":null,"latitude":41.9934348,"longitude":-87.7121977,"address":"6133 North Lincoln Ave, Chicago IL","chain_name":null,"distance":0},{"name":"Party City","code":null,"latitude":40.8290309,"longitude":-77.8056106,"address":"303 Benner Pike, State College PA","chain_name":null,"distance":0},{"name":"Party City","code":null,"latitude":29.9036114,"longitude":-90.0661905,"address":"1600 Westbank Expressway, Harvey LA","chain_name":null,"distance":0},{"name":"Party City","code":null,"latitude":25.9411617,"longitude":-80.3079284,"address":"18452-18538 NW 67th Avenue, Miami FL","chain_name":null,"distance":0},{"name":"Party City","code":null,"latitude":30.5584177,"longitude":-97.6931791,"address":"2601 South IH 35, Round Rock TX","chain_name":null,"distance":0},{"name":"Party City","code":null,"latitude":29.4908313,"longitude":-98.701572,"address":"10628 Culebra Rd, San Antonio TX","chain_name":null,"distance":0},{"name":"Party City","code":null,"latitude":38.5060038,"longitude":-90.4468172,"address":"790 Gravois Bluffs Plaza Dr, Fenton MO","chain_name":null,"distance":0},{"name":"Party City","code":null,"latitude":26.0065761,"longitude":-80.3449324,"address":"14804 Pines Blvd, Pembroke Pines FL","chain_name":null,"distance":0},{"name":"Party City","code":null,"latitude":42.3274503,"longitude":-71.0626371,"address":"8 Allstate Road, Dorchester MA","chain_name":null,"distance":0},{"name":"Party City","code":null,"latitude":32.9459946,"longitude":-80.0387317,"address":"7800 North Rivers Ave, North Charleston SC","chain_name":null,"distance":0},{"name":"Party City","code":null,"latitude":25.7789486,"longitude":-80.256462,"address":"3727 NW 7th St, Miami FL","chain_name":null,"distance":0},{"name":"Party City","code":null,"latitude":42.6247244,"longitude":-71.3644483,"address":"95 Drumhill Rd, Chelmsford MA","chain_name":null,"distance":0},{"name":"Party City","code":null,"latitude":41.4720002,"longitude":-87.0162728,"address":"610 Porter Vale Blvd., Valparaiso IN","chain_name":null,"distance":0},{"name":"Party City","code":null,"latitude":33.5690628,"longitude":-117.712422,"address":"27110 Alicia Pkwy, Laguna Niguel CA","chain_name":null,"distance":0},{"name":"Party City","code":null,"latitude":44.8621864,"longitude":-93.5403254,"address":"830 West 78th St, Chanhassen MN","chain_name":null,"distance":0},{"name":"Party City","code":null,"latitude":40.4881403,"longitude":-79.8866113,"address":"991 Freeport Rd, Pittsburgh PA","chain_name":null,"distance":0},{"name":"Party City","code":null,"latitude":39.8262184,"longitude":-75.1004791,"address":"1500 Almonesson Rd, Deptford NJ","chain_name":null,"distance":0},{"name":"Party City","code":null,"latitude":39.12541,"longitude":-77.2428683,"address":"295 Kentlands Blvd, Gaithersburg MD","chain_name":null,"distance":0},{"name":"Party City","code":null,"latitude":42.3463503,"longitude":-71.1626756,"address":"1660 Soldiers Fields Rd, Brighton MA","chain_name":null,"distance":0},{"name":"Party City","code":null,"latitude":31.7565251,"longitude":-106.2650785,"address":"1842 Joe Battle Blvd, El Paso TX","chain_name":null,"distance":0},{"name":"Party City","code":null,"latitude":33.776376,"longitude":-117.8653874,"address":"763 South Main St, Orange CA","chain_name":null,"distance":0},{"name":"Party City","code":null,"latitude":42.4900395,"longitude":-83.4807378,"address":"43741 Oaks Dr, Novi MI","chain_name":null,"distance":0},{"name":"Party City","code":null,"latitude":25.8671093,"longitude":-80.2977495,"address":"775 West 49th St, Hialeah FL","chain_name":null,"distance":0},{"name":"Party City","code":null,"latitude":39.1860531,"longitude":-75.5336725,"address":"1047 N. DuPont Highway, Dover US","chain_name":null,"distance":0},{"name":"Party City","code":null,"latitude":41.949979,"longitude":-88.1205914,"address":"152 S. Gary Avenue, Bloomingdale IL","chain_name":null,"distance":0},{"name":"Party City","code":null,"latitude":38.0081296,"longitude":-121.8414492,"address":"4211 Century Blvd, Pittsburg CA","chain_name":null,"distance":0},{"name":"Party City","code":null,"latitude":39.7679222,"longitude":-84.0496684,"address":"2720 Towne Dr, Beavercreek OH","chain_name":null,"distance":0},{"name":"Party City","code":null,"latitude":39.41941,"longitude":-76.7780075,"address":"10385 Reisterstown Rd, Owings Mills MD","chain_name":null,"distance":0},{"name":"Party City","code":null,"latitude":42.3708412,"longitude":-83.3325217,"address":"29350 Plymouth Rd, Livonia MI","chain_name":null,"distance":0},{"name":"Party City","code":null,"latitude":33.4797777,"longitude":-84.4405215,"address":"126 Pavilion Pkwy, Fayetteville GA","chain_name":null,"distance":0},{"name":"Party City","code":null,"latitude":38.6665638,"longitude":-90.5847019,"address":"34 THF Blvd, Chesterfield MO","chain_name":null,"distance":0},{"name":"Party City","code":null,"latitude":42.3029745,"longitude":-71.3384215,"address":"321 Worcester Rd, Natick MA","chain_name":null,"distance":0},{"name":"Party City","code":null,"latitude":34.2328695,"longitude":-119.1753808,"address":"211 West Esplanade Dr, Oxnard CA","chain_name":null,"distance":0},{"name":"Party City","code":null,"latitude":39.6110626,"longitude":-105.0812466,"address":"7735 West Long Dr, Littleton CO","chain_name":null,"distance":0},{"name":"Party City","code":null,"latitude":40.7745272,"longitude":-74.0350048,"address":"3111 Kennedy Blvd, North Bergen NJ","chain_name":null,"distance":0},{"name":"Party City","code":null,"latitude":41.463203,"longitude":-75.647789,"address":"630 Commerce Blvd, Dickson City PA","chain_name":null,"distance":0},{"name":"Party City","code":null,"latitude":33.7084702,"longitude":-112.1128928,"address":"2501 West Happy Valley Rd, Phoenix AZ","chain_name":null,"distance":0},{"name":"Party City","code":null,"latitude":28.5528312,"longitude":-81.4702085,"address":"6391 West Colonial Dr, Orlando FL","chain_name":null,"distance":0},{"name":"Party City","code":null,"latitude":43.1841416,"longitude":-87.9640213,"address":"9150 N Green Bay Rd, Brown Deer WI","chain_name":null,"distance":0},{"name":"Party City","code":null,"latitude":41.6141491,"longitude":-83.6957276,"address":"6460 Centers Dr, Holland OH","chain_name":null,"distance":0},{"name":"Party City","code":null,"latitude":26.3469263,"longitude":-80.1547716,"address":"22191-23C Powerline Rd, S. Boca Raton FL","chain_name":null,"distance":0},{"name":"Party City","code":null,"latitude":41.6947302,"longitude":-88.1246662,"address":"139 South Weber Rd, Bolingbrook IL","chain_name":null,"distance":0},{"name":"Party City","code":null,"latitude":36.8403964,"longitude":-76.1144184,"address":"4001 Virginia Beach Blvd, Virginia Beach VA","chain_name":null,"distance":0},{"name":"Party City","code":null,"latitude":36.8443333,"longitude":-119.7889703,"address":"7374 North Blackstone Ave, Fresno CA","chain_name":null,"distance":0},{"name":"Party City","code":null,"latitude":28.6477719,"longitude":-81.2659692,"address":"5916 Red Bug Lake Road, Winter Springs FL","chain_name":null,"distance":0},{"name":"Party City","code":null,"latitude":39.1642858,"longitude":-86.4955706,"address":"2817 East 3rd St, Bloomington IN","chain_name":null,"distance":0},{"name":"Party City","code":null,"latitude":42.668418,"longitude":-82.8295447,"address":"50679 Waterside Dr., Chesterfield US","chain_name":null,"distance":0},{"name":"Party City","code":null,"latitude":36.8641858,"longitude":-76.2123448,"address":"1217 North Military Hwy, Norfolk VA","chain_name":null,"distance":0},{"name":"Party City","code":null,"latitude":38.848504,"longitude":-77.1233944,"address":"5522 Leesburg Pike, Falls Church VA","chain_name":null,"distance":0},{"name":"Party City","code":null,"latitude":42.1742219,"longitude":-72.5719918,"address":"591 W Memorial Dr, Chicopee MA","chain_name":null,"distance":0},{"name":"Party City","code":null,"latitude":41.5285465,"longitude":-87.4692231,"address":"10229 Indianapolis Blvd, Highland IN","chain_name":null,"distance":0},{"name":"Party City","code":null,"latitude":32.8113926,"longitude":-96.6213031,"address":"1515 Town East Blvd, Mesquite TX","chain_name":null,"distance":0},{"name":"Party City","code":null,"latitude":35.9230804,"longitude":-84.0629456,"address":"8503 Kingston Pike, Knoxville TN","chain_name":null,"distance":0},{"name":"Party City","code":null,"latitude":34.2158153,"longitude":-118.4463982,"address":"7882 Van Nuys Blvd, Van Nuys CA","chain_name":null,"distance":0},{"name":"Party City","code":null,"latitude":32.9498694,"longitude":-96.618173,"address":"3065 President George Bush Turnpike, Garland TX","chain_name":null,"distance":0},{"name":"Party City","code":null,"latitude":34.5575744,"longitude":-82.6953014,"address":"150 Station Dr, Anderson SC","chain_name":null,"distance":0},{"name":"Party City","code":null,"latitude":40.4175165,"longitude":-86.857925,"address":"311 Sagamore Parkway North, LaFayette IN","chain_name":null,"distance":0},{"name":"Party City","code":null,"latitude":42.12588,"longitude":-72.059184,"address":"110 Charlton Road, Sturbridge MA","chain_name":null,"distance":0},{"name":"Party City","code":null,"latitude":35.9541112,"longitude":-78.9950273,"address":"5420 New Hope Commons, Durham NC","chain_name":null,"distance":0},{"name":"Party City","code":null,"latitude":26.1457345,"longitude":-80.316004,"address":"12540 W Sunrise Blvd, Sunrise FL","chain_name":null,"distance":0},{"name":"Party City","code":null,"latitude":40.7596317,"longitude":-73.7700491,"address":"213-02 Northern Blvd, Queens NY","chain_name":null,"distance":0},{"name":"Party City","code":null,"latitude":41.6045503,"longitude":-73.911927,"address":"1701 Route 9, Wappinger's Falls NY","chain_name":null,"distance":0},{"name":"Party City","code":null,"latitude":36.1570259,"longitude":-85.5161664,"address":"377 West Jackson St, Cookeville TN","chain_name":null,"distance":0},{"name":"Party City","code":null,"latitude":40.0693404,"longitude":-76.3187629,"address":"1700 Fruitville Pike, Lancaster PA","chain_name":null,"distance":0},{"name":"Party City","code":null,"latitude":42.9529676,"longitude":-88.0047609,"address":"5058 South 74th St, Greenfield WI","chain_name":null,"distance":0},{"name":"Party City","code":null,"latitude":40.361075,"longitude":-75.9857738,"address":"2785 Papermill Rd, Reading PA","chain_name":null,"distance":0},{"name":"Party City","code":null,"latitude":44.5222221,"longitude":-88.0649595,"address":"831 South Military Ave, Green Bay WI","chain_name":null,"distance":0},{"name":"Party City","code":null,"latitude":33.8513211,"longitude":-84.6034845,"address":"4155 Austell Rd, Austell GA","chain_name":null,"distance":0},{"name":"Party City","code":null,"latitude":37.3601186,"longitude":-79.1708717,"address":"3700 Candlers Mountain Rd, Lynchburg VA","chain_name":null,"distance":0},{"name":"Party City","code":null,"latitude":40.0267929,"longitude":-82.4463973,"address":"937 Hebron Rd, Heath OH","chain_name":null,"distance":0},{"name":"Party City","code":null,"latitude":32.5858171,"longitude":-97.139955,"address":"1551 Highway 287 North, Mansfield TX","chain_name":null,"distance":0},{"name":"Party City","code":null,"latitude":39.3456321,"longitude":-82.9769964,"address":"72 Consumer Center Drive, Chillicothe OH","chain_name":null,"distance":0},{"name":"Party City","code":null,"latitude":40.6342586,"longitude":-73.7401858,"address":"348 Rockaway Tnpk, Lawrence NY","chain_name":null,"distance":0},{"name":"Party City","code":null,"latitude":30.1236167,"longitude":-94.153972,"address":"5725 Eastex Freeway, Beaumont TX","chain_name":null,"distance":0},{"name":"Party City","code":null,"latitude":26.0931499,"longitude":-80.2511518,"address":"2134 South University Dr, Davie FL","chain_name":null,"distance":0},{"name":"Party City","code":null,"latitude":40.4291445,"longitude":-79.7952737,"address":"275 Monroeville Mall, Monroeville PA","chain_name":null,"distance":0},{"name":"Party City","code":null,"latitude":41.2658606,"longitude":-73.0018731,"address":"292 Boston Post Rd, Orange CT","chain_name":null,"distance":0},{"name":"Party City","code":null,"latitude":38.3108889,"longitude":-85.7704701,"address":"305 Lewis and Clark Parkway, Clarksville IN","chain_name":null,"distance":0},{"name":"Party City","code":null,"latitude":40.8769315,"longitude":-73.9055497,"address":"171 W. 230th Street, Bronx NY","chain_name":null,"distance":0},{"name":"Party City","code":null,"latitude":41.0995435,"longitude":-73.4444252,"address":"500 Connecticut Ave, Norwalk CT","chain_name":null,"distance":0},{"name":"Party City","code":null,"latitude":29.7353107,"longitude":-95.6439917,"address":"2525 South Hwy 6, Houston TX","chain_name":null,"distance":0},{"name":"Party City","code":null,"latitude":41.8604944,"longitude":-87.98026,"address":"138 West Roosevelt Rd, Villa Park IL","chain_name":null,"distance":0},{"name":"Party City","code":null,"latitude":42.7908063,"longitude":-78.8143601,"address":"4408 Milestrip Rd, Blasdell NY","chain_name":null,"distance":0},{"name":"Party City","code":null,"latitude":41.7848507,"longitude":-72.7486151,"address":"6 Simms Road at Albany Ave, W. Hartford CT","chain_name":null,"distance":0},{"name":"Party City","code":null,"latitude":33.3185753,"longitude":-111.6887372,"address":"5364 South Power Rd, Gilbert AZ","chain_name":null,"distance":0},{"name":"Party City","code":null,"latitude":40.8887241,"longitude":-74.2166209,"address":"1756 Route 46 West, West Paterson NJ","chain_name":null,"distance":0},{"name":"Party City","code":null,"latitude":33.3795183,"longitude":-111.8053146,"address":"1236 East Baseline Rd, Mesa AZ","chain_name":null,"distance":0},{"name":"Party City","code":null,"latitude":39.8276052,"longitude":-76.9942495,"address":"151 Wilson Avenue, Hanover PA","chain_name":null,"distance":0},{"name":"Party City","code":null,"latitude":40.1920386,"longitude":-74.6403622,"address":"180 Marketplace Blvd, Trenton NJ","chain_name":null,"distance":0},{"name":"Party City","code":null,"latitude":36.024034,"longitude":-83.9248977,"address":"2901 Tazewell Pike, Knoxville TN","chain_name":null,"distance":0},{"name":"Party City","code":null,"latitude":32.7475728,"longitude":-117.2065121,"address":"3315 Rosecrans St., San Diego CA","chain_name":null,"distance":0},{"name":"Party City","code":null,"latitude":42.0797466,"longitude":-86.4209416,"address":"1599 Mall Dr, Benton Harbor MI","chain_name":null,"distance":0},{"name":"Party City","code":null,"latitude":33.8459667,"longitude":-84.2571319,"address":"2100-A Henderson Mill Rd, Atlanta GA","chain_name":null,"distance":0},{"name":"Party City","code":null,"latitude":34.0710404,"longitude":-117.2024619,"address":"27588 Lugonia Ave, Redlands CA","chain_name":null,"distance":0},{"name":"Party City","code":null,"latitude":43.047052,"longitude":-76.065633,"address":"3409 Erie Blvd E Ste 240, Syracuse NY","chain_name":null,"distance":0},{"name":"Party City","code":null,"latitude":46.8598407,"longitude":-96.8586263,"address":"4340 - 13th Avenue SW, Fargo ND","chain_name":null,"distance":0},{"name":"Party City","code":null,"latitude":33.420487,"longitude":-84.1884165,"address":"1554 HWY 20 West, McDonough GA","chain_name":null,"distance":0},{"name":"Party City","code":null,"latitude":38.7828523,"longitude":-121.2673182,"address":"6736 Stanford Ranch Rd, Roseville CA","chain_name":null,"distance":0},{"name":"Party City","code":null,"latitude":42.245355,"longitude":-83.7693411,"address":"2857 Oak Valley Dr, Ann Arbor MI","chain_name":null,"distance":0},{"name":"Party City","code":null,"latitude":35.8985182,"longitude":-84.1592441,"address":"11334 Parkside Drive, Knoxville TN","chain_name":null,"distance":0},{"name":"Party City","code":null,"latitude":37.7511349,"longitude":-87.0556502,"address":"3430 Villa Point, Owensboro KY","chain_name":null,"distance":0},{"name":"Party City","code":null,"latitude":45.0316076,"longitude":-93.017921,"address":"3000 White Bear Ave North, Maplewood MN","chain_name":null,"distance":0},{"name":"Party City","code":null,"latitude":42.0197673,"longitude":-88.1445235,"address":"375 S. Barrington Road, Schaumburg IL","chain_name":null,"distance":0},{"name":"Party City","code":null,"latitude":41.7143485,"longitude":-86.1836587,"address":"5816 Grape Rd, Mishawaka IN","chain_name":null,"distance":0},{"name":"Party City","code":null,"latitude":27.5717402,"longitude":-99.499591,"address":"7607 San Dario Ave, Laredo TX","chain_name":null,"distance":0},{"name":"Party City","code":null,"latitude":39.0242678,"longitude":-94.6892761,"address":"5808 Antioch Rd, Merriam KS","chain_name":null,"distance":0},{"name":"Party City","code":null,"latitude":40.3331685,"longitude":-79.9462224,"address":"651 Clairton Blvd, Pleasant Hills PA","chain_name":null,"distance":0},{"name":"Party City","code":null,"latitude":40.0757472,"longitude":-80.9173541,"address":"50825 Valley Plaza Dr, Saint Clairsville OH","chain_name":null,"distance":0},{"name":"Party City","code":null,"latitude":41.0915048,"longitude":-74.0035426,"address":"123 Rockland Center, Nanuet NY","chain_name":null,"distance":0},{"name":"Party City","code":null,"latitude":30.4326528,"longitude":-91.0802355,"address":"9681 Airline Hwy, Baton Rouge LA","chain_name":null,"distance":0},{"name":"Party City","code":null,"latitude":43.4800414,"longitude":-83.9737136,"address":"2918 Titabawasee Rd., Saginaw MI","chain_name":null,"distance":0},{"name":"Party City","code":null,"latitude":38.6272622,"longitude":-76.9114102,"address":"2924 Festival Way, Waldorf MD","chain_name":null,"distance":0},{"name":"Party City","code":null,"latitude":33.540743,"longitude":-101.9257049,"address":"6002 Slide Rd, Lubbock TX","chain_name":null,"distance":0},{"name":"Party City","code":null,"latitude":37.277368,"longitude":-76.7482536,"address":"5225 Settlers Market, Blvd, Williamsburg VA","chain_name":null,"distance":0},{"name":"Party City","code":null,"latitude":33.0699585,"longitude":-97.0839051,"address":"6101 Long Prairie Rd, Flower Mound TX","chain_name":null,"distance":0},{"name":"Party City","code":null,"latitude":39.6612682,"longitude":-77.7435049,"address":"18061 Garland Groh Blvd, Hagerstown MD","chain_name":null,"distance":0},{"name":"Party City","code":null,"latitude":28.0877562,"longitude":-82.5060174,"address":"15064 North Dale Mabry Hwy, Tampa FL","chain_name":null,"distance":0},{"name":"Party City","code":null,"latitude":40.8248182,"longitude":-73.8596102,"address":"945 White Plains Rd, Bronx NY","chain_name":null,"distance":0},{"name":"Party City","code":null,"latitude":33.5684058,"longitude":-84.3288479,"address":"1892 Mount Zion Road, Morrow GA","chain_name":null,"distance":0},{"name":"Party City","code":null,"latitude":32.8763234,"longitude":-97.0964598,"address":"2800 State Highway 121, Euless TX","chain_name":null,"distance":0},{"name":"Party City","code":null,"latitude":41.9235035,"longitude":-87.6717485,"address":"1755 West Fullerton Ave, Chicago IL","chain_name":null,"distance":0},{"name":"Party City","code":null,"latitude":27.9994586,"longitude":-81.9600762,"address":"3615 South Florida Ave, Lakeland FL","chain_name":null,"distance":0},{"name":"Party City","code":null,"latitude":35.3552516,"longitude":-119.0632456,"address":"5544 Stockdale Hwy, Bakersfield CA","chain_name":null,"distance":0},{"name":"Party City","code":null,"latitude":33.9783,"longitude":-117.5520548,"address":"12339 Limonite Ave, Mira Loma CA","chain_name":null,"distance":0},{"name":"Party City","code":null,"latitude":29.559839,"longitude":-95.3853014,"address":"2608 Smith Ranch Road, Pearland TX","chain_name":null,"distance":0},{"name":"Party City","code":null,"latitude":32.8129004,"longitude":-97.4302869,"address":"6628 Lake Worth Blvd, Lake Worth TX","chain_name":null,"distance":0},{"name":"Party City","code":null,"latitude":36.1060098,"longitude":-95.9172494,"address":"5301 East 41st Street, Tulsa OK","chain_name":null,"distance":0},{"name":"Party City","code":null,"latitude":38.8843839,"longitude":-94.6823789,"address":"8400 West 135th St, Overland Park KS","chain_name":null,"distance":0},{"name":"Party City","code":null,"latitude":25.7480019,"longitude":-80.3866215,"address":"11865 SW 26th St, Miami FL","chain_name":null,"distance":0},{"name":"Party City","code":null,"latitude":34.0470806,"longitude":-84.2887855,"address":"6110 North Point Pkwy, Alpharetta GA","chain_name":null,"distance":0},{"name":"Party City","code":null,"latitude":37.5204393,"longitude":-120.8896046,"address":"3015 North Tegner Rd, Turlock CA","chain_name":null,"distance":0},{"name":"Party City","code":null,"latitude":32.7658888,"longitude":-115.5330441,"address":"3009 South Dogwood, El Centro CA","chain_name":null,"distance":0},{"name":"Party City","code":null,"latitude":45.5516049,"longitude":-94.2069485,"address":"3959 2nd St South, St. Cloud MN","chain_name":null,"distance":0},{"name":"Party City","code":null,"latitude":38.6502071,"longitude":-77.299613,"address":"14026 Shoppers Best Way, Woodbridge VA","chain_name":null,"distance":0},{"name":"Party City","code":null,"latitude":33.8352352,"longitude":-84.3837237,"address":"2900 Peachtree Road NW, Atlanta GA","chain_name":null,"distance":0},{"name":"Party City","code":null,"latitude":37.7331974,"longitude":-89.1932134,"address":"1242 East Main St, Carbondale IL","chain_name":null,"distance":0},{"name":"Party City","code":null,"latitude":42.7372012,"longitude":-84.5052896,"address":"400 Frandor Ave, Lansing MI","chain_name":null,"distance":0},{"name":"Party City","code":null,"latitude":30.1776546,"longitude":-95.449723,"address":"19189 I-45 South, Shenandoah TX","chain_name":null,"distance":0},{"name":"Party City","code":null,"latitude":38.4191091,"longitude":-75.5683914,"address":"2722 North Salisbury Blvd, Salisbury MD","chain_name":null,"distance":0},{"name":"Party City","code":null,"latitude":40.8157543,"longitude":-73.4738402,"address":"8063 Jericho Tnpk, Woodbury NY","chain_name":null,"distance":0},{"name":"Party City","code":null,"latitude":38.4316377,"longitude":-78.8406491,"address":"1790-40 East Market Street, Harrisonburg VA","chain_name":null,"distance":0},{"name":"Party City","code":null,"latitude":40.7228337,"longitude":-74.0930562,"address":"733 State Highway 440, Jersey City NJ","chain_name":null,"distance":0},{"name":"Party City","code":null,"latitude":40.9941892,"longitude":-75.2456661,"address":"101 Pocono Commons Drive, Stroudsburg PA","chain_name":null,"distance":0},{"name":"Party City","code":null,"latitude":34.1815971,"longitude":-84.1289804,"address":"1150 Marketplace Blvd, Cumming GA","chain_name":null,"distance":0},{"name":"Party City","code":null,"latitude":42.8007656,"longitude":-71.5401526,"address":"12 Northwest Blvd, Nashua NH","chain_name":null,"distance":0},{"name":"Party City","code":null,"latitude":33.8770641,"longitude":-84.0140123,"address":"1905 Scenic Highway, Snellville GA","chain_name":null,"distance":0},{"name":"Party City","code":null,"latitude":41.5045734,"longitude":-87.8952313,"address":"11375 Lincoln Hwy, Mokena IL","chain_name":null,"distance":0},{"name":"Party City","code":null,"latitude":33.9424222,"longitude":-117.2892745,"address":"2550 Canyon Springs Pkwy, Riverside CA","chain_name":null,"distance":0},{"name":"Party City","code":null,"latitude":42.8828847,"longitude":-85.7743646,"address":"4515 Canal Ave SW, Grandville MI","chain_name":null,"distance":0},{"name":"Party City","code":null,"latitude":31.2126003,"longitude":-81.4758477,"address":"40 Altama Village Drive, Brunswick GA","chain_name":null,"distance":0},{"name":"Party City","code":null,"latitude":30.4398372,"longitude":-89.0931478,"address":"15224 Crossroads Pkwy, Gulfport MS","chain_name":null,"distance":0},{"name":"Party City","code":null,"latitude":25.7477448,"longitude":-80.334987,"address":"8651 SW 24 St, Miami FL","chain_name":null,"distance":0},{"name":"Party City","code":null,"latitude":33.925885,"longitude":-84.379074,"address":"6247 Roswell Road, Sandy Springs GA","chain_name":null,"distance":0}]