[{"name":"Red Lobster Restaurants","code":null,"latitude":43.79128,"longitude":-91.2085,"address":"3333 State Road 16, La Crosse WI","chain_name":null,"distance":0},{"name":"Red Lobster Restaurants","code":null,"latitude":41.16324,"longitude":-81.4761,"address":"1090 Graham Rd, Cuyahoga Falls OH","chain_name":null,"distance":0},{"name":"Red Lobster Restaurants","code":null,"latitude":47.19171,"longitude":-122.4603,"address":"1929 S 72nd St, Tacoma WA","chain_name":null,"distance":0},{"name":"Red Lobster Restaurants","code":null,"latitude":33.38783,"longitude":-111.8571,"address":"1403 South Alma School Road, Mesa AZ","chain_name":null,"distance":0},{"name":"Red Lobster Restaurants","code":null,"latitude":39.02904,"longitude":-77.4227,"address":"21065 Dulles Town Circle, Dulles VA","chain_name":null,"distance":0},{"name":"Red Lobster Restaurants","code":null,"latitude":34.92101,"longitude":-81.9862,"address":"170 E Blackstock Rd, Spartanburg SC","chain_name":null,"distance":0},{"name":"Red Lobster Restaurants","code":null,"latitude":26.27668,"longitude":-81.7988,"address":"2355 US 41 North, Naples FL","chain_name":null,"distance":0},{"name":"Red Lobster Restaurants","code":null,"latitude":44.79306,"longitude":-91.5089,"address":"1019 W Clairemont Ave, Eau Claire WI","chain_name":null,"distance":0},{"name":"Red Lobster Restaurants","code":null,"latitude":42.50457,"longitude":-83.1074,"address":"101 West 12 Mile Road, Madison Heights MI","chain_name":null,"distance":0},{"name":"Red Lobster Restaurants","code":null,"latitude":39.4166,"longitude":-77.4401,"address":"1020 West Patrick Street, Frederick MD","chain_name":null,"distance":0},{"name":"Red Lobster Restaurants","code":null,"latitude":41.50603,"longitude":-87.7114,"address":"3915 Lincoln Hwy, Matteson IL","chain_name":null,"distance":0},{"name":"Red Lobster Restaurants","code":null,"latitude":27.81759,"longitude":-82.6774,"address":"6151 34th St N, St Petersburg FL","chain_name":null,"distance":0},{"name":"Red Lobster Restaurants","code":null,"latitude":36.12577,"longitude":-94.1453,"address":"3885 North Shiloh Drive, Fayetteville AR","chain_name":null,"distance":0},{"name":"Red Lobster Restaurants","code":null,"latitude":38.00151,"longitude":-84.5201,"address":"2528 Nicholasville Rd, Lexington KY","chain_name":null,"distance":0},{"name":"Red Lobster Restaurants","code":null,"latitude":39.39283,"longitude":-75.045,"address":"Millville NJ","chain_name":null,"distance":0},{"name":"Red Lobster Restaurants","code":null,"latitude":28.11808,"longitude":-82.3809,"address":"17021 Palm Pointe Drive, Tampa FL","chain_name":null,"distance":0},{"name":"Red Lobster Restaurants","code":null,"latitude":26.62605,"longitude":-81.8733,"address":"3801 Cleveland Ave, Fort Myers FL","chain_name":null,"distance":0},{"name":"Red Lobster Restaurants","code":null,"latitude":39.95196,"longitude":-74.995,"address":"2100 State Highway No 38, Cher Hl NJ","chain_name":null,"distance":0},{"name":"Red Lobster Restaurants","code":null,"latitude":39.90517,"longitude":-86.0579,"address":"6410 East 82nd Street, Indianapolis IN","chain_name":null,"distance":0},{"name":"Red Lobster Restaurants","code":null,"latitude":32.54362,"longitude":-82.9605,"address":"2105 Veterans Blvd, Dublin GA","chain_name":null,"distance":0},{"name":"Red Lobster Restaurants","code":null,"latitude":41.92719,"longitude":-83.357,"address":"1553 N Dixie Hwy, Monroe MI","chain_name":null,"distance":0},{"name":"Red Lobster Restaurants","code":null,"latitude":39.24653,"longitude":-94.5857,"address":"450 NW Barry Rd, Kansas City MO","chain_name":null,"distance":0},{"name":"Red Lobster Restaurants","code":null,"latitude":35.04964,"longitude":-89.856,"address":"6222 Winchester Rd, Memphis TN","chain_name":null,"distance":0},{"name":"Red Lobster Restaurants","code":null,"latitude":28.86481,"longitude":-96.9961,"address":"7404 NE Zac Lentz Pkwy, Victoria TX","chain_name":null,"distance":0},{"name":"Red Lobster Restaurants","code":null,"latitude":41.69766,"longitude":-83.6401,"address":"4990 Monroe St, Toledo OH","chain_name":null,"distance":0},{"name":"Red Lobster Restaurants","code":null,"latitude":30.47593,"longitude":-84.2966,"address":"2583 North Monroe Street, Tallahassee FL","chain_name":null,"distance":0},{"name":"Red Lobster Restaurants","code":null,"latitude":33.40073,"longitude":-84.7434,"address":"990 Highway 34 E, Newnan GA","chain_name":null,"distance":0},{"name":"Red Lobster Restaurants","code":null,"latitude":47.31533,"longitude":-122.3082,"address":"2006 S 320th St, Federal Way WA","chain_name":null,"distance":0},{"name":"Red Lobster Restaurants","code":null,"latitude":42.84545,"longitude":-106.2681,"address":"531 Southeast Wyoming Boulevard, Casper WY","chain_name":null,"distance":0},{"name":"Red Lobster Restaurants","code":null,"latitude":32.67738,"longitude":-97.3952,"address":"4805 South Hulen Street, Fort Worth TX","chain_name":null,"distance":0},{"name":"Red Lobster Restaurants","code":null,"latitude":33.04177,"longitude":-96.7028,"address":"3501 North Central Expressway, Plano TX","chain_name":null,"distance":0},{"name":"Red Lobster Restaurants","code":null,"latitude":41.39835,"longitude":-82.1147,"address":"6935 Midway Mall, Elyria OH","chain_name":null,"distance":0},{"name":"Red Lobster Restaurants","code":null,"latitude":41.58193,"longitude":-83.6646,"address":"1422 Reynolds Rd, Maumee OH","chain_name":null,"distance":0},{"name":"Red Lobster Restaurants","code":null,"latitude":42.26484,"longitude":-85.1984,"address":"2565 Capital Avenue Southwest, Battle Creek MI","chain_name":null,"distance":0},{"name":"Red Lobster Restaurants","code":null,"latitude":35.1308,"longitude":-85.2615,"address":"8 Northgate Park, Chattanooga TN","chain_name":null,"distance":0},{"name":"Red Lobster Restaurants","code":null,"latitude":35.39136,"longitude":-97.5316,"address":"1000 W. I-240, Oklahoma City OK","chain_name":null,"distance":0},{"name":"Red Lobster Restaurants","code":null,"latitude":32.91294,"longitude":-117.1435,"address":"Mira Mesa Boulevard Camin, San Diego CA","chain_name":null,"distance":0},{"name":"Red Lobster Restaurants","code":null,"latitude":38.5838,"longitude":-92.2514,"address":"3521 Country Club Drive, Jefferson City MO","chain_name":null,"distance":0},{"name":"Red Lobster Restaurants","code":null,"latitude":41.2294,"longitude":-95.8499,"address":"3040 Dial Drive, Council Bluffs IA","chain_name":null,"distance":0},{"name":"Red Lobster Restaurants","code":null,"latitude":40.9316,"longitude":-98.38272,"address":"3430 W 13th St, Grand Island NE","chain_name":null,"distance":0},{"name":"Red Lobster Restaurants","code":null,"latitude":44.50639,"longitude":-88.0727,"address":"1251 Lombardi Access Rd, Green Bay WI","chain_name":null,"distance":0},{"name":"Red Lobster Restaurants","code":null,"latitude":39.69329,"longitude":-86.1455,"address":"690 East Thompson Road, Indianapolis IN","chain_name":null,"distance":0},{"name":"Red Lobster Restaurants","code":null,"latitude":31.87894,"longitude":-102.3314,"address":"4536 East University Boulevard, Odessa TX","chain_name":null,"distance":0},{"name":"Red Lobster Restaurants","code":null,"latitude":41.6972,"longitude":-86.1823,"address":"3930 North Main Street, Mishawaka IN","chain_name":null,"distance":0},{"name":"Red Lobster Restaurants","code":null,"latitude":40.68887,"longitude":-73.4093,"address":"801 Sunrise Hwy, Copiague NY","chain_name":null,"distance":0},{"name":"Red Lobster Restaurants","code":null,"latitude":28.03246,"longitude":-82.4301,"address":"2625 E Busch Blvd, Tampa FL","chain_name":null,"distance":0},{"name":"Red Lobster Restaurants","code":null,"latitude":38.65241,"longitude":-77.2881,"address":"2544 Prince William Parkway, Woodbridge VA","chain_name":null,"distance":0},{"name":"Red Lobster Restaurants","code":null,"latitude":39.84155,"longitude":-84.1914,"address":"6500 Miller Lane, Dayton OH","chain_name":null,"distance":0},{"name":"Red Lobster Restaurants","code":null,"latitude":40.55312,"longitude":-74.432,"address":"7000 Hadley Road, South Plainfield NJ","chain_name":null,"distance":0},{"name":"Red Lobster Restaurants","code":null,"latitude":29.77894,"longitude":-95.8259,"address":"25408 Bell Patna Drive, Katy TX","chain_name":null,"distance":0},{"name":"Red Lobster Restaurants","code":null,"latitude":33.43902,"longitude":-86.7891,"address":"1030 Montgomery Hwy, Vestavia Hills AL","chain_name":null,"distance":0},{"name":"Red Lobster Restaurants","code":null,"latitude":42.95957,"longitude":-88.0085,"address":"4645 S 76th St, Greenfield WI","chain_name":null,"distance":0},{"name":"Red Lobster Restaurants","code":null,"latitude":38.75161,"longitude":-90.4268,"address":"12235 Saint Charles Rock Rd, Bridgeton MO","chain_name":null,"distance":0},{"name":"Red Lobster Restaurants","code":null,"latitude":41.61316,"longitude":-80.2654,"address":"16736 Conneaut Lake Rd, Meadville PA","chain_name":null,"distance":0},{"name":"Red Lobster Restaurants","code":null,"latitude":39.63177,"longitude":-84.2255,"address":"8200 Springboro Pike, Miamisburg OH","chain_name":null,"distance":0},{"name":"Red Lobster Restaurants","code":null,"latitude":28.30448,"longitude":-81.4432,"address":"4010 West Vine Street, Kissimmee FL","chain_name":null,"distance":0},{"name":"Red Lobster Restaurants","code":null,"latitude":35.70791,"longitude":-81.3088,"address":"1846 US Highway 70 Southeast, Hickory NC","chain_name":null,"distance":0},{"name":"Red Lobster Restaurants","code":null,"latitude":41.76227,"longitude":-88.2613,"address":"1036 N Route 59, Aurora IL","chain_name":null,"distance":0},{"name":"Red Lobster Restaurants","code":null,"latitude":31.51656,"longitude":-97.1845,"address":"5925 W Waco Dr, Waco TX","chain_name":null,"distance":0},{"name":"Red Lobster Restaurants","code":null,"latitude":40.33899,"longitude":-79.955,"address":"259 Clairton Boulevard, Pittsburgh PA","chain_name":null,"distance":0},{"name":"Red Lobster Restaurants","code":null,"latitude":39.35092,"longitude":-87.4148,"address":"3407 South U S Highway 41, Terre Haute IN","chain_name":null,"distance":0},{"name":"Red Lobster Restaurants","code":null,"latitude":32.56906,"longitude":-97.3194,"address":"1175 North Burleson Boulevard, Burleson TX","chain_name":null,"distance":0},{"name":"Red Lobster Restaurants","code":null,"latitude":42.48405,"longitude":-83.0063,"address":"25901 Hoover Rd, Warren MI","chain_name":null,"distance":0},{"name":"Red Lobster Restaurants","code":null,"latitude":37.4324,"longitude":-121.8988,"address":"503 East Calaveras Boulevard, Milpitas CA","chain_name":null,"distance":0},{"name":"Red Lobster Restaurants","code":null,"latitude":41.54402,"longitude":-87.5088,"address":"9311 Calumet Ave, Munster IN","chain_name":null,"distance":0},{"name":"Red Lobster Restaurants","code":null,"latitude":38.60103,"longitude":-89.9903,"address":"110 Ludwig Drive, Fairview Heights IL","chain_name":null,"distance":0},{"name":"Red Lobster Restaurants","code":null,"latitude":35.19513,"longitude":-102.1133,"address":"3311 West Interstate 40, Amarillo TX","chain_name":null,"distance":0},{"name":"Red Lobster Restaurants","code":null,"latitude":36.86281,"longitude":-76.1322,"address":"709 Independence Blvd, Virginia Beach VA","chain_name":null,"distance":0},{"name":"Red Lobster Restaurants","code":null,"latitude":25.86646,"longitude":-80.3185,"address":"1750 W 49th St, Hialeah FL","chain_name":null,"distance":0},{"name":"Red Lobster Restaurants","code":null,"latitude":42.06395,"longitude":-80.0985,"address":"2040 Edinboro Rd, Erie PA","chain_name":null,"distance":0},{"name":"Red Lobster Restaurants","code":null,"latitude":32.52862,"longitude":-93.7035,"address":"2968 E Texas St, Bossier City LA","chain_name":null,"distance":0},{"name":"Red Lobster Restaurants","code":null,"latitude":32.79262,"longitude":-80.0301,"address":"2080 Sam Rittenberg Blvd, Charleston SC","chain_name":null,"distance":0},{"name":"Red Lobster Restaurants","code":null,"latitude":33.5088,"longitude":-81.7136,"address":"950 Aiken Mall Dr, Aiken SC","chain_name":null,"distance":0},{"name":"Red Lobster Restaurants","code":null,"latitude":40.74083,"longitude":-73.6287,"address":"211 Old Country Road, Garden City NY","chain_name":null,"distance":0},{"name":"Red Lobster Restaurants","code":null,"latitude":29.16215,"longitude":-80.9751,"address":"3162 South Atlantic Avenue, Daytona Beach FL","chain_name":null,"distance":0},{"name":"Red Lobster Restaurants","code":null,"latitude":37.73372,"longitude":-84.2736,"address":"828 Eastern By-Pass, Richmond KY","chain_name":null,"distance":0},{"name":"Red Lobster Restaurants","code":null,"latitude":33.88917,"longitude":-84.4747,"address":"2579 Cobb Pkwy SE, Smyrna GA","chain_name":null,"distance":0},{"name":"Red Lobster Restaurants","code":null,"latitude":34.06445,"longitude":-83.9896,"address":"3230 Buford Drive, Buford GA","chain_name":null,"distance":0},{"name":"Red Lobster Restaurants","code":null,"latitude":33.90423,"longitude":-117.4712,"address":"3700 Park Sierra Drive, Riverside CA","chain_name":null,"distance":0},{"name":"Red Lobster Restaurants","code":null,"latitude":34.60179,"longitude":-87.0312,"address":"2027 Beltline Rd SW, Decatur AL","chain_name":null,"distance":0},{"name":"Red Lobster Restaurants","code":null,"latitude":30.47381,"longitude":-87.2118,"address":"5110 N 9th Ave, Pensacola FL","chain_name":null,"distance":0},{"name":"Red Lobster Restaurants","code":null,"latitude":40.77703,"longitude":-73.5264,"address":"1 Nevada Street, Hicksville NY","chain_name":null,"distance":0},{"name":"Red Lobster Restaurants","code":null,"latitude":43.62372,"longitude":-83.894,"address":"4109 Wilder Rd, Bay City MI","chain_name":null,"distance":0},{"name":"Red Lobster Restaurants","code":null,"latitude":37.42608,"longitude":-77.6769,"address":"13236 Rittenhouse Drive, Midlothian VA","chain_name":null,"distance":0},{"name":"Red Lobster Restaurants","code":null,"latitude":32.21195,"longitude":-110.8837,"address":"5870 E Broadway Blvd Ste E-5, Tucson AZ","chain_name":null,"distance":0},{"name":"Red Lobster Restaurants","code":null,"latitude":39.03056,"longitude":-95.7622,"address":"2011 SW Wanamaker Rd, Topeka KS","chain_name":null,"distance":0},{"name":"Red Lobster Restaurants","code":null,"latitude":27.79689,"longitude":-82.7285,"address":"2773 66th Street North, Saint Petersburg FL","chain_name":null,"distance":0},{"name":"Red Lobster Restaurants","code":null,"latitude":28.46615,"longitude":-82.6224,"address":"2328 Commercial Way, Spring Hill FL","chain_name":null,"distance":0},{"name":"Red Lobster Restaurants","code":null,"latitude":33.42538,"longitude":-104.523,"address":"2625 North Main Street, Roswell NM","chain_name":null,"distance":0},{"name":"Red Lobster Restaurants","code":null,"latitude":40.15098,"longitude":-84.2173,"address":"991 East Ash Street, Piqua OH","chain_name":null,"distance":0},{"name":"Red Lobster Restaurants","code":null,"latitude":36.34081,"longitude":-82.3751,"address":"1909 N Roan St, Johnson City TN","chain_name":null,"distance":0},{"name":"Red Lobster Restaurants","code":null,"latitude":40.46502,"longitude":-86.108,"address":"1900 South U S 31 By-Pass, Kokomo IN","chain_name":null,"distance":0},{"name":"Red Lobster Restaurants","code":null,"latitude":31.81674,"longitude":-106.5465,"address":"800 Sunland Park Dr, El Paso TX","chain_name":null,"distance":0},{"name":"Red Lobster Restaurants","code":null,"latitude":34.5491,"longitude":-82.6734,"address":"3426 Clemson Blvd, Anderson SC","chain_name":null,"distance":0},{"name":"Red Lobster Restaurants","code":null,"latitude":42.25252,"longitude":-83.6805,"address":"2420 Carpenter Rd, Ann Arbor MI","chain_name":null,"distance":0},{"name":"Red Lobster Restaurants","code":null,"latitude":40.13771,"longitude":-88.2579,"address":"1901 N Prospect Ave, Champaign IL","chain_name":null,"distance":0},{"name":"Red Lobster Restaurants","code":null,"latitude":28.55337,"longitude":-81.3397,"address":"3552 E Colonial Drive, Orlando FL","chain_name":null,"distance":0},{"name":"Red Lobster Restaurants","code":null,"latitude":41.43089,"longitude":-81.886,"address":"24001 Lorain Rd, North Olmsted OH","chain_name":null,"distance":0},{"name":"Red Lobster Restaurants","code":null,"latitude":30.38794,"longitude":-89.0019,"address":"2400 Beach Drive, Gulfport MS","chain_name":null,"distance":0},{"name":"Red Lobster Restaurants","code":null,"latitude":32.43525,"longitude":-99.7875,"address":"1280 South Clack Street, Abilene TX","chain_name":null,"distance":0},{"name":"Red Lobster Restaurants","code":null,"latitude":40.51822,"longitude":-80.0045,"address":"4766 McKnight Road, Pittsburgh PA","chain_name":null,"distance":0},{"name":"Red Lobster Restaurants","code":null,"latitude":39.94188,"longitude":-83.8405,"address":"1898 W 1st St, Springfield OH","chain_name":null,"distance":0},{"name":"Red Lobster Restaurants","code":null,"latitude":41.94501,"longitude":-88.1051,"address":"391 West Army Trail Road, Bloomingdale IL","chain_name":null,"distance":0},{"name":"Red Lobster Restaurants","code":null,"latitude":38.80487,"longitude":-77.1338,"address":"555 South Van Dorn Street, Alexandria VA","chain_name":null,"distance":0},{"name":"Red Lobster Restaurants","code":null,"latitude":34.18705,"longitude":-79.7718,"address":"2540 McLeod Boulevard, Florence SC","chain_name":null,"distance":0},{"name":"Red Lobster Restaurants","code":null,"latitude":39.16443,"longitude":-86.5008,"address":"2617 E 3rd St, Bloomington IN","chain_name":null,"distance":0},{"name":"Red Lobster Restaurants","code":null,"latitude":29.26366,"longitude":-81.0265,"address":"2735 N Atlantic Ave, Daytona Beach FL","chain_name":null,"distance":0},{"name":"Red Lobster Restaurants","code":null,"latitude":28.3114,"longitude":-81.4233,"address":"Kissimmee FL","chain_name":null,"distance":0},{"name":"Red Lobster Restaurants","code":null,"latitude":38.98911,"longitude":-84.6417,"address":"7921 Dream St, Florence KY","chain_name":null,"distance":0},{"name":"Red Lobster Restaurants","code":null,"latitude":35.6097,"longitude":-97.5611,"address":"2625 W Memorial Rd, Oklahoma City OK","chain_name":null,"distance":0},{"name":"Red Lobster Restaurants","code":null,"latitude":33.63823,"longitude":-112.2358,"address":"7921 W Bell Rd, Peoria AZ","chain_name":null,"distance":0},{"name":"Red Lobster Restaurants","code":null,"latitude":28.57804,"longitude":-81.4086,"address":"12557 State Road 535, Orlando FL","chain_name":null,"distance":0},{"name":"Red Lobster Restaurants","code":null,"latitude":30.02229,"longitude":-95.4249,"address":"302 FM 1960 Rd W, Houston TX","chain_name":null,"distance":0},{"name":"Red Lobster Restaurants","code":null,"latitude":37.98585,"longitude":-121.3352,"address":"2283 West March Lane, Stockton CA","chain_name":null,"distance":0},{"name":"Red Lobster Restaurants","code":null,"latitude":41.38044,"longitude":-81.7363,"address":"7607 Day Drive, Cleveland OH","chain_name":null,"distance":0},{"name":"Red Lobster Restaurants","code":null,"latitude":30.47601,"longitude":-84.2965,"address":"2583 N Monroe St, Tallahassee FL","chain_name":null,"distance":0},{"name":"Red Lobster Restaurants","code":null,"latitude":30.40666,"longitude":-86.6341,"address":"326 Miracle Strip Pkwy SW, Fort Walton Beach FL","chain_name":null,"distance":0},{"name":"Red Lobster Restaurants","code":null,"latitude":33.11087,"longitude":-96.8054,"address":"3056 Preston Road, Frisco TX","chain_name":null,"distance":0},{"name":"Red Lobster Restaurants","code":null,"latitude":42.09863,"longitude":-79.3054,"address":"295 East Fairmount Avenue, Lakewood NY","chain_name":null,"distance":0},{"name":"Red Lobster Restaurants","code":null,"latitude":29.60168,"longitude":-98.471,"address":"17415 San Pedro Avenue, San Antonio TX","chain_name":null,"distance":0},{"name":"Red Lobster Restaurants","code":null,"latitude":40.13834,"longitude":-88.2581,"address":"1901 North Prospect Avenue, Champaign IL","chain_name":null,"distance":0},{"name":"Red Lobster Restaurants","code":null,"latitude":39.18356,"longitude":-76.8198,"address":"9011 Snowden Square Dr, Columbia MD","chain_name":null,"distance":0},{"name":"Red Lobster Restaurants","code":null,"latitude":38.3606,"longitude":-81.6866,"address":"101 Crossing Terrace Boulevard, South Charleston WV","chain_name":null,"distance":0},{"name":"Red Lobster Restaurants","code":null,"latitude":33.32004,"longitude":-111.9671,"address":"7240 West Ray Road, Chandler AZ","chain_name":null,"distance":0},{"name":"Red Lobster Restaurants","code":null,"latitude":40.39019,"longitude":-104.7157,"address":"2885 S 23rd Ave, Greeley CO","chain_name":null,"distance":0},{"name":"Red Lobster Restaurants","code":null,"latitude":27.54789,"longitude":-99.5027,"address":"5315 San Dario Avenue, Laredo TX","chain_name":null,"distance":0},{"name":"Red Lobster Restaurants","code":null,"latitude":39.20541,"longitude":-84.3671,"address":"8220 Montgomery Rd, Cincinnati OH","chain_name":null,"distance":0},{"name":"Red Lobster Restaurants","code":null,"latitude":28.55232,"longitude":-81.4819,"address":"7373 W Colonial Dr, Orlando FL","chain_name":null,"distance":0},{"name":"Red Lobster Restaurants","code":null,"latitude":41.96008,"longitude":-87.8366,"address":"4401 North Cumberland Avenue, Norridge IL","chain_name":null,"distance":0},{"name":"Red Lobster Restaurants","code":null,"latitude":33.47914,"longitude":-112.2205,"address":"2810 N 75th Ave, Phoenix AZ","chain_name":null,"distance":0},{"name":"Red Lobster Restaurants","code":null,"latitude":31.32497,"longitude":-89.3478,"address":"4670 Hardy St, Hattiesburg MS","chain_name":null,"distance":0},{"name":"Red Lobster Restaurants","code":null,"latitude":39.24944,"longitude":-84.5956,"address":"3564 Springdale Rd, Cincinnati OH","chain_name":null,"distance":0},{"name":"Red Lobster Restaurants","code":null,"latitude":41.22071,"longitude":-73.2174,"address":"4485 Main St, Bridgeport CT","chain_name":null,"distance":0},{"name":"Red Lobster Restaurants","code":null,"latitude":36.82627,"longitude":-76.4106,"address":"4115 Chesapeake Square Blvd, Chesapeake VA","chain_name":null,"distance":0},{"name":"Red Lobster Restaurants","code":null,"latitude":41.2101,"longitude":-80.7498,"address":"5701 Youngstown Warren Rd, Niles OH","chain_name":null,"distance":0},{"name":"Red Lobster Restaurants","code":null,"latitude":43.06951,"longitude":-88.0481,"address":"2801 North Mayfair Road, Milwaukee WI","chain_name":null,"distance":0},{"name":"Red Lobster Restaurants","code":null,"latitude":28.54225,"longitude":-81.3729,"address":"Orlando FL","chain_name":null,"distance":0},{"name":"Red Lobster Restaurants","code":null,"latitude":35.0768,"longitude":-78.9546,"address":"533 North McPherson Church Road, Fayetteville NC","chain_name":null,"distance":0},{"name":"Red Lobster Restaurants","code":null,"latitude":40.87686,"longitude":-79.9489,"address":"104 Moraine Pointe Plz, Butler PA","chain_name":null,"distance":0},{"name":"Red Lobster Restaurants","code":null,"latitude":34.75876,"longitude":-85.0037,"address":"901 West Bridge Road, Dalton GA","chain_name":null,"distance":0},{"name":"Red Lobster Restaurants","code":null,"latitude":42.63883,"longitude":-83.1316,"address":"2825 S Rochester Rd, Rochester Hills MI","chain_name":null,"distance":0},{"name":"Red Lobster Restaurants","code":null,"latitude":40.29712,"longitude":-78.8356,"address":"525 Galleria Dr, Johnstown PA","chain_name":null,"distance":0},{"name":"Red Lobster Restaurants","code":null,"latitude":33.42543,"longitude":-104.5227,"address":"2625 N Main St, Roswell NM","chain_name":null,"distance":0},{"name":"Red Lobster Restaurants","code":null,"latitude":33.71663,"longitude":-84.2741,"address":"2522 Candler Rd, Decatur GA","chain_name":null,"distance":0},{"name":"Red Lobster Restaurants","code":null,"latitude":32.81792,"longitude":-96.6308,"address":"3906 Towne Crossing Blvd, Mesquite TX","chain_name":null,"distance":0},{"name":"Red Lobster Restaurants","code":null,"latitude":28.07863,"longitude":-80.6611,"address":"2355 West New Haven Avenue, Melbourne FL","chain_name":null,"distance":0},{"name":"Red Lobster Restaurants","code":null,"latitude":39.14489,"longitude":-84.6234,"address":"6186 Glenway Avenue, Cincinnati OH","chain_name":null,"distance":0},{"name":"Red Lobster Restaurants","code":null,"latitude":32.38569,"longitude":-86.2035,"address":"300 Eastdale Cir, Montgomery AL","chain_name":null,"distance":0},{"name":"Red Lobster Restaurants","code":null,"latitude":36.06644,"longitude":-95.8863,"address":"6728 S Memorial Dr, Tulsa OK","chain_name":null,"distance":0},{"name":"Red Lobster Restaurants","code":null,"latitude":26.1106,"longitude":-80.2504,"address":"803 S University Dr, Plantation FL","chain_name":null,"distance":0},{"name":"Red Lobster Restaurants","code":null,"latitude":35.83493,"longitude":-83.5722,"address":"1600 Parkway, Sevierville TN","chain_name":null,"distance":0},{"name":"Red Lobster Restaurants","code":null,"latitude":44.91956,"longitude":-93.0807,"address":"1469 Robert St S, W Saint Paul MN","chain_name":null,"distance":0},{"name":"Red Lobster Restaurants","code":null,"latitude":36.58783,"longitude":-87.2939,"address":"2838 Wilma Rudolph Blvd, Clarksville TN","chain_name":null,"distance":0},{"name":"Red Lobster Restaurants","code":null,"latitude":36.12687,"longitude":-97.0587,"address":"102 East Hall Of Fame Avenue, Stillwater OK","chain_name":null,"distance":0},{"name":"Red Lobster Restaurants","code":null,"latitude":38.78592,"longitude":-97.6126,"address":"2925 South 9th Street, Salina KS","chain_name":null,"distance":0},{"name":"Red Lobster Restaurants","code":null,"latitude":27.41383,"longitude":-80.3936,"address":"6401 Darter Ct, Fort Pierce FL","chain_name":null,"distance":0},{"name":"Red Lobster Restaurants","code":null,"latitude":29.65983,"longitude":-82.4146,"address":"6910 West Newberry Road, Gainesville FL","chain_name":null,"distance":0},{"name":"Red Lobster Restaurants","code":null,"latitude":42.44808,"longitude":-96.3504,"address":"4290 Sergeant Rd, Sioux City IA","chain_name":null,"distance":0},{"name":"Red Lobster Restaurants","code":null,"latitude":33.00316,"longitude":-96.9633,"address":"2497 South Stemmons Frwy, Lewisville TX","chain_name":null,"distance":0},{"name":"Red Lobster Restaurants","code":null,"latitude":32.83776,"longitude":-97.01,"address":"4205 West Airport Freeway, Irving TX","chain_name":null,"distance":0},{"name":"Red Lobster Restaurants","code":null,"latitude":34.62349,"longitude":-98.4317,"address":"3112 Northwest Cache Road, Lawton OK","chain_name":null,"distance":0},{"name":"Red Lobster Restaurants","code":null,"latitude":41.80028,"longitude":-73.121,"address":"1 South Main Street, Torrington CT","chain_name":null,"distance":0},{"name":"Red Lobster Restaurants","code":null,"latitude":26.61764,"longitude":-80.1504,"address":"6638 Lake Worth Rd, Lake Worth FL","chain_name":null,"distance":0},{"name":"Red Lobster Restaurants","code":null,"latitude":38.42994,"longitude":-78.842,"address":"2121 East Market Street, Harrisonburg VA","chain_name":null,"distance":0},{"name":"Red Lobster Restaurants","code":null,"latitude":41.87871,"longitude":-84.0432,"address":"1420 South Main Street, Adrian MI","chain_name":null,"distance":0},{"name":"Red Lobster Restaurants","code":null,"latitude":29.59721,"longitude":-95.6185,"address":"2323 Highway 6, Sugar Land TX","chain_name":null,"distance":0},{"name":"Red Lobster Restaurants","code":null,"latitude":42.91242,"longitude":-85.5703,"address":"3920 28th Street Southeast, Grand Rapids MI","chain_name":null,"distance":0},{"name":"Red Lobster Restaurants","code":null,"latitude":30.09659,"longitude":-94.1322,"address":"2820 Interstate 10 E, Beaumont TX","chain_name":null,"distance":0},{"name":"Red Lobster Restaurants","code":null,"latitude":36.10752,"longitude":-94.1805,"address":"3885 N Shiloh Dr, Fayetteville AR","chain_name":null,"distance":0},{"name":"Red Lobster Restaurants","code":null,"latitude":30.2206,"longitude":-81.5768,"address":"8720 Baymeadows Rd, Jacksonville FL","chain_name":null,"distance":0},{"name":"Red Lobster Restaurants","code":null,"latitude":41.72942,"longitude":-85.9728,"address":"3009 Brittany Ct, Elkhart IN","chain_name":null,"distance":0},{"name":"Red Lobster Restaurants","code":null,"latitude":35.26404,"longitude":-81.1517,"address":"200 N New Hope Rd, Gastonia NC","chain_name":null,"distance":0},{"name":"Red Lobster Restaurants","code":null,"latitude":29.65954,"longitude":-82.419,"address":"6910 W Newberry Rd, Gainesville FL","chain_name":null,"distance":0},{"name":"Red Lobster Restaurants","code":null,"latitude":42.96035,"longitude":-88.0083,"address":"4645 South 76th Street, Milwaukee WI","chain_name":null,"distance":0},{"name":"Red Lobster Restaurants","code":null,"latitude":37.11594,"longitude":-113.5514,"address":"263 Red Cliffs Drive, Saint George UT","chain_name":null,"distance":0},{"name":"Red Lobster Restaurants","code":null,"latitude":39.975,"longitude":-76.676,"address":"2555 East Market Street, York PA","chain_name":null,"distance":0},{"name":"Red Lobster Restaurants","code":null,"latitude":38.25806,"longitude":-122.0547,"address":"1501 Travis Boulevard, Fairfield CA","chain_name":null,"distance":0},{"name":"Red Lobster Restaurants","code":null,"latitude":32.3658,"longitude":-88.6728,"address":"201 South Frontage Road, Meridian MS","chain_name":null,"distance":0},{"name":"Red Lobster Restaurants","code":null,"latitude":39.17053,"longitude":-75.5181,"address":"271 N Dupont Hwy, Dover DE","chain_name":null,"distance":0},{"name":"Red Lobster Restaurants","code":null,"latitude":33.63795,"longitude":-112.2294,"address":"7921 West Bell Road, Peoria AZ","chain_name":null,"distance":0},{"name":"Red Lobster Restaurants","code":null,"latitude":40.0951,"longitude":-80.9286,"address":"50740 Valley Centre Blvd, Saint Clairsville OH","chain_name":null,"distance":0},{"name":"Red Lobster Restaurants","code":null,"latitude":41.61635,"longitude":-87.8388,"address":"14750 S. Lagrange Road, Orland Park IL","chain_name":null,"distance":0},{"name":"Red Lobster Restaurants","code":null,"latitude":40.87299,"longitude":-74.6469,"address":"303 State Highway 10 North, Succasunna NJ","chain_name":null,"distance":0},{"name":"Red Lobster Restaurants","code":null,"latitude":26.17535,"longitude":-81.7997,"address":"2355 Tamiami Trl N, Naples FL","chain_name":null,"distance":0},{"name":"Red Lobster Restaurants","code":null,"latitude":38.40112,"longitude":-75.5701,"address":"2314 North Salisbury Boulevard, Salisbury MD","chain_name":null,"distance":0},{"name":"Red Lobster Restaurants","code":null,"latitude":37.17563,"longitude":-93.2623,"address":"2141 South Glenstone Avenue, Springfield MO","chain_name":null,"distance":0},{"name":"Red Lobster Restaurants","code":null,"latitude":36.01036,"longitude":-83.9723,"address":"305 Merchants Dr, Knoxville TN","chain_name":null,"distance":0},{"name":"Red Lobster Restaurants","code":null,"latitude":39.04149,"longitude":-94.4155,"address":"4328 S Noland Rd, Independence MO","chain_name":null,"distance":0},{"name":"Red Lobster Restaurants","code":null,"latitude":34.62316,"longitude":-98.4349,"address":"3112 NW Cache Rd, Lawton OK","chain_name":null,"distance":0},{"name":"Red Lobster Restaurants","code":null,"latitude":40.27249,"longitude":-74.0431,"address":"2200 State Route 35, Oakhurst NJ","chain_name":null,"distance":0},{"name":"Red Lobster Restaurants","code":null,"latitude":37.16409,"longitude":-80.4207,"address":"75 Peppers Ferry Road Northwest, Christiansburg VA","chain_name":null,"distance":0},{"name":"Red Lobster Restaurants","code":null,"latitude":32.29781,"longitude":-110.9786,"address":"5061 North Oracle Road, Tucson AZ","chain_name":null,"distance":0},{"name":"Red Lobster Restaurants","code":null,"latitude":44.83558,"longitude":-68.7427,"address":"8 Bangor Mall Boulevard, Bangor ME","chain_name":null,"distance":0},{"name":"Red Lobster Restaurants","code":null,"latitude":39.03036,"longitude":-95.7621,"address":"2011 Southwest Wanamaker Road, Topeka KS","chain_name":null,"distance":0},{"name":"Red Lobster Restaurants","code":null,"latitude":38.95724,"longitude":-94.6674,"address":"9475 Metcalf Ave, Overland Park KS","chain_name":null,"distance":0},{"name":"Red Lobster Restaurants","code":null,"latitude":33.98124,"longitude":-86.0067,"address":"1725 Rainbow Dr, Gadsden AL","chain_name":null,"distance":0},{"name":"Red Lobster Restaurants","code":null,"latitude":29.15672,"longitude":-82.1783,"address":"3393 Southwest College Road, Ocala FL","chain_name":null,"distance":0},{"name":"Red Lobster Restaurants","code":null,"latitude":36.17151,"longitude":-115.2062,"address":"200 South Decatur Boulevard, Las Vegas NV","chain_name":null,"distance":0},{"name":"Red Lobster Restaurants","code":null,"latitude":44.27259,"longitude":-88.4761,"address":"1200 North Casaloma Drive, Appleton WI","chain_name":null,"distance":0},{"name":"Red Lobster Restaurants","code":null,"latitude":42.01237,"longitude":-93.6116,"address":"1100 Buckeye Avenue, Ames IA","chain_name":null,"distance":0},{"name":"Red Lobster Restaurants","code":null,"latitude":33.85291,"longitude":-84.6047,"address":"1805 E West Connector, Austell GA","chain_name":null,"distance":0},{"name":"Red Lobster Restaurants","code":null,"latitude":33.65664,"longitude":-84.5006,"address":"3360 Camp Creek Parkway, Atlanta GA","chain_name":null,"distance":0},{"name":"Red Lobster Restaurants","code":null,"latitude":35.21977,"longitude":-97.487,"address":"302 North Interstate, Norman OK","chain_name":null,"distance":0},{"name":"Red Lobster Restaurants","code":null,"latitude":30.83648,"longitude":-83.3152,"address":"1179 N Saint Augustine Rd, Valdosta GA","chain_name":null,"distance":0},{"name":"Red Lobster Restaurants","code":null,"latitude":29.51602,"longitude":-98.4338,"address":"90 NE Loop 410, San Antonio TX","chain_name":null,"distance":0},{"name":"Red Lobster Restaurants","code":null,"latitude":35.5673,"longitude":-106.0081,"address":"4450 Rodeo Raod, Santa Fe NM","chain_name":null,"distance":0},{"name":"Red Lobster Restaurants","code":null,"latitude":43.32917,"longitude":-73.6715,"address":"750 Upper Glen St, Queensbury NY","chain_name":null,"distance":0},{"name":"Red Lobster Restaurants","code":null,"latitude":29.4891,"longitude":-98.5733,"address":"4511 NW Loop 410, San Antonio TX","chain_name":null,"distance":0},{"name":"Red Lobster Restaurants","code":null,"latitude":32.31398,"longitude":-106.7436,"address":"575 S Telshor Blvd, Las Cruces NM","chain_name":null,"distance":0},{"name":"Red Lobster Restaurants","code":null,"latitude":29.84864,"longitude":-95.5056,"address":"13232 Northwest Fwy, Houston TX","chain_name":null,"distance":0},{"name":"Red Lobster Restaurants","code":null,"latitude":41.24907,"longitude":-76.9643,"address":"1951 E 3rd St, Williamsport PA","chain_name":null,"distance":0},{"name":"Red Lobster Restaurants","code":null,"latitude":33.99374,"longitude":-117.9196,"address":"17601 Castleton Street, City Of Industry CA","chain_name":null,"distance":0},{"name":"Red Lobster Restaurants","code":null,"latitude":42.01161,"longitude":-87.7114,"address":"3301 West Touhy Avenue, Lincolnwood IL","chain_name":null,"distance":0},{"name":"Red Lobster Restaurants","code":null,"latitude":36.34081,"longitude":-82.3751,"address":"1909 North Roan Street, Johnson City TN","chain_name":null,"distance":0},{"name":"Red Lobster Restaurants","code":null,"latitude":40.43808,"longitude":-79.7759,"address":"3941 William Penn Hwy, Monroeville PA","chain_name":null,"distance":0},{"name":"Red Lobster Restaurants","code":null,"latitude":46.61361,"longitude":-120.5117,"address":"905 North 1st Street, Yakima WA","chain_name":null,"distance":0},{"name":"Red Lobster Restaurants","code":null,"latitude":40.99544,"longitude":-73.8192,"address":"999 Central Park Ave, Scarsdale NY","chain_name":null,"distance":0},{"name":"Red Lobster Restaurants","code":null,"latitude":34.28159,"longitude":-83.8515,"address":"1707 Browns Bridge Rd, Gainesville GA","chain_name":null,"distance":0},{"name":"Red Lobster Restaurants","code":null,"latitude":30.34701,"longitude":-97.7121,"address":"109 W Anderson Ln, Austin TX","chain_name":null,"distance":0},{"name":"Red Lobster Restaurants","code":null,"latitude":35.76341,"longitude":-78.7433,"address":"1805 Walnut St, Cary NC","chain_name":null,"distance":0},{"name":"Red Lobster Restaurants","code":null,"latitude":29.86693,"longitude":-81.3231,"address":"100 State Road 312 West, Saint Augustine FL","chain_name":null,"distance":0},{"name":"Red Lobster Restaurants","code":null,"latitude":41.05453,"longitude":-83.602,"address":"2340 Tiffin Ave, Findlay OH","chain_name":null,"distance":0},{"name":"Red Lobster Restaurants","code":null,"latitude":31.25204,"longitude":-85.4275,"address":"3116 Montgomery Highway, Dothan AL","chain_name":null,"distance":0},{"name":"Red Lobster Restaurants","code":null,"latitude":29.19284,"longitude":-81.053,"address":"2625 Int'l Speedway Blvd., Daytona Beach FL","chain_name":null,"distance":0},{"name":"Red Lobster Restaurants","code":null,"latitude":40.86942,"longitude":-73.8252,"address":"2090 Bartow Ave, Bronx NY","chain_name":null,"distance":0},{"name":"Red Lobster Restaurants","code":null,"latitude":40.74402,"longitude":-89.6317,"address":"4625 N Sterling Ave, Peoria IL","chain_name":null,"distance":0},{"name":"Red Lobster Restaurants","code":null,"latitude":43.46742,"longitude":-83.9756,"address":"4141 Bay Rd, Saginaw MI","chain_name":null,"distance":0},{"name":"Red Lobster Restaurants","code":null,"latitude":34.87998,"longitude":-82.3593,"address":"1940 Wade Hampton Blvd, Greenville SC","chain_name":null,"distance":0},{"name":"Red Lobster Restaurants","code":null,"latitude":28.5548,"longitude":-81.2065,"address":"617 North Alafaya Trail, Orlando FL","chain_name":null,"distance":0},{"name":"Red Lobster Restaurants","code":null,"latitude":44.93694,"longitude":-122.9831,"address":"521 Lancaster Dr NE, Salem OR","chain_name":null,"distance":0},{"name":"Red Lobster Restaurants","code":null,"latitude":28.08957,"longitude":-81.9733,"address":"3706 US Highway 98 North, Lakeland FL","chain_name":null,"distance":0},{"name":"Red Lobster Restaurants","code":null,"latitude":33.79926,"longitude":-78.7365,"address":"10000 Highway 17, North Myrtle Beach SC","chain_name":null,"distance":0},{"name":"Red Lobster Restaurants","code":null,"latitude":33.48744,"longitude":-111.926,"address":"3360 N Scottsdale Rd, Scottsdale AZ","chain_name":null,"distance":0},{"name":"Red Lobster Restaurants","code":null,"latitude":37.62576,"longitude":-77.531,"address":"8009 West Broad Street, Richmond VA","chain_name":null,"distance":0},{"name":"Red Lobster Restaurants","code":null,"latitude":41.89459,"longitude":-88.3435,"address":"902 Commons Drive, Geneva IL","chain_name":null,"distance":0},{"name":"Red Lobster Restaurants","code":null,"latitude":37.67625,"longitude":-97.3895,"address":"555 S West St, Wichita KS","chain_name":null,"distance":0},{"name":"Red Lobster Restaurants","code":null,"latitude":36.74912,"longitude":-108.1603,"address":"3451 East Main Street, Farmington NM","chain_name":null,"distance":0},{"name":"Red Lobster Restaurants","code":null,"latitude":39.77688,"longitude":-94.7958,"address":"4101 Frederick Ave, Saint Joseph MO","chain_name":null,"distance":0},{"name":"Red Lobster Restaurants","code":null,"latitude":42.90786,"longitude":-112.466,"address":"4105 Yellowstone Ave, Pocatello ID","chain_name":null,"distance":0},{"name":"Red Lobster Restaurants","code":null,"latitude":26.38277,"longitude":-80.0762,"address":"3600 North Federal Highway, Boca Raton FL","chain_name":null,"distance":0},{"name":"Red Lobster Restaurants","code":null,"latitude":41.24812,"longitude":-76.9603,"address":"1951 East 3rd Street, Williamsport PA","chain_name":null,"distance":0},{"name":"Red Lobster Restaurants","code":null,"latitude":28.84327,"longitude":-96.9573,"address":"7404 Northeast Zac Lentz Parkway, Victoria TX","chain_name":null,"distance":0},{"name":"Red Lobster Restaurants","code":null,"latitude":41.76098,"longitude":-88.3015,"address":"4435 Fox Valy Drive, Aurora IL","chain_name":null,"distance":0},{"name":"Red Lobster Restaurants","code":null,"latitude":42.38347,"longitude":-87.9559,"address":"6230 Grand Ave, Gurnee IL","chain_name":null,"distance":0},{"name":"Red Lobster Restaurants","code":null,"latitude":41.68772,"longitude":-91.6073,"address":"2671 2nd Street, Coralville IA","chain_name":null,"distance":0},{"name":"Red Lobster Restaurants","code":null,"latitude":38.42484,"longitude":-78.8392,"address":"2121 E Market St, Harrisonburg VA","chain_name":null,"distance":0},{"name":"Red Lobster Restaurants","code":null,"latitude":33.97938,"longitude":-81.0709,"address":"1270 Knox Abbott Dr, Cayce SC","chain_name":null,"distance":0},{"name":"Red Lobster Restaurants","code":null,"latitude":42.02882,"longitude":-91.7019,"address":"163 Collins Rd NE, Cedar Rapids IA","chain_name":null,"distance":0},{"name":"Red Lobster Restaurants","code":null,"latitude":33.38954,"longitude":-111.8573,"address":"1403 S Alma School Rd, Mesa AZ","chain_name":null,"distance":0},{"name":"Red Lobster Restaurants","code":null,"latitude":41.92882,"longitude":-83.3506,"address":"1553 North Dixie Highway, Monroe MI","chain_name":null,"distance":0},{"name":"Red Lobster Restaurants","code":null,"latitude":42.97341,"longitude":-78.6966,"address":"7540 Transit Rd, Williamsville NY","chain_name":null,"distance":0},{"name":"Red Lobster Restaurants","code":null,"latitude":35.84099,"longitude":-78.6113,"address":"4408 Old Wake Forest Rd, Raleigh NC","chain_name":null,"distance":0},{"name":"Red Lobster Restaurants","code":null,"latitude":35.56559,"longitude":-77.4039,"address":"3501 South Memorial Drive, Greenville NC","chain_name":null,"distance":0},{"name":"Red Lobster Restaurants","code":null,"latitude":28.67166,"longitude":-81.4189,"address":"340 W State Road 436, Altamonte Springs FL","chain_name":null,"distance":0},{"name":"Red Lobster Restaurants","code":null,"latitude":41.55133,"longitude":-90.524,"address":"3420 East Kimberly Road, Davenport IA","chain_name":null,"distance":0},{"name":"Red Lobster Restaurants","code":null,"latitude":39.72681,"longitude":-121.8062,"address":"2010 Business Ln, Chico CA","chain_name":null,"distance":0},{"name":"Red Lobster Restaurants","code":null,"latitude":29.87075,"longitude":-97.9368,"address":"100 N I H 35, San Marcos TX","chain_name":null,"distance":0},{"name":"Red Lobster Restaurants","code":null,"latitude":39.29517,"longitude":-81.5464,"address":"3705 Murdoch Ave, Parkersburg WV","chain_name":null,"distance":0},{"name":"Red Lobster Restaurants","code":null,"latitude":41.25088,"longitude":-75.8496,"address":"10 East End Centre, Wilkes Barre PA","chain_name":null,"distance":0},{"name":"Red Lobster Restaurants","code":null,"latitude":39.15484,"longitude":-78.1743,"address":"2400 South Pleasant Valley Road, Winchester VA","chain_name":null,"distance":0},{"name":"Red Lobster Restaurants","code":null,"latitude":28.66185,"longitude":-81.3948,"address":"340 West State Road 436, Altamonte Springs FL","chain_name":null,"distance":0},{"name":"Red Lobster Restaurants","code":null,"latitude":40.81353,"longitude":-96.6315,"address":"6540 O St, Lincoln NE","chain_name":null,"distance":0},{"name":"Red Lobster Restaurants","code":null,"latitude":41.55413,"longitude":-90.5248,"address":"3420 E Kimberly Rd, Davenport IA","chain_name":null,"distance":0},{"name":"Red Lobster Restaurants","code":null,"latitude":40.48417,"longitude":-78.4005,"address":"3331 Pleasant Valley Boulevard, Altoona PA","chain_name":null,"distance":0},{"name":"Red Lobster Restaurants","code":null,"latitude":40.42594,"longitude":-86.8581,"address":"820 Sagamore Parkway North, Lafayette IN","chain_name":null,"distance":0},{"name":"Red Lobster Restaurants","code":null,"latitude":38.96124,"longitude":-76.8631,"address":"8905 Annapolis Road, Lanham MD","chain_name":null,"distance":0},{"name":"Red Lobster Restaurants","code":null,"latitude":29.04767,"longitude":-95.4567,"address":"104 Highway 332 West, Lake Jackson TX","chain_name":null,"distance":0},{"name":"Red Lobster Restaurants","code":null,"latitude":31.60873,"longitude":-84.1759,"address":"2403 N Slappey Blvd, Albany GA","chain_name":null,"distance":0},{"name":"Red Lobster Restaurants","code":null,"latitude":31.60893,"longitude":-84.1758,"address":"2403 North Slappey Boulevard, Albany GA","chain_name":null,"distance":0},{"name":"Red Lobster Restaurants","code":null,"latitude":40.08706,"longitude":-82.9732,"address":"1691 E Dublin Granville Rd, Columbus OH","chain_name":null,"distance":0},{"name":"Red Lobster Restaurants","code":null,"latitude":35.80889,"longitude":-80.8708,"address":"1145 Glenway Dr, Statesville NC","chain_name":null,"distance":0},{"name":"Red Lobster Restaurants","code":null,"latitude":40.5857,"longitude":-122.3473,"address":"1345 Dana Drive, Redding CA","chain_name":null,"distance":0},{"name":"Red Lobster Restaurants","code":null,"latitude":41.37521,"longitude":-73.4864,"address":"34 Backus Ave, Danbury CT","chain_name":null,"distance":0},{"name":"Red Lobster Restaurants","code":null,"latitude":44.10482,"longitude":-103.212,"address":"120 Disk Dr, Rapid City SD","chain_name":null,"distance":0},{"name":"Red Lobster Restaurants","code":null,"latitude":37.68398,"longitude":-121.0532,"address":"3000 Sisk Rd, Modesto CA","chain_name":null,"distance":0},{"name":"Red Lobster Restaurants","code":null,"latitude":38.90278,"longitude":-104.7713,"address":"4925 North Academy Boulevard, Colorado Springs CO","chain_name":null,"distance":0},{"name":"Red Lobster Restaurants","code":null,"latitude":35.1756,"longitude":-111.6637,"address":"2500 S Beulah Blvd, Flagstaff AZ","chain_name":null,"distance":0},{"name":"Red Lobster Restaurants","code":null,"latitude":41.7884,"longitude":-88.0838,"address":"Lisle IL","chain_name":null,"distance":0},{"name":"Red Lobster Restaurants","code":null,"latitude":27.44015,"longitude":-82.5753,"address":"5711 14th Street West, Bradenton FL","chain_name":null,"distance":0},{"name":"Red Lobster Restaurants","code":null,"latitude":40.29117,"longitude":-74.6862,"address":"3255 US Highway 1, Lawrenceville NJ","chain_name":null,"distance":0},{"name":"Red Lobster Restaurants","code":null,"latitude":29.42018,"longitude":-98.6505,"address":"1381 SW Loop 410, San Antonio TX","chain_name":null,"distance":0},{"name":"Red Lobster Restaurants","code":null,"latitude":41.41873,"longitude":-81.906,"address":"25615 Brookpark Road, North Olmsted OH","chain_name":null,"distance":0},{"name":"Red Lobster Restaurants","code":null,"latitude":38.8605,"longitude":-77.3018,"address":"10325 Lee Hwy, Fairfax VA","chain_name":null,"distance":0},{"name":"Red Lobster Restaurants","code":null,"latitude":28.46218,"longitude":-81.4599,"address":"5936 International Dr, Orlando FL","chain_name":null,"distance":0},{"name":"Red Lobster Restaurants","code":null,"latitude":33.83487,"longitude":-118.3535,"address":"21233 Hawthorne Blvd, Torrance CA","chain_name":null,"distance":0},{"name":"Red Lobster Restaurants","code":null,"latitude":33.85741,"longitude":-84.6167,"address":"1805 East West Connector, Austell GA","chain_name":null,"distance":0},{"name":"Red Lobster Restaurants","code":null,"latitude":37.74008,"longitude":-85.89,"address":"2020 North Dixie Highway, Elizabethtown KY","chain_name":null,"distance":0},{"name":"Red Lobster Restaurants","code":null,"latitude":28.00392,"longitude":-81.7253,"address":"230 Cypress Gardens Boulevard, Winter Haven FL","chain_name":null,"distance":0},{"name":"Red Lobster Restaurants","code":null,"latitude":46.78323,"longitude":-92.0956,"address":"301 South Lake Avenue, Duluth MN","chain_name":null,"distance":0},{"name":"Red Lobster Restaurants","code":null,"latitude":44.95286,"longitude":-92.9679,"address":"8350 3rd Street North, Saint Paul MN","chain_name":null,"distance":0},{"name":"Red Lobster Restaurants","code":null,"latitude":33.6516,"longitude":-84.0003,"address":"1560 Dogwood Dr SE, Conyers GA","chain_name":null,"distance":0},{"name":"Red Lobster Restaurants","code":null,"latitude":40.72646,"longitude":-73.8535,"address":"9525 Queens Blvd, Rego Park NY","chain_name":null,"distance":0},{"name":"Red Lobster Restaurants","code":null,"latitude":32.47121,"longitude":-84.9709,"address":"1425 13th St, Columbus GA","chain_name":null,"distance":0},{"name":"Red Lobster Restaurants","code":null,"latitude":40.21888,"longitude":-85.3885,"address":"223 West McGalliard Road, Muncie IN","chain_name":null,"distance":0},{"name":"Red Lobster Restaurants","code":null,"latitude":39.92005,"longitude":-88.9553,"address":"997 South State Route 51, Forsyth IL","chain_name":null,"distance":0},{"name":"Red Lobster Restaurants","code":null,"latitude":34.55019,"longitude":-112.4379,"address":"1821 E State Route 69, Prescott AZ","chain_name":null,"distance":0},{"name":"Red Lobster Restaurants","code":null,"latitude":40.63258,"longitude":-111.882,"address":"298 E Winchester St, Murray UT","chain_name":null,"distance":0},{"name":"Red Lobster Restaurants","code":null,"latitude":40.17607,"longitude":-87.6299,"address":"3217 N Vermilion St, Danville IL","chain_name":null,"distance":0},{"name":"Red Lobster Restaurants","code":null,"latitude":34.44984,"longitude":-93.0813,"address":"4500 Central Avenue, Hot Springs National AR","chain_name":null,"distance":0},{"name":"Red Lobster Restaurants","code":null,"latitude":45.09141,"longitude":-93.433,"address":"12515 North Elm Creek Boulevard, Maple Grove MN","chain_name":null,"distance":0},{"name":"Red Lobster Restaurants","code":null,"latitude":25.64388,"longitude":-80.3345,"address":"8705 Southwest 136th Street, Miami FL","chain_name":null,"distance":0},{"name":"Red Lobster Restaurants","code":null,"latitude":45.55313,"longitude":-94.1935,"address":"2920 W Division St, Saint Cloud MN","chain_name":null,"distance":0},{"name":"Red Lobster Restaurants","code":null,"latitude":46.16042,"longitude":-122.9806,"address":"Longview WA","chain_name":null,"distance":0},{"name":"Red Lobster Restaurants","code":null,"latitude":37.9854,"longitude":-121.3376,"address":"2283 W March Ln, Stockton CA","chain_name":null,"distance":0},{"name":"Red Lobster Restaurants","code":null,"latitude":39.93216,"longitude":-82.8794,"address":"2147 South Hamilton Road, Columbus OH","chain_name":null,"distance":0},{"name":"Red Lobster Restaurants","code":null,"latitude":32.65792,"longitude":-96.8915,"address":"603 North Cockrell Hill Road, Duncanville TX","chain_name":null,"distance":0},{"name":"Red Lobster Restaurants","code":null,"latitude":34.06595,"longitude":-117.2823,"address":"195 East Hospitality Lane, San Bernardino CA","chain_name":null,"distance":0},{"name":"Red Lobster Restaurants","code":null,"latitude":35.35305,"longitude":-94.3507,"address":"7401 Rogers Ave, Fort Smith AR","chain_name":null,"distance":0},{"name":"Red Lobster Restaurants","code":null,"latitude":36.59287,"longitude":-79.425,"address":"370 Mall Dr, Danville VA","chain_name":null,"distance":0},{"name":"Red Lobster Restaurants","code":null,"latitude":32.69833,"longitude":-114.6245,"address":"1601 South 4th Avenue, Yuma AZ","chain_name":null,"distance":0},{"name":"Red Lobster Restaurants","code":null,"latitude":34.74108,"longitude":-86.5976,"address":"1818 University Dr NW, Huntsville AL","chain_name":null,"distance":0},{"name":"Red Lobster Restaurants","code":null,"latitude":37.20685,"longitude":-79.9543,"address":"3529 Franklin Rd SW, Roanoke VA","chain_name":null,"distance":0},{"name":"Red Lobster Restaurants","code":null,"latitude":28.42491,"longitude":-81.4607,"address":"9892 International Dr, Orlando FL","chain_name":null,"distance":0},{"name":"Red Lobster Restaurants","code":null,"latitude":41.59531,"longitude":-93.7604,"address":"3838 Westown Parkway, West Des Moines IA","chain_name":null,"distance":0},{"name":"Red Lobster Restaurants","code":null,"latitude":38.41598,"longitude":-82.3528,"address":"200 10th St, Huntington WV","chain_name":null,"distance":0},{"name":"Red Lobster Restaurants","code":null,"latitude":39.3592,"longitude":-82.9763,"address":"1079 North Bridge Street, Chillicothe OH","chain_name":null,"distance":0},{"name":"Red Lobster Restaurants","code":null,"latitude":34.11641,"longitude":-80.8845,"address":"10136 Two Notch Road, Columbia SC","chain_name":null,"distance":0},{"name":"Red Lobster Restaurants","code":null,"latitude":36.20068,"longitude":-115.0191,"address":"2325 E Flamingo Rd, Las Vegas NV","chain_name":null,"distance":0},{"name":"Red Lobster Restaurants","code":null,"latitude":33.51695,"longitude":-117.15,"address":"41649 Margarita Road, Temecula CA","chain_name":null,"distance":0},{"name":"Red Lobster Restaurants","code":null,"latitude":41.09411,"longitude":-74.0038,"address":"198 Route 59, Nanuet NY","chain_name":null,"distance":0},{"name":"Red Lobster Restaurants","code":null,"latitude":44.98456,"longitude":-93.3929,"address":"8900 Golden Valley Road, Minneapolis MN","chain_name":null,"distance":0},{"name":"Red Lobster Restaurants","code":null,"latitude":40.47982,"longitude":-81.4457,"address":"255 Graff Road Southeast, New Philadelphia OH","chain_name":null,"distance":0},{"name":"Red Lobster Restaurants","code":null,"latitude":33.58053,"longitude":-112.1218,"address":"10220 North 28th Drive, Phoenix AZ","chain_name":null,"distance":0},{"name":"Red Lobster Restaurants","code":null,"latitude":25.78942,"longitude":-80.3368,"address":"1695 Northwest 87th Avenue, Doral FL","chain_name":null,"distance":0},{"name":"Red Lobster Restaurants","code":null,"latitude":40.17863,"longitude":-74.8806,"address":"2275 East Lincoln Highway, Langhorne PA","chain_name":null,"distance":0},{"name":"Red Lobster Restaurants","code":null,"latitude":37.61073,"longitude":-122.4016,"address":"1210 El Camino Real, San Bruno CA","chain_name":null,"distance":0},{"name":"Red Lobster Restaurants","code":null,"latitude":26.18896,"longitude":-98.2145,"address":"701 E Expressway 83, Mcallen TX","chain_name":null,"distance":0},{"name":"Red Lobster Restaurants","code":null,"latitude":47.19157,"longitude":-122.4605,"address":"1929 South 72nd Street, Tacoma WA","chain_name":null,"distance":0},{"name":"Red Lobster Restaurants","code":null,"latitude":27.24833,"longitude":-80.2739,"address":"3544 Northwest Federal Highway, Jensen Beach FL","chain_name":null,"distance":0},{"name":"Red Lobster Restaurants","code":null,"latitude":40.73532,"longitude":-73.8751,"address":"8801 Queens Boulevard, Flushing NY","chain_name":null,"distance":0},{"name":"Red Lobster Restaurants","code":null,"latitude":46.83813,"longitude":-100.7749,"address":"1130 E Century Ave, Bismarck ND","chain_name":null,"distance":0},{"name":"Red Lobster Restaurants","code":null,"latitude":40.63256,"longitude":-111.8818,"address":"298 East Winchester Street, Salt Lake City UT","chain_name":null,"distance":0},{"name":"Red Lobster Restaurants","code":null,"latitude":43.19912,"longitude":-77.577,"address":"1515 Ridge Rd W, Rochester NY","chain_name":null,"distance":0},{"name":"Red Lobster Restaurants","code":null,"latitude":35.95709,"longitude":-77.8243,"address":"1010 Wesleyan Boulevard, Rocky Mount NC","chain_name":null,"distance":0},{"name":"Red Lobster Restaurants","code":null,"latitude":27.01455,"longitude":-82.1498,"address":"1331 Tamiami Trl, Port Charlotte FL","chain_name":null,"distance":0},{"name":"Red Lobster Restaurants","code":null,"latitude":37.73984,"longitude":-87.1184,"address":"3410 Frederica St, Owensboro KY","chain_name":null,"distance":0},{"name":"Red Lobster Restaurants","code":null,"latitude":38.67917,"longitude":-121.2717,"address":"6231 Sunrise Blvd, Citrus Heights CA","chain_name":null,"distance":0},{"name":"Red Lobster Restaurants","code":null,"latitude":34.21668,"longitude":-82.1579,"address":"1616 By-Pass 72 Northeast, Greenwood SC","chain_name":null,"distance":0},{"name":"Red Lobster Restaurants","code":null,"latitude":42.04999,"longitude":-88.0593,"address":"800 East Golf Road, Schaumburg IL","chain_name":null,"distance":0},{"name":"Red Lobster Restaurants","code":null,"latitude":38.95321,"longitude":-94.5237,"address":"5630 E Bannister Rd, Kansas City MO","chain_name":null,"distance":0},{"name":"Red Lobster Restaurants","code":null,"latitude":39.82413,"longitude":-86.2467,"address":"5106 West 38th Street, Indianapolis IN","chain_name":null,"distance":0},{"name":"Red Lobster Restaurants","code":null,"latitude":33.85376,"longitude":-118.1421,"address":"4333 Candlewood Street, Lakewood CA","chain_name":null,"distance":0},{"name":"Red Lobster Restaurants","code":null,"latitude":41.7198,"longitude":-87.7684,"address":"9500 Southwest Highway, Oak Lawn IL","chain_name":null,"distance":0},{"name":"Red Lobster Restaurants","code":null,"latitude":44.27253,"longitude":-88.4758,"address":"1200 N Casaloma Dr, Appleton WI","chain_name":null,"distance":0},{"name":"Red Lobster Restaurants","code":null,"latitude":40.33219,"longitude":-75.9815,"address":"945 Woodland Rd, Reading PA","chain_name":null,"distance":0},{"name":"Red Lobster Restaurants","code":null,"latitude":33.51098,"longitude":-82.0357,"address":"2847 Washington Rd, Augusta GA","chain_name":null,"distance":0},{"name":"Red Lobster Restaurants","code":null,"latitude":38.95695,"longitude":-94.6673,"address":"9475 Metcalf Avenue, Shawnee Mission KS","chain_name":null,"distance":0},{"name":"Red Lobster Restaurants","code":null,"latitude":32.67829,"longitude":-97.1347,"address":"4233 South Cooper Street, Arlington TX","chain_name":null,"distance":0},{"name":"Red Lobster Restaurants","code":null,"latitude":34.07074,"longitude":-117.5546,"address":"4413 Mills Circle, Ontario CA","chain_name":null,"distance":0},{"name":"Red Lobster Restaurants","code":null,"latitude":33.68683,"longitude":-96.5818,"address":"4900 Texoma Parkway, Sherman TX","chain_name":null,"distance":0},{"name":"Red Lobster Restaurants","code":null,"latitude":41.45576,"longitude":-74.3842,"address":"450 Route 211 E, Middletown NY","chain_name":null,"distance":0},{"name":"Red Lobster Restaurants","code":null,"latitude":29.26568,"longitude":-81.0276,"address":"2735 North Atlantic Avenue, Daytona Beach FL","chain_name":null,"distance":0},{"name":"Red Lobster Restaurants","code":null,"latitude":34.22641,"longitude":-119.1618,"address":"1740 E Ventura Blvd, Oxnard CA","chain_name":null,"distance":0},{"name":"Red Lobster Restaurants","code":null,"latitude":39.56481,"longitude":-104.8832,"address":"9067 Westview Road, Lone Tree CO","chain_name":null,"distance":0},{"name":"Red Lobster Restaurants","code":null,"latitude":38.52247,"longitude":-90.3482,"address":"5733 South Lindbergh Boulevard, Saint Louis MO","chain_name":null,"distance":0},{"name":"Red Lobster Restaurants","code":null,"latitude":40.84663,"longitude":-81.9442,"address":"3805 Burbank Rd, Wooster OH","chain_name":null,"distance":0},{"name":"Red Lobster Restaurants","code":null,"latitude":38.77166,"longitude":-90.2685,"address":"11088 New Halls Ferry Road, Saint Louis MO","chain_name":null,"distance":0},{"name":"Red Lobster Restaurants","code":null,"latitude":34.18878,"longitude":-79.828,"address":"2540 David H McLeod Boulevard, Florence SC","chain_name":null,"distance":0},{"name":"Red Lobster Restaurants","code":null,"latitude":38.07206,"longitude":-97.8935,"address":"1805 E 17th Ave, Hutchinson KS","chain_name":null,"distance":0},{"name":"Red Lobster Restaurants","code":null,"latitude":30.62485,"longitude":-96.3314,"address":"813 Texas Ave S, College Station TX","chain_name":null,"distance":0},{"name":"Red Lobster Restaurants","code":null,"latitude":45.09398,"longitude":-93.439,"address":"12515 Elm Creek Boulevard North, Osseo MN","chain_name":null,"distance":0},{"name":"Red Lobster Restaurants","code":null,"latitude":38.62019,"longitude":-76.9168,"address":"Circle Waldorf, Waldorf MD","chain_name":null,"distance":0},{"name":"Red Lobster Restaurants","code":null,"latitude":35.38625,"longitude":-86.2338,"address":"1947 North Jackson Street, Tullahoma TN","chain_name":null,"distance":0},{"name":"Red Lobster Restaurants","code":null,"latitude":32.9716,"longitude":-96.7438,"address":"9069 Vantage Point Drive, Richardson TX","chain_name":null,"distance":0},{"name":"Red Lobster Restaurants","code":null,"latitude":37.6762,"longitude":-97.3892,"address":"555 South West Street, Wichita KS","chain_name":null,"distance":0},{"name":"Red Lobster Restaurants","code":null,"latitude":39.52428,"longitude":-76.3562,"address":"615 Baltimore Pike, Bel Air MD","chain_name":null,"distance":0},{"name":"Red Lobster Restaurants","code":null,"latitude":32.46731,"longitude":-83.7396,"address":"1359 Sam Nunn Blvd, Perry GA","chain_name":null,"distance":0},{"name":"Red Lobster Restaurants","code":null,"latitude":36.95201,"longitude":-86.426,"address":"2525 Scottsville Rd, Bowling Green KY","chain_name":null,"distance":0},{"name":"Red Lobster Restaurants","code":null,"latitude":42.01184,"longitude":-87.707,"address":"3301 W Touhy Ave, Lincolnwood IL","chain_name":null,"distance":0},{"name":"Red Lobster Restaurants","code":null,"latitude":33.59781,"longitude":-111.9778,"address":"4802 East Cactus Road, Scottsdale AZ","chain_name":null,"distance":0},{"name":"Red Lobster Restaurants","code":null,"latitude":40.57254,"longitude":-74.3172,"address":"US 1 Gills Lane, Iselin NJ","chain_name":null,"distance":0},{"name":"Red Lobster Restaurants","code":null,"latitude":27.49051,"longitude":-81.484,"address":"721 US Highway 27 N, Sebring FL","chain_name":null,"distance":0},{"name":"Red Lobster Restaurants","code":null,"latitude":34.80522,"longitude":-92.2369,"address":"3707 McCain Blvd, N Little Rock AR","chain_name":null,"distance":0},{"name":"Red Lobster Restaurants","code":null,"latitude":30.23759,"longitude":-97.7905,"address":"3815 South Lamar Boulevard, Austin TX","chain_name":null,"distance":0},{"name":"Red Lobster Restaurants","code":null,"latitude":27.7074,"longitude":-97.3701,"address":"5825 South Padre Island Drive, Corpus Christi TX","chain_name":null,"distance":0},{"name":"Red Lobster Restaurants","code":null,"latitude":39.83231,"longitude":-84.8293,"address":"5400 National Road East, Richmond IN","chain_name":null,"distance":0},{"name":"Red Lobster Restaurants","code":null,"latitude":33.5381601,"longitude":-86.7072102,"address":"2620 McFarland Blvd E, irondale AL","chain_name":null,"distance":0},{"name":"Red Lobster Restaurants","code":null,"latitude":39.69086,"longitude":-75.6645,"address":"1249 Churchmans Road, Newark DE","chain_name":null,"distance":0},{"name":"Red Lobster Restaurants","code":null,"latitude":40.72155,"longitude":-111.8538,"address":"2294 S 1300 E, Salt Lake City UT","chain_name":null,"distance":0},{"name":"Red Lobster Restaurants","code":null,"latitude":39.82373,"longitude":-86.2466,"address":"5090 W 38th St, Indianapolis IN","chain_name":null,"distance":0},{"name":"Red Lobster Restaurants","code":null,"latitude":46.86179,"longitude":-96.8513,"address":"4215 13th Avenue South, Fargo ND","chain_name":null,"distance":0},{"name":"Red Lobster Restaurants","code":null,"latitude":42.47662,"longitude":-82.9989,"address":"13999 Eureka Southgate, Warren MI","chain_name":null,"distance":0},{"name":"Red Lobster Restaurants","code":null,"latitude":40.29789,"longitude":-79.5694,"address":"Highway 30 East, Greensburg PA","chain_name":null,"distance":0},{"name":"Red Lobster Restaurants","code":null,"latitude":29.80325,"longitude":-94.9902,"address":"4717 I Highway 10, Baytown TX","chain_name":null,"distance":0},{"name":"Red Lobster Restaurants","code":null,"latitude":32.64065,"longitude":-117.0817,"address":"342 F St, Chula Vista CA","chain_name":null,"distance":0},{"name":"Red Lobster Restaurants","code":null,"latitude":28.10518,"longitude":-80.7222,"address":"2355 W New Haven Ave, W Melbourne FL","chain_name":null,"distance":0},{"name":"Red Lobster Restaurants","code":null,"latitude":45.44552,"longitude":-122.7767,"address":"10330 Southwest Greenburg Road, Portland OR","chain_name":null,"distance":0},{"name":"Red Lobster Restaurants","code":null,"latitude":39.63078,"longitude":-77.7619,"address":"1681 Wesel Boulevard, Hagerstown MD","chain_name":null,"distance":0},{"name":"Red Lobster Restaurants","code":null,"latitude":39.17002,"longitude":-75.5181,"address":"271 North Dupont Highway, Dover DE","chain_name":null,"distance":0},{"name":"Red Lobster Restaurants","code":null,"latitude":37.41751,"longitude":-79.1694,"address":"1900 Tate Springs Road, Lynchburg VA","chain_name":null,"distance":0},{"name":"Red Lobster Restaurants","code":null,"latitude":42.98915,"longitude":-78.6967,"address":"4010 Maple Rd, Amherst NY","chain_name":null,"distance":0},{"name":"Red Lobster Restaurants","code":null,"latitude":33.31985,"longitude":-111.9673,"address":"7240 W Ray Rd, Chandler AZ","chain_name":null,"distance":0},{"name":"Red Lobster Restaurants","code":null,"latitude":38.23444,"longitude":-85.6405,"address":"986 Breckenridge Ln, St Matthews KY","chain_name":null,"distance":0},{"name":"Red Lobster Restaurants","code":null,"latitude":37.04303,"longitude":-76.3833,"address":"1046 West Mercury Boulevard, Hampton VA","chain_name":null,"distance":0},{"name":"Red Lobster Restaurants","code":null,"latitude":39.34788,"longitude":-82.9762,"address":"1079 N Bridge St, Chillicothe OH","chain_name":null,"distance":0},{"name":"Red Lobster Restaurants","code":null,"latitude":38.23412,"longitude":-85.6404,"address":"986 Breckenridge Lane, Louisville KY","chain_name":null,"distance":0},{"name":"Red Lobster Restaurants","code":null,"latitude":41.77786,"longitude":-88.2055,"address":"1036 North Route 59, Aurora IL","chain_name":null,"distance":0},{"name":"Red Lobster Restaurants","code":null,"latitude":33.95667,"longitude":-84.1332,"address":"2055 Pleasant Hill Rd, Duluth GA","chain_name":null,"distance":0},{"name":"Red Lobster Restaurants","code":null,"latitude":35.77006,"longitude":-95.3612,"address":"225 W Shawnee St, Muskogee OK","chain_name":null,"distance":0},{"name":"Red Lobster Restaurants","code":null,"latitude":33.54893,"longitude":-101.9189,"address":"5034 50th St, Lubbock TX","chain_name":null,"distance":0},{"name":"Red Lobster Restaurants","code":null,"latitude":37.96708,"longitude":-87.4947,"address":"4605 Bellemeade Ave, Evansville IN","chain_name":null,"distance":0},{"name":"Red Lobster Restaurants","code":null,"latitude":39.11327,"longitude":-77.1867,"address":"15700 Shady Grove Rd, Gaithersburg MD","chain_name":null,"distance":0},{"name":"Red Lobster Restaurants","code":null,"latitude":33.65089,"longitude":-85.8268,"address":"515 Quintard Drive, Anniston AL","chain_name":null,"distance":0},{"name":"Red Lobster Restaurants","code":null,"latitude":38.61661,"longitude":-76.9229,"address":"11035 Mall Circle, Waldorf MD","chain_name":null,"distance":0},{"name":"Red Lobster Restaurants","code":null,"latitude":35.14875,"longitude":-89.9139,"address":"4375 Summer Avenue, Memphis TN","chain_name":null,"distance":0},{"name":"Red Lobster Restaurants","code":null,"latitude":26.04307,"longitude":-80.161,"address":"2900 Oakwood Boulevard, Hollywood FL","chain_name":null,"distance":0},{"name":"Red Lobster Restaurants","code":null,"latitude":38.66854,"longitude":-90.5961,"address":"17204 Chesterfield Airport, Chesterfield MO","chain_name":null,"distance":0},{"name":"Red Lobster Restaurants","code":null,"latitude":26.38303,"longitude":-80.0763,"address":"3600 N Federal Hwy, Boca Raton FL","chain_name":null,"distance":0},{"name":"Red Lobster Restaurants","code":null,"latitude":47.70735,"longitude":-116.7891,"address":"212 West Neider Avenue, Coeur D Alene ID","chain_name":null,"distance":0},{"name":"Red Lobster Restaurants","code":null,"latitude":42.74073,"longitude":-84.5079,"address":"3130 E Saginaw St, Lansing MI","chain_name":null,"distance":0},{"name":"Red Lobster Restaurants","code":null,"latitude":38.92211,"longitude":-90.1782,"address":"170 Homer M Adams Pkwy, Alton IL","chain_name":null,"distance":0},{"name":"Red Lobster Restaurants","code":null,"latitude":25.8666,"longitude":-80.3175,"address":"1750 West 49th Street, Hialeah FL","chain_name":null,"distance":0},{"name":"Red Lobster Restaurants","code":null,"latitude":30.48,"longitude":-97.6793,"address":"2702 Parker Road, Round Rock TX","chain_name":null,"distance":0},{"name":"Red Lobster Restaurants","code":null,"latitude":40.54254,"longitude":-105.0769,"address":"3301 S College Ave, Fort Collins CO","chain_name":null,"distance":0},{"name":"Red Lobster Restaurants","code":null,"latitude":40.73056,"longitude":-84.0658,"address":"2150 Harding Hwy, Lima OH","chain_name":null,"distance":0},{"name":"Red Lobster Restaurants","code":null,"latitude":47.82097,"longitude":-122.2904,"address":"Lynnwood WA","chain_name":null,"distance":0},{"name":"Red Lobster Restaurants","code":null,"latitude":36.31685,"longitude":-119.3138,"address":"1545 South Mooney Boulevard, Visalia CA","chain_name":null,"distance":0},{"name":"Red Lobster Restaurants","code":null,"latitude":39.91547,"longitude":-77.6541,"address":"935 Wayne Avenue, Chambersburg PA","chain_name":null,"distance":0},{"name":"Red Lobster Restaurants","code":null,"latitude":42.49091,"longitude":-83.4758,"address":"27760 Novi Road, Northville MI","chain_name":null,"distance":0},{"name":"Red Lobster Restaurants","code":null,"latitude":35.20457,"longitude":-89.7928,"address":"8161 US Highway 64, Memphis TN","chain_name":null,"distance":0},{"name":"Red Lobster Restaurants","code":null,"latitude":36.08996,"longitude":-95.9259,"address":"4525 East 51st Street, Tulsa OK","chain_name":null,"distance":0},{"name":"Red Lobster Restaurants","code":null,"latitude":41.47186,"longitude":-75.6343,"address":"1502 Scranton Carbondale Hwy, Scranton PA","chain_name":null,"distance":0},{"name":"Red Lobster Restaurants","code":null,"latitude":33.72062,"longitude":-84.764,"address":"3100 Highway 5, Douglasville GA","chain_name":null,"distance":0},{"name":"Red Lobster Restaurants","code":null,"latitude":41.16006,"longitude":-104.7961,"address":"1923 Dell Range Blvd, Cheyenne WY","chain_name":null,"distance":0},{"name":"Red Lobster Restaurants","code":null,"latitude":42.24455,"longitude":-83.2694,"address":"8787 Telegraph, Taylor MI","chain_name":null,"distance":0},{"name":"Red Lobster Restaurants","code":null,"latitude":40.8823,"longitude":-74.6571,"address":"303 Route 10, Ledgewood NJ","chain_name":null,"distance":0},{"name":"Red Lobster Restaurants","code":null,"latitude":31.99787,"longitude":-81.1225,"address":"11 W Montgomery Xrd, Savannah GA","chain_name":null,"distance":0},{"name":"Red Lobster Restaurants","code":null,"latitude":36.74942,"longitude":-108.1603,"address":"3451 E Main St, Farmington NM","chain_name":null,"distance":0},{"name":"Red Lobster Restaurants","code":null,"latitude":33.85336,"longitude":-84.0351,"address":"4001 Highway 78 W, Snellville GA","chain_name":null,"distance":0},{"name":"Red Lobster Restaurants","code":null,"latitude":36.13785,"longitude":-85.5125,"address":"1410 Interstate Dr, Cookeville TN","chain_name":null,"distance":0},{"name":"Red Lobster Restaurants","code":null,"latitude":30.18015,"longitude":-82.6798,"address":"4367 W US Highway 90, Lake City FL","chain_name":null,"distance":0},{"name":"Red Lobster Restaurants","code":null,"latitude":28.55193,"longitude":-81.4822,"address":"7373 West Colonial Drive, Orlando FL","chain_name":null,"distance":0},{"name":"Red Lobster Restaurants","code":null,"latitude":39.3723,"longitude":-76.4678,"address":"8019 Honeygo Boulevard, Baltimore MD","chain_name":null,"distance":0},{"name":"Red Lobster Restaurants","code":null,"latitude":37.54563,"longitude":-121.9826,"address":"39401 Fremont Blvd, Fremont CA","chain_name":null,"distance":0},{"name":"Red Lobster Restaurants","code":null,"latitude":28.45037,"longitude":-81.3936,"address":"8003 Golden Sky Lane, Orlando FL","chain_name":null,"distance":0},{"name":"Red Lobster Restaurants","code":null,"latitude":42.74075,"longitude":-84.5084,"address":"3130 East Saginaw Street, Lansing MI","chain_name":null,"distance":0},{"name":"Red Lobster Restaurants","code":null,"latitude":35.76945,"longitude":-95.3616,"address":"225 West Shawnee Street, Muskogee OK","chain_name":null,"distance":0},{"name":"Red Lobster Restaurants","code":null,"latitude":27.93939,"longitude":-82.324,"address":"2604 Brandon Boulevard West, Brandon FL","chain_name":null,"distance":0},{"name":"Red Lobster Restaurants","code":null,"latitude":36.81501,"longitude":-76.0672,"address":"821 Lynnhaven Parkway, Virginia Beach VA","chain_name":null,"distance":0},{"name":"Red Lobster Restaurants","code":null,"latitude":42.72231,"longitude":-73.8018,"address":"170 Wolf Rd, Colonie NY","chain_name":null,"distance":0},{"name":"Red Lobster Restaurants","code":null,"latitude":39.52418,"longitude":-76.3565,"address":"615 Bel Air Road, Bel Air MD","chain_name":null,"distance":0},{"name":"Red Lobster Restaurants","code":null,"latitude":33.53053,"longitude":-86.7218,"address":"7601 Crestwood Blvd, Birmingham AL","chain_name":null,"distance":0},{"name":"Red Lobster Restaurants","code":null,"latitude":28.55328,"longitude":-81.34,"address":"3552 East Colonial Drive, Orlando FL","chain_name":null,"distance":0},{"name":"Red Lobster Restaurants","code":null,"latitude":35.2039,"longitude":-80.7507,"address":"5627 Albemarle Rd, Charlotte NC","chain_name":null,"distance":0},{"name":"Red Lobster Restaurants","code":null,"latitude":44.16713,"longitude":-93.9498,"address":"1890 E Madison Ave, Mankato MN","chain_name":null,"distance":0},{"name":"Red Lobster Restaurants","code":null,"latitude":29.97852,"longitude":-95.2786,"address":"20150 Highway 59 N, Humble TX","chain_name":null,"distance":0},{"name":"Red Lobster Restaurants","code":null,"latitude":32.49727,"longitude":-92.0658,"address":"4601 Pecanland Mall Dr, Monroe LA","chain_name":null,"distance":0},{"name":"Red Lobster Restaurants","code":null,"latitude":40.08408,"longitude":-85.6526,"address":"5806 S Scatterfield Rd, Anderson IN","chain_name":null,"distance":0},{"name":"Red Lobster Restaurants","code":null,"latitude":40.74083,"longitude":-73.6287,"address":"211 Old Country Road, Carle Place NY","chain_name":null,"distance":0},{"name":"Red Lobster Restaurants","code":null,"latitude":37.05569,"longitude":-94.4781,"address":"3131 South Range Line Road, Joplin MO","chain_name":null,"distance":0},{"name":"Red Lobster Restaurants","code":null,"latitude":34.47111,"longitude":-117.3481,"address":"12180 Amargosa Road, Victorville CA","chain_name":null,"distance":0},{"name":"Red Lobster Restaurants","code":null,"latitude":40.17651,"longitude":-87.6301,"address":"3217 North Vermilion Street, Danville IL","chain_name":null,"distance":0},{"name":"Red Lobster Restaurants","code":null,"latitude":29.87079,"longitude":-97.9364,"address":"100 North I H 35, San Marcos TX","chain_name":null,"distance":0},{"name":"Red Lobster Restaurants","code":null,"latitude":40.63088,"longitude":-75.4769,"address":"800 Lehigh Valley Mall, Whitehall PA","chain_name":null,"distance":0},{"name":"Red Lobster Restaurants","code":null,"latitude":35.39119,"longitude":-97.5317,"address":"1000 West I 240 Service Road, Oklahoma City OK","chain_name":null,"distance":0},{"name":"Red Lobster Restaurants","code":null,"latitude":38.95306,"longitude":-94.5246,"address":"5630 East Bannister Road, Kansas City MO","chain_name":null,"distance":0},{"name":"Red Lobster Restaurants","code":null,"latitude":40.27402,"longitude":-111.6759,"address":"1261 South 800 East, Orem UT","chain_name":null,"distance":0},{"name":"Red Lobster Restaurants","code":null,"latitude":40.57811,"longitude":-74.5813,"address":"1271 US Highway 22, Bridgewater NJ","chain_name":null,"distance":0},{"name":"Red Lobster Restaurants","code":null,"latitude":38.52294,"longitude":-90.3502,"address":"5733 S Lindbergh Blvd, Saint Louis MO","chain_name":null,"distance":0},{"name":"Red Lobster Restaurants","code":null,"latitude":33.09485,"longitude":-96.1099,"address":"7601 Wesley St, Greenville TX","chain_name":null,"distance":0},{"name":"Red Lobster Restaurants","code":null,"latitude":37.4324,"longitude":-121.8988,"address":"503 E Calaveras Blvd, Milpitas CA","chain_name":null,"distance":0},{"name":"Red Lobster Restaurants","code":null,"latitude":39.91939,"longitude":-83.1321,"address":"1520 Georgesville Road, Columbus OH","chain_name":null,"distance":0},{"name":"Red Lobster Restaurants","code":null,"latitude":34.74567,"longitude":-92.2747,"address":"3707 McCain Boulevard, Little Rock AR","chain_name":null,"distance":0},{"name":"Red Lobster Restaurants","code":null,"latitude":40.78872,"longitude":-74.0448,"address":"700 Plaza Drive, Secaucus NJ","chain_name":null,"distance":0},{"name":"Red Lobster Restaurants","code":null,"latitude":37.74507,"longitude":-88.9842,"address":"2900 West Deyoung Street, Marion IL","chain_name":null,"distance":0},{"name":"Red Lobster Restaurants","code":null,"latitude":43.06925,"longitude":-88.048,"address":"2801 N Mayfair Rd, Wauwatosa WI","chain_name":null,"distance":0},{"name":"Red Lobster Restaurants","code":null,"latitude":39.087,"longitude":-76.8599,"address":"14368 Baltimore Avenue, Laurel MD","chain_name":null,"distance":0},{"name":"Red Lobster Restaurants","code":null,"latitude":26.25543,"longitude":-80.2519,"address":"2000 N University Dr, Coral Springs FL","chain_name":null,"distance":0},{"name":"Red Lobster Restaurants","code":null,"latitude":39.62223,"longitude":-77.7334,"address":"1121 Maryland Avenue, Hagerstown MD","chain_name":null,"distance":0},{"name":"Red Lobster Restaurants","code":null,"latitude":41.66038,"longitude":-81.3782,"address":"7744 Reynolds Rd, Mentor OH","chain_name":null,"distance":0},{"name":"Red Lobster Restaurants","code":null,"latitude":39.24631,"longitude":-94.5856,"address":"450 Northwest Barry Road, Kansas City MO","chain_name":null,"distance":0},{"name":"Red Lobster Restaurants","code":null,"latitude":38.904,"longitude":-104.7736,"address":"4925 N Academy Blvd, Colorado Springs CO","chain_name":null,"distance":0},{"name":"Red Lobster Restaurants","code":null,"latitude":42.19908,"longitude":-83.194,"address":"13999 Eureka Rd, Southgate MI","chain_name":null,"distance":0},{"name":"Red Lobster Restaurants","code":null,"latitude":34.06566,"longitude":-117.2814,"address":"195 E Hospitality Ln, San Bernardino CA","chain_name":null,"distance":0},{"name":"Red Lobster Restaurants","code":null,"latitude":38.13803,"longitude":-85.6747,"address":"4639 Outer Loop, Louisville KY","chain_name":null,"distance":0},{"name":"Red Lobster Restaurants","code":null,"latitude":46.14206,"longitude":-122.9006,"address":"203 Three Rivers Dr, Kelso WA","chain_name":null,"distance":0},{"name":"Red Lobster Restaurants","code":null,"latitude":31.45445,"longitude":-83.5271,"address":"105 Virginia Ave S, Tifton GA","chain_name":null,"distance":0},{"name":"Red Lobster Restaurants","code":null,"latitude":44.7256,"longitude":-85.6462,"address":"2691 North US Highway 31 South, Traverse City MI","chain_name":null,"distance":0},{"name":"Red Lobster Restaurants","code":null,"latitude":35.38356,"longitude":-119.0931,"address":"8180 Rosedale Highway, Bakersfield CA","chain_name":null,"distance":0},{"name":"Red Lobster Restaurants","code":null,"latitude":25.94948,"longitude":-97.5042,"address":"1075 Fm 802, Brownsville TX","chain_name":null,"distance":0},{"name":"Red Lobster Restaurants","code":null,"latitude":37.11512,"longitude":-94.4759,"address":"3131 N Range Line Rd, Joplin MO","chain_name":null,"distance":0},{"name":"Red Lobster Restaurants","code":null,"latitude":47.88936,"longitude":-97.0654,"address":"2675 32nd Ave S, Grand Forks ND","chain_name":null,"distance":0},{"name":"Red Lobster Restaurants","code":null,"latitude":38.95194,"longitude":-77.4093,"address":"2403 Centreville Road, Herndon VA","chain_name":null,"distance":0},{"name":"Red Lobster Restaurants","code":null,"latitude":37.30223,"longitude":-89.576,"address":"3269 William St, Cape Girardeau MO","chain_name":null,"distance":0},{"name":"Red Lobster Restaurants","code":null,"latitude":39.77039,"longitude":-89.6073,"address":"2696 S Dirksen Pkwy, Springfield IL","chain_name":null,"distance":0},{"name":"Red Lobster Restaurants","code":null,"latitude":30.47453,"longitude":-87.2113,"address":"5110 North 9th Avenue, Pensacola FL","chain_name":null,"distance":0},{"name":"Red Lobster Restaurants","code":null,"latitude":41.46168,"longitude":-81.4878,"address":"3655 Orange Pl, Beachwood OH","chain_name":null,"distance":0},{"name":"Red Lobster Restaurants","code":null,"latitude":33.84509,"longitude":-84.2556,"address":"3937 Lavista Rd, Tucker GA","chain_name":null,"distance":0},{"name":"Red Lobster Restaurants","code":null,"latitude":43.12811,"longitude":-89.3057,"address":"4502 East Towne Boulevard, Madison WI","chain_name":null,"distance":0},{"name":"Red Lobster Restaurants","code":null,"latitude":31.7735,"longitude":-106.3797,"address":"8401 Gateway Blvd W, El Paso TX","chain_name":null,"distance":0},{"name":"Red Lobster Restaurants","code":null,"latitude":43.51471,"longitude":-96.7736,"address":"3901 West 41st Street, Sioux Falls SD","chain_name":null,"distance":0},{"name":"Red Lobster Restaurants","code":null,"latitude":41.23275,"longitude":-80.4452,"address":"3370 Shenango Valley Fwy, Hermitage PA","chain_name":null,"distance":0},{"name":"Red Lobster Restaurants","code":null,"latitude":27.237,"longitude":-80.2696,"address":"3544 NW Federal Hwy, Jensen Beach FL","chain_name":null,"distance":0},{"name":"Red Lobster Restaurants","code":null,"latitude":41.89243,"longitude":-87.6297,"address":"600 North Dearborn Street, Chicago IL","chain_name":null,"distance":0},{"name":"Red Lobster Restaurants","code":null,"latitude":41.23379,"longitude":-96.1336,"address":"2707 South 140th Street, Omaha NE","chain_name":null,"distance":0},{"name":"Red Lobster Restaurants","code":null,"latitude":42.15566,"longitude":-76.8773,"address":"3328 Chambers Rd, Horseheads NY","chain_name":null,"distance":0},{"name":"Red Lobster Restaurants","code":null,"latitude":33.57363,"longitude":-84.3716,"address":"6550 Tara Blvd, Jonesboro GA","chain_name":null,"distance":0},{"name":"Red Lobster Restaurants","code":null,"latitude":36.80846,"longitude":-119.7617,"address":"1460 E Shaw Ave, Fresno CA","chain_name":null,"distance":0},{"name":"Red Lobster Restaurants","code":null,"latitude":42.84605,"longitude":-106.268,"address":"531 SE Wyoming Blvd, Casper WY","chain_name":null,"distance":0},{"name":"Red Lobster Restaurants","code":null,"latitude":39.42601,"longitude":-87.4161,"address":"3407 S Us Highway 41, Terre Haute IN","chain_name":null,"distance":0},{"name":"Red Lobster Restaurants","code":null,"latitude":45.51494,"longitude":-122.4547,"address":"240 NW Burnside Rd, Gresham OR","chain_name":null,"distance":0},{"name":"Red Lobster Restaurants","code":null,"latitude":29.42018,"longitude":-98.6505,"address":"1381 Southwest Loop 410, San Antonio TX","chain_name":null,"distance":0},{"name":"Red Lobster Restaurants","code":null,"latitude":31.99823,"longitude":-81.1227,"address":"11 West Montgomery Xrd, Savannah GA","chain_name":null,"distance":0},{"name":"Red Lobster Restaurants","code":null,"latitude":44.85851,"longitude":-93.3037,"address":"1951 American Boulevard West, Minneapolis MN","chain_name":null,"distance":0},{"name":"Red Lobster Restaurants","code":null,"latitude":38.31601,"longitude":-85.7586,"address":"951 East Lewis And Clark Parkway, Clarksville IN","chain_name":null,"distance":0},{"name":"Red Lobster Restaurants","code":null,"latitude":41.31077,"longitude":-81.821,"address":"17227 Southpark Centre, Strongsville OH","chain_name":null,"distance":0},{"name":"Red Lobster Restaurants","code":null,"latitude":42.34987,"longitude":-122.8768,"address":"2200 Crater Lake Hwy, Medford OR","chain_name":null,"distance":0},{"name":"Red Lobster Restaurants","code":null,"latitude":35.96434,"longitude":-78.9727,"address":"4416 Durham Chapel Hill B, Durham NC","chain_name":null,"distance":0},{"name":"Red Lobster Restaurants","code":null,"latitude":26.25633,"longitude":-80.2511,"address":"2000 North University, Coral Springs FL","chain_name":null,"distance":0},{"name":"Red Lobster Restaurants","code":null,"latitude":41.2576,"longitude":-96.024,"address":"330 S 72nd St, Omaha NE","chain_name":null,"distance":0},{"name":"Red Lobster Restaurants","code":null,"latitude":25.68636,"longitude":-80.3815,"address":"11550 N Kendall Dr, Miami FL","chain_name":null,"distance":0},{"name":"Red Lobster Restaurants","code":null,"latitude":42.33924,"longitude":-83.2731,"address":"6850 N Telegraph Rd, Dearborn Heights MI","chain_name":null,"distance":0},{"name":"Red Lobster Restaurants","code":null,"latitude":40.07535,"longitude":-75.0343,"address":"9140 Roosevelt Blvd, Philadelphia PA","chain_name":null,"distance":0},{"name":"Red Lobster Restaurants","code":null,"latitude":25.64376,"longitude":-80.3343,"address":"8705 SW 136th St, Miami FL","chain_name":null,"distance":0},{"name":"Red Lobster Restaurants","code":null,"latitude":39.43034,"longitude":-75.0405,"address":"3849 South Delsea Drive Ofc, Vineland NJ","chain_name":null,"distance":0},{"name":"Red Lobster Restaurants","code":null,"latitude":42.11021,"longitude":-88.3002,"address":"701 Spring Hill Mall Ring Rd, West Dundee IL","chain_name":null,"distance":0},{"name":"Red Lobster Restaurants","code":null,"latitude":27.9399,"longitude":-82.3249,"address":"2604 W Brandon Blvd, Brandon FL","chain_name":null,"distance":0},{"name":"Red Lobster Restaurants","code":null,"latitude":39.91363,"longitude":-75.4361,"address":"1145 W Baltimore Pike, Media PA","chain_name":null,"distance":0},{"name":"Red Lobster Restaurants","code":null,"latitude":34.93138,"longitude":-81.9893,"address":"170 East Blackstock Road, Spartanburg SC","chain_name":null,"distance":0},{"name":"Red Lobster Restaurants","code":null,"latitude":36.00585,"longitude":-84.2528,"address":"359 S Illinois Ave, Oak Ridge TN","chain_name":null,"distance":0},{"name":"Red Lobster Restaurants","code":null,"latitude":26.10969,"longitude":-80.2502,"address":"803 South University Drive, Plantation FL","chain_name":null,"distance":0},{"name":"Red Lobster Restaurants","code":null,"latitude":30.0053,"longitude":-90.1551,"address":"3020 North Causeway Boulevard, Metairie LA","chain_name":null,"distance":0},{"name":"Red Lobster Restaurants","code":null,"latitude":44.02189,"longitude":-92.4629,"address":"195 South Broadway, Rochester MN","chain_name":null,"distance":0},{"name":"Red Lobster Restaurants","code":null,"latitude":35.67682,"longitude":-81.385,"address":"1846 Highway 64-70 S.E., Hickory NC","chain_name":null,"distance":0},{"name":"Red Lobster Restaurants","code":null,"latitude":46.61333,"longitude":-120.5111,"address":"905 N 1st St, Yakima WA","chain_name":null,"distance":0},{"name":"Red Lobster Restaurants","code":null,"latitude":39.92452,"longitude":-75.311,"address":"1 Baltimore Pike, Springfield PA","chain_name":null,"distance":0},{"name":"Red Lobster Restaurants","code":null,"latitude":26.01156,"longitude":-80.2481,"address":"296 North University Drive, Pembroke Pines FL","chain_name":null,"distance":0},{"name":"Red Lobster Restaurants","code":null,"latitude":38.82724,"longitude":-104.7572,"address":"275 South Academy Boulevard, Colorado Springs CO","chain_name":null,"distance":0},{"name":"Red Lobster Restaurants","code":null,"latitude":40.65632,"longitude":-73.6116,"address":"684 Sunrise Highway, Baldwin NY","chain_name":null,"distance":0},{"name":"Red Lobster Restaurants","code":null,"latitude":26.20152,"longitude":-80.109,"address":"5950 North Federal Highway, Fort Lauderdale FL","chain_name":null,"distance":0},{"name":"Red Lobster Restaurants","code":null,"latitude":40.09963,"longitude":-83.091,"address":"6460 Sawmill Road, Columbus OH","chain_name":null,"distance":0},{"name":"Red Lobster Restaurants","code":null,"latitude":42.91246,"longitude":-85.5706,"address":"3920 28th St SE, Kentwood MI","chain_name":null,"distance":0},{"name":"Red Lobster Restaurants","code":null,"latitude":39.79122,"longitude":-86.0455,"address":"1752 N Shadeland Ave, Indianapolis IN","chain_name":null,"distance":0},{"name":"Red Lobster Restaurants","code":null,"latitude":37.29876,"longitude":-76.7267,"address":"2100 Richmond Road, Williamsburg VA","chain_name":null,"distance":0},{"name":"Red Lobster Restaurants","code":null,"latitude":32.93692,"longitude":-97.0993,"address":"3311 East Sh 114, Southlake TX","chain_name":null,"distance":0},{"name":"Red Lobster Restaurants","code":null,"latitude":38.61717,"longitude":-90.3335,"address":"2381 Maplewood Commons Drive, Saint Louis MO","chain_name":null,"distance":0},{"name":"Red Lobster Restaurants","code":null,"latitude":37.11559,"longitude":-113.5514,"address":"263 Red Cliffs Dr, St George UT","chain_name":null,"distance":0},{"name":"Red Lobster Restaurants","code":null,"latitude":34.60303,"longitude":-118.1861,"address":"1041 W Rancho Vista Blvd, Palmdale CA","chain_name":null,"distance":0},{"name":"Red Lobster Restaurants","code":null,"latitude":39.40059,"longitude":-76.7919,"address":"3 Restaurant Park Dr, Owings Mills MD","chain_name":null,"distance":0},{"name":"Red Lobster Restaurants","code":null,"latitude":43.11542,"longitude":-83.6975,"address":"G4417 West Pierson Road, Mount Morris MI","chain_name":null,"distance":0},{"name":"Red Lobster Restaurants","code":null,"latitude":33.47952,"longitude":-112.2206,"address":"2810 North 75th Avenue, Phoenix AZ","chain_name":null,"distance":0},{"name":"Red Lobster Restaurants","code":null,"latitude":38.85782,"longitude":-94.8158,"address":"14870 S Harrison St, Olathe KS","chain_name":null,"distance":0},{"name":"Red Lobster Restaurants","code":null,"latitude":28.00963,"longitude":-82.7313,"address":"26320 US Highway 19 N, Clearwater FL","chain_name":null,"distance":0},{"name":"Red Lobster Restaurants","code":null,"latitude":46.83804,"longitude":-100.7743,"address":"1130 East Century Avenue, Bismarck ND","chain_name":null,"distance":0},{"name":"Red Lobster Restaurants","code":null,"latitude":34.20827,"longitude":-91.9711,"address":"3000 Pines Mall Dr, Pine Bluff AR","chain_name":null,"distance":0},{"name":"Red Lobster Restaurants","code":null,"latitude":33.46542,"longitude":-81.9612,"address":"440 Walton Way, Augusta GA","chain_name":null,"distance":0},{"name":"Red Lobster Restaurants","code":null,"latitude":29.16101,"longitude":-80.9748,"address":"3162 S Atlantic Ave, Daytona Beach FL","chain_name":null,"distance":0},{"name":"Red Lobster Restaurants","code":null,"latitude":40.15042,"longitude":-84.2173,"address":"991 E Ash St, Piqua OH","chain_name":null,"distance":0},{"name":"Red Lobster Restaurants","code":null,"latitude":34.83275,"longitude":-87.6291,"address":"243 Cox Creek Pkwy, Florence AL","chain_name":null,"distance":0},{"name":"Red Lobster Restaurants","code":null,"latitude":26.71146,"longitude":-80.0965,"address":"2201 Palm Beach Lakes, West Palm Beach FL","chain_name":null,"distance":0},{"name":"Red Lobster Restaurants","code":null,"latitude":40.6955,"longitude":-74.2676,"address":"2520 U.S. Hwy Route 22, Union NJ","chain_name":null,"distance":0},{"name":"Red Lobster Restaurants","code":null,"latitude":40.15218,"longitude":-105.1304,"address":"2177 Ken Pratt Blvd, Longmont CO","chain_name":null,"distance":0},{"name":"Red Lobster Restaurants","code":null,"latitude":34.95976,"longitude":-89.9896,"address":"6535 Airways Boulevard, Southaven MS","chain_name":null,"distance":0},{"name":"Red Lobster Restaurants","code":null,"latitude":40.2912,"longitude":-74.6869,"address":"3255 US Highway 1, Trenton NJ","chain_name":null,"distance":0},{"name":"Red Lobster Restaurants","code":null,"latitude":33.95139,"longitude":-83.4028,"address":"1956 W Broad St, Athens GA","chain_name":null,"distance":0},{"name":"Red Lobster Restaurants","code":null,"latitude":44.79288,"longitude":-91.514,"address":"1019 West Clairemont Avenue, Eau Claire WI","chain_name":null,"distance":0},{"name":"Red Lobster Restaurants","code":null,"latitude":29.73026,"longitude":-95.6441,"address":"2760 Highway 6 S, Houston TX","chain_name":null,"distance":0},{"name":"Red Lobster Restaurants","code":null,"latitude":34.60176,"longitude":-118.1487,"address":"1041 West Rancho Vista Boulevard, Palmdale CA","chain_name":null,"distance":0},{"name":"Red Lobster Restaurants","code":null,"latitude":39.77215,"longitude":-84.0516,"address":"2803 N Fairfield Rd, Beavercreek OH","chain_name":null,"distance":0},{"name":"Red Lobster Restaurants","code":null,"latitude":33.18306,"longitude":-117.3294,"address":"2685 Vista Way, Oceanside CA","chain_name":null,"distance":0},{"name":"Red Lobster Restaurants","code":null,"latitude":40.80808,"longitude":-77.8958,"address":"1670 North Atherton Street, State College PA","chain_name":null,"distance":0},{"name":"Red Lobster Restaurants","code":null,"latitude":41.13594,"longitude":-81.6393,"address":"3901 Medina Rd, Akron OH","chain_name":null,"distance":0},{"name":"Red Lobster Restaurants","code":null,"latitude":39.30104,"longitude":-84.518,"address":"320 Cincinnati Mills Drive, Cincinnati OH","chain_name":null,"distance":0},{"name":"Red Lobster Restaurants","code":null,"latitude":45.55328,"longitude":-94.1931,"address":"2920 West Division Street, Saint Cloud MN","chain_name":null,"distance":0},{"name":"Red Lobster Restaurants","code":null,"latitude":38.99506,"longitude":-77.0274,"address":"8533 Georgia Avenue, Silver Spring MD","chain_name":null,"distance":0},{"name":"Red Lobster Restaurants","code":null,"latitude":38.55646,"longitude":-90.3908,"address":"9838 Watson Rd, Saint Louis MO","chain_name":null,"distance":0},{"name":"Red Lobster Restaurants","code":null,"latitude":43.0557,"longitude":-76.0887,"address":"2965 Erie Blvd E, Syracuse NY","chain_name":null,"distance":0},{"name":"Red Lobster Restaurants","code":null,"latitude":38.13617,"longitude":-122.2127,"address":"1180 Admiral Callaghan Ln, Vallejo CA","chain_name":null,"distance":0},{"name":"Red Lobster Restaurants","code":null,"latitude":41.12282,"longitude":-85.1357,"address":"4825 Coldwater Road, Fort Wayne IN","chain_name":null,"distance":0},{"name":"Red Lobster Restaurants","code":null,"latitude":36.80854,"longitude":-119.763,"address":"1460 East Shaw Avenue, Fresno CA","chain_name":null,"distance":0},{"name":"Red Lobster Restaurants","code":null,"latitude":41.12461,"longitude":-78.7422,"address":"813 East Dubois Avenue, Du Bois PA","chain_name":null,"distance":0},{"name":"Red Lobster Restaurants","code":null,"latitude":33.7874,"longitude":-78.7739,"address":"10000 North Kings Highway, Myrtle Beach SC","chain_name":null,"distance":0},{"name":"Red Lobster Restaurants","code":null,"latitude":41.46984,"longitude":-87.3171,"address":"1450 East 82nd Avenue, Merrillville IN","chain_name":null,"distance":0},{"name":"Red Lobster Restaurants","code":null,"latitude":40.00877,"longitude":-74.9693,"address":"3019 US Highway 130 North, Riverside NJ","chain_name":null,"distance":0},{"name":"Red Lobster Restaurants","code":null,"latitude":27.25757,"longitude":-82.52,"address":"6747 South Tamiami Trail, Sarasota FL","chain_name":null,"distance":0},{"name":"Red Lobster Restaurants","code":null,"latitude":42.64554,"longitude":-83.3262,"address":"479 N Telegraph Rd, Waterford MI","chain_name":null,"distance":0},{"name":"Red Lobster Restaurants","code":null,"latitude":42.97417,"longitude":-78.6967,"address":"7540 Transit Road, Buffalo NY","chain_name":null,"distance":0},{"name":"Red Lobster Restaurants","code":null,"latitude":42.72229,"longitude":-73.8016,"address":"170 Wolf Road, Albany NY","chain_name":null,"distance":0},{"name":"Red Lobster Restaurants","code":null,"latitude":41.36351,"longitude":-89.1298,"address":"4381 Venture Drive, Peru IL","chain_name":null,"distance":0},{"name":"Red Lobster Restaurants","code":null,"latitude":40.8564,"longitude":-81.4339,"address":"4600 Belden Village St NW, Canton OH","chain_name":null,"distance":0},{"name":"Red Lobster Restaurants","code":null,"latitude":40.02767,"longitude":-82.4444,"address":"909 Hebron Rd, Heath OH","chain_name":null,"distance":0},{"name":"Red Lobster Restaurants","code":null,"latitude":41.14363,"longitude":-87.879,"address":"1604 State Road 50, Bradley IL","chain_name":null,"distance":0},{"name":"Red Lobster Restaurants","code":null,"latitude":43.08438,"longitude":-75.3192,"address":"4573 Commercial Dr, New Hartford NY","chain_name":null,"distance":0},{"name":"Red Lobster Restaurants","code":null,"latitude":32.77785,"longitude":-117.0075,"address":"8703 Murray Dr, La Mesa CA","chain_name":null,"distance":0},{"name":"Red Lobster Restaurants","code":null,"latitude":28.28738,"longitude":-82.7134,"address":"8909 US Highway 19, Port Richey FL","chain_name":null,"distance":0},{"name":"Red Lobster Restaurants","code":null,"latitude":42.05003,"longitude":-88.0598,"address":"800 E Golf Rd, Schaumburg IL","chain_name":null,"distance":0},{"name":"Red Lobster Restaurants","code":null,"latitude":40.54239,"longitude":-105.0772,"address":"3301 South College Avenue, Fort Collins CO","chain_name":null,"distance":0},{"name":"Red Lobster Restaurants","code":null,"latitude":45.6564,"longitude":-122.5875,"address":"8219 Northeast Vancouver Mall Drive, Vancouver WA","chain_name":null,"distance":0},{"name":"Red Lobster Restaurants","code":null,"latitude":40.45543,"longitude":-80.1621,"address":"6150 Robinson Center Drive, Pittsburgh PA","chain_name":null,"distance":0},{"name":"Red Lobster Restaurants","code":null,"latitude":37.76176,"longitude":-84.303,"address":"830 Eastern Byp Ste 500, Richmond KY","chain_name":null,"distance":0},{"name":"Red Lobster Restaurants","code":null,"latitude":34.26609,"longitude":-85.2026,"address":"700 Shorter Ave NW, Rome GA","chain_name":null,"distance":0},{"name":"Red Lobster Restaurants","code":null,"latitude":32.87781,"longitude":-80.0136,"address":"2460 Mall Dr, N Charleston SC","chain_name":null,"distance":0},{"name":"Red Lobster Restaurants","code":null,"latitude":35.131,"longitude":-106.5806,"address":"5555 Montgomery Boulevard Northeast, Albuquerque NM","chain_name":null,"distance":0},{"name":"Red Lobster Restaurants","code":null,"latitude":40.95811,"longitude":-74.0745,"address":"211 North State Route 17, Paramus NJ","chain_name":null,"distance":0},{"name":"Red Lobster Restaurants","code":null,"latitude":29.17565,"longitude":-81.0822,"address":"2625 West International Speedw, Daytona Beach FL","chain_name":null,"distance":0},{"name":"Red Lobster Restaurants","code":null,"latitude":40.3908,"longitude":-104.7157,"address":"2885 South 23rd Avenue, Greeley CO","chain_name":null,"distance":0},{"name":"Red Lobster Restaurants","code":null,"latitude":34.42767,"longitude":-118.5867,"address":"27524 The Old Road, Valencia CA","chain_name":null,"distance":0},{"name":"Red Lobster Restaurants","code":null,"latitude":38.79166,"longitude":-77.5133,"address":"7505 Broken Branch Lane, Manassas VA","chain_name":null,"distance":0},{"name":"Red Lobster Restaurants","code":null,"latitude":30.18695,"longitude":-81.7394,"address":"32 Blanding Blvd, Orange Park FL","chain_name":null,"distance":0},{"name":"Red Lobster Restaurants","code":null,"latitude":35.07674,"longitude":-78.9545,"address":"533 N McPherson Church Rd, Fayetteville NC","chain_name":null,"distance":0},{"name":"Red Lobster Restaurants","code":null,"latitude":37.25216,"longitude":-121.8754,"address":"5343 Almaden Expressway, San Jose CA","chain_name":null,"distance":0},{"name":"Red Lobster Restaurants","code":null,"latitude":36.04783,"longitude":-86.6593,"address":"5259 Hickory Hollow Pkwy, Antioch TN","chain_name":null,"distance":0},{"name":"Red Lobster Restaurants","code":null,"latitude":40.2374,"longitude":-76.9636,"address":"4711 Carlisle Pike, Mechanicsburg PA","chain_name":null,"distance":0},{"name":"Red Lobster Restaurants","code":null,"latitude":34.75309,"longitude":-92.3673,"address":"8407 West Markham Street, Little Rock AR","chain_name":null,"distance":0},{"name":"Red Lobster Restaurants","code":null,"latitude":34.55019,"longitude":-112.4379,"address":"1821 East State Route 69, Prescott AZ","chain_name":null,"distance":0},{"name":"Red Lobster Restaurants","code":null,"latitude":39.81134,"longitude":-75.0742,"address":"301I Almonesson Road, Blackwood NJ","chain_name":null,"distance":0},{"name":"Red Lobster Restaurants","code":null,"latitude":40.88313,"longitude":-73.1069,"address":"2220 Nesconset Hwy, Stony Brook NY","chain_name":null,"distance":0},{"name":"Red Lobster Restaurants","code":null,"latitude":29.15656,"longitude":-82.1784,"address":"3393 SW College Rd, Ocala FL","chain_name":null,"distance":0},{"name":"Red Lobster Restaurants","code":null,"latitude":30.34375,"longitude":-97.7055,"address":"109 West Anderson Lane, Austin TX","chain_name":null,"distance":0},{"name":"Red Lobster Restaurants","code":null,"latitude":40.68935,"longitude":-74.3006,"address":"2520 US Highway 22 East, Union NJ","chain_name":null,"distance":0},{"name":"Red Lobster Restaurants","code":null,"latitude":38.34611,"longitude":-122.7161,"address":"6440 Redwood Dr, Rohnert Park CA","chain_name":null,"distance":0},{"name":"Red Lobster Restaurants","code":null,"latitude":33.70596,"longitude":-78.8952,"address":"1230 North Retail Court, Myrtle Beach SC","chain_name":null,"distance":0},{"name":"Red Lobster Restaurants","code":null,"latitude":30.1815,"longitude":-82.7017,"address":"4367 West US Highway 90, Lake City FL","chain_name":null,"distance":0},{"name":"Red Lobster Restaurants","code":null,"latitude":40.72037,"longitude":-111.8538,"address":"2294 South 1300 East, Salt Lake City UT","chain_name":null,"distance":0},{"name":"Red Lobster Restaurants","code":null,"latitude":29.48973,"longitude":-98.5728,"address":"4511 Northwest Loop 410, San Antonio TX","chain_name":null,"distance":0},{"name":"Red Lobster Restaurants","code":null,"latitude":42.62666,"longitude":-82.9887,"address":"13800 Hall Rd, Sterling Heights MI","chain_name":null,"distance":0},{"name":"Red Lobster Restaurants","code":null,"latitude":38.31152,"longitude":-104.6152,"address":"3306 North Elizabeth Street, Pueblo CO","chain_name":null,"distance":0},{"name":"Red Lobster Restaurants","code":null,"latitude":35.56571,"longitude":-77.404,"address":"3501 S Memorial Dr, Greenville NC","chain_name":null,"distance":0},{"name":"Red Lobster Restaurants","code":null,"latitude":39.22283,"longitude":-85.903,"address":"2000 25th St, Columbus IN","chain_name":null,"distance":0},{"name":"Red Lobster Restaurants","code":null,"latitude":41.87716,"longitude":-80.7574,"address":"3013 N Ridge Rd E, Ashtabula OH","chain_name":null,"distance":0},{"name":"Red Lobster Restaurants","code":null,"latitude":33.18559,"longitude":-97.1089,"address":"2426 Lillian Miller Pkwy, Denton TX","chain_name":null,"distance":0},{"name":"Red Lobster Restaurants","code":null,"latitude":35.26432,"longitude":-81.1516,"address":"200 North New Hope Road, Gastonia NC","chain_name":null,"distance":0},{"name":"Red Lobster Restaurants","code":null,"latitude":39.9746,"longitude":-76.6769,"address":"2555 E Market St, York PA","chain_name":null,"distance":0},{"name":"Red Lobster Restaurants","code":null,"latitude":37.36721,"longitude":-79.1744,"address":"3425 Candlers Mountain Rd, Lynchburg VA","chain_name":null,"distance":0},{"name":"Red Lobster Restaurants","code":null,"latitude":47.04864,"longitude":-122.825,"address":"4505 Martin Way East, Lacey WA","chain_name":null,"distance":0},{"name":"Red Lobster Restaurants","code":null,"latitude":42.33919,"longitude":-83.2728,"address":"6850 North Telegraph Road, Dearborn Heights MI","chain_name":null,"distance":0},{"name":"Red Lobster Restaurants","code":null,"latitude":39.45057,"longitude":-74.6415,"address":"4411 Black Horse Pike, Mays Landing NJ","chain_name":null,"distance":0},{"name":"Red Lobster Restaurants","code":null,"latitude":28.35696,"longitude":-80.6963,"address":"215 E Merritt Island Cswy, Merritt Island FL","chain_name":null,"distance":0},{"name":"Red Lobster Restaurants","code":null,"latitude":32.86128,"longitude":-96.8951,"address":"10290 Technology Blvd E, Dallas TX","chain_name":null,"distance":0},{"name":"Red Lobster Restaurants","code":null,"latitude":28.82442,"longitude":-81.7917,"address":"10010 US Highway 441, Leesburg FL","chain_name":null,"distance":0},{"name":"Red Lobster Restaurants","code":null,"latitude":37.50189,"longitude":-77.5215,"address":"6827 Midlothian Turnpike, Richmond VA","chain_name":null,"distance":0},{"name":"Red Lobster Restaurants","code":null,"latitude":40.42606,"longitude":-74.3811,"address":"750 State Route 18, East Brunswick NJ","chain_name":null,"distance":0},{"name":"Red Lobster Restaurants","code":null,"latitude":35.38446,"longitude":-96.9212,"address":"435 Shawnee Mall Dr, Shawnee OK","chain_name":null,"distance":0},{"name":"Red Lobster Restaurants","code":null,"latitude":33.95152,"longitude":-83.4031,"address":"1956 West Broad Street, Athens GA","chain_name":null,"distance":0},{"name":"Red Lobster Restaurants","code":null,"latitude":37.31169,"longitude":-121.8072,"address":"2040 Aborn Rd, San Jose CA","chain_name":null,"distance":0},{"name":"Red Lobster Restaurants","code":null,"latitude":34.05184,"longitude":-84.5887,"address":"2626 George Busbee Pkwy NW, Kennesaw GA","chain_name":null,"distance":0},{"name":"Red Lobster Restaurants","code":null,"latitude":39.94807,"longitude":-82.0003,"address":"755 Zane St, Zanesville OH","chain_name":null,"distance":0},{"name":"Red Lobster Restaurants","code":null,"latitude":32.31436,"longitude":-106.7433,"address":"575 South Telshor Boulevard, Las Cruces NM","chain_name":null,"distance":0},{"name":"Red Lobster Restaurants","code":null,"latitude":30.1894,"longitude":-85.6453,"address":"910 East 23rd Street, Panama City FL","chain_name":null,"distance":0},{"name":"Red Lobster Restaurants","code":null,"latitude":39.90657,"longitude":-79.74,"address":"515 W Main St, Uniontown PA","chain_name":null,"distance":0},{"name":"Red Lobster Restaurants","code":null,"latitude":39.76879,"longitude":-89.6075,"address":"2696 South Dirksen Parkway, Springfield IL","chain_name":null,"distance":0},{"name":"Red Lobster Restaurants","code":null,"latitude":42.09806,"longitude":-79.3069,"address":"295 E Fairmount Ave, Lakewood NY","chain_name":null,"distance":0},{"name":"Red Lobster Restaurants","code":null,"latitude":40.95811,"longitude":-74.0745,"address":"211 N State Rt 17, Paramus NJ","chain_name":null,"distance":0},{"name":"Red Lobster Restaurants","code":null,"latitude":40.08697,"longitude":-82.9734,"address":"1691 East Dublin Granville Road, Columbus OH","chain_name":null,"distance":0},{"name":"Red Lobster Restaurants","code":null,"latitude":40.59825,"longitude":-83.1481,"address":"1318 Mount Vernon Avenue, Marion OH","chain_name":null,"distance":0},{"name":"Red Lobster Restaurants","code":null,"latitude":42.36885,"longitude":-83.3425,"address":"29980 Plymouth Rd, Livonia MI","chain_name":null,"distance":0},{"name":"Red Lobster Restaurants","code":null,"latitude":26.18897,"longitude":-98.2321,"address":"701 West Expressway 83, Mcallen TX","chain_name":null,"distance":0},{"name":"Red Lobster Restaurants","code":null,"latitude":32.69834,"longitude":-114.6244,"address":"1601 S 4th Ave, Yuma AZ","chain_name":null,"distance":0},{"name":"Red Lobster Restaurants","code":null,"latitude":39.81993,"longitude":-75.5509,"address":"309 Rocky Run Parkway, Wilmington DE","chain_name":null,"distance":0},{"name":"Red Lobster Restaurants","code":null,"latitude":40.75671,"longitude":-73.9864,"address":"5 Times Square, New York NY","chain_name":null,"distance":0},{"name":"Red Lobster Restaurants","code":null,"latitude":41.02443,"longitude":-80.6311,"address":"1410 Boardman Poland Rd, Youngstown OH","chain_name":null,"distance":0},{"name":"Red Lobster Restaurants","code":null,"latitude":36.06602,"longitude":-95.8866,"address":"6718 South Memorial Drive, Tulsa OK","chain_name":null,"distance":0},{"name":"Red Lobster Restaurants","code":null,"latitude":43.57537,"longitude":-84.767,"address":"4062 East Blue Grass Road, Mt Pleasant MI","chain_name":null,"distance":0},{"name":"Red Lobster Restaurants","code":null,"latitude":33.394,"longitude":-111.6983,"address":"6149 East Southern Avenue, Mesa AZ","chain_name":null,"distance":0},{"name":"Red Lobster Restaurants","code":null,"latitude":34.42551,"longitude":-103.1966,"address":"2601 North Prince Street, Clovis NM","chain_name":null,"distance":0},{"name":"Red Lobster Restaurants","code":null,"latitude":40.15756,"longitude":-80.2454,"address":"1005 Trinity Circle, Washington PA","chain_name":null,"distance":0},{"name":"Red Lobster Restaurants","code":null,"latitude":38.59087,"longitude":-121.4152,"address":"1400 Howe Ave, Sacramento CA","chain_name":null,"distance":0},{"name":"Red Lobster Restaurants","code":null,"latitude":39.9286,"longitude":-75.0243,"address":"2100 Route 38, Cherry Hill NJ","chain_name":null,"distance":0},{"name":"Red Lobster Restaurants","code":null,"latitude":43.51486,"longitude":-96.7735,"address":"3901 W 41st St, Sioux Falls SD","chain_name":null,"distance":0},{"name":"Red Lobster Restaurants","code":null,"latitude":29.51192,"longitude":-98.3977,"address":"8210 North IH 35, San Antonio TX","chain_name":null,"distance":0},{"name":"Red Lobster Restaurants","code":null,"latitude":37.06458,"longitude":-88.7393,"address":"5151 Hinkleville Road, Paducah KY","chain_name":null,"distance":0},{"name":"Red Lobster Restaurants","code":null,"latitude":34.0247,"longitude":-84.3302,"address":"1050 Holcomb Bridge Rd, Roswell GA","chain_name":null,"distance":0},{"name":"Red Lobster Restaurants","code":null,"latitude":32.67867,"longitude":-97.135,"address":"4233 S Cooper St, Arlington TX","chain_name":null,"distance":0},{"name":"Red Lobster Restaurants","code":null,"latitude":29.54313,"longitude":-95.1367,"address":"888 West Bay Area Boulevard, Webster TX","chain_name":null,"distance":0},{"name":"Red Lobster Restaurants","code":null,"latitude":34.74683,"longitude":-77.3793,"address":"304A Western Boulevard, Jacksonville NC","chain_name":null,"distance":0},{"name":"Red Lobster Restaurants","code":null,"latitude":47.65923,"longitude":-122.6939,"address":"3208 Northwest Randall Way, Silverdale WA","chain_name":null,"distance":0},{"name":"Red Lobster Restaurants","code":null,"latitude":40.47423,"longitude":-88.9521,"address":"714 Eldorado Road, Bloomington IL","chain_name":null,"distance":0},{"name":"Red Lobster Restaurants","code":null,"latitude":39.69323,"longitude":-86.146,"address":"690 E Thompson Rd, Indianapolis IN","chain_name":null,"distance":0},{"name":"Red Lobster Restaurants","code":null,"latitude":39.06529,"longitude":-84.2894,"address":"616 Ohio Pike, Cincinnati OH","chain_name":null,"distance":0},{"name":"Red Lobster Restaurants","code":null,"latitude":28.05416,"longitude":-82.5037,"address":"11601 N Dale Mabry Hwy, Tampa FL","chain_name":null,"distance":0},{"name":"Red Lobster Restaurants","code":null,"latitude":28.33259,"longitude":-81.5064,"address":"5690 West Irlo Bronson Memoria, Kissimmee FL","chain_name":null,"distance":0},{"name":"Red Lobster Restaurants","code":null,"latitude":40.14149,"longitude":-82.985,"address":"1270 Polaris Parkway, Columbus OH","chain_name":null,"distance":0},{"name":"Red Lobster Restaurants","code":null,"latitude":34.75299,"longitude":-92.3674,"address":"8407 W Markham St, Little Rock AR","chain_name":null,"distance":0},{"name":"Red Lobster Restaurants","code":null,"latitude":36.29728,"longitude":-86.698,"address":"1814 Gallatin Rd N, Madison TN","chain_name":null,"distance":0},{"name":"Red Lobster Restaurants","code":null,"latitude":33.94712,"longitude":-80.3736,"address":"1034 Broad Street, Sumter SC","chain_name":null,"distance":0},{"name":"Red Lobster Restaurants","code":null,"latitude":33.57862,"longitude":-112.1217,"address":"10212 N 28th Dr, Phoenix AZ","chain_name":null,"distance":0},{"name":"Red Lobster Restaurants","code":null,"latitude":32.22144,"longitude":-110.8669,"address":"5870 East Broadway Boulevard, Tucson AZ","chain_name":null,"distance":0},{"name":"Red Lobster Restaurants","code":null,"latitude":38.96528,"longitude":-92.3643,"address":"1716 I 70 Dr SW, Columbia MO","chain_name":null,"distance":0},{"name":"Red Lobster Restaurants","code":null,"latitude":32.67745,"longitude":-97.3951,"address":"4805 S Hulen St, Fort Worth TX","chain_name":null,"distance":0},{"name":"Red Lobster Restaurants","code":null,"latitude":40.21876,"longitude":-85.388,"address":"223 W McGalliard Rd, Muncie IN","chain_name":null,"distance":0},{"name":"Red Lobster Restaurants","code":null,"latitude":41.38054,"longitude":-81.7364,"address":"7607 Day Drive, Parma OH","chain_name":null,"distance":0},{"name":"Red Lobster Restaurants","code":null,"latitude":33.92214,"longitude":-117.897,"address":"250 Brea Mall, Brea CA","chain_name":null,"distance":0},{"name":"Red Lobster Restaurants","code":null,"latitude":41.79808,"longitude":-87.7231,"address":"5201 South Pulaski Road, Chicago IL","chain_name":null,"distance":0},{"name":"Red Lobster Restaurants","code":null,"latitude":31.42795,"longitude":-100.4947,"address":"3909 Sunset Drive, San Angelo TX","chain_name":null,"distance":0},{"name":"Red Lobster Restaurants","code":null,"latitude":38.39837,"longitude":-75.5708,"address":"2314 N Salisbury Blvd, Salisbury MD","chain_name":null,"distance":0},{"name":"Red Lobster Restaurants","code":null,"latitude":43.08696,"longitude":-77.6263,"address":"655 Jefferson Rd, Rochester NY","chain_name":null,"distance":0},{"name":"Red Lobster Restaurants","code":null,"latitude":45.02903,"longitude":-93.0182,"address":"2925 White Bear Avenue North, Saint Paul MN","chain_name":null,"distance":0},{"name":"Red Lobster Restaurants","code":null,"latitude":34.07219,"longitude":-117.6983,"address":"9345 Monte Vsta Avenue, Montclair CA","chain_name":null,"distance":0},{"name":"Red Lobster Restaurants","code":null,"latitude":42.26658,"longitude":-89.0028,"address":"5827 East State Street, Rockford IL","chain_name":null,"distance":0},{"name":"Red Lobster Restaurants","code":null,"latitude":35.68459,"longitude":-88.8572,"address":"123 Stonebrook Pl, Jackson TN","chain_name":null,"distance":0},{"name":"Red Lobster Restaurants","code":null,"latitude":39.98882,"longitude":-74.1769,"address":"1298 Hooper Ave, Toms River NJ","chain_name":null,"distance":0},{"name":"Red Lobster Restaurants","code":null,"latitude":32.91561,"longitude":-96.7455,"address":"9069 Vantage Point Dr, Dallas TX","chain_name":null,"distance":0},{"name":"Red Lobster Restaurants","code":null,"latitude":40.81332,"longitude":-73.1039,"address":"5010 Express Drive South, Ronkonkoma NY","chain_name":null,"distance":0},{"name":"Red Lobster Restaurants","code":null,"latitude":38.98862,"longitude":-76.5378,"address":"183 Jennifer Road, Annapolis MD","chain_name":null,"distance":0},{"name":"Red Lobster Restaurants","code":null,"latitude":37.13134,"longitude":-76.5144,"address":"12680 Jefferson Avenue, Newport News VA","chain_name":null,"distance":0},{"name":"Red Lobster Restaurants","code":null,"latitude":38.30421,"longitude":-104.615,"address":"3306 N Elizabeth St, Pueblo CO","chain_name":null,"distance":0},{"name":"Red Lobster Restaurants","code":null,"latitude":36.71172,"longitude":-121.6543,"address":"1720 North Main Street, Salinas CA","chain_name":null,"distance":0},{"name":"Red Lobster Restaurants","code":null,"latitude":45.12456,"longitude":-93.2637,"address":"8500 Highway 47, Minneapolis MN","chain_name":null,"distance":0},{"name":"Red Lobster Restaurants","code":null,"latitude":45.011,"longitude":-93.1819,"address":"2330 Prior Avenue North, Saint Paul MN","chain_name":null,"distance":0},{"name":"Red Lobster Restaurants","code":null,"latitude":38.056,"longitude":-78.4964,"address":"1600 Emmet St N, Charlottesville VA","chain_name":null,"distance":0},{"name":"Red Lobster Restaurants","code":null,"latitude":39.90948,"longitude":-79.744,"address":"515 West Main Street, Uniontown PA","chain_name":null,"distance":0},{"name":"Red Lobster Restaurants","code":null,"latitude":39.73226,"longitude":-82.6247,"address":"1515 River Valley Cir N, Lancaster OH","chain_name":null,"distance":0},{"name":"Red Lobster Restaurants","code":null,"latitude":41.2338,"longitude":-96.1337,"address":"2707 S 140th St, Omaha NE","chain_name":null,"distance":0},{"name":"Red Lobster Restaurants","code":null,"latitude":41.68902,"longitude":-88.1257,"address":"209 South Weber Road, Bolingbrook IL","chain_name":null,"distance":0},{"name":"Red Lobster Restaurants","code":null,"latitude":33.77531,"longitude":-117.918,"address":"12892 Harbor Blvd, Garden Grove CA","chain_name":null,"distance":0},{"name":"Red Lobster Restaurants","code":null,"latitude":43.97979,"longitude":-75.909,"address":"Outer Arsenal Street, Watertown NY","chain_name":null,"distance":0},{"name":"Red Lobster Restaurants","code":null,"latitude":36.63009,"longitude":-82.1246,"address":"3167 Linden Drive, Bristol VA","chain_name":null,"distance":0},{"name":"Red Lobster Restaurants","code":null,"latitude":39.71922,"longitude":-105.1324,"address":"264 Union Boulevard, Lakewood CO","chain_name":null,"distance":0},{"name":"Red Lobster Restaurants","code":null,"latitude":35.6097,"longitude":-97.5623,"address":"2625 West Memorial Road, Oklahoma City OK","chain_name":null,"distance":0},{"name":"Red Lobster Restaurants","code":null,"latitude":40.25086,"longitude":-75.2495,"address":"640 Cowpath Rd, Lansdale PA","chain_name":null,"distance":0},{"name":"Red Lobster Restaurants","code":null,"latitude":33.63847,"longitude":-112.3542,"address":"13709 West Bell Road, Surprise AZ","chain_name":null,"distance":0},{"name":"Red Lobster Restaurants","code":null,"latitude":47.31502,"longitude":-122.3073,"address":"2006 South 320th Street, Federal Way WA","chain_name":null,"distance":0},{"name":"Red Lobster Restaurants","code":null,"latitude":32.52863,"longitude":-93.7034,"address":"2968 East Texas Street, Bossier City LA","chain_name":null,"distance":0},{"name":"Red Lobster Restaurants","code":null,"latitude":25.89797,"longitude":-97.4231,"address":"1075 W FM 802, Brownsville TX","chain_name":null,"distance":0},{"name":"Red Lobster Restaurants","code":null,"latitude":32.85683,"longitude":-83.6456,"address":"2077 Riverside Dr, Macon GA","chain_name":null,"distance":0},{"name":"Red Lobster Restaurants","code":null,"latitude":42.26743,"longitude":-84.4235,"address":"2400 Clinton Road, Jackson MI","chain_name":null,"distance":0},{"name":"Red Lobster Restaurants","code":null,"latitude":33.45924,"longitude":-94.0817,"address":"3002 Saint Michael Drive, Texarkana TX","chain_name":null,"distance":0},{"name":"Red Lobster Restaurants","code":null,"latitude":46.39923,"longitude":-117.0004,"address":"2115 Thain Grade, Lewiston ID","chain_name":null,"distance":0},{"name":"Red Lobster Restaurants","code":null,"latitude":41.2571,"longitude":-96.024,"address":"330 South 72nd Street, Omaha NE","chain_name":null,"distance":0},{"name":"Red Lobster Restaurants","code":null,"latitude":26.0112,"longitude":-80.2483,"address":"296 N University Dr, Pembroke Pines FL","chain_name":null,"distance":0},{"name":"Red Lobster Restaurants","code":null,"latitude":43.18524,"longitude":-76.239,"address":"3938 State Route 31, Liverpool NY","chain_name":null,"distance":0},{"name":"Red Lobster Restaurants","code":null,"latitude":33.39376,"longitude":-111.6993,"address":"6149 E Southern Ave, Mesa AZ","chain_name":null,"distance":0},{"name":"Red Lobster Restaurants","code":null,"latitude":39.61344,"longitude":-105.0912,"address":"5656 South Wadsworth Boulevard, Littleton CO","chain_name":null,"distance":0},{"name":"Red Lobster Restaurants","code":null,"latitude":40.77373,"longitude":-82.5981,"address":"2322 W 4th St, Mansfield OH","chain_name":null,"distance":0},{"name":"Red Lobster Restaurants","code":null,"latitude":31.31139,"longitude":-94.727,"address":"1919 South 1st Street, Lufkin TX","chain_name":null,"distance":0},{"name":"Red Lobster Restaurants","code":null,"latitude":41.42026,"longitude":-82.6758,"address":"4016 Milan Rd, Sandusky OH","chain_name":null,"distance":0},{"name":"Red Lobster Restaurants","code":null,"latitude":32.30363,"longitude":-95.3181,"address":"1500 West Southwest Loop 323, Tyler TX","chain_name":null,"distance":0},{"name":"Red Lobster Restaurants","code":null,"latitude":46.5041,"longitude":-87.3629,"address":"2923 US Highway 41 W, Marquette MI","chain_name":null,"distance":0},{"name":"Red Lobster Restaurants","code":null,"latitude":39.16434,"longitude":-86.5011,"address":"2617 East 3rd Street, Bloomington IN","chain_name":null,"distance":0},{"name":"Red Lobster Restaurants","code":null,"latitude":40.74397,"longitude":-89.6315,"address":"4625 North Sterling Avenue, Peoria IL","chain_name":null,"distance":0},{"name":"Red Lobster Restaurants","code":null,"latitude":40.25496,"longitude":-75.6634,"address":"223 Shoemaker Rd, Pottstown PA","chain_name":null,"distance":0},{"name":"Red Lobster Restaurants","code":null,"latitude":35.08663,"longitude":-80.8778,"address":"9415 Pineville Matthews R, Pineville NC","chain_name":null,"distance":0},{"name":"Red Lobster Restaurants","code":null,"latitude":38.25808,"longitude":-77.4964,"address":"3109 Mall Drive, Fredericksburg VA","chain_name":null,"distance":0},{"name":"Red Lobster Restaurants","code":null,"latitude":35.97227,"longitude":-77.8054,"address":"1010 North Wesleyan Boulevard, Rocky Mount NC","chain_name":null,"distance":0},{"name":"Red Lobster Restaurants","code":null,"latitude":40.05628,"longitude":-85.6529,"address":"5806 South Scatterfield Road, Anderson IN","chain_name":null,"distance":0},{"name":"Red Lobster Restaurants","code":null,"latitude":42.09227,"longitude":-76.0289,"address":"1200 Vestal Pkwy E, Vestal NY","chain_name":null,"distance":0},{"name":"Red Lobster Restaurants","code":null,"latitude":38.96594,"longitude":-92.365,"address":"1716 Interstate 70 Drive Southwest, Columbia MO","chain_name":null,"distance":0},{"name":"Red Lobster Restaurants","code":null,"latitude":33.47234,"longitude":-94.0433,"address":"5100 N State Line Ave, Texarkana AR","chain_name":null,"distance":0},{"name":"Red Lobster Restaurants","code":null,"latitude":32.75474,"longitude":-117.217,"address":"3780 Sports Arena Blvd, San Diego CA","chain_name":null,"distance":0},{"name":"Red Lobster Restaurants","code":null,"latitude":37.25288,"longitude":-77.3836,"address":"119 Temple Lake Drive, Colonial Heights VA","chain_name":null,"distance":0},{"name":"Red Lobster Restaurants","code":null,"latitude":42.04121,"longitude":-88.0387,"address":"680 Mall Drive, Schaumburg IL","chain_name":null,"distance":0},{"name":"Red Lobster Restaurants","code":null,"latitude":33.86397,"longitude":-98.5363,"address":"4401 Kemp Blvd, Wichita Falls TX","chain_name":null,"distance":0},{"name":"Red Lobster Restaurants","code":null,"latitude":39.04228,"longitude":-94.4154,"address":"4328 South Noland Road, Independence MO","chain_name":null,"distance":0},{"name":"Red Lobster Restaurants","code":null,"latitude":35.84528,"longitude":-86.4455,"address":"1745 Old Fort Pkwy, Murfreesboro TN","chain_name":null,"distance":0},{"name":"Red Lobster Restaurants","code":null,"latitude":37.68327,"longitude":-97.25,"address":"333 South Armour Street, Wichita KS","chain_name":null,"distance":0},{"name":"Red Lobster Restaurants","code":null,"latitude":38.82701,"longitude":-76.9207,"address":"5051 Auth Way, Suitland MD","chain_name":null,"distance":0},{"name":"Red Lobster Restaurants","code":null,"latitude":42.60302,"longitude":-83.0024,"address":"27760 Novi Road, Sterling Heights MI","chain_name":null,"distance":0},{"name":"Red Lobster Restaurants","code":null,"latitude":43.03201,"longitude":-82.4561,"address":"4220 24th Avenue, Fort Gratiot MI","chain_name":null,"distance":0},{"name":"Red Lobster Restaurants","code":null,"latitude":41.67387,"longitude":-86.8939,"address":"4353 Franklin St, Michigan City IN","chain_name":null,"distance":0},{"name":"Red Lobster Restaurants","code":null,"latitude":40.77376,"longitude":-82.5981,"address":"2322 West 4th Street, Mansfield OH","chain_name":null,"distance":0},{"name":"Red Lobster Restaurants","code":null,"latitude":27.70542,"longitude":-97.3663,"address":"5825 S Padre Island Dr, Corpus Christi TX","chain_name":null,"distance":0},{"name":"Red Lobster Restaurants","code":null,"latitude":40.29918,"longitude":-76.8208,"address":"4300 Jonestown Rd, Harrisburg PA","chain_name":null,"distance":0},{"name":"Red Lobster Restaurants","code":null,"latitude":28.5517,"longitude":-81.2052,"address":"617 N Alafaya Trl, Orlando FL","chain_name":null,"distance":0},{"name":"Red Lobster Restaurants","code":null,"latitude":38.0083,"longitude":-121.855,"address":"4095 Century Boulevard, Pittsburg CA","chain_name":null,"distance":0},{"name":"Red Lobster Restaurants","code":null,"latitude":41.12461,"longitude":-78.7422,"address":"813 E Dubois Ave, Du Bois PA","chain_name":null,"distance":0},{"name":"Red Lobster Restaurants","code":null,"latitude":35.5913,"longitude":-82.5305,"address":"139 Tunnel Rd, Asheville NC","chain_name":null,"distance":0},{"name":"Red Lobster Restaurants","code":null,"latitude":41.96013,"longitude":-73.9914,"address":"1 Miron Ln, Kingston NY","chain_name":null,"distance":0},{"name":"Red Lobster Restaurants","code":null,"latitude":32.54176,"longitude":-84.9495,"address":"5555 Whittlesey Boulevard, Columbus GA","chain_name":null,"distance":0},{"name":"Red Lobster Restaurants","code":null,"latitude":39.08448,"longitude":-108.4915,"address":"575 24 1\/2 Rd, Grand Junction CO","chain_name":null,"distance":0},{"name":"Red Lobster Restaurants","code":null,"latitude":42.45769,"longitude":-92.3384,"address":"941 East San Marnan Drive, Waterloo IA","chain_name":null,"distance":0},{"name":"Red Lobster Restaurants","code":null,"latitude":29.66506,"longitude":-95.1804,"address":"4002 Spencer Hwy, Pasadena TX","chain_name":null,"distance":0},{"name":"Red Lobster Restaurants","code":null,"latitude":36.08983,"longitude":-95.9263,"address":"4525 E 51st St, Tulsa OK","chain_name":null,"distance":0},{"name":"Red Lobster Restaurants","code":null,"latitude":39.94199,"longitude":-83.8407,"address":"1898 West 1st Street, Springfield OH","chain_name":null,"distance":0},{"name":"Red Lobster Restaurants","code":null,"latitude":36.05566,"longitude":-79.8953,"address":"4415 W Wendover Ave, Greensboro NC","chain_name":null,"distance":0},{"name":"Red Lobster Restaurants","code":null,"latitude":26.0919,"longitude":-80.2192,"address":"5480 N State Road 7, Ft Lauderdale FL","chain_name":null,"distance":0},{"name":"Red Lobster Restaurants","code":null,"latitude":30.84142,"longitude":-83.3239,"address":"1179 North Saint Augustine Road, Valdosta GA","chain_name":null,"distance":0},{"name":"Red Lobster Restaurants","code":null,"latitude":32.29865,"longitude":-110.9783,"address":"5061 N Oracle Rd, Tucson AZ","chain_name":null,"distance":0},{"name":"Red Lobster Restaurants","code":null,"latitude":31.51362,"longitude":-97.1876,"address":"5925 West Waco Drive, Waco TX","chain_name":null,"distance":0},{"name":"Red Lobster Restaurants","code":null,"latitude":25.89857,"longitude":-80.1611,"address":"13300 Biscayne Blvd, North Miami FL","chain_name":null,"distance":0},{"name":"Red Lobster Restaurants","code":null,"latitude":38.79686,"longitude":-90.58,"address":"4101 Veterans Memorial Park, Saint Peters MO","chain_name":null,"distance":0},{"name":"Red Lobster Restaurants","code":null,"latitude":39.49059,"longitude":-119.7957,"address":"3601 South Virginia Street, Reno NV","chain_name":null,"distance":0},{"name":"Red Lobster Restaurants","code":null,"latitude":35.38492,"longitude":-86.2324,"address":"1947 N Jackson St, Tullahoma TN","chain_name":null,"distance":0},{"name":"Red Lobster Restaurants","code":null,"latitude":39.88515,"longitude":-105.0022,"address":"1350 West 104th Avenue, Northglenn CO","chain_name":null,"distance":0},{"name":"Red Lobster Restaurants","code":null,"latitude":28.34043,"longitude":-81.5969,"address":"7780 West Irlo Bronson Memoria, Kissimmee FL","chain_name":null,"distance":0},{"name":"Red Lobster Restaurants","code":null,"latitude":36.0061,"longitude":-84.2541,"address":"359 South Illinois Avenue, Oak Ridge TN","chain_name":null,"distance":0},{"name":"Red Lobster Restaurants","code":null,"latitude":42.88377,"longitude":-85.7516,"address":"3464 Rivertown Point Court South, Grandville MI","chain_name":null,"distance":0},{"name":"Red Lobster Restaurants","code":null,"latitude":45.75513,"longitude":-108.5716,"address":"2250 King Ave W, Billings MT","chain_name":null,"distance":0},{"name":"Red Lobster Restaurants","code":null,"latitude":34.25689,"longitude":-84.4646,"address":"1405 Riverstone Pkwy, Canton GA","chain_name":null,"distance":0},{"name":"Red Lobster Restaurants","code":null,"latitude":42.99074,"longitude":-78.8144,"address":"4010 Maple Road, Buffalo NY","chain_name":null,"distance":0},{"name":"Red Lobster Restaurants","code":null,"latitude":34.31557,"longitude":-88.6888,"address":"895 Barnes Crossing Rd, Tupelo MS","chain_name":null,"distance":0},{"name":"Red Lobster Restaurants","code":null,"latitude":27.89451,"longitude":-82.7843,"address":"10500 Ulmerton Road Suite 490, Largo FL","chain_name":null,"distance":0},{"name":"Red Lobster Restaurants","code":null,"latitude":39.71088,"longitude":-104.8616,"address":"10854 East Alameda Avenue, Aurora CO","chain_name":null,"distance":0},{"name":"Red Lobster Restaurants","code":null,"latitude":44.02168,"longitude":-92.4632,"address":"195 S Broadway, Rochester MN","chain_name":null,"distance":0},{"name":"Red Lobster Restaurants","code":null,"latitude":30.18838,"longitude":-95.4534,"address":"18446 Interstate 45 South, Conroe TX","chain_name":null,"distance":0},{"name":"Red Lobster Restaurants","code":null,"latitude":39.77781,"longitude":-105.0815,"address":"4455 Wadsworth Boulevard, Wheat Ridge CO","chain_name":null,"distance":0},{"name":"Red Lobster Restaurants","code":null,"latitude":34.76094,"longitude":-85.0039,"address":"901 W Bridge Rd, Dalton GA","chain_name":null,"distance":0},{"name":"Red Lobster Restaurants","code":null,"latitude":41.93952,"longitude":-88.1147,"address":"391 W Army Trail Rd, Bloomingdale IL","chain_name":null,"distance":0},{"name":"Red Lobster Restaurants","code":null,"latitude":42.22184,"longitude":-85.5892,"address":"6535 South Westnedge Avenue, Portage MI","chain_name":null,"distance":0},{"name":"Red Lobster Restaurants","code":null,"latitude":34.17217,"longitude":-84.7825,"address":"375 Cherokee Pl, Cartersville GA","chain_name":null,"distance":0},{"name":"Red Lobster Restaurants","code":null,"latitude":28.81037,"longitude":-81.3373,"address":"20 Towne Center Cir, Sanford FL","chain_name":null,"distance":0},{"name":"Red Lobster Restaurants","code":null,"latitude":39.76748,"longitude":-84.0524,"address":"2803 North Fairfield Road, Dayton OH","chain_name":null,"distance":0},{"name":"Red Lobster Restaurants","code":null,"latitude":26.20166,"longitude":-80.1091,"address":"5950 N Federal Hwy, Ft Lauderdale FL","chain_name":null,"distance":0},{"name":"Red Lobster Restaurants","code":null,"latitude":36.71492,"longitude":-121.6547,"address":"1720 N Main St, Salinas CA","chain_name":null,"distance":0},{"name":"Red Lobster Restaurants","code":null,"latitude":39.4907,"longitude":-119.796,"address":"3601 S Virginia St, Reno NV","chain_name":null,"distance":0},{"name":"Red Lobster Restaurants","code":null,"latitude":28.35708,"longitude":-80.6963,"address":"215 East Merritt Island Causeway, Merritt Island FL","chain_name":null,"distance":0},{"name":"Red Lobster Restaurants","code":null,"latitude":34.19384,"longitude":-118.6237,"address":"22800 Vanowen Street, West Hills CA","chain_name":null,"distance":0},{"name":"Red Lobster Restaurants","code":null,"latitude":41.57888,"longitude":-88.1604,"address":"2950 Plainfield Road, Joliet IL","chain_name":null,"distance":0},{"name":"Red Lobster Restaurants","code":null,"latitude":33.93098,"longitude":-84.51,"address":"780 Cobb Pkwy S, Marietta GA","chain_name":null,"distance":0},{"name":"Red Lobster Restaurants","code":null,"latitude":35.53899,"longitude":-97.5949,"address":"4243 Northwest Hwy, Oklahoma City OK","chain_name":null,"distance":0},{"name":"Red Lobster Restaurants","code":null,"latitude":35.1752,"longitude":-111.6633,"address":"2500 South Beulah Boulevard, Flagstaff AZ","chain_name":null,"distance":0},{"name":"Red Lobster Restaurants","code":null,"latitude":46.22184,"longitude":-119.2236,"address":"1120 North Columbia Center Boulevard, Kennewick WA","chain_name":null,"distance":0},{"name":"Red Lobster Restaurants","code":null,"latitude":41.95943,"longitude":-87.8366,"address":"4401 N Cumberland Ave, Norridge IL","chain_name":null,"distance":0},{"name":"Red Lobster Restaurants","code":null,"latitude":27.82815,"longitude":-82.6796,"address":"6151 34th Street North, Saint Petersburg FL","chain_name":null,"distance":0},{"name":"Red Lobster Restaurants","code":null,"latitude":35.36954,"longitude":-80.7136,"address":"8012 Concord Mills Boulevard, Concord NC","chain_name":null,"distance":0},{"name":"Red Lobster Restaurants","code":null,"latitude":36.65278,"longitude":-93.2883,"address":"3559 Shepherd Of The Hill, Branson MO","chain_name":null,"distance":0},{"name":"Red Lobster Restaurants","code":null,"latitude":36.06926,"longitude":-80.3129,"address":"1690 Westbrook Plaza Dr, Winston Salem NC","chain_name":null,"distance":0},{"name":"Red Lobster Restaurants","code":null,"latitude":39.76382,"longitude":-86.3422,"address":"10189 East US Highway 36, Avon IN","chain_name":null,"distance":0},{"name":"Red Lobster Restaurants","code":null,"latitude":41.68709,"longitude":-73.9303,"address":"2255 Route 9, Poughkeepsie NY","chain_name":null,"distance":0},{"name":"Red Lobster Restaurants","code":null,"latitude":40.89432,"longitude":-74.2427,"address":"520 US Highway 46, Wayne NJ","chain_name":null,"distance":0},{"name":"Red Lobster Restaurants","code":null,"latitude":41.09971,"longitude":-74.0201,"address":"198 West Route 59, Nanuet NY","chain_name":null,"distance":0},{"name":"Red Lobster Restaurants","code":null,"latitude":38.7834,"longitude":-97.613,"address":"2925 S 9th St, Salina KS","chain_name":null,"distance":0},{"name":"Red Lobster Restaurants","code":null,"latitude":36.1267,"longitude":-97.0568,"address":"102 E Hall Of Fame Ave, Stillwater OK","chain_name":null,"distance":0},{"name":"Red Lobster Restaurants","code":null,"latitude":42.64568,"longitude":-83.3263,"address":"479 North Telegraph Road, Waterford MI","chain_name":null,"distance":0},{"name":"Red Lobster Restaurants","code":null,"latitude":34.14016,"longitude":-118.0195,"address":"928 W Huntington Dr, Monrovia CA","chain_name":null,"distance":0},{"name":"Red Lobster Restaurants","code":null,"latitude":43.6188,"longitude":-84.7976,"address":"4062 E Blue Grass Rd, Mt Pleasant MI","chain_name":null,"distance":0},{"name":"Red Lobster Restaurants","code":null,"latitude":34.93157,"longitude":-120.4181,"address":"1525 South Bradley Road, Santa Maria CA","chain_name":null,"distance":0},{"name":"Red Lobster Restaurants","code":null,"latitude":39.9133,"longitude":-75.4362,"address":"1145 West Baltimore Pike, Media PA","chain_name":null,"distance":0},{"name":"Red Lobster Restaurants","code":null,"latitude":34.19356,"longitude":-118.6235,"address":"22800 Vanowen St, Canoga Park CA","chain_name":null,"distance":0},{"name":"Red Lobster Restaurants","code":null,"latitude":32.36327,"longitude":-88.6754,"address":"201 S Frontage Rd, Meridian MS","chain_name":null,"distance":0},{"name":"Red Lobster Restaurants","code":null,"latitude":36.05557,"longitude":-79.8979,"address":"4415 West Wendover Avenue, Greensboro NC","chain_name":null,"distance":0},{"name":"Red Lobster Restaurants","code":null,"latitude":40.6716,"longitude":-99.0854,"address":"121 2nd Ave E, Kearney NE","chain_name":null,"distance":0},{"name":"Red Lobster Restaurants","code":null,"latitude":42.85844,"longitude":-78.8244,"address":"1000 McKinley Mall, Buffalo NY","chain_name":null,"distance":0},{"name":"Red Lobster Restaurants","code":null,"latitude":40.93159,"longitude":-98.3855,"address":"3430 West 13th Street, Grand Island NE","chain_name":null,"distance":0},{"name":"Red Lobster Restaurants","code":null,"latitude":32.83406,"longitude":-97.2111,"address":"7800 Bedford Euless Rd, North Richland Hills TX","chain_name":null,"distance":0},{"name":"Red Lobster Restaurants","code":null,"latitude":45.44539,"longitude":-122.7763,"address":"10330 SW Greenburg Rd, Tigard OR","chain_name":null,"distance":0},{"name":"Red Lobster Restaurants","code":null,"latitude":39.81806,"longitude":-75.5491,"address":"309 Rocky Run Pkwy, Talleyville DE","chain_name":null,"distance":0},{"name":"Red Lobster Restaurants","code":null,"latitude":39.8249,"longitude":-76.9829,"address":"407 Eisenhower Drive, Hanover PA","chain_name":null,"distance":0},{"name":"Red Lobster Restaurants","code":null,"latitude":43.15404,"longitude":-86.2027,"address":"1681 East Sternberg Road, Muskegon MI","chain_name":null,"distance":0},{"name":"Red Lobster Restaurants","code":null,"latitude":39.79161,"longitude":-86.0453,"address":"1752 North Shadeland Avenue, Indianapolis IN","chain_name":null,"distance":0},{"name":"Red Lobster Restaurants","code":null,"latitude":32.62436,"longitude":-85.4473,"address":"1805 Opelika Rd, Auburn AL","chain_name":null,"distance":0},{"name":"Red Lobster Restaurants","code":null,"latitude":40.66567,"longitude":-73.7212,"address":"606 West Sunrise Highway, Valley Stream NY","chain_name":null,"distance":0},{"name":"Red Lobster Restaurants","code":null,"latitude":42.32596,"longitude":-83.3886,"address":"5774 North Wayne Road, Westland MI","chain_name":null,"distance":0},{"name":"Red Lobster Restaurants","code":null,"latitude":30.32981,"longitude":-81.5496,"address":"416 Commerce Center Drive, Jacksonville FL","chain_name":null,"distance":0},{"name":"Red Lobster Restaurants","code":null,"latitude":43.12721,"longitude":-89.3078,"address":"4502 E Towne Blvd, Madison WI","chain_name":null,"distance":0},{"name":"Red Lobster Restaurants","code":null,"latitude":40.07195,"longitude":-76.3094,"address":"East Towne Mall, Lancaster PA","chain_name":null,"distance":0},{"name":"Red Lobster Restaurants","code":null,"latitude":30.67606,"longitude":-88.1477,"address":"3941 Airport Blvd, Mobile AL","chain_name":null,"distance":0},{"name":"Red Lobster Restaurants","code":null,"latitude":32.65238,"longitude":-96.8912,"address":"603 N Cockrell Hill Rd, Duncanville TX","chain_name":null,"distance":0},{"name":"Red Lobster Restaurants","code":null,"latitude":43.61,"longitude":-116.2844,"address":"550 North Milwaukee Street, Boise ID","chain_name":null,"distance":0},{"name":"Red Lobster Restaurants","code":null,"latitude":34.42497,"longitude":-103.1964,"address":"2601 N Prince St, Clovis NM","chain_name":null,"distance":0},{"name":"Red Lobster Restaurants","code":null,"latitude":35.92526,"longitude":-84.0463,"address":"8040 Kingston Pike, Knoxville TN","chain_name":null,"distance":0},{"name":"Red Lobster Restaurants","code":null,"latitude":30.2346,"longitude":-97.7955,"address":"3815 S Lamar Blvd, Austin TX","chain_name":null,"distance":0},{"name":"Red Lobster Restaurants","code":null,"latitude":39.37239,"longitude":-76.4699,"address":"8019 Honeygo Boulevard, Nottingham MD","chain_name":null,"distance":0},{"name":"Red Lobster Restaurants","code":null,"latitude":33.4871,"longitude":-111.926,"address":"3360 North Scottsdale Road, Scottsdale AZ","chain_name":null,"distance":0},{"name":"Red Lobster Restaurants","code":null,"latitude":41.59531,"longitude":-93.7604,"address":"3838 Westown Pkwy, W Des Moines IA","chain_name":null,"distance":0},{"name":"Red Lobster Restaurants","code":null,"latitude":35.96628,"longitude":-86.8105,"address":"1718 Galleria Blvd, Franklin TN","chain_name":null,"distance":0},{"name":"Red Lobster Restaurants","code":null,"latitude":41.8774,"longitude":-80.7571,"address":"3013 North Ridge Road East, Ashtabula OH","chain_name":null,"distance":0},{"name":"Red Lobster Restaurants","code":null,"latitude":32.53984,"longitude":-94.7543,"address":"3515 McCann Rd, Longview TX","chain_name":null,"distance":0},{"name":"Red Lobster Restaurants","code":null,"latitude":38.12913,"longitude":-79.0631,"address":"1477 Greenville Avenue, Staunton VA","chain_name":null,"distance":0},{"name":"Red Lobster Restaurants","code":null,"latitude":41.83081,"longitude":-88.0253,"address":"3001 Finley Rd, Downers Grove IL","chain_name":null,"distance":0},{"name":"Red Lobster Restaurants","code":null,"latitude":44.16682,"longitude":-93.9493,"address":"1890 East Madison Avenue, Mankato MN","chain_name":null,"distance":0},{"name":"Red Lobster Restaurants","code":null,"latitude":32.39494,"longitude":-90.1454,"address":"6357 I 55 N, Jackson MS","chain_name":null,"distance":0},{"name":"Red Lobster Restaurants","code":null,"latitude":33.61616,"longitude":-85.8276,"address":"515 Quintard Dr, Oxford AL","chain_name":null,"distance":0},{"name":"Red Lobster Restaurants","code":null,"latitude":42.26649,"longitude":-89.0022,"address":"5827 E State St, Rockford IL","chain_name":null,"distance":0},{"name":"Red Lobster Restaurants","code":null,"latitude":40.09078,"longitude":-75.3738,"address":"425 West Dekalb Pike, King Of Prussia PA","chain_name":null,"distance":0},{"name":"Red Lobster Restaurants","code":null,"latitude":40.65073,"longitude":-73.8693,"address":"455 Gateway Drive, Brooklyn NY","chain_name":null,"distance":0},{"name":"Red Lobster Restaurants","code":null,"latitude":35.03871,"longitude":-85.158,"address":"2200 Bams Dr, Chattanooga TN","chain_name":null,"distance":0},{"name":"Red Lobster Restaurants","code":null,"latitude":33.46458,"longitude":-84.2171,"address":"1846 Jonesboro Road, Mcdonough GA","chain_name":null,"distance":0},{"name":"Red Lobster Restaurants","code":null,"latitude":41.07415,"longitude":-111.9729,"address":"979 North 400 West, Layton UT","chain_name":null,"distance":0},{"name":"Red Lobster Restaurants","code":null,"latitude":41.68647,"longitude":-72.6546,"address":"1324 Silas Deane Hwy, Wethersfield CT","chain_name":null,"distance":0},{"name":"Red Lobster Restaurants","code":null,"latitude":36.06224,"longitude":-115.0363,"address":"570 Marks Street, Henderson NV","chain_name":null,"distance":0},{"name":"Red Lobster Restaurants","code":null,"latitude":42.63898,"longitude":-83.1317,"address":"2825 South Rochester Road, Rochester Hills MI","chain_name":null,"distance":0},{"name":"Red Lobster Restaurants","code":null,"latitude":28.0326,"longitude":-82.4292,"address":"2625 East Busch Boulevard, Tampa FL","chain_name":null,"distance":0},{"name":"Red Lobster Restaurants","code":null,"latitude":36.11487,"longitude":-115.1203,"address":"2325 East Flamingo Road, Las Vegas NV","chain_name":null,"distance":0},{"name":"Red Lobster Restaurants","code":null,"latitude":32.8764,"longitude":-80.0138,"address":"2460 Mall Drive, North Charleston SC","chain_name":null,"distance":0},{"name":"Red Lobster","code":null,"latitude":44.06924,"longitude":-123.10306,"address":"1085 Valley River Way, Eugene OR","chain_name":null,"distance":0}]