[{"name":"Sephora","code":null,"latitude":40.7401259,"longitude":-74.3634639,"address":"1200 Morris Turnpike #C205, Short Hills NJ","chain_name":null,"distance":0},{"name":"Sephora","code":null,"latitude":37.671948,"longitude":-122.469169,"address":"63 Serramonte Ctr, Daly City CA","chain_name":null,"distance":0},{"name":"Sephora","code":null,"latitude":40.1414262,"longitude":-82.9801518,"address":"1450 Polaris Parkway, Columbus OH","chain_name":null,"distance":0},{"name":"Sephora","code":null,"latitude":40.1399644,"longitude":-88.2447107,"address":"2000 North Neil Street Suite #600, Champaign IL","chain_name":null,"distance":0},{"name":"Sephora","code":null,"latitude":32.944248,"longitude":-80.04393,"address":"2150 Northwoods Blvd Unit E100, N Charleston SC","chain_name":null,"distance":0},{"name":"Sephora","code":null,"latitude":34.15674,"longitude":-118.4382284,"address":"14006 Riverside Drive Suite 75, Sherman Oaks CA","chain_name":null,"distance":0},{"name":"Sephora","code":null,"latitude":40.9012101,"longitude":-74.5143232,"address":"100 Rockaway Town Sq Mall Ste 121, Rockaway NJ","chain_name":null,"distance":0},{"name":"Sephora","code":null,"latitude":28.799681,"longitude":-81.278351,"address":"310 TC Circle, Sanford FL","chain_name":null,"distance":0},{"name":"Sephora","code":null,"latitude":30.675746,"longitude":-87.9186058,"address":"22500 Town Center Avenue, Spanish Fort AL","chain_name":null,"distance":0},{"name":"Sephora","code":null,"latitude":35.958888,"longitude":-86.81465,"address":"1780 Galleria Blvd, Franklin TN","chain_name":null,"distance":0},{"name":"Sephora","code":null,"latitude":34.1018555,"longitude":-118.339385,"address":"6801 Hollywood Boulevard, Hollywood CA","chain_name":null,"distance":0},{"name":"Sephora","code":null,"latitude":39.6346481,"longitude":-86.1260104,"address":"1251 US Highway 31 N, Greenwood IN","chain_name":null,"distance":0},{"name":"Sephora","code":null,"latitude":35.3166686,"longitude":-97.489388,"address":"2400 South I-35 Service Road, Moore OK","chain_name":null,"distance":0},{"name":"Sephora","code":null,"latitude":29.5180291,"longitude":-98.4989232,"address":"7400 San Pedro, #104, San Antonio TX","chain_name":null,"distance":0},{"name":"Sephora","code":null,"latitude":45.436607,"longitude":-122.576092,"address":"12000 SE 82nd Avenue Suite #1070, Portland OR","chain_name":null,"distance":0},{"name":"Sephora","code":null,"latitude":42.562521,"longitude":-83.1840302,"address":"2800 W. Big Beaver Road #S 218, Troy MI","chain_name":null,"distance":0},{"name":"Sephora","code":null,"latitude":41.029684,"longitude":-73.761352,"address":"125 Westchester Avenue, Suite 1001, White Plains NY","chain_name":null,"distance":0},{"name":"Sephora","code":null,"latitude":42.3213618,"longitude":-71.1763357,"address":"199 Boylston Street, Chestnut Hill MA","chain_name":null,"distance":0},{"name":"Sephora","code":null,"latitude":41.8475949,"longitude":-87.9544195,"address":"70 Oakbrook Center, Oakbrook IL","chain_name":null,"distance":0},{"name":"Sephora","code":null,"latitude":37.9576069,"longitude":-121.7936207,"address":"C.C. Belle Epine Lot 119, THIAIS Cedex ","chain_name":null,"distance":0},{"name":"Sephora","code":null,"latitude":40.2338075,"longitude":-75.2421054,"address":"300 Montgomery Mall, North Wales PA","chain_name":null,"distance":0},{"name":"Sephora","code":null,"latitude":40.779085,"longitude":-73.9553619,"address":"144 E. 86th St, New York NY","chain_name":null,"distance":0},{"name":"Sephora","code":null,"latitude":36.062966,"longitude":-95.881062,"address":"7021 S Memorial Dr. Suite #215, Tulsa OK","chain_name":null,"distance":0},{"name":"Sephora","code":null,"latitude":42.647308,"longitude":-83.498961,"address":"300 Town Center Boulevard, White Lake Township MI","chain_name":null,"distance":0},{"name":"Sephora","code":null,"latitude":41.7176931,"longitude":-86.1876233,"address":"6501 Grape Road, # 472A, Mishawaka IN","chain_name":null,"distance":0},{"name":"Sephora","code":null,"latitude":26.187544,"longitude":-98.2358239,"address":"2200 S. 10th Street, McAllen TX","chain_name":null,"distance":0},{"name":"Sephora","code":null,"latitude":28.235219,"longitude":-81.642379,"address":"6200 Grand View Parkway, Davenport FL","chain_name":null,"distance":0},{"name":"Sephora","code":null,"latitude":32.7413047,"longitude":-83.9426698,"address":"C.C. Tiziano Via Postumia, 76, OLMI DI SAN BIAGIO DI CALLALTA (TV) ","chain_name":null,"distance":0},{"name":"Sephora","code":null,"latitude":41.3102892,"longitude":-81.8237819,"address":"26 Southpark Center, Strongsville OH","chain_name":null,"distance":0},{"name":"Sephora","code":null,"latitude":40.761273,"longitude":-73.968646,"address":"711 Lexington Avenue, New York NY","chain_name":null,"distance":0},{"name":"Sephora","code":null,"latitude":42.8798008,"longitude":-85.7562733,"address":"3700 RiverTown Parkway Suite #1058, Grandville MI","chain_name":null,"distance":0},{"name":"Sephora","code":null,"latitude":33.6935307,"longitude":-117.8871417,"address":"3333 Bristol Street, Suite 1001, Costa Mesa CA","chain_name":null,"distance":0},{"name":"Sephora","code":null,"latitude":42.3699651,"longitude":-88.266872,"address":"2940 Commerce Road, Johnsburg IL","chain_name":null,"distance":0},{"name":"Sephora","code":null,"latitude":40.8252627,"longitude":-73.4121544,"address":"160 Walt Whitman Avenue #1043, Huntington Station NY","chain_name":null,"distance":0},{"name":"Sephora","code":null,"latitude":40.1433723,"longitude":-75.1205862,"address":"2500 Moreland Road, Willow Grove PA","chain_name":null,"distance":0},{"name":"Sephora","code":null,"latitude":32.8271516,"longitude":-97.1979706,"address":"1001 Melbourne Road, Hurst TX","chain_name":null,"distance":0},{"name":"Sephora","code":null,"latitude":42.7672901,"longitude":-71.2254155,"address":"99 Rockingham Park Boulevard, Salem NH","chain_name":null,"distance":0},{"name":"Sephora","code":null,"latitude":27.712793,"longitude":-97.3745299,"address":"5488 S Padre Island Dr Ste 4000, Corpus Christi TX","chain_name":null,"distance":0},{"name":"Sephora","code":null,"latitude":29.963012,"longitude":-95.540166,"address":"7925 FM 1960 Road, Suite 7000, Houston TX","chain_name":null,"distance":0},{"name":"Sephora","code":null,"latitude":42.7018586,"longitude":-71.4405267,"address":"310 Daniel Webster Hwy Space #W245, Nashua NH","chain_name":null,"distance":0},{"name":"Sephora","code":null,"latitude":35.0334543,"longitude":-85.1576823,"address":"2100 Hamilton Place Blvd, Chattanooga TN","chain_name":null,"distance":0},{"name":"Sephora","code":null,"latitude":51.087217,"longitude":-114.153671,"address":"Market Mall, Calgary AB","chain_name":null,"distance":0},{"name":"Sephora","code":null,"latitude":41.597501,"longitude":-93.749512,"address":"1551 Valley West Dr, W DES MOINES IA","chain_name":null,"distance":0},{"name":"Sephora","code":null,"latitude":40.3437318,"longitude":-80.0568444,"address":"301 South Hills Village, Pittsburgh PA","chain_name":null,"distance":0},{"name":"Sephora","code":null,"latitude":29.5922758,"longitude":-95.6290801,"address":"16535 Southwest Freeway Suite #3012, Sugar Land TX","chain_name":null,"distance":0},{"name":"Sephora","code":null,"latitude":32.4193321,"longitude":-105.1665585,"address":"Ul. Nowy Swiat 15\/17, WARSZAWA ","chain_name":null,"distance":0},{"name":"Sephora","code":null,"latitude":33.84595,"longitude":-84.363649,"address":"3393 Peachtree Road NE, Suite 3046, Atlanta GA","chain_name":null,"distance":0},{"name":"Sephora","code":null,"latitude":37.495457,"longitude":-88.4185684,"address":"C.C. Metropole, PRAHA 5 ","chain_name":null,"distance":0},{"name":"Sephora","code":null,"latitude":30.2582897,"longitude":-81.5268427,"address":"10281 Midtown Parkway, Space D, Jacksonville FL","chain_name":null,"distance":0},{"name":"Sephora","code":null,"latitude":41.7238879,"longitude":-72.761404,"address":"307 Westfarms Mall, Farmington CT","chain_name":null,"distance":0},{"name":"Sephora","code":null,"latitude":47.4585767,"longitude":-122.2612251,"address":"1249 Southcenter Mall, Seattle WA","chain_name":null,"distance":0},{"name":"Sephora","code":null,"latitude":41.568357,"longitude":-93.805196,"address":"101 Jordan Creek Parkway, West Des Moines IA","chain_name":null,"distance":0},{"name":"Sephora","code":null,"latitude":30.321185,"longitude":-81.5513925,"address":"9501 Arlington Expy Ste 105, Jacksonville FL","chain_name":null,"distance":0},{"name":"Sephora","code":null,"latitude":41.7622308,"longitude":-96.3864428,"address":"CC Cora Zone Commerciale du Buhfeld, COLMAR Cedex ","chain_name":null,"distance":0},{"name":"Sephora","code":null,"latitude":37.9956559,"longitude":-121.3096474,"address":"4915 Claremont Ave, Stockton CA","chain_name":null,"distance":0},{"name":"Sephora","code":null,"latitude":33.777076,"longitude":-117.869992,"address":"2890 North Main Street, Santa Ana CA","chain_name":null,"distance":0},{"name":"Sephora","code":null,"latitude":39.716579,"longitude":-104.9574566,"address":"3000 E First Ave, Unit #236, Denver CO","chain_name":null,"distance":0},{"name":"Sephora","code":null,"latitude":37.3273291,"longitude":-121.816313,"address":"2230 Eastridge Loop, San Jose CA","chain_name":null,"distance":0},{"name":"Sephora","code":null,"latitude":42.150939,"longitude":-87.8178145,"address":"1314 Northbrook Court, Northbrook IL","chain_name":null,"distance":0},{"name":"Sephora","code":null,"latitude":38.601739,"longitude":-121.425191,"address":"1695 Arden Way, Sacramento CA","chain_name":null,"distance":0},{"name":"Sephora","code":null,"latitude":30.3912619,"longitude":-86.4261648,"address":"4236 Legendary Dr, Destin FL","chain_name":null,"distance":0},{"name":"Sephora","code":null,"latitude":46.2262656,"longitude":-119.2262907,"address":"1321 N. Columbia Center, Boulevard #100, Kennewick WA","chain_name":null,"distance":0},{"name":"Sephora","code":null,"latitude":35.0334543,"longitude":-85.1576823,"address":"2100 Hamilton Place Blvd. Suite 256, Chattanooga TN","chain_name":null,"distance":0},{"name":"Sephora","code":null,"latitude":43.5930411,"longitude":-79.642797,"address":"100 City Centre Drive","chain_name":null,"distance":0},{"name":"Sephora","code":null,"latitude":33.6396372,"longitude":-112.2257386,"address":"7700 West Arrowhead Towne Center, Glendale AZ","chain_name":null,"distance":0},{"name":"Sephora","code":null,"latitude":35.083179,"longitude":-80.876232,"address":"11017 Carolina Place Pkwy, Pineville NC","chain_name":null,"distance":0},{"name":"Sephora","code":null,"latitude":34.0599755,"longitude":-118.4199997,"address":"10250 Santa Monica Boulevard, Los Angeles CA","chain_name":null,"distance":0},{"name":"Sephora","code":null,"latitude":41.8981263,"longitude":-87.6240037,"address":"845 North Michigan Avenue, Chicago IL","chain_name":null,"distance":0},{"name":"Sephora","code":null,"latitude":39.4077288,"longitude":-119.7494561,"address":"13915 S. Virginia Street, Suite #110, Reno NV","chain_name":null,"distance":0},{"name":"Sephora","code":null,"latitude":29.7797484,"longitude":-95.5395543,"address":"900 Memorial City Way, Suite # 700, Houston TX","chain_name":null,"distance":0},{"name":"Sephora","code":null,"latitude":42.04855,"longitude":-88.039563,"address":"3 Woodfield Mall, Schaumburg IL","chain_name":null,"distance":0},{"name":"Sephora","code":null,"latitude":33.8642353,"longitude":-118.0945842,"address":"161 Los Cerritos Center, Cerritos CA","chain_name":null,"distance":0},{"name":"Sephora","code":null,"latitude":29.7564061,"longitude":-95.7730247,"address":"23523 Grand Circle Blvd, KATY TX","chain_name":null,"distance":0},{"name":"Sephora","code":null,"latitude":32.9630361,"longitude":-85.5011195,"address":"C.C. Geant, SZCZECIN ","chain_name":null,"distance":0},{"name":"Sephora","code":null,"latitude":19.4540769,"longitude":-99.0541758,"address":"C.C. Poznan Plaza,, POZNAN ","chain_name":null,"distance":0},{"name":"Sephora","code":null,"latitude":36.8084461,"longitude":-119.7764008,"address":"639 East Shaw Avenue, Fresno CA","chain_name":null,"distance":0},{"name":"Sephora","code":null,"latitude":41.7395324,"longitude":-88.2486125,"address":"1100 Ogden Avenue, Montgomery IL","chain_name":null,"distance":0},{"name":"Sephora","code":null,"latitude":28.443489,"longitude":-81.399096,"address":"8001 South Orange Blossom Trail, # 1280, Orlando FL","chain_name":null,"distance":0},{"name":"Sephora","code":null,"latitude":42.0716448,"longitude":-80.1008584,"address":"840 Mill Creek Mall, Erie PA","chain_name":null,"distance":0},{"name":"Sephora","code":null,"latitude":25.52,"longitude":-80.42,"address":"C.C. M\ufffdriadeck B.P., BORDEAUX Cedex ","chain_name":null,"distance":0},{"name":"Sephora","code":null,"latitude":43.1924558,"longitude":-88.1254977,"address":"18515 County Line Road, Menomonee Falls WI","chain_name":null,"distance":0},{"name":"Sephora","code":null,"latitude":29.67,"longitude":-95.15,"address":"2 avenue du Gendarme Casterman, CHELLES CEDEX ","chain_name":null,"distance":0},{"name":"Sephora","code":null,"latitude":34.753108,"longitude":-92.342877,"address":"6000 Markham Street Space #3130, Little Rock AR","chain_name":null,"distance":0},{"name":"Sephora","code":null,"latitude":41.4915974,"longitude":-72.0914563,"address":"1 Mohegan Sun Boulevard, Uncasville CT","chain_name":null,"distance":0},{"name":"Sephora","code":null,"latitude":44.2730012,"longitude":-88.4695582,"address":"4301 West Wisconsin Ave. Space #514, Appleton WI","chain_name":null,"distance":0},{"name":"Sephora","code":null,"latitude":35.20115,"longitude":-89.791342,"address":"2760 North Germantown Parkway, Memphis TN","chain_name":null,"distance":0},{"name":"Sephora","code":null,"latitude":29.0620369,"longitude":-95.4882679,"address":"Carr\ufffd S\ufffdnart, LIEUSAINT Cedex ","chain_name":null,"distance":0},{"name":"Sephora","code":null,"latitude":43.0709738,"longitude":-76.1703243,"address":"Carousel Center Space #B205, Syracuse NY","chain_name":null,"distance":0},{"name":"Sephora","code":null,"latitude":37.4438673,"longitude":-122.1724619,"address":"355 Stanford Shopping Center, Palo Alto CA","chain_name":null,"distance":0},{"name":"Sephora","code":null,"latitude":39.9852617,"longitude":-104.8205283,"address":"1950 Praire Center Pkwy, Pkwy Brighton CO","chain_name":null,"distance":0},{"name":"Sephora","code":null,"latitude":34.112073,"longitude":-117.53219,"address":"12506 North Mainstreet, Rancho Cucamonga CA","chain_name":null,"distance":0},{"name":"Sephora","code":null,"latitude":38.598773,"longitude":-90.447613,"address":"90 W County Ctr, Des Peres MO","chain_name":null,"distance":0},{"name":"Sephora","code":null,"latitude":37.323596,"longitude":-121.945882,"address":"2855 Stevens Creek Boulevard, Suite 1061, Santa Clara CA","chain_name":null,"distance":0},{"name":"Sephora","code":null,"latitude":27.9082595,"longitude":-82.2909146,"address":"331 Brandon TC Mall, Brandon FL","chain_name":null,"distance":0},{"name":"Sephora","code":null,"latitude":39.9395402,"longitude":-75.017252,"address":"2000 Route 38, #1000 & #1105, Cherry Hill NJ","chain_name":null,"distance":0},{"name":"Sephora","code":null,"latitude":29.659542,"longitude":-82.4113799,"address":"6481 Newberry Road, Gainesville FL","chain_name":null,"distance":0},{"name":"Sephora","code":null,"latitude":38.7735899,"longitude":-121.2694671,"address":"1151 Galleria Blvd, Suite #1140, Roseville CA","chain_name":null,"distance":0},{"name":"Sephora","code":null,"latitude":40.2545404,"longitude":-74.2973614,"address":"3710 Route 9 Suite 1327, Freehold NJ","chain_name":null,"distance":0},{"name":"Sephora","code":null,"latitude":41.4740958,"longitude":-87.0159344,"address":"410 Porters Vale Boulevard, Valparaiso IN","chain_name":null,"distance":0},{"name":"Sephora","code":null,"latitude":39.402937,"longitude":-76.601718,"address":"825 Dulaney Valley Road, Space #2190, Towson MD","chain_name":null,"distance":0},{"name":"Sephora","code":null,"latitude":30.3892503,"longitude":-91.0878111,"address":"6401 Bluebonnet Boulevard, Suite #620, Baton Rouge LA","chain_name":null,"distance":0},{"name":"Sephora","code":null,"latitude":30.39505,"longitude":-97.751463,"address":"9722 Great Hills Trail, Austin TX","chain_name":null,"distance":0},{"name":"Sephora","code":null,"latitude":35.0520713,"longitude":-89.805982,"address":"7700 Polo Grounds Boulevard, Memphis TN","chain_name":null,"distance":0},{"name":"Sephora","code":null,"latitude":40.7093481,"longitude":-74.0103329,"address":"150 Broadway, New York NY","chain_name":null,"distance":0},{"name":"Sephora","code":null,"latitude":40.8140023,"longitude":-96.6418601,"address":"68 Gateway Mall, Lincoln NE","chain_name":null,"distance":0},{"name":"Sephora","code":null,"latitude":32.9044384,"longitude":-96.4539695,"address":"1015 East I-30, Rockwall TX","chain_name":null,"distance":0},{"name":"Sephora","code":null,"latitude":30.263475,"longitude":-91.996059,"address":"3125 Louisiana Ave, Lafayette LA","chain_name":null,"distance":0},{"name":"Sephora","code":null,"latitude":45.4643004,"longitude":-73.8332954,"address":"6815, Transcanada Highway, Pointe-Claire QC","chain_name":null,"distance":0},{"name":"Sephora","code":null,"latitude":40.7392162,"longitude":-73.9910743,"address":"119 Fifth Avenue, New York NY","chain_name":null,"distance":0},{"name":"Sephora","code":null,"latitude":35.197522,"longitude":-106.654702,"address":"10000 Coors Bypass NW, Albuquerque NM","chain_name":null,"distance":0},{"name":"Sephora","code":null,"latitude":42.9731063,"longitude":-78.6967302,"address":"4545 Transit Rd, Williamsville NY","chain_name":null,"distance":0},{"name":"Sephora","code":null,"latitude":32.605204,"longitude":-96.929276,"address":"333 N Hwy 67, Cedar Hill TX","chain_name":null,"distance":0},{"name":"Sephora","code":null,"latitude":32.33322,"longitude":-90.196402,"address":"200 Market Street, Flowood MS","chain_name":null,"distance":0},{"name":"Sephora","code":null,"latitude":37.530918,"longitude":-77.353003,"address":"4541 S. Laburnum Avenue, Richmond VA","chain_name":null,"distance":0},{"name":"Sephora","code":null,"latitude":37.033986,"longitude":-121.8790306,"address":"C.C. Les Trois Fontaines, CERGY PONTOISE ","chain_name":null,"distance":0},{"name":"Sephora","code":null,"latitude":49.2774665,"longitude":-122.8028459,"address":"2929 Barnet Highway, Coquitlam BC","chain_name":null,"distance":0},{"name":"Sephora","code":null,"latitude":34.0366711,"longitude":-118.0879931,"address":"1600 Town Center Dr, Montebello CA","chain_name":null,"distance":0},{"name":"Sephora","code":null,"latitude":25.5580368,"longitude":-80.4604643,"address":"C.so Vittorio Emanuele, 10, PORDENONE (PD) ","chain_name":null,"distance":0},{"name":"Sephora","code":null,"latitude":45.0136739,"longitude":-93.1756519,"address":"2016 Rosedale Center, Roseville MN","chain_name":null,"distance":0},{"name":"Sephora","code":null,"latitude":42.9097951,"longitude":-78.7622785,"address":"Walden Galleria, Buffalo NY","chain_name":null,"distance":0},{"name":"Sephora","code":null,"latitude":38.9053487,"longitude":-77.0607942,"address":"3065 M St. NW # 619, Washington DC","chain_name":null,"distance":0},{"name":"Sephora","code":null,"latitude":43.4254809,"longitude":-80.4383262,"address":"2960 Kingsway Drive, ON","chain_name":null,"distance":0},{"name":"Sephora","code":null,"latitude":40.217608,"longitude":-111.6607903,"address":"1200 Towne Centre Blvd., Provo UT","chain_name":null,"distance":0},{"name":"Sephora","code":null,"latitude":35.8987785,"longitude":-84.1660656,"address":"11534 Parkside Dr, Farragut TN","chain_name":null,"distance":0},{"name":"Sephora","code":null,"latitude":41.133864,"longitude":-96.0307887,"address":"7751 Towne Center Parkway, Papillion NE","chain_name":null,"distance":0},{"name":"Sephora","code":null,"latitude":30.256213,"longitude":-97.810013,"address":"2901 Capitol of Texas Highway South, Austin TX","chain_name":null,"distance":0},{"name":"Sephora","code":null,"latitude":41.2299084,"longitude":-73.2254979,"address":"5065 Main Street Space #2090, Trumbull CT","chain_name":null,"distance":0},{"name":"Sephora","code":null,"latitude":29.6595658,"longitude":-82.4137078,"address":"6689 Newberry Road,, Gainesville FL","chain_name":null,"distance":0},{"name":"Sephora","code":null,"latitude":30.183588,"longitude":-81.555057,"address":"10308 Southside Blvd, Jacksonville FL","chain_name":null,"distance":0},{"name":"Sephora","code":null,"latitude":40.6572331,"longitude":-75.4985521,"address":"835 Lehigh Lifestyle Center, Space #1240, Whitehall PA","chain_name":null,"distance":0},{"name":"Sephora","code":null,"latitude":33.3068508,"longitude":-111.7524745,"address":"2206 East Williams Field Road, Suite #114, Gilbert AZ","chain_name":null,"distance":0},{"name":"Sephora","code":null,"latitude":44.840798,"longitude":-93.2982799,"address":"200 West Market, W200, Bloomington MN","chain_name":null,"distance":0},{"name":"Sephora","code":null,"latitude":33.5595144,"longitude":-117.670166,"address":"498 The Shops at Mission Viejo, Mission Viejo CA","chain_name":null,"distance":0},{"name":"Sephora","code":null,"latitude":29.7286804,"longitude":-98.0726562,"address":"215 Creekside Way, New Braunfels TX","chain_name":null,"distance":0},{"name":"Sephora","code":null,"latitude":37.834614,"longitude":-122.2921983,"address":"5626 Bay Street, Emeryville CA","chain_name":null,"distance":0},{"name":"Sephora","code":null,"latitude":37.7818345,"longitude":-121.2287985,"address":"1060 Perimeter Drive, Manteca CA","chain_name":null,"distance":0},{"name":"Sephora","code":null,"latitude":32.6832148,"longitude":-97.1330015,"address":"3851 S. Cooper Street, Arlington TX","chain_name":null,"distance":0},{"name":"Sephora","code":null,"latitude":27.7730556,"longitude":-82.64,"address":"Kolomyazhsky pr. 19, ST. PETERSBURG ","chain_name":null,"distance":0},{"name":"Sephora","code":null,"latitude":36.172207,"longitude":-115.199013,"address":"4400 Meadows Lane, Las Vegas NV","chain_name":null,"distance":0},{"name":"Sephora","code":null,"latitude":38.9678737,"longitude":-76.9575286,"address":"3500 East West Hwy Ste 1000, Hyattsville MD","chain_name":null,"distance":0},{"name":"Sephora","code":null,"latitude":30.6715983,"longitude":-88.122987,"address":"3400 Bell Air Mall, MOBILE AL","chain_name":null,"distance":0},{"name":"Sephora","code":null,"latitude":40.5591864,"longitude":-122.3582572,"address":"C.C. Galaxie B.P. 1066, PARIS ","chain_name":null,"distance":0},{"name":"Sephora","code":null,"latitude":25.6887465,"longitude":-80.311217,"address":"7201 North Kendall Drive, Miami FL","chain_name":null,"distance":0},{"name":"Sephora","code":null,"latitude":42.167072,"longitude":-72.640056,"address":"50 Holyoke Street Space #C327, Holyoke MA","chain_name":null,"distance":0},{"name":"Sephora","code":null,"latitude":41.7003713,"longitude":-73.9209701,"address":"2001 South Rd (Rt 9), Poughkeepsie NY","chain_name":null,"distance":0},{"name":"Sephora","code":null,"latitude":34.7150398,"longitude":-86.6730531,"address":"335 The Bridge St Suite 117, Huntsville AL","chain_name":null,"distance":0},{"name":"Sephora","code":null,"latitude":40.0177539,"longitude":-105.256632,"address":"1755 29th St #1086, Boulder CO","chain_name":null,"distance":0},{"name":"Sephora","code":null,"latitude":40.9261831,"longitude":-81.106657,"address":"C.C. Auchan, SOSNOWIEC - SRODULA ","chain_name":null,"distance":0},{"name":"Sephora","code":null,"latitude":41.5039472,"longitude":-87.8915921,"address":"11325 West Lincoln Highway, Mokena IL","chain_name":null,"distance":0},{"name":"Sephora","code":null,"latitude":35.338236,"longitude":-119.034423,"address":"2701 Ming Avenue, Space 187, Bakersfield CA","chain_name":null,"distance":0},{"name":"Sephora","code":null,"latitude":38.9587324,"longitude":-77.3582736,"address":"11960 Market Street, Reston VA","chain_name":null,"distance":0},{"name":"Sephora","code":null,"latitude":36.068947,"longitude":-79.506485,"address":"3141 Watermill Drive, Burlington NC","chain_name":null,"distance":0},{"name":"Sephora","code":null,"latitude":42.860484,"longitude":-73.7809646,"address":"22 Clifton Country Rd, Clifton Park NY","chain_name":null,"distance":0},{"name":"Sephora","code":null,"latitude":34.733426,"longitude":-92.39683,"address":"2600 South Shackleford Road, Little Rock AR","chain_name":null,"distance":0},{"name":"Sephora","code":null,"latitude":37.784885,"longitude":-122.408149,"address":"33 Powell Street, San Francisco CA","chain_name":null,"distance":0},{"name":"Sephora","code":null,"latitude":29.8451921,"longitude":-97.9723391,"address":"800 Barnes Drive, San Marcos TX","chain_name":null,"distance":0},{"name":"Sephora","code":null,"latitude":40.7238936,"longitude":-73.9982888,"address":"555 Broadway, New York NY","chain_name":null,"distance":0},{"name":"Sephora","code":null,"latitude":40.7647079,"longitude":-84.1531854,"address":"2400 Elida Rd, Lima OH","chain_name":null,"distance":0},{"name":"Sephora","code":null,"latitude":32.4325704,"longitude":-90.1470906,"address":"1000 Highland Colony Parkway, Suite #9010, Ridgeland MS","chain_name":null,"distance":0},{"name":"Sephora","code":null,"latitude":45.434097,"longitude":-122.5791497,"address":"12300 SE 82nd Avenue, Portland OR","chain_name":null,"distance":0},{"name":"Sephora","code":null,"latitude":34.5299217,"longitude":-82.6451107,"address":"Av. Da Rep\ufffdblica, No 1435, Grandes Armaz\ufffdns SA","chain_name":null,"distance":0},{"name":"Sephora","code":null,"latitude":41.5039235,"longitude":-87.7131018,"address":"4451 Promenade Way, Matteson IL","chain_name":null,"distance":0},{"name":"Sephora","code":null,"latitude":34.5018401,"longitude":-82.6326879,"address":"C.C. Geant, LODZ ","chain_name":null,"distance":0},{"name":"Sephora","code":null,"latitude":45.5039691,"longitude":-73.3833305,"address":"182 boul des Promenades, QC","chain_name":null,"distance":0},{"name":"Sephora","code":null,"latitude":41.098645,"longitude":-73.959703,"address":"1000 Palisades Center Drive, West Nyack NY","chain_name":null,"distance":0},{"name":"Sephora","code":null,"latitude":37.6761089,"longitude":-97.397573,"address":"4600 W Kellogg Rd, Wichita KS","chain_name":null,"distance":0},{"name":"Sephora","code":null,"latitude":36.1067279,"longitude":-86.8161535,"address":"2126 Abbott Martin Road, Space #180, Nashville TN","chain_name":null,"distance":0},{"name":"Sephora","code":null,"latitude":25.7772917,"longitude":-80.1323207,"address":"721 Collins Avenue, Miami FL","chain_name":null,"distance":0},{"name":"Sephora","code":null,"latitude":34.4187,"longitude":-119.699,"address":"701 Paseo Nuevo, Santa Barbara CA","chain_name":null,"distance":0},{"name":"Sephora","code":null,"latitude":37.298477,"longitude":-89.572457,"address":"200 W Park Mall, Cape Giradeau MO","chain_name":null,"distance":0},{"name":"Sephora","code":null,"latitude":40.9253763,"longitude":-74.2765368,"address":"260 Wayne Towne Center, Wayne NJ","chain_name":null,"distance":0},{"name":"Sephora","code":null,"latitude":39.200932,"longitude":-84.376009,"address":"7875 Montgomery Road, Cincinnati OH","chain_name":null,"distance":0},{"name":"Sephora","code":null,"latitude":37.71,"longitude":-122.45,"address":"C.C. Cr\ufffdteil Soleil Casier 446, CRETEIL Cedex ","chain_name":null,"distance":0},{"name":"Sephora","code":null,"latitude":39.9514753,"longitude":-75.169361,"address":"1714 Chestnut Street, Philadelphia PA","chain_name":null,"distance":0},{"name":"Sephora","code":null,"latitude":34.1458108,"longitude":-118.1440787,"address":"308 East Colorado Boulevard, Pasadena CA","chain_name":null,"distance":0},{"name":"Sephora","code":null,"latitude":34.1443864,"longitude":-118.2568294,"address":"230 Americana Way, Glendale CA","chain_name":null,"distance":0},{"name":"Sephora","code":null,"latitude":53.4871188,"longitude":-113.516434,"address":"5015- 111 Street NW, Edmonton ALB","chain_name":null,"distance":0},{"name":"Sephora","code":null,"latitude":42.9898381,"longitude":-78.8224601,"address":"1303 Niagra Falls Blvd, Amherst NY","chain_name":null,"distance":0},{"name":"Sephora","code":null,"latitude":38.601935,"longitude":-121.427554,"address":"1689 Arden Way, Sacramento CA","chain_name":null,"distance":0},{"name":"Sephora","code":null,"latitude":32.7936325,"longitude":-96.6553312,"address":"6000 Towne East Blvd, Mesquite TX","chain_name":null,"distance":0},{"name":"Sephora","code":null,"latitude":42.527487,"longitude":-82.913675,"address":"31510 Gratiot Avenue, Roseville MI","chain_name":null,"distance":0},{"name":"Sephora","code":null,"latitude":29.7424389,"longitude":-95.4161974,"address":"25015 Westheimer, Suite 2380, Houston TX","chain_name":null,"distance":0},{"name":"Sephora","code":null,"latitude":41.843431,"longitude":-88.005183,"address":"175 Yorktown Shopping Center, Lombard IL","chain_name":null,"distance":0},{"name":"Sephora","code":null,"latitude":42.5648025,"longitude":-87.9347953,"address":"10225 77th Street, Pleasant Prairie WI","chain_name":null,"distance":0},{"name":"Sephora","code":null,"latitude":29.592901,"longitude":-98.618066,"address":"15900 La Cantera Parkway, Bldg. 7, San Antonio TX","chain_name":null,"distance":0},{"name":"Sephora","code":null,"latitude":43.6687256,"longitude":-79.3923967,"address":"131 Bloor Street West, CRU #I-13, ON ","chain_name":null,"distance":0},{"name":"Sephora","code":null,"latitude":25.95796,"longitude":-80.14192,"address":"19575 Biscayne Blvd. Suite 527, Aventura FL","chain_name":null,"distance":0},{"name":"Sephora","code":null,"latitude":42.7114187,"longitude":-75.6440842,"address":"C.C. du Grand Littoral BP 227 13464","chain_name":null,"distance":0},{"name":"Sephora","code":null,"latitude":27.962664,"longitude":-82.520483,"address":"2223 N. West Shore Blvd., Tampa FL","chain_name":null,"distance":0},{"name":"Sephora","code":null,"latitude":33.3057143,"longitude":-111.8962557,"address":"3111 West Chandler Boulevard, Chandler AZ","chain_name":null,"distance":0},{"name":"Sephora","code":null,"latitude":35.0255647,"longitude":-89.7161894,"address":"4630 Merchants Park Circle, Collierville TN","chain_name":null,"distance":0},{"name":"Sephora","code":null,"latitude":33.1787009,"longitude":-117.331037,"address":"2555 El Camino Real, Carlsbad CA","chain_name":null,"distance":0},{"name":"Sephora","code":null,"latitude":31.619755,"longitude":-84.217127,"address":"2601 Dawson Rd, Albany GA","chain_name":null,"distance":0},{"name":"Sephora","code":null,"latitude":29.5427852,"longitude":-95.1531273,"address":"1168 Baybrook Mall, Friendswood TX","chain_name":null,"distance":0},{"name":"Sephora","code":null,"latitude":47.2149084,"longitude":-122.4675393,"address":"4502 S. Steele St., Space #1317, Tacoma WA","chain_name":null,"distance":0},{"name":"Sephora","code":null,"latitude":44.856178,"longitude":-93.422702,"address":"8201 Flying Cloud Drive, Eden Prairie MN","chain_name":null,"distance":0},{"name":"Sephora","code":null,"latitude":38.2887693,"longitude":-77.5091294,"address":"1 Towne Centre Blvd, Unit #2800, Fredericksburg VA","chain_name":null,"distance":0},{"name":"Sephora","code":null,"latitude":30.200374,"longitude":-93.2245329,"address":"312 W Prien Lake Rd, Lake Charles LA","chain_name":null,"distance":0},{"name":"Sephora","code":null,"latitude":40.3259864,"longitude":-77.0608983,"address":"C.C. ECE Wola Park, WARSZAWA ","chain_name":null,"distance":0},{"name":"Sephora","code":null,"latitude":41.469634,"longitude":-87.311903,"address":"1890 Southlake Mall, Merrillville IN","chain_name":null,"distance":0},{"name":"Sephora","code":null,"latitude":37.8970144,"longitude":-122.0587214,"address":"1149 Broadway Plaza, Walnut Creek CA","chain_name":null,"distance":0},{"name":"Sephora","code":null,"latitude":47.4598243,"longitude":-122.2613131,"address":"616 Southcenter Mall, Seattle WA","chain_name":null,"distance":0},{"name":"Sephora","code":null,"latitude":41.3900721,"longitude":-83.6626013,"address":"C.C. Auchan, GDANSK ","chain_name":null,"distance":0},{"name":"Sephora","code":null,"latitude":32.8698951,"longitude":-96.7741182,"address":"8687 N. Central Expressway, Dallas TX","chain_name":null,"distance":0},{"name":"Sephora","code":null,"latitude":41.2297604,"longitude":-95.8778126,"address":"3333 Market Place Drive, Council Bluffs IA","chain_name":null,"distance":0},{"name":"Sephora","code":null,"latitude":38.776686,"longitude":-77.173496,"address":"6699 Springfield Mall, SPRINGFIELD VA","chain_name":null,"distance":0},{"name":"Sephora","code":null,"latitude":32.9133187,"longitude":-97.3128014,"address":"3000 Heritage Trace Parkway, Keller TX","chain_name":null,"distance":0},{"name":"Sephora","code":null,"latitude":33.0683298,"longitude":-117.0656432,"address":"290 E Via Rancho Pkwy, Escondido CA","chain_name":null,"distance":0},{"name":"Sephora","code":null,"latitude":37.6968956,"longitude":-121.931588,"address":"2125 Stoneridge Mall, Pleasanton CA","chain_name":null,"distance":0},{"name":"Sephora","code":null,"latitude":47.7010861,"longitude":-117.4110951,"address":"4730 N Division Street, Spokane WA","chain_name":null,"distance":0},{"name":"Sephora","code":null,"latitude":37.2601089,"longitude":-76.640305,"address":"500 Marquis Parkway, Williamsburg VA","chain_name":null,"distance":0},{"name":"Sephora","code":null,"latitude":42.9105995,"longitude":-78.7713173,"address":"3 Walden Galleria Dr, Cheektowaga NY","chain_name":null,"distance":0},{"name":"Sephora","code":null,"latitude":36.0718419,"longitude":-80.2993674,"address":"3320 Silas Creek Pkwy Ste 460, Winston-Salem NC","chain_name":null,"distance":0},{"name":"Sephora","code":null,"latitude":36.3185939,"longitude":-94.1857826,"address":"2203 S. 45th Street, Suite #1140, Rogers AR","chain_name":null,"distance":0},{"name":"Sephora","code":null,"latitude":41.7244848,"longitude":-71.476804,"address":"400 Bald Hill Road, Warwick RI","chain_name":null,"distance":0},{"name":"Sephora","code":null,"latitude":34.064225,"longitude":-83.984145,"address":"3333 Buford Dr, Buford GA","chain_name":null,"distance":0},{"name":"Sephora","code":null,"latitude":28.0911628,"longitude":-81.9739234,"address":"3800 US HWY 98 N Ste 200, Lakeland FL","chain_name":null,"distance":0},{"name":"Sephora","code":null,"latitude":50.996067,"longitude":-114.073148,"address":"6455 Macleod Trail SW","chain_name":null,"distance":0},{"name":"Sephora","code":null,"latitude":37.5790336,"longitude":-122.3461958,"address":"1205 Burlingame Avenue, Burlingame CA","chain_name":null,"distance":0},{"name":"Sephora","code":null,"latitude":42.2419914,"longitude":-83.7431731,"address":"876 Briarwood Circle, Ann Arbor MI","chain_name":null,"distance":0},{"name":"Sephora","code":null,"latitude":28.3422548,"longitude":-81.4257729,"address":"2007 West Osceola Parkway, Kissimmee FL","chain_name":null,"distance":0},{"name":"Sephora","code":null,"latitude":35.1093816,"longitude":-106.5719403,"address":"6600 Menaul NE, Space M1, Albuquerque NM","chain_name":null,"distance":0},{"name":"Sephora","code":null,"latitude":42.5066062,"longitude":-83.7524816,"address":"9480 Village Place Boulevard, Brighton MI","chain_name":null,"distance":0},{"name":"Sephora","code":null,"latitude":27.551125,"longitude":-99.501392,"address":"5300 San Dario, Laredo TX","chain_name":null,"distance":0},{"name":"Sephora","code":null,"latitude":37.5056625,"longitude":-77.608876,"address":"11500 Midlothian Turnpike, Richmond VA","chain_name":null,"distance":0},{"name":"Sephora","code":null,"latitude":33.1298004,"longitude":-96.648853,"address":"301 Stacy Road, Fairview TX","chain_name":null,"distance":0},{"name":"Sephora","code":null,"latitude":38.4600328,"longitude":-107.8709997,"address":"3400 Rio Grande Avenue, Montrose CO","chain_name":null,"distance":0},{"name":"Sephora","code":null,"latitude":42.3538006,"longitude":-71.6144745,"address":"573 Donald Lynch Blvd, Marlborough MA","chain_name":null,"distance":0},{"name":"Sephora","code":null,"latitude":41.4715526,"longitude":-82.0195225,"address":"1301 Center Road, Avon OH","chain_name":null,"distance":0},{"name":"Sephora","code":null,"latitude":39.941035,"longitude":-75.025012,"address":"2000 Rt 38 Ste 1000, Cherry Hill NJ","chain_name":null,"distance":0},{"name":"Sephora","code":null,"latitude":34.6018136,"longitude":-118.1419364,"address":"1131 W Rancho Vista Blvd, Palmdale CA","chain_name":null,"distance":0},{"name":"Sephora","code":null,"latitude":40.7488897,"longitude":-73.9887115,"address":"901 6th Avenue, Ste. 137, New York NY","chain_name":null,"distance":0},{"name":"Sephora","code":null,"latitude":27.9286498,"longitude":-82.3243816,"address":"912 Brandon Town Center Mall, Brandon FL","chain_name":null,"distance":0},{"name":"Sephora","code":null,"latitude":38.24721,"longitude":-85.6103399,"address":"7900 Shelbyville Road, Louisville KY","chain_name":null,"distance":0},{"name":"Sephora","code":null,"latitude":40.0856392,"longitude":-75.3916632,"address":"160 North Gulph Road, #2108, King of Prussia PA","chain_name":null,"distance":0},{"name":"Sephora","code":null,"latitude":41.460053,"longitude":-81.951392,"address":"160 Crocker Park Boulevard, Westlake OH","chain_name":null,"distance":0},{"name":"Sephora","code":null,"latitude":40.055172,"longitude":-80.5997639,"address":"515 Cabela Drive, Triadelphia WV","chain_name":null,"distance":0},{"name":"Sephora","code":null,"latitude":33.2751798,"longitude":-111.7917359,"address":"2180 S Gilbert Rd, Chandler AZ","chain_name":null,"distance":0},{"name":"Sephora","code":null,"latitude":47.6113766,"longitude":-122.3368553,"address":"415 Pine Street, Seattle WA","chain_name":null,"distance":0},{"name":"Sephora","code":null,"latitude":37.635232,"longitude":-122.417129,"address":"1122 El Camino Real, San Bruno CA","chain_name":null,"distance":0},{"name":"Sephora","code":null,"latitude":34.4464075,"longitude":-82.4085381,"address":"C.C. Geant, GDANSK ","chain_name":null,"distance":0},{"name":"Sephora","code":null,"latitude":41.498607,"longitude":-81.494226,"address":"26300 Cedar Road #1110, Beachwood OH","chain_name":null,"distance":0},{"name":"Sephora","code":null,"latitude":34.019128,"longitude":-84.563608,"address":"400 Ernest W Barrett Pkwy NW, Kennesaw GA","chain_name":null,"distance":0},{"name":"Sephora","code":null,"latitude":40.4706411,"longitude":-80.0262616,"address":"112 I. Mella str.","chain_name":null,"distance":0},{"name":"Sephora","code":null,"latitude":28.2911591,"longitude":-81.4937993,"address":"A: Palladium Shopping Center, Yenisahra, Kadik\ufffdy ","chain_name":null,"distance":0},{"name":"Sephora","code":null,"latitude":25.78884,"longitude":-80.3686523,"address":"1603 NW 107th Ave, Miami FL","chain_name":null,"distance":0},{"name":"Sephora","code":null,"latitude":37.1625355,"longitude":-93.2627656,"address":"2825 South Glenstone Avenue, Springfield MO","chain_name":null,"distance":0},{"name":"Sephora","code":null,"latitude":33.0309514,"longitude":-96.8329963,"address":"6121 W Park Blvd., Space C110, Plano TX","chain_name":null,"distance":0},{"name":"Sephora","code":null,"latitude":33.7197037,"longitude":-116.3827443,"address":"73505 El Paseo, Palm Desert CA","chain_name":null,"distance":0},{"name":"Sephora","code":null,"latitude":35.1514877,"longitude":-80.8279881,"address":"4400 Sharon Road #E 11A, Charlotte NC","chain_name":null,"distance":0},{"name":"Sephora","code":null,"latitude":37.83,"longitude":-122.21,"address":"C.C. Belle Epine Lot 508, THIAIS Cedex ","chain_name":null,"distance":0},{"name":"Sephora","code":null,"latitude":45.4519692,"longitude":-122.7830505,"address":"9500 SW Washington Square Road, Portland OR","chain_name":null,"distance":0},{"name":"Sephora","code":null,"latitude":32.95,"longitude":-96.68,"address":"C.C. Forum des Halles, PARIS cedex 1 ","chain_name":null,"distance":0},{"name":"Sephora","code":null,"latitude":26.137129,"longitude":-80.113431,"address":"2414 East Sunrise Boulevard, Fort Lauderdale FL","chain_name":null,"distance":0},{"name":"Sephora","code":null,"latitude":33.0879143,"longitude":-96.6836737,"address":"919 Garden Park Drive, Allen TX","chain_name":null,"distance":0},{"name":"Sephora","code":null,"latitude":38.502863,"longitude":-90.454032,"address":"798 Gravois Bluffs Boulevard, Fenton MO","chain_name":null,"distance":0},{"name":"Sephora","code":null,"latitude":39.6369085,"longitude":-84.2201292,"address":"2700 Miamisburg-Centerville Road, Centerville OH","chain_name":null,"distance":0},{"name":"Sephora","code":null,"latitude":29.5922816,"longitude":-95.6290709,"address":"16529 Southwest Pkwy, Sugarland TX","chain_name":null,"distance":0},{"name":"Sephora","code":null,"latitude":42.542868,"longitude":-70.941982,"address":"210 Andover Street, Peabody MA","chain_name":null,"distance":0},{"name":"Sephora","code":null,"latitude":32.88,"longitude":-117.24,"address":"C.C. 4 Temps, LA DEFENSE Cedex ","chain_name":null,"distance":0},{"name":"Sephora","code":null,"latitude":40.7408508,"longitude":-89.6293945,"address":"2200 W War Memorial Dr Ste 997, PEORIA IL","chain_name":null,"distance":0},{"name":"Sephora","code":null,"latitude":37.6670606,"longitude":-81.9747871,"address":"C.C. Saint S\ufffdbastien, NANCY Cedex ","chain_name":null,"distance":0},{"name":"Sephora","code":null,"latitude":39.0473456,"longitude":-94.3576402,"address":"2018 Independence Center Drive, Independence MO","chain_name":null,"distance":0},{"name":"Sephora","code":null,"latitude":42.0454357,"longitude":-88.0368575,"address":"#5 Woodfield Shopping Center, Schaumburg IL","chain_name":null,"distance":0},{"name":"Sephora","code":null,"latitude":42.300627,"longitude":-71.380534,"address":"1245 Worcester Street, Natick MA","chain_name":null,"distance":0},{"name":"Sephora","code":null,"latitude":43.0837767,"longitude":-75.3162279,"address":"1 Sangertown Sq STE 55, New Hartford NY","chain_name":null,"distance":0},{"name":"Sephora","code":null,"latitude":40.750292,"longitude":-73.9892871,"address":"130 West 34th Street, New York NY","chain_name":null,"distance":0},{"name":"Sephora","code":null,"latitude":43.7776632,"longitude":-79.3444633,"address":"1800 Sheppard Avenue East, Toronto ON","chain_name":null,"distance":0},{"name":"Sephora","code":null,"latitude":37.6898783,"longitude":-121.0503507,"address":"3401 Dale Road Suite #658, Modesto CA","chain_name":null,"distance":0},{"name":"Sephora","code":null,"latitude":34.142635,"longitude":-118.252166,"address":"333 West Colorado Street, Glendale CA","chain_name":null,"distance":0},{"name":"Sephora","code":null,"latitude":38.8643971,"longitude":-77.3566903,"address":"11828L Fair Oaks, Fairfax VA","chain_name":null,"distance":0},{"name":"Sephora","code":null,"latitude":30.171204,"longitude":-92.075602,"address":"5725 Johnston Street Space B130, Lafayette LA","chain_name":null,"distance":0},{"name":"Sephora","code":null,"latitude":45.1986102,"longitude":-93.3505157,"address":"12550 Riverdale Blvd, Coon Rapids MN","chain_name":null,"distance":0},{"name":"Sephora","code":null,"latitude":38.9243834,"longitude":-76.851485,"address":"9100 Mchugh Ste 576, Lanham MD","chain_name":null,"distance":0},{"name":"Sephora","code":null,"latitude":40.756547,"longitude":-73.985903,"address":"1500 Broadway #304, New York NY","chain_name":null,"distance":0},{"name":"Sephora","code":null,"latitude":39.562368,"longitude":-104.874786,"address":"8505 Park Meadows Center Drive, Littleton CO","chain_name":null,"distance":0},{"name":"Sephora","code":null,"latitude":34.132837,"longitude":-118.051614,"address":"400 S. Baldwin Avenue Suite #448-L, Arcadia CA","chain_name":null,"distance":0},{"name":"Sephora","code":null,"latitude":38.2502631,"longitude":-85.6247211,"address":"5000 Shelbyville Road, Louisville KY","chain_name":null,"distance":0},{"name":"Sephora","code":null,"latitude":41.1861501,"longitude":-111.9861201,"address":"4185 Riverdale Road, Riverdale UT","chain_name":null,"distance":0},{"name":"Sephora","code":null,"latitude":42.2311445,"longitude":-71.1775888,"address":"512 Legacy Place, Dedham MA","chain_name":null,"distance":0},{"name":"Sephora","code":null,"latitude":32.551529,"longitude":-110.8580935,"address":"4500 N. Oracle Road, Box 295, Tucson AZ","chain_name":null,"distance":0},{"name":"Sephora","code":null,"latitude":41.821694,"longitude":-72.88094,"address":"110 Albany Turnpike, Suite #607, Canton CT","chain_name":null,"distance":0},{"name":"Sephora","code":null,"latitude":42.6276631,"longitude":-82.9480371,"address":"17410 Hall Road, Suite #167, Clinton Township MI","chain_name":null,"distance":0},{"name":"Sephora","code":null,"latitude":39.2574703,"longitude":-94.6630401,"address":"8758 NW Prairie View Road, Kansas City MO","chain_name":null,"distance":0},{"name":"Sephora","code":null,"latitude":42.2223796,"longitude":-85.5894046,"address":"6580 S Westnedge Ave, Portage MI","chain_name":null,"distance":0},{"name":"Sephora","code":null,"latitude":21.1966838,"longitude":-86.8422284,"address":"C.C. Geant, BYDGOSZCZ ","chain_name":null,"distance":0},{"name":"Sephora","code":null,"latitude":39.2909797,"longitude":-84.3035778,"address":"9365 Fields Ertel Road, Cincinnati OH","chain_name":null,"distance":0},{"name":"Sephora","code":null,"latitude":40.145059,"longitude":-82.981907,"address":"1500 Polaris Parkway, Columbus OH","chain_name":null,"distance":0},{"name":"Sephora","code":null,"latitude":33.8895548,"longitude":-84.7484638,"address":"5043 Jimmy Lee Smith Pkwy, Hiram GA","chain_name":null,"distance":0},{"name":"Sephora","code":null,"latitude":38.3359317,"longitude":-85.4110731,"address":"4803 Outer Loop Road, Louisville KY","chain_name":null,"distance":0},{"name":"Sephora","code":null,"latitude":38.651655,"longitude":-90.565647,"address":"2008 Chesterfield Mall, Chesterfield MO","chain_name":null,"distance":0},{"name":"Sephora","code":null,"latitude":34.110098,"longitude":-117.535064,"address":"12399 South Mainstreet, Rancho Cucamonga CA","chain_name":null,"distance":0},{"name":"Sephora","code":null,"latitude":43.605914,"longitude":-116.278263,"address":"350 North Milwaukee, Suite #1031, Boise ID","chain_name":null,"distance":0},{"name":"Sephora","code":null,"latitude":30.3642215,"longitude":-95.4851056,"address":"3165 Interstate 45 North, Conroe TX","chain_name":null,"distance":0},{"name":"Sephora","code":null,"latitude":46.858269,"longitude":-96.848683,"address":"3902 13th Ave SW, Fargo ND","chain_name":null,"distance":0},{"name":"Sephora","code":null,"latitude":39.2628856,"longitude":-94.6578852,"address":"9100 North West Skyview Avenue, Kansas City MO","chain_name":null,"distance":0},{"name":"Sephora","code":null,"latitude":40.4167249,"longitude":-77.0519212,"address":"C.C. Carrefour, WARSZAWA ","chain_name":null,"distance":0},{"name":"Sephora","code":null,"latitude":39.2526871,"longitude":-84.6003475,"address":"3675 Stone Creek Boulevard, Colerain OH","chain_name":null,"distance":0},{"name":"Sephora","code":null,"latitude":25.9570616,"longitude":-80.1466936,"address":"19525 Biscayne Boulevard, Aventura FL","chain_name":null,"distance":0},{"name":"Sephora","code":null,"latitude":37.1625355,"longitude":-93.2627656,"address":"2825 S. Glenstone Avenue, Suite 200, Springfield MO","chain_name":null,"distance":0},{"name":"Sephora","code":null,"latitude":29.687101,"longitude":-95.461982,"address":"730 Meyerland Plaza Mall, Houston TX","chain_name":null,"distance":0},{"name":"Sephora","code":null,"latitude":26.648259,"longitude":-80.207531,"address":"10308 West Forest Hill Boulevard, Wellington FL","chain_name":null,"distance":0},{"name":"Sephora","code":null,"latitude":35.0722832,"longitude":-78.9607357,"address":"300 Cross Creek Mall, Fayetteville NC","chain_name":null,"distance":0},{"name":"Sephora","code":null,"latitude":35.5225316,"longitude":-97.5432209,"address":"1901 N.W. Expressway, Oklahoma City OK","chain_name":null,"distance":0},{"name":"Sephora","code":null,"latitude":37.9888573,"longitude":-84.5273924,"address":"3401 Nicholasville Road Suite #C326, Lexington KY","chain_name":null,"distance":0},{"name":"Sephora","code":null,"latitude":39.0250017,"longitude":-77.148335,"address":"7101 Democracy Blvd. #2042, Bethesda MD","chain_name":null,"distance":0},{"name":"Sephora","code":null,"latitude":41.9457768,"longitude":-71.3472977,"address":"1019 S Washington St, North Attleboro MA","chain_name":null,"distance":0},{"name":"Sephora","code":null,"latitude":34.1870782,"longitude":-118.887376,"address":"338 W. Hillcrest Drive, Thousand Oaks CA","chain_name":null,"distance":0},{"name":"Sephora","code":null,"latitude":32.679345,"longitude":-97.129586,"address":"3811 South Cooper St Space #110, Arlington TX","chain_name":null,"distance":0},{"name":"Sephora","code":null,"latitude":35.353111,"longitude":-80.85503,"address":"6801 Northlake Mall Drive, Charlotte NC","chain_name":null,"distance":0},{"name":"Sephora","code":null,"latitude":33.42471,"longitude":-84.186708,"address":"1380 Highway 20 West, Mcdonough GA","chain_name":null,"distance":0},{"name":"Sephora","code":null,"latitude":40.4153497,"longitude":-77.2624403,"address":"C.C. Carrefour, WROCLAW ","chain_name":null,"distance":0},{"name":"Sephora","code":null,"latitude":42.2185249,"longitude":-71.0255459,"address":"250 Granite St., Space #1230, Braintree MA","chain_name":null,"distance":0},{"name":"Sephora","code":null,"latitude":40.8101086,"longitude":-81.3717584,"address":"C.C. Geant, KRAKOW ","chain_name":null,"distance":0},{"name":"Sephora","code":null,"latitude":26.1580586,"longitude":-97.9515372,"address":"715 E Expressway 83, Weslaco TX","chain_name":null,"distance":0},{"name":"Sephora","code":null,"latitude":26.0043528,"longitude":-80.3369362,"address":"516 SW 145th Terrace, Pembroke Pines FL","chain_name":null,"distance":0},{"name":"Sephora","code":null,"latitude":34.3398069,"longitude":-94.5627086,"address":"C.C. Lorenca Tiendra, FUENLABRADA ","chain_name":null,"distance":0},{"name":"Sephora","code":null,"latitude":34.5029437,"longitude":-120.0896313,"address":"C.C. Rosny II Niveau Bas, ROSNY\/BOIS ","chain_name":null,"distance":0},{"name":"Sephora","code":null,"latitude":33.3779404,"longitude":-86.810828,"address":"2000 Riverchase Galleria, Hoover AL","chain_name":null,"distance":0},{"name":"Sephora","code":null,"latitude":38.953684,"longitude":-94.722303,"address":"11801 W. 95th Street, Overland Park KS","chain_name":null,"distance":0},{"name":"Sephora","code":null,"latitude":33.0986411,"longitude":-96.8110811,"address":"2601 Preston Road, Frisco TX","chain_name":null,"distance":0},{"name":"Sephora","code":null,"latitude":41.883365,"longitude":-87.628176,"address":"108 North State Street, Unit# 134, Chicago IL","chain_name":null,"distance":0},{"name":"Sephora","code":null,"latitude":38.090935,"longitude":-122.5562799,"address":"208 Vintage Way K-3, Novato CA","chain_name":null,"distance":0},{"name":"Sephora","code":null,"latitude":38.9564137,"longitude":-94.7176265,"address":"11731 West 95th Street, Overland Park KS","chain_name":null,"distance":0},{"name":"Sephora","code":null,"latitude":40.757337,"longitude":-73.977671,"address":"597 5th Avenue, New York NY","chain_name":null,"distance":0},{"name":"Sephora","code":null,"latitude":49.2270915,"longitude":-122.9956014,"address":"216-4820 Kingsway, BC","chain_name":null,"distance":0},{"name":"Sephora","code":null,"latitude":44.068641,"longitude":-123.106814,"address":"300 Valley River Center, Eugene OR","chain_name":null,"distance":0},{"name":"Sephora","code":null,"latitude":39.991978,"longitude":-85.9299111,"address":"13900 Hoard Drive, Noblesville IN","chain_name":null,"distance":0},{"name":"Sephora","code":null,"latitude":39.829273,"longitude":-75.0979739,"address":"1750 Deptford Center Road, Deptford NJ","chain_name":null,"distance":0},{"name":"Sephora","code":null,"latitude":32.4898275,"longitude":-81.0181733,"address":"C.C. Geant, KATOWICE ","chain_name":null,"distance":0},{"name":"Sephora","code":null,"latitude":35.2809337,"longitude":-120.6613639,"address":"1090 Court Street, Suite 205, San Luis Obispo CA","chain_name":null,"distance":0},{"name":"Sephora","code":null,"latitude":32.9434339,"longitude":-97.1306239,"address":"312 Grand Avenue West, Southlake TX","chain_name":null,"distance":0},{"name":"Sephora","code":null,"latitude":39.7854043,"longitude":-104.8906287,"address":"8568 East 49th Avenue, Denver CO","chain_name":null,"distance":0},{"name":"Sephora","code":null,"latitude":40.795012,"longitude":-73.675011,"address":"1950 Northern Boulevard, Manhasset NY","chain_name":null,"distance":0},{"name":"Sephora","code":null,"latitude":37.729133,"longitude":-122.476728,"address":"3251 20th Ave. Space #262, San Francisco CA","chain_name":null,"distance":0},{"name":"Sephora","code":null,"latitude":33.9373148,"longitude":-118.1230766,"address":"100 Stonewood Ct, Downey CA","chain_name":null,"distance":0},{"name":"Sephora","code":null,"latitude":33.0635369,"longitude":-97.081359,"address":"5751 Long Prairie Road, Flower Mound TX","chain_name":null,"distance":0},{"name":"Sephora","code":null,"latitude":42.687711,"longitude":-73.849772,"address":"120 Washington Ave Ext Ste 40, Albany NY","chain_name":null,"distance":0},{"name":"Sephora","code":null,"latitude":41.5625698,"longitude":-90.5754197,"address":"320 W Kimberly Rd Ste 409, Davenport IA","chain_name":null,"distance":0},{"name":"Sephora","code":null,"latitude":26.5455556,"longitude":-80.0926944,"address":"801 N Congress Ave, Boyton Beach FL","chain_name":null,"distance":0},{"name":"Sephora","code":null,"latitude":43.5939799,"longitude":-116.5131707,"address":"1200 North Happy Valley Road, Nampa ID","chain_name":null,"distance":0},{"name":"Sephora","code":null,"latitude":40.8904301,"longitude":-74.2606361,"address":"1760 Willowbrook Mall, Wayne NJ","chain_name":null,"distance":0},{"name":"Sephora","code":null,"latitude":38.8648267,"longitude":-77.0597682,"address":"1100 S. Hayes Street, Suite G6-G8, Arlington VA","chain_name":null,"distance":0},{"name":"Sephora","code":null,"latitude":41.3333897,"longitude":-80.4437781,"address":"Via Sestri, 145 rosso, SESTRI PONENTE ","chain_name":null,"distance":0},{"name":"Sephora","code":null,"latitude":38.88366,"longitude":-104.718334,"address":"3650 New Center Point, Colorado Springs CO","chain_name":null,"distance":0},{"name":"Sephora","code":null,"latitude":40.862992,"longitude":-73.1296501,"address":"510 Smith Haven Mall, Lake Grove NY","chain_name":null,"distance":0},{"name":"Sephora","code":null,"latitude":39.389099,"longitude":-84.499729,"address":"3459 Princeton Rd, Hamilton OH","chain_name":null,"distance":0},{"name":"Sephora","code":null,"latitude":37.5600039,"longitude":-77.5722666,"address":"1420 Parham Road, Suite S-129, Richmond VA","chain_name":null,"distance":0},{"name":"Sephora","code":null,"latitude":40.554487,"longitude":-74.3010231,"address":"428 Woodbridge Ctr Dr, Woodbridge NJ","chain_name":null,"distance":0},{"name":"Sephora","code":null,"latitude":39.3767643,"longitude":-76.2884592,"address":"C.C. Daverio V.le dell'Industria, 136, DAVERIO ","chain_name":null,"distance":0},{"name":"Sephora","code":null,"latitude":33.465479,"longitude":-82.0806,"address":"3450 Wrightsboro Road Suite #2520, Augusta GA","chain_name":null,"distance":0},{"name":"Sephora","code":null,"latitude":32.7687798,"longitude":-117.1675776,"address":"7007 Friars Road, Suite 314, San Diego CA","chain_name":null,"distance":0},{"name":"Sephora","code":null,"latitude":42.789173,"longitude":-78.8101499,"address":"6 McKinley Mall, Blasdell NY","chain_name":null,"distance":0},{"name":"Sephora","code":null,"latitude":47.6633044,"longitude":-122.2991259,"address":"2618 NE University Village Street, Seattle WA","chain_name":null,"distance":0},{"name":"Sephora","code":null,"latitude":38.128326,"longitude":-81.268732,"address":"CC G\ufffdant Chateaufarine, BESANCON cedex 5 ","chain_name":null,"distance":0},{"name":"Sephora","code":null,"latitude":41.7986811,"longitude":-88.3628503,"address":"1600 Orchard Gateway Boulevard, North Aurora IL","chain_name":null,"distance":0},{"name":"Sephora","code":null,"latitude":32.3017193,"longitude":-95.3007613,"address":"4401 S Broadway, Tyler TX","chain_name":null,"distance":0},{"name":"Sephora","code":null,"latitude":43.6536318,"longitude":-79.3801415,"address":"220 Yonge Street, Toronto ON","chain_name":null,"distance":0},{"name":"Sephora","code":null,"latitude":39.892517,"longitude":-105.1142011,"address":"One West Flat Iron Circle, Broomfield CO","chain_name":null,"distance":0},{"name":"Sephora","code":null,"latitude":53.5241571,"longitude":-113.6155149,"address":"8882 170th Street, AB","chain_name":null,"distance":0},{"name":"Sephora","code":null,"latitude":41.697339,"longitude":-83.641339,"address":"5001 Monroe Street, Toledo OH","chain_name":null,"distance":0},{"name":"Sephora","code":null,"latitude":38.9601704,"longitude":-77.086556,"address":"5330-E Western Avenue, Chevy Chase MD","chain_name":null,"distance":0},{"name":"Sephora","code":null,"latitude":47.829906,"longitude":-122.2725703,"address":"3000 184th Street SW, Lynnwood WA","chain_name":null,"distance":0},{"name":"Sephora","code":null,"latitude":53.5241571,"longitude":-113.6155149,"address":"8882 170th Street, West Edmonton AB","chain_name":null,"distance":0},{"name":"Sephora","code":null,"latitude":27.8439266,"longitude":-97.5999647,"address":"23 Parnithas str.","chain_name":null,"distance":0},{"name":"Sephora","code":null,"latitude":39.9134888,"longitude":-86.1100245,"address":"8702 Keystone Crossing, Indianapolis IN","chain_name":null,"distance":0},{"name":"Sephora","code":null,"latitude":28.443489,"longitude":-81.399096,"address":"8001 S Orange Blossom Ste700, Orlando FL","chain_name":null,"distance":0},{"name":"Sephora","code":null,"latitude":33.9892471,"longitude":-118.3926138,"address":"6000 S Hannum Ave, Culver City CA","chain_name":null,"distance":0},{"name":"Sephora","code":null,"latitude":41.828309,"longitude":-71.4209853,"address":"168 Providence Place, Providence RI","chain_name":null,"distance":0},{"name":"Sephora","code":null,"latitude":40.635922,"longitude":-111.884251,"address":"6191 S. State Street, Unit #212, Murray UT","chain_name":null,"distance":0},{"name":"Sephora","code":null,"latitude":39.152004,"longitude":-77.202421,"address":"701 Russell Ave, Gaithersburg MD","chain_name":null,"distance":0},{"name":"Sephora","code":null,"latitude":35.3650077,"longitude":-94.3763675,"address":"5111 Rogers Avenue, Fort Smith AR","chain_name":null,"distance":0},{"name":"Sephora","code":null,"latitude":33.5270021,"longitude":-117.1569032,"address":"40772 Winchester Road #770, Temecula CA","chain_name":null,"distance":0},{"name":"Sephora","code":null,"latitude":42.0614599,"longitude":-87.7473442,"address":"24 Old Orchard Center, Skokie IL","chain_name":null,"distance":0},{"name":"Sephora","code":null,"latitude":33.7727147,"longitude":-117.229534,"address":"2077 Galleria at Tyler, Riverside CA","chain_name":null,"distance":0},{"name":"Sephora","code":null,"latitude":42.3485422,"longitude":-71.0825835,"address":"800 Boylston Street, Boston MA","chain_name":null,"distance":0},{"name":"Sephora","code":null,"latitude":33.098633,"longitude":-96.809012,"address":"2607 Preston Road, Frisco TX","chain_name":null,"distance":0},{"name":"Sephora","code":null,"latitude":40.7684809,"longitude":-73.9826421,"address":"10 Columbus Circle, New York NY","chain_name":null,"distance":0},{"name":"Sephora","code":null,"latitude":25.970525,"longitude":-97.512694,"address":"2370 N Expwy Ste 2000, Brownsville TX","chain_name":null,"distance":0},{"name":"JC Penny Sephora","code":null,"latitude":33.45533,"longitude":-94.07993,"address":"2400 Richmond Road, Texarkana TX","chain_name":null,"distance":0},{"name":"Sephora","code":null,"latitude":38.7971547,"longitude":-90.6205999,"address":"4 Mid Rivers Mall, St Peters MO","chain_name":null,"distance":0},{"name":"Sephora","code":null,"latitude":49.2826132,"longitude":-123.1184082,"address":"701 W Georgia Street, Vancouver BC","chain_name":null,"distance":0},{"name":"Sephora","code":null,"latitude":40.068086,"longitude":-76.3353159,"address":"319 Park City Center, Lancaster PA","chain_name":null,"distance":0},{"name":"Sephora","code":null,"latitude":40.451253,"longitude":-79.932661,"address":"5526 Walnut St., Pittsburgh PA","chain_name":null,"distance":0},{"name":"Sephora","code":null,"latitude":33.852585,"longitude":-118.140517,"address":"67 Lakewood Center Mall, Lakewood CA","chain_name":null,"distance":0},{"name":"Sephora","code":null,"latitude":39.2171473,"longitude":-76.8635809,"address":"10300 Little Patuxent Pkwy, Columbia MD","chain_name":null,"distance":0},{"name":"Sephora","code":null,"latitude":34.0759446,"longitude":-118.3766084,"address":"8500 Beverly Boulevard, Los Angeles CA","chain_name":null,"distance":0},{"name":"Sephora","code":null,"latitude":38.3546371,"longitude":-81.6368139,"address":"401 Lee St, Charleston WV","chain_name":null,"distance":0},{"name":"Sephora","code":null,"latitude":37.9624736,"longitude":-121.7370614,"address":"4951 Slatten Ranch Road, Antioch CA","chain_name":null,"distance":0},{"name":"Sephora","code":null,"latitude":38.962624,"longitude":-92.375902,"address":"2301 West Worley, Columbia MO","chain_name":null,"distance":0},{"name":"Sephora","code":null,"latitude":41.6305694,"longitude":-87.8255007,"address":"730 Square Drive, Orland Park IL","chain_name":null,"distance":0},{"name":"Sephora","code":null,"latitude":40.586458,"longitude":-74.618213,"address":"400 Commons Way, Bridgewater NJ","chain_name":null,"distance":0},{"name":"Sephora","code":null,"latitude":40.3011047,"longitude":-78.8335597,"address":"560 Galleria Dr, Johnstown PA","chain_name":null,"distance":0},{"name":"Sephora","code":null,"latitude":38.9342509,"longitude":-94.4030823,"address":"990 NW Blue Pkwy, Lee's Summit MO","chain_name":null,"distance":0},{"name":"Sephora","code":null,"latitude":43.6342134,"longitude":-70.3367879,"address":"364 Maine Mall Rd, Space W115, South Portland ME","chain_name":null,"distance":0},{"name":"Sephora","code":null,"latitude":41.454528,"longitude":-74.370071,"address":"One N Galleria Dr, Middletown NY","chain_name":null,"distance":0},{"name":"Sephora","code":null,"latitude":34.186273,"longitude":-118.888426,"address":"280 Hillcrest Dr, Thousand Oaks CA","chain_name":null,"distance":0},{"name":"Sephora","code":null,"latitude":42.481244,"longitude":-71.216834,"address":"75 Middlesex Turnpike #1061, Burlington MA","chain_name":null,"distance":0},{"name":"Sephora","code":null,"latitude":26.709295,"longitude":-80.056785,"address":"550 South Rosemary Avenue, West Palm Beach FL","chain_name":null,"distance":0},{"name":"Sephora","code":null,"latitude":32.8289776,"longitude":-97.1972562,"address":"1105 Melbourne Dr, Hurst TX","chain_name":null,"distance":0},{"name":"Sephora","code":null,"latitude":35.1093816,"longitude":-106.5719403,"address":"6600 Menaul Blvd NE Ste 3439, Alburuerque NM","chain_name":null,"distance":0},{"name":"Sephora","code":null,"latitude":43.0186864,"longitude":-83.6282693,"address":"4190 E Court Street Ste 500, Burton MI","chain_name":null,"distance":0},{"name":"Sephora","code":null,"latitude":38.601358,"longitude":-90.446492,"address":"37 West County Center, Des Peres MO","chain_name":null,"distance":0},{"name":"Sephora","code":null,"latitude":38.6371877,"longitude":-90.3486385,"address":"2407 St. Louis Galleria, St. Louis MO","chain_name":null,"distance":0},{"name":"Sephora","code":null,"latitude":40.3248905,"longitude":-112.1907122,"address":"C.C. MISTRAL 7, AVIGNON Cedex ","chain_name":null,"distance":0},{"name":"Sephora","code":null,"latitude":40.7819455,"longitude":-73.980862,"address":"2164 Broadway, New York NY","chain_name":null,"distance":0},{"name":"Sephora","code":null,"latitude":48.4410391,"longitude":-123.3684889,"address":"Douglas St., Victoria BC","chain_name":null,"distance":0},{"name":"Sephora","code":null,"latitude":25.6887079,"longitude":-80.3149474,"address":"7407 North Kendall Drive, Suite #2105, Miami FL","chain_name":null,"distance":0},{"name":"Sephora","code":null,"latitude":39.0247541,"longitude":-84.5793311,"address":"2854 Town Center Blvd., Crestview Hills KY","chain_name":null,"distance":0},{"name":"Sephora","code":null,"latitude":40.864304,"longitude":-73.8270919,"address":"100 Baychester Ave, Bronx NY","chain_name":null,"distance":0},{"name":"Sephora","code":null,"latitude":38.4847313,"longitude":-82.6517697,"address":"500 Winchester Ave, Ashland KY","chain_name":null,"distance":0},{"name":"Sephora","code":null,"latitude":29.8106004,"longitude":-95.1634397,"address":"5858 E Sam Houston Pkwy N, Houston TX","chain_name":null,"distance":0},{"name":"Sephora","code":null,"latitude":34.268503,"longitude":-119.248689,"address":"3301-1242 E. Main Street, Ventura CA","chain_name":null,"distance":0},{"name":"Sephora","code":null,"latitude":43.4754545,"longitude":-83.9754554,"address":"4600 Bay Rd, SAGINAW MI","chain_name":null,"distance":0},{"name":"Sephora","code":null,"latitude":40.7280345,"longitude":-74.0383309,"address":"30 Mall Drive West, Jersey City NJ","chain_name":null,"distance":0},{"name":"Sephora","code":null,"latitude":35.924231,"longitude":-84.037285,"address":"7600 Kingston Pike, Space 1094A, Knoxville TN","chain_name":null,"distance":0},{"name":"Sephora","code":null,"latitude":40.1835399,"longitude":-74.8809366,"address":"2300 E Lincoln Hwy, LANGHORNE PA","chain_name":null,"distance":0},{"name":"Sephora","code":null,"latitude":33.805441,"longitude":-117.9238994,"address":"1570 S. Disneyland Drive, Anaheim CA","chain_name":null,"distance":0},{"name":"Sephora","code":null,"latitude":26.010504,"longitude":-80.30081,"address":"11401 Pines Blvd, Pembroke Pines FL","chain_name":null,"distance":0},{"name":"Sephora","code":null,"latitude":44.9424962,"longitude":-123.0377977,"address":"305 Liberty St NE, SALEM OR","chain_name":null,"distance":0},{"name":"Sephora","code":null,"latitude":29.5180291,"longitude":-98.4989232,"address":"7400 San Pedro Avenue, San Antonio TX","chain_name":null,"distance":0},{"name":"Sephora","code":null,"latitude":27.7938115,"longitude":-82.7303522,"address":"7000 Tyrone Sq, St Petersburg FL","chain_name":null,"distance":0},{"name":"Sephora","code":null,"latitude":42.367101,"longitude":-71.076376,"address":"100 CambridgeSide Place Space E114, Cambridge MA","chain_name":null,"distance":0},{"name":"Sephora","code":null,"latitude":41.4607291,"longitude":-75.6568587,"address":"80 Viewmont Mall, Scranton PA","chain_name":null,"distance":0},{"name":"Sephora","code":null,"latitude":37.696665,"longitude":-121.930401,"address":"1500 Stoneridge Mall Road, Pleasanton CA","chain_name":null,"distance":0},{"name":"Sephora","code":null,"latitude":25.869064,"longitude":-80.317662,"address":"1655 W 49th St Ste 1200, Hialeah FL","chain_name":null,"distance":0},{"name":"Sephora","code":null,"latitude":36.311158,"longitude":-119.316794,"address":"2115 S Mooney Blvd, Visalia CA","chain_name":null,"distance":0},{"name":"Sephora","code":null,"latitude":41.580418,"longitude":-83.4930403,"address":"C.C. Sadyba Best Mall, WARSZAWA ","chain_name":null,"distance":0},{"name":"Sephora","code":null,"latitude":31.765987,"longitude":-106.266613,"address":"1950 Joe Battle Boulevard, El Paso TX","chain_name":null,"distance":0},{"name":"Sephora","code":null,"latitude":35.612151,"longitude":-97.561189,"address":"2501 W Memorial Rd, OKLAHOMA CITY OK","chain_name":null,"distance":0},{"name":"Sephora","code":null,"latitude":40.5257237,"longitude":-105.025574,"address":"2720 Council Tree Ave. Suite #124, Fort Collins CO","chain_name":null,"distance":0},{"name":"Sephora","code":null,"latitude":42.1673951,"longitude":-88.3352856,"address":"800 South Randall Road, Algonquin IL","chain_name":null,"distance":0},{"name":"Sephora","code":null,"latitude":40.734953,"longitude":-73.867754,"address":"92-59 59th Avenue, Elmhurst NY","chain_name":null,"distance":0},{"name":"Sephora","code":null,"latitude":26.848806,"longitude":-80.086026,"address":"3101 PGA Blvd., #229, Palm Beach Gardens FL","chain_name":null,"distance":0},{"name":"Sephora","code":null,"latitude":34.5018401,"longitude":-82.6326879,"address":"C.C. Carrefour, WARSZAWA ","chain_name":null,"distance":0},{"name":"Sephora","code":null,"latitude":40.4153497,"longitude":-77.2624403,"address":"C.C. Korona, WROCLAW ","chain_name":null,"distance":0},{"name":"Sephora","code":null,"latitude":40.5220483,"longitude":-74.3611438,"address":"488 Menlo Park Drive, Edison NJ","chain_name":null,"distance":0},{"name":"Sephora","code":null,"latitude":41.2500114,"longitude":-75.8425811,"address":"34 Wyoming Valley Mall, Wilkes-Barre PA","chain_name":null,"distance":0},{"name":"Sephora","code":null,"latitude":32.4369585,"longitude":-93.7146883,"address":"7451 Youree Drive, Shreveport LA","chain_name":null,"distance":0},{"name":"Sephora","code":null,"latitude":28.4597356,"longitude":-82.6273392,"address":"US 19 & Spring Hill Drive, Spring Hill FL","chain_name":null,"distance":0},{"name":"Sephora","code":null,"latitude":34.0720279,"longitude":-117.934644,"address":"1203 Plaza Dr, West Covina CA","chain_name":null,"distance":0},{"name":"Sephora","code":null,"latitude":47.659529,"longitude":-122.690639,"address":"10315 Silverdale Way NW, Silverdale WA","chain_name":null,"distance":0},{"name":"Sephora","code":null,"latitude":49.8812934,"longitude":-97.199564,"address":"1485 Portage Ave, Winnepeg MB","chain_name":null,"distance":0},{"name":"Sephora","code":null,"latitude":39.3749563,"longitude":-76.4691568,"address":"8200 Perry Hall Blvd, Baltimore MD","chain_name":null,"distance":0},{"name":"Sephora","code":null,"latitude":34.416061,"longitude":-118.557666,"address":"24201 West Valencia Blvd Suite #3628, Valencia CA","chain_name":null,"distance":0},{"name":"Sephora","code":null,"latitude":40.3032543,"longitude":-79.5076667,"address":"5256 Route 30, GREENSBURG PA","chain_name":null,"distance":0},{"name":"Sephora","code":null,"latitude":43.7574096,"longitude":-79.273304,"address":"Scarborough Town Center, Scarborough ON","chain_name":null,"distance":0},{"name":"Sephora","code":null,"latitude":36.0704887,"longitude":-79.5086673,"address":"921 Boston Drive, Burlington NC","chain_name":null,"distance":0},{"name":"Sephora","code":null,"latitude":26.239463,"longitude":-80.2503077,"address":"9303 W Atlantic Blvd, Coral Springs FL","chain_name":null,"distance":0},{"name":"Sephora","code":null,"latitude":33.6098496,"longitude":-117.707108,"address":"24200 Laguna Hills Mall, Laguna Hills CA","chain_name":null,"distance":0},{"name":"Sephora","code":null,"latitude":34.0511112,"longitude":-84.2940923,"address":"1000 North Point Circle, Alpharetta GA","chain_name":null,"distance":0},{"name":"Sephora","code":null,"latitude":39.0421266,"longitude":-85.3756249,"address":"C.so Mazzini, 70\/72, CESENA (FO) ","chain_name":null,"distance":0},{"name":"Sephora","code":null,"latitude":37.2505703,"longitude":-121.8612615,"address":"925 Blossom Hill Road Suite #1198, San Jose CA","chain_name":null,"distance":0},{"name":"Sephora","code":null,"latitude":32.740599,"longitude":-97.438772,"address":"1900 Green Oaks Rd, FORT WORTH TX","chain_name":null,"distance":0},{"name":"Sephora","code":null,"latitude":32.6590876,"longitude":-117.0675178,"address":"3040 Plaza Bonita Rd, National City CA","chain_name":null,"distance":0},{"name":"Sephora","code":null,"latitude":47.6151219,"longitude":-122.2030635,"address":"141 Bellevue Square, Bellevue WA","chain_name":null,"distance":0},{"name":"Sephora","code":null,"latitude":37.045958,"longitude":-76.391816,"address":"2071 Coliseum Drive, Hampton VA","chain_name":null,"distance":0},{"name":"Sephora","code":null,"latitude":43.030687,"longitude":-77.446993,"address":"600 Eastview Mall, Victor NY","chain_name":null,"distance":0},{"name":"Sephora","code":null,"latitude":40.7938975,"longitude":-73.9669634,"address":"808 Columbus Ave, New York NY","chain_name":null,"distance":0},{"name":"Sephora","code":null,"latitude":32.869802,"longitude":-117.212298,"address":"4545 La Jolla Village Dr., Suite C16, San Diego CA","chain_name":null,"distance":0},{"name":"Sephora","code":null,"latitude":42.7112049,"longitude":-73.8161888,"address":"131 Colonie Center, Space 130, Albany NY","chain_name":null,"distance":0},{"name":"Sephora","code":null,"latitude":29.473318,"longitude":-95.09344,"address":"2520 Gulf Freeway South, League City TX","chain_name":null,"distance":0},{"name":"Sephora","code":null,"latitude":32.929958,"longitude":-96.8195915,"address":"13350 N. Dallas Parkway, Suite 1250, Dallas TX","chain_name":null,"distance":0},{"name":"Sephora","code":null,"latitude":40.9230346,"longitude":-74.1102411,"address":"Garden State Plaza, Routes 4 & 17, Paramus NJ","chain_name":null,"distance":0},{"name":"Sephora","code":null,"latitude":41.8917667,"longitude":-87.624208,"address":"520 N. Michigan Ave., Suite 129, Chicago IL","chain_name":null,"distance":0},{"name":"Sephora","code":null,"latitude":29.963012,"longitude":-95.540166,"address":"7925 FM 1960 Road West, Houston TX","chain_name":null,"distance":0},{"name":"Sephora","code":null,"latitude":33.4298634,"longitude":-111.9043229,"address":"1900 East Rio Salado Parkway Ste 140, Tempe AZ","chain_name":null,"distance":0},{"name":"Sephora","code":null,"latitude":39.6329459,"longitude":-86.120429,"address":"1251 US 31 North, Greenwood IN","chain_name":null,"distance":0},{"name":"Sephora","code":null,"latitude":32.4813485,"longitude":-80.9911788,"address":"Ul. Marszalkowska 116\/122, WARSZAWA ","chain_name":null,"distance":0},{"name":"Sephora","code":null,"latitude":34.1904651,"longitude":-118.604941,"address":"6600 Topanga Canyon Boulevard, Canoga Park CA","chain_name":null,"distance":0},{"name":"Sephora","code":null,"latitude":38.773585,"longitude":-121.26758,"address":"1125 Galleria Boulevard, Roseville CA","chain_name":null,"distance":0},{"name":"Sephora","code":null,"latitude":38.5946099,"longitude":-89.9825346,"address":"245 St. Clair Square, Fairview Heights IL","chain_name":null,"distance":0},{"name":"Sephora","code":null,"latitude":42.949483,"longitude":-74.182065,"address":"3 Elias str.","chain_name":null,"distance":0},{"name":"Sephora","code":null,"latitude":40.2962222,"longitude":-74.0509725,"address":"St Hwy 35 and 36, Eatontown NJ","chain_name":null,"distance":0},{"name":"Sephora","code":null,"latitude":45.4522788,"longitude":-122.7829941,"address":"9329 SW Washington Square Road, Portland OR","chain_name":null,"distance":0},{"name":"Sephora","code":null,"latitude":36.806693,"longitude":-119.777843,"address":"555 E Shaw Ave, Fresno CA","chain_name":null,"distance":0},{"name":"Sephora","code":null,"latitude":40.75571,"longitude":-73.986354,"address":"200 W 42nd Street, New York NY","chain_name":null,"distance":0},{"name":"Sephora","code":null,"latitude":39.7769059,"longitude":-94.8031428,"address":"3702 Frederick Avenue, Suite 7, St. Joseph MO","chain_name":null,"distance":0},{"name":"Sephora","code":null,"latitude":42.339021,"longitude":-122.3625892,"address":"C.C. Auchan, TARNOWO PODGORNE ","chain_name":null,"distance":0},{"name":"Sephora","code":null,"latitude":43.5140881,"longitude":-96.7749055,"address":"3200 W Empire Mall, Sioux Falls SD","chain_name":null,"distance":0},{"name":"Sephora","code":null,"latitude":38.918768,"longitude":-77.221188,"address":"7975 Tysons Corner Center, McLean VA","chain_name":null,"distance":0},{"name":"Sephora","code":null,"latitude":30.3933303,"longitude":-91.0878826,"address":"6201 Bluebobonnet Blvd, Baton Rouge LA","chain_name":null,"distance":0},{"name":"Sephora","code":null,"latitude":32.6231317,"longitude":-116.9675537,"address":"2015 Birch Road, Chula Vista CA","chain_name":null,"distance":0},{"name":"Sephora","code":null,"latitude":35.9058482,"longitude":-78.937783,"address":"6910 Fayetteville Road, Durham NC","chain_name":null,"distance":0},{"name":"Sephora","code":null,"latitude":41.260053,"longitude":-96.1819,"address":"17101 Davenport Street Suite #103, Omaha NE","chain_name":null,"distance":0},{"name":"Sephora","code":null,"latitude":34.017422,"longitude":-118.4982672,"address":"1244 Third Street Promenade, Santa Monica CA","chain_name":null,"distance":0},{"name":"Sephora","code":null,"latitude":41.1339391,"longitude":-81.6180811,"address":"3265 W. Market St., Fairlawn OH","chain_name":null,"distance":0},{"name":"Sephora","code":null,"latitude":33.697642,"longitude":-84.093452,"address":"8040 Mall Pkwy, Lithonia GA","chain_name":null,"distance":0},{"name":"Sephora","code":null,"latitude":41.117674,"longitude":-85.136425,"address":"4201 Coldwater Rd, Fort Wayne IN","chain_name":null,"distance":0},{"name":"Sephora","code":null,"latitude":35.841844,"longitude":-78.681851,"address":"4325 Glenwood Avenue, Raleigh NC","chain_name":null,"distance":0},{"name":"Sephora","code":null,"latitude":47.829638,"longitude":-122.276363,"address":"18601 33rd Avenue West, Lynnwood WA","chain_name":null,"distance":0},{"name":"Sephora","code":null,"latitude":36.1112159,"longitude":-115.1728377,"address":"3663 Las Vegas Blvd S. #140, Las Vegas NV","chain_name":null,"distance":0},{"name":"Sephora","code":null,"latitude":40.8896179,"longitude":-81.5968277,"address":"C.C. Carrefour, SZCZECIN ","chain_name":null,"distance":0},{"name":"Sephora","code":null,"latitude":37.797089,"longitude":-122.43549,"address":"2083 Union St. (Marina\/Cow Hollow Districts), San Francisco CA","chain_name":null,"distance":0},{"name":"Sephora","code":null,"latitude":33.9217462,"longitude":-84.3409321,"address":"4400 Ashford Dunwoody Road, Space 2124, Atlanta GA","chain_name":null,"distance":0},{"name":"Sephora","code":null,"latitude":39.2171473,"longitude":-76.8635809,"address":"10300 Little Patuxent Parkway, Columbia MD","chain_name":null,"distance":0},{"name":"Sephora","code":null,"latitude":33.914389,"longitude":-117.884799,"address":"1065 Brea Mall, Brea CA","chain_name":null,"distance":0},{"name":"Sephora","code":null,"latitude":45.0061969,"longitude":-93.1712856,"address":"1700 W County Rd B-2, Roseville MN","chain_name":null,"distance":0},{"name":"Sephora","code":null,"latitude":41.8930275,"longitude":-88.3416619,"address":"406 Commons Drive, Geneva IL","chain_name":null,"distance":0},{"name":"Sephora","code":null,"latitude":38.5046723,"longitude":-90.3289248,"address":"100 S County Center Way, St Louis MO","chain_name":null,"distance":0},{"name":"Sephora","code":null,"latitude":34.566068,"longitude":-114.366398,"address":"5601 North Highway 95, Lake Havasu AZ","chain_name":null,"distance":0},{"name":"Sephora","code":null,"latitude":28.3812595,"longitude":-81.6879954,"address":"2345 HWY 27, Clermont FL","chain_name":null,"distance":0},{"name":"Sephora","code":null,"latitude":42.6684187,"longitude":-82.8295451,"address":"50753 Waterside Drive, Chesterfield Township MI","chain_name":null,"distance":0},{"name":"Sephora","code":null,"latitude":33.8984165,"longitude":-118.3959107,"address":"3200 Sepulveda Boulevard, Manhattan Beach CA","chain_name":null,"distance":0},{"name":"Sephora","code":null,"latitude":36.3399774,"longitude":-82.3747709,"address":"2011 N Roan St, Johnson City TN","chain_name":null,"distance":0},{"name":"Sephora","code":null,"latitude":30.1625309,"longitude":-95.4560288,"address":"1201 Lake Woodlands Dr., Suite 700, The Woodlands TX","chain_name":null,"distance":0},{"name":"Sephora","code":null,"latitude":28.0698803,"longitude":-82.577088,"address":"7965 Citrus Park Town Center, Tampa FL","chain_name":null,"distance":0},{"name":"Sephora","code":null,"latitude":41.6173544,"longitude":-87.8438598,"address":"3 Orland Square Dr., Orland Park IL","chain_name":null,"distance":0},{"name":"Sephora","code":null,"latitude":37.981338,"longitude":-87.495694,"address":"800 N Green River Rd. Space #136,, Evansville IN","chain_name":null,"distance":0},{"name":"Sephora","code":null,"latitude":32.703183,"longitude":-114.604512,"address":"1375 S Yuma Palms Pkwy, Yuma AZ","chain_name":null,"distance":0},{"name":"Sephora","code":null,"latitude":40.9192181,"longitude":-81.1059024,"address":"C.C. Geant, WARSZAWA ","chain_name":null,"distance":0},{"name":"Sephora","code":null,"latitude":34.8499367,"longitude":-82.3335814,"address":"700 Haywood Rd, Greenville SC","chain_name":null,"distance":0},{"name":"Sephora","code":null,"latitude":33.5021458,"longitude":-111.9290563,"address":"7014 East Camelback Road, Scottsdale AZ","chain_name":null,"distance":0},{"name":"Sephora","code":null,"latitude":40.580915,"longitude":-74.16911,"address":"2655 Richmond Ave, Staten Island NY","chain_name":null,"distance":0},{"name":"Sephora","code":null,"latitude":41.380149,"longitude":-73.4755111,"address":"7 Backus Ave, Space D-205, Danbury CT","chain_name":null,"distance":0},{"name":"Sephora","code":null,"latitude":35.706332,"longitude":-81.3046991,"address":"1970 US Hwy 70 SE, Hickory NC","chain_name":null,"distance":0},{"name":"Sephora","code":null,"latitude":32.7621589,"longitude":-111.661401,"address":"1041 North Promenade Parkway, Casa Grande AZ","chain_name":null,"distance":0},{"name":"Sephora","code":null,"latitude":43.6126603,"longitude":-79.5559283,"address":"25 The West Mall, ON","chain_name":null,"distance":0},{"name":"Sephora","code":null,"latitude":31.776365,"longitude":-106.379239,"address":"8401 Gateway W, El Paso TX","chain_name":null,"distance":0},{"name":"Sephora","code":null,"latitude":38.9872609,"longitude":-76.546109,"address":"2002 Annapolis Mall, Space #1803, Annapolis MD","chain_name":null,"distance":0},{"name":"Sephora","code":null,"latitude":40.0739816,"longitude":-83.1318982,"address":"5083 Tuttle Crossing Boulevard, Dublin OH","chain_name":null,"distance":0},{"name":"Sephora","code":null,"latitude":40.7519846,"longitude":-73.9697795,"address":"42nd Street Store, New York NY","chain_name":null,"distance":0},{"name":"Sephora","code":null,"latitude":32.4599229,"longitude":-86.402522,"address":"411 Old Farm Lane South, Prattville AL","chain_name":null,"distance":0},{"name":"Sephora","code":null,"latitude":39.7170887,"longitude":-86.3592801,"address":"2611 E Main Street, Plainfield IN","chain_name":null,"distance":0},{"name":"Sephora","code":null,"latitude":45.566384,"longitude":-73.7525959,"address":"3035 Le Carrefour Blvd., Laval QUE","chain_name":null,"distance":0},{"name":"Sephora","code":null,"latitude":40.7665216,"longitude":-73.9629339,"address":"1149 Third Avenue, New York NY","chain_name":null,"distance":0},{"name":"Sephora","code":null,"latitude":40.4555094,"longitude":-80.1577839,"address":"2000 Robinson Town Center, Pittsburg PA","chain_name":null,"distance":0},{"name":"Sephora","code":null,"latitude":37.683196,"longitude":-97.2488879,"address":"7700 E Kellogg Dr, Wichita KS","chain_name":null,"distance":0},{"name":"Sephora","code":null,"latitude":26.264201,"longitude":-98.1678419,"address":"419 Trenton Road, Edinburg TX","chain_name":null,"distance":0},{"name":"Sephora","code":null,"latitude":32.588136,"longitude":-85.6014311,"address":"C.C. Auchan, POZNAN KOMORNIKI ","chain_name":null,"distance":0},{"name":"Sephora","code":null,"latitude":36.817809,"longitude":-76.0699998,"address":"701 Lynnhaven Parkway Suite #1068, Virginia Beach VA","chain_name":null,"distance":0},{"name":"Sephora","code":null,"latitude":41.7523539,"longitude":-88.0311097,"address":"7400 Woodward Avenue, Woodridge IL","chain_name":null,"distance":0},{"name":"Sephora","code":null,"latitude":28.017171,"longitude":-82.730909,"address":"27001 US Hwy 19 N, Clearwater FL","chain_name":null,"distance":0},{"name":"Sephora","code":null,"latitude":42.3222391,"longitude":-83.4760371,"address":"43690 Ford Road, #2972, Canton MI","chain_name":null,"distance":0},{"name":"Sephora","code":null,"latitude":30.43723,"longitude":-84.255908,"address":"1500 Apalachee Pkwy, Tallahassee FL","chain_name":null,"distance":0},{"name":"Sephora","code":null,"latitude":39.127085,"longitude":-94.83306,"address":"10904 Stadium Parkway, Kansas City KS","chain_name":null,"distance":0},{"name":"Sephora","code":null,"latitude":33.8299386,"longitude":-118.3522318,"address":"21840 S Hawthorne Blvd, Torrance CA","chain_name":null,"distance":0},{"name":"Sephora","code":null,"latitude":42.9339558,"longitude":-81.2234189,"address":"1105 Wellington Road Unit #69, ON","chain_name":null,"distance":0},{"name":"Sephora","code":null,"latitude":36.1228924,"longitude":-115.1708875,"address":"3377 Las Vegas Blvd., Suite 1001, Las Vegas NV","chain_name":null,"distance":0},{"name":"Sephora","code":null,"latitude":39.9056729,"longitude":-86.0666158,"address":"6020 East 82nd Street, Suite 700, Indianapolis IN","chain_name":null,"distance":0},{"name":"Sephora","code":null,"latitude":39.2381654,"longitude":-94.4665799,"address":"8100 North Flintock Road, Kansas City MO","chain_name":null,"distance":0},{"name":"Sephora","code":null,"latitude":40.7368366,"longitude":-73.989632,"address":"45 East 17th Street, New York NY","chain_name":null,"distance":0},{"name":"Sephora","code":null,"latitude":44.969074,"longitude":-93.4328434,"address":"12669 Wayzata Blvd., Minnetonka MN","chain_name":null,"distance":0},{"name":"Sephora","code":null,"latitude":45.614965,"longitude":-122.477817,"address":"19005 SE Mill Plain Boulevard, Vancouver WA","chain_name":null,"distance":0},{"name":"Sephora","code":null,"latitude":34.018145,"longitude":-84.5618963,"address":"400 Barrett Pkwy Suite #236, Kennesaw GA","chain_name":null,"distance":0},{"name":"Sephora","code":null,"latitude":39.678305,"longitude":-75.651871,"address":"118 Christiana Mall, Newark DE","chain_name":null,"distance":0},{"name":"Sephora","code":null,"latitude":43.0317914,"longitude":-77.4413478,"address":"7979 Pittsford-Victor Road, Victor NY","chain_name":null,"distance":0},{"name":"Sephora","code":null,"latitude":37.26,"longitude":-121.88,"address":"Centre Commercial Les Portes de Taverny, TAVERNY Cedex ","chain_name":null,"distance":0},{"name":"Sephora","code":null,"latitude":40.7422742,"longitude":-73.615576,"address":"630 Old Country Road, #1155, Garden City NY","chain_name":null,"distance":0},{"name":"Sephora","code":null,"latitude":34.071335,"longitude":-117.211032,"address":"10000 Alabama St, Redlands CA","chain_name":null,"distance":0},{"name":"Sephora","code":null,"latitude":33.987669,"longitude":-117.7064211,"address":"14659 Ramona Avenue, Chino CA","chain_name":null,"distance":0},{"name":"Sephora","code":null,"latitude":34.238952,"longitude":-118.557074,"address":"9301 Tampa Avenue, Northridge CA","chain_name":null,"distance":0},{"name":"Sephora","code":null,"latitude":40.9181161,"longitude":-74.0763632,"address":"502 Garden State Plaza, Paramus NJ","chain_name":null,"distance":0},{"name":"Sephora","code":null,"latitude":36.71643,"longitude":-121.65748,"address":"100 Northridge Mall, SALINAS CA","chain_name":null,"distance":0},{"name":"Sephora","code":null,"latitude":34.064225,"longitude":-83.984145,"address":"3333 Buford Drive, Buford GA","chain_name":null,"distance":0},{"name":"Sephora","code":null,"latitude":42.491892,"longitude":-83.471371,"address":"27500 Novi Road, Novi MI","chain_name":null,"distance":0},{"name":"Sephora","code":null,"latitude":43.1491764,"longitude":-86.205766,"address":"5690 Harvey St, Muskegon MI","chain_name":null,"distance":0},{"name":"Sephora","code":null,"latitude":41.0297337,"longitude":-73.6263623,"address":"75 Greenwich Avenue, Greenwich CT","chain_name":null,"distance":0},{"name":"Sephora","code":null,"latitude":38.6778229,"longitude":-121.270647,"address":"6100 Sunrise Blvd, Citrus Hts CA","chain_name":null,"distance":0},{"name":"Sephora","code":null,"latitude":42.1602365,"longitude":-88.0537986,"address":"20530 North Rand Road, Deer Park IL","chain_name":null,"distance":0},{"name":"Sephora","code":null,"latitude":31.27689,"longitude":-92.46227,"address":"3541 Masonic Dr, Alexandria LA","chain_name":null,"distance":0},{"name":"Sephora","code":null,"latitude":38.3195845,"longitude":-85.7717907,"address":"757 East Lewis & Clark Parkway, Suite701, Clarksville IN","chain_name":null,"distance":0},{"name":"Sephora","code":null,"latitude":36.292273,"longitude":-95.841436,"address":"12280 E. 96th Street North, Owasso OK","chain_name":null,"distance":0},{"name":"Sephora","code":null,"latitude":45.6587249,"longitude":-122.58026,"address":"8900 NE Vancouver Mall Drive, Vancouver WA","chain_name":null,"distance":0},{"name":"Sephora","code":null,"latitude":38.617856,"longitude":-76.9272079,"address":"11130 Mall Circle, Waldorf MD","chain_name":null,"distance":0},{"name":"Sephora","code":null,"latitude":29.4900615,"longitude":-98.7073453,"address":"5535 West Loop 1604 North, San Antonio TX","chain_name":null,"distance":0},{"name":"Sephora","code":null,"latitude":31.1251939,"longitude":-92.6482948,"address":"Ul. Szwajcarska 14, POZNAN ","chain_name":null,"distance":0},{"name":"Sephora","code":null,"latitude":34.0872221,"longitude":-117.6901612,"address":"2061 Montclair Plaza Lane, Montclair CA","chain_name":null,"distance":0},{"name":"Sephora","code":null,"latitude":30.186029,"longitude":-81.733423,"address":"1910 Wells Rd, Orange Park FL","chain_name":null,"distance":0},{"name":"Sephora","code":null,"latitude":36.0679066,"longitude":-115.1722292,"address":"6671 Las Vegas Boulevard, Space A-131, Las Vegas NV","chain_name":null,"distance":0},{"name":"Sephora","code":null,"latitude":40.7422742,"longitude":-73.615576,"address":"630 Old Country Rd, Garden City NY","chain_name":null,"distance":0},{"name":"Sephora","code":null,"latitude":33.4472592,"longitude":-86.7312016,"address":"225 Summit Boulevard, Suite 1100, Birmingham AL","chain_name":null,"distance":0},{"name":"Sephora","code":null,"latitude":38.418877,"longitude":-82.2649689,"address":"800 Mall Rd, Barboursville WV","chain_name":null,"distance":0},{"name":"Sephora","code":null,"latitude":30.5567982,"longitude":-97.6898246,"address":"151 University Oaks Boulevard, Round Rock TX","chain_name":null,"distance":0},{"name":"Sephora","code":null,"latitude":43.7258222,"longitude":-79.4555263,"address":"3401 Dufferin Street, Toronto ON","chain_name":null,"distance":0},{"name":"Sephora","code":null,"latitude":37.720287,"longitude":-97.242613,"address":"2000 N. Rock Road Suite #118, Wichita KS","chain_name":null,"distance":0},{"name":"Sephora","code":null,"latitude":39.6940046,"longitude":-84.106388,"address":"4421 Glengarry Drive, Suite #126, Dayton OH","chain_name":null,"distance":0},{"name":"Sephora","code":null,"latitude":32.7692941,"longitude":-117.1697261,"address":"6987 Friars Road, San Diego CA","chain_name":null,"distance":0},{"name":"Sephora","code":null,"latitude":40.719548,"longitude":-73.843772,"address":"71-30 Austin Street, Forest Hills NY","chain_name":null,"distance":0},{"name":"Sephora","code":null,"latitude":26.368129,"longitude":-80.134717,"address":"6000 Glades Road, Suite 1024B, Boca Raton FL","chain_name":null,"distance":0},{"name":"Sephora","code":null,"latitude":30.6329122,"longitude":-97.6957993,"address":"1015 West University Avenue, Suite #400, Georgetown TX","chain_name":null,"distance":0},{"name":"Sephora","code":null,"latitude":43.06395,"longitude":-88.044369,"address":"2500 North Mayfair Road, Wauwatosa WI","chain_name":null,"distance":0},{"name":"Sephora","code":null,"latitude":39.9789639,"longitude":-74.1826382,"address":"1201 Hooper Ave Ste B, Toms River NJ","chain_name":null,"distance":0},{"name":"Sephora","code":null,"latitude":32.154568,"longitude":-110.988838,"address":"5265 S. Calle Santa Cruz, Tucson AZ","chain_name":null,"distance":0}]