[{"name":"A-Plus Mini Market","code":null,"latitude":41.76201,"longitude":-72.63164,"address":"295 Silver Ln, EAST HARTFORD CT","chain_name":null,"distance":0},{"name":"A-Plus Mini Market","code":null,"latitude":41.28698,"longitude":-72.88317,"address":"80 Frontage Rd, EAST HAVEN CT","chain_name":null,"distance":0},{"name":"A-Plus Mini Market","code":null,"latitude":41.92995,"longitude":-72.61036,"address":"163 Bridge St, EAST WINDSOR CT","chain_name":null,"distance":0},{"name":"A-Plus Mini Market","code":null,"latitude":41.55613,"longitude":-72.66844,"address":"519 Washington St, MIDDLETOWN CT","chain_name":null,"distance":0},{"name":"A-Plus Mini Market","code":null,"latitude":41.66666,"longitude":-72.80752,"address":"737 W Main St, NEW BRITAIN CT","chain_name":null,"distance":0},{"name":"A-Plus Mini Market","code":null,"latitude":41.71464,"longitude":-72.76362,"address":"625 Hartford Rd, NEW BRITAIN CT","chain_name":null,"distance":0},{"name":"A-Plus Mini Market","code":null,"latitude":41.32102,"longitude":-72.87387,"address":"350 Foxon Blvd, NEW HAVEN CT","chain_name":null,"distance":0},{"name":"A-Plus Mini Market","code":null,"latitude":41.61355,"longitude":-72.89892,"address":"957 West St, SOUTHINGTON CT","chain_name":null,"distance":0},{"name":"A-Plus Mini Market","code":null,"latitude":41.76546,"longitude":-72.7163,"address":"669 Farmington Ave, WEST HARTFORD CT","chain_name":null,"distance":0},{"name":"A-Plus Mini Market","code":null,"latitude":38.8821,"longitude":-76.98921,"address":"1248 Pennsylvania Ave SE, WASHINGTON DC","chain_name":null,"distance":0},{"name":"A-Plus Mini Market","code":null,"latitude":39.80351,"longitude":-75.45639,"address":"3615 Philadelphia Pike, CLAYMONT DE","chain_name":null,"distance":0},{"name":"Sunoco","code":null,"latitude":39.185,"longitude":-75.53424,"address":"837 N Dupont Hwy, DOVER DE","chain_name":null,"distance":0},{"name":"A-Plus Mini Market","code":null,"latitude":39.73867,"longitude":-75.60372,"address":"1500 Kirkwood Hwy, ELSMERE DE","chain_name":null,"distance":0},{"name":"A-Plus Mini Market","code":null,"latitude":39.68866,"longitude":-75.5833,"address":"1201 N Dupont Hwy, NEW CASTLE DE","chain_name":null,"distance":0},{"name":"A-Plus Mini Market","code":null,"latitude":39.6762,"longitude":-75.7637,"address":"287 Elkton Rd, NEWARK DE","chain_name":null,"distance":0},{"name":"A-Plus Mini Market","code":null,"latitude":39.45922,"longitude":-75.65995,"address":"412 NORTH 6TH STREET, ODESSA DE","chain_name":null,"distance":0},{"name":"A-Plus Mini Market","code":null,"latitude":39.73329,"longitude":-75.57702,"address":"1950 Maryland Ave, WILMINGTON DE","chain_name":null,"distance":0},{"name":"A-Plus Mini Market","code":null,"latitude":39.76004,"longitude":-75.56399,"address":"1701 PENNA AVENUE, WILMINGTON DE","chain_name":null,"distance":0},{"name":"Sunoco","code":null,"latitude":27.43631,"longitude":-82.5468,"address":"5912 15th St E, BRADENTON FL","chain_name":null,"distance":0},{"name":"Sunoco","code":null,"latitude":28.3742,"longitude":-80.80514,"address":"5000 State Road 524, COCOA FL","chain_name":null,"distance":0},{"name":"Sunoco","code":null,"latitude":29.228,"longitude":-81.02665,"address":"848 N Beach St, DAYTONA BEACH FL","chain_name":null,"distance":0},{"name":"Sunoco","code":null,"latitude":29.64604,"longitude":-81.60328,"address":"276 S US Highway 17, EAST PALATKA FL","chain_name":null,"distance":0},{"name":"Sunoco","code":null,"latitude":27.84502,"longitude":-82.38138,"address":"10820 US Highway 41 S, GIBSONTON FL","chain_name":null,"distance":0},{"name":"Sunoco","code":null,"latitude":28.3311,"longitude":-82.6884,"address":"7636 State Road 52, HUDSON FL","chain_name":null,"distance":0},{"name":"Sunoco","code":null,"latitude":28.36592,"longitude":-82.69107,"address":"14316 US Highway 19, HUDSON FL","chain_name":null,"distance":0},{"name":"Sunoco","code":null,"latitude":28.13866,"longitude":-80.59858,"address":"190 E Eau Gallie Blvd, INDIAN HARBOUR BEACH FL","chain_name":null,"distance":0},{"name":"Sunoco","code":null,"latitude":28.08259,"longitude":-81.96792,"address":"3230 US Highway 98 N, LAKELAND FL","chain_name":null,"distance":0},{"name":"Sunoco","code":null,"latitude":27.86864,"longitude":-82.78723,"address":"10570 Seminole Blvd, LARGO FL","chain_name":null,"distance":0},{"name":"Sunoco","code":null,"latitude":28.64133,"longitude":-81.35524,"address":"9725 S US Highway 17\/92, MAITLAND FL","chain_name":null,"distance":0},{"name":"Sunoco","code":null,"latitude":28.21727,"longitude":-82.70827,"address":"6445 State Road 54, NEW PORT RICHEY FL","chain_name":null,"distance":0},{"name":"A-Plus Mini Market","code":null,"latitude":28.54728,"longitude":-81.64182,"address":"17100 W Colonial Dr, OAKLAND FL","chain_name":null,"distance":0},{"name":"Sunoco","code":null,"latitude":28.93173,"longitude":-81.29903,"address":"1625 S Volusia Ave, ORANGE CITY FL","chain_name":null,"distance":0},{"name":"Sunoco","code":null,"latitude":28.44546,"longitude":-81.40232,"address":"8220 S Orange Blossom Trl, ORLANDO FL","chain_name":null,"distance":0},{"name":"Sunoco","code":null,"latitude":27.83938,"longitude":-82.73628,"address":"7091 Park Blvd, PINELLAS PARK FL","chain_name":null,"distance":0},{"name":"Sunoco","code":null,"latitude":28.01816,"longitude":-82.11524,"address":"1105 E Baker St, PLANT CITY FL","chain_name":null,"distance":0},{"name":"Sunoco","code":null,"latitude":28.2751,"longitude":-82.72098,"address":"8124 US Highway 19, PORT RICHEY FL","chain_name":null,"distance":0},{"name":"Sunoco","code":null,"latitude":28.026,"longitude":-82.55767,"address":"6915 W Waters Ave, TAMPA FL","chain_name":null,"distance":0},{"name":"Sunoco","code":null,"latitude":27.93372,"longitude":-82.48319,"address":"1001 S Howard Ave, TAMPA FL","chain_name":null,"distance":0},{"name":"A-Plus Mini Market","code":null,"latitude":42.10997,"longitude":-70.93262,"address":"336 Centre Ave, ABINGTON MA","chain_name":null,"distance":0},{"name":"A-Plus Mini Market","code":null,"latitude":42.57234,"longitude":-70.87624,"address":"131 Brimbal Ave, BEVERLY MA","chain_name":null,"distance":0},{"name":"A-Plus Mini Market","code":null,"latitude":42.36177,"longitude":-71.0979,"address":"266 Massachusetts Ave, CAMBRIDGE MA","chain_name":null,"distance":0},{"name":"A-Plus Mini Market","code":null,"latitude":42.60116,"longitude":-71.34767,"address":"80 Chelmsford St, CHELMSFORD MA","chain_name":null,"distance":0},{"name":"Sunoco","code":null,"latitude":42.16493,"longitude":-72.61419,"address":"810 Meadow St, CHICOPEE MA","chain_name":null,"distance":0},{"name":"A-Plus Mini Market","code":null,"latitude":42.19203,"longitude":-72.60011,"address":"1031 Chicopee St, CHICOPEE MA","chain_name":null,"distance":0},{"name":"A-Plus Mini Market","code":null,"latitude":42.17291,"longitude":-72.5865,"address":"500 Montgomery St, CHICOPEE MA","chain_name":null,"distance":0},{"name":"A-Plus Mini Market","code":null,"latitude":42.40218,"longitude":-71.04347,"address":"1707 Revere Beach Pkwy, EVERETT MA","chain_name":null,"distance":0},{"name":"A-Plus Mini Market","code":null,"latitude":42.40254,"longitude":-71.05005,"address":"1894 Revere Beach Pkwy, EVERETT MA","chain_name":null,"distance":0},{"name":"A-Plus Express","code":null,"latitude":42.58555,"longitude":-71.77958,"address":"240 Lunenburg St, FITCHBURG MA","chain_name":null,"distance":0},{"name":"A-Plus Mini Market","code":null,"latitude":42.07398,"longitude":-71.2595,"address":"105 Main St, FOXBORO MA","chain_name":null,"distance":0},{"name":"A-Plus Mini Market","code":null,"latitude":42.77016,"longitude":-71.11354,"address":"790 River St, HAVERHILL MA","chain_name":null,"distance":0},{"name":"A-Plus Mini Market","code":null,"latitude":42.3915,"longitude":-71.52567,"address":"422 Main St, HUDSON MA","chain_name":null,"distance":0},{"name":"Sunoco","code":null,"latitude":42.5036,"longitude":-71.74758,"address":"701 Central St, LEOMINSTER MA","chain_name":null,"distance":0},{"name":"sunoco","code":null,"latitude":42.6696364,"longitude":-71.0854325,"address":"119 Merrimack St, north and ma MA","chain_name":null,"distance":0},{"name":"A-Plus Mini Market","code":null,"latitude":42.72746,"longitude":-71.20198,"address":"150 Pelham St, METHUEN MA","chain_name":null,"distance":0},{"name":"A-Plus Mini Market","code":null,"latitude":42.00844,"longitude":-71.30321,"address":"591 Kelley Blvd, NORTH ATTLEBORO MA","chain_name":null,"distance":0},{"name":"A-Plus Mini Market","code":null,"latitude":42.16886,"longitude":-70.88708,"address":"117 Pond St, NORWELL MA","chain_name":null,"distance":0},{"name":"A-Plus Mini Market","code":null,"latitude":42.53462,"longitude":-70.99015,"address":"144 Newbury St, PEABODY MA","chain_name":null,"distance":0},{"name":"A-Plus Mini Market","code":null,"latitude":42.08978,"longitude":-70.79185,"address":"355 Washington St, PEMBROKE MA","chain_name":null,"distance":0},{"name":"A-Plus Mini Market","code":null,"latitude":42.50816,"longitude":-70.89588,"address":"145 Canal St, SALEM MA","chain_name":null,"distance":0},{"name":"A-Plus Mini Market","code":null,"latitude":41.74066,"longitude":-71.14812,"address":"525 County St, SOMERSET MA","chain_name":null,"distance":0},{"name":"A-Plus Mini Market","code":null,"latitude":42.08668,"longitude":-72.57992,"address":"487 E Columbus Ave, SPRINGFIELD MA","chain_name":null,"distance":0},{"name":"A-Plus Mini Market","code":null,"latitude":42.11671,"longitude":-72.52094,"address":"1200 Wilbraham Rd, SPRINGFIELD MA","chain_name":null,"distance":0},{"name":"A-Plus Mini Market","code":null,"latitude":42.08783,"longitude":-72.55007,"address":"730 Sumner Ave, SPRINGFIELD MA","chain_name":null,"distance":0},{"name":"A-Plus Mini Market","code":null,"latitude":42.14813,"longitude":-72.50361,"address":"253 Pasco Rd, SPRINGFIELD MA","chain_name":null,"distance":0},{"name":"A-Plus Mini Market","code":null,"latitude":42.51214,"longitude":-71.04283,"address":"493 Salem St, WAKEFIELD MA","chain_name":null,"distance":0},{"name":"A-Plus Mini Market","code":null,"latitude":42.1293,"longitude":-72.62681,"address":"928 Riverdale St, WEST SPRINGFIELD MA","chain_name":null,"distance":0},{"name":"A-Plus Mini Market","code":null,"latitude":42.10531,"longitude":-72.64213,"address":"735 Westfield St, WEST SPRINGFIELD MA","chain_name":null,"distance":0},{"name":"A-Plus Mini Market","code":null,"latitude":42.1264,"longitude":-72.74857,"address":"88 Maple St, WESTFIELD MA","chain_name":null,"distance":0},{"name":"A-Plus Mini Market","code":null,"latitude":39.02656,"longitude":-76.50212,"address":"1506 Ritchie Hwy, ARNOLD MD","chain_name":null,"distance":0},{"name":"A-Plus Mini Market","code":null,"latitude":39.34621,"longitude":-76.60936,"address":"4719 York Rd, BALTIMORE MD","chain_name":null,"distance":0},{"name":"A-Plus Mini Market","code":null,"latitude":38.80286,"longitude":-76.90763,"address":"6308 Allentown Rd, CAMP SPRINGS MD","chain_name":null,"distance":0},{"name":"A-Plus Mini Market","code":null,"latitude":39.67649,"longitude":-76.16227,"address":"401 Conowingo Rd, CONOWINGO MD","chain_name":null,"distance":0},{"name":"A-Plus Mini Market","code":null,"latitude":39.60795,"longitude":-75.95006,"address":"2391 Pulaski Hwy, NORTH EAST MD","chain_name":null,"distance":0},{"name":"A-Plus Mini Market","code":null,"latitude":39.69897,"longitude":-76.05503,"address":"355 Telegraph Rd, RISING SUN MD","chain_name":null,"distance":0},{"name":"A-Plus Mini Market","code":null,"latitude":38.97592,"longitude":-76.99321,"address":"6907 New Hampshire Ave, TAKOMA PARK MD","chain_name":null,"distance":0},{"name":"A-Plus Mini Market","code":null,"latitude":39.4397,"longitude":-76.63013,"address":"100 W Timonium Rd, TIMONIUM MD","chain_name":null,"distance":0},{"name":"A-Plus Mini Market","code":null,"latitude":43.03891,"longitude":-71.43331,"address":"1248 Hooksett Rd, HOOKSETT NH","chain_name":null,"distance":0},{"name":"A-Plus Mini Market","code":null,"latitude":40.83813,"longitude":-74.11387,"address":"284 Washington Ave, CARLSTADT NJ","chain_name":null,"distance":0},{"name":"A-Plus Mini Market","code":null,"latitude":40.12924,"longitude":-74.27499,"address":"2 N County Line Rd, JACKSON NJ","chain_name":null,"distance":0},{"name":"A-Plus Mini Market","code":null,"latitude":40.16466,"longitude":-74.41742,"address":"521 Monmouth Rd, JACKSON NJ","chain_name":null,"distance":0},{"name":"A-Plus Mini Market","code":null,"latitude":39.8212,"longitude":-75.04136,"address":"1280 Chews Landing Rd, LAUREL SPRINGS NJ","chain_name":null,"distance":0},{"name":"A-Plus Mini Market","code":null,"latitude":39.80435,"longitude":-75.0241,"address":"1205 Blackwood Clementon Rd, LINDENWOLD NJ","chain_name":null,"distance":0},{"name":"A-Plus Mini Market","code":null,"latitude":40.45569,"longitude":-74.42484,"address":"RYDERS LANE & WASHINGTON, MILLTOWN NJ","chain_name":null,"distance":0},{"name":"A-Plus Mini Market","code":null,"latitude":39.28015,"longitude":-74.57762,"address":"201 E 9th St, OCEAN CITY NJ","chain_name":null,"distance":0},{"name":"A-Plus Mini Market","code":null,"latitude":40.84709,"longitude":-73.99647,"address":"US HWY 46E & ABBOTT AVE, PALISADES PARK NJ","chain_name":null,"distance":0},{"name":"A-Plus Mini Market","code":null,"latitude":39.62932,"longitude":-75.50756,"address":"700 S HOOK RD, PENNSVILLE NJ","chain_name":null,"distance":0},{"name":"A-Plus Mini Market","code":null,"latitude":39.57418,"longitude":-75.4663,"address":"63 Market St, SALEM NJ","chain_name":null,"distance":0},{"name":"A-Plus Mini Market","code":null,"latitude":40.65042,"longitude":-74.40581,"address":"1746 US Highway 22, SCOTCH PLAINS NJ","chain_name":null,"distance":0},{"name":"A-Plus Mini Market","code":null,"latitude":40.46511,"longitude":-74.29587,"address":"943 US Highway 9, SOUTH AMBOY NJ","chain_name":null,"distance":0},{"name":"A-Plus Mini Market","code":null,"latitude":40.23787,"longitude":-74.80363,"address":"110 Sanhican Dr, TRENTON NJ","chain_name":null,"distance":0},{"name":"A-Plus Mini Market","code":null,"latitude":39.78655,"longitude":-74.19812,"address":"409 Route 9, WARETOWN NJ","chain_name":null,"distance":0},{"name":"A-Plus Mini Market","code":null,"latitude":40.55753,"longitude":-74.28451,"address":"501 Amboy Ave, WOODBRIDGE NJ","chain_name":null,"distance":0},{"name":"A-Plus Mini Market","code":null,"latitude":42.69101,"longitude":-73.82278,"address":"1465 Washington Ave, ALBANY NY","chain_name":null,"distance":0},{"name":"A-Plus Mini Market","code":null,"latitude":42.67648,"longitude":-73.82275,"address":"1221 Western Ave, ALBANY NY","chain_name":null,"distance":0},{"name":"A-Plus Mini Market","code":null,"latitude":42.68486,"longitude":-73.78295,"address":"62 Exchange St, ALBANY NY","chain_name":null,"distance":0},{"name":"A-Plus Mini Market","code":null,"latitude":42.90026,"longitude":-78.4917,"address":"13320 Broadway St, ALDEN NY","chain_name":null,"distance":0},{"name":"A-Plus Mini Market","code":null,"latitude":43.03545,"longitude":-78.82271,"address":"2977 Niagara Falls Blvd, AMHERST NY","chain_name":null,"distance":0},{"name":"A-Plus Mini Market","code":null,"latitude":42.97836,"longitude":-78.73908,"address":"5215 Sheridan Dr, AMHERST NY","chain_name":null,"distance":0},{"name":"A-Plus Mini Market","code":null,"latitude":40.68093,"longitude":-73.41673,"address":"293 Broadway, AMITYVILLE NY","chain_name":null,"distance":0},{"name":"A-Plus Mini Market","code":null,"latitude":42.93305,"longitude":-76.56087,"address":"36 E Genesee St, AUBURN NY","chain_name":null,"distance":0},{"name":"A-Plus Mini Market","code":null,"latitude":43.15914,"longitude":-76.32834,"address":"35 E Genesee St, BALDWINSVILLE NY","chain_name":null,"distance":0},{"name":"A-Plus Mini Market","code":null,"latitude":43.15131,"longitude":-76.35253,"address":"2232 Downer Street Rd, BALDWINSVILLE NY","chain_name":null,"distance":0},{"name":"A-Plus Mini Market","code":null,"latitude":43.13299,"longitude":-76.32053,"address":"7472 Van Buren Rd, BALDWINSVILLE NY","chain_name":null,"distance":0},{"name":"A-Plus Mini Market","code":null,"latitude":41.22088,"longitude":-73.71639,"address":"791 Bedford Rd, BEDFORD HILLS NY","chain_name":null,"distance":0},{"name":"A-Plus Mini Market","code":null,"latitude":43.47677,"longitude":-75.31743,"address":"13180 State Route 12, BOONVILLE NY","chain_name":null,"distance":0},{"name":"A-Plus Mini Market","code":null,"latitude":40.61378,"longitude":-73.9963,"address":"1781 Bay Ridge Pkwy, BROOKLYN NY","chain_name":null,"distance":0},{"name":"A-Plus Mini Market","code":null,"latitude":42.92779,"longitude":-78.8391,"address":"1981 Fillmore Ave, BUFFALO NY","chain_name":null,"distance":0},{"name":"A-Plus Mini Market","code":null,"latitude":42.9476,"longitude":-78.85995,"address":"1301 Hertel Ave, BUFFALO NY","chain_name":null,"distance":0},{"name":"A-Plus Mini Market","code":null,"latitude":42.92204,"longitude":-78.86757,"address":"1390 Delaware Ave, BUFFALO NY","chain_name":null,"distance":0},{"name":"Sunoco","code":null,"latitude":42.89036,"longitude":-78.88167,"address":"211 Niagara St, BUFFALO NY","chain_name":null,"distance":0},{"name":"Sunoco","code":null,"latitude":42.92284,"longitude":-78.81024,"address":"1266 E Delavan Ave, BUFFALO NY","chain_name":null,"distance":0},{"name":"A-Plus Mini Market","code":null,"latitude":42.95855,"longitude":-78.86932,"address":"2731 Delaware Ave, BUFFALO NY","chain_name":null,"distance":0},{"name":"A-Plus Mini Market","code":null,"latitude":42.90974,"longitude":-78.87728,"address":"460 Elmwood Ave, BUFFALO NY","chain_name":null,"distance":0},{"name":"A-Plus Mini Market","code":null,"latitude":42.97365,"longitude":-77.85296,"address":"283 North St, CALEDONIA NY","chain_name":null,"distance":0},{"name":"A-Plus Mini Market","code":null,"latitude":43.05226,"longitude":-76.26519,"address":"3771 Milton Ave, CAMILLUS NY","chain_name":null,"distance":0},{"name":"A-Plus Mini Market","code":null,"latitude":42.88043,"longitude":-77.27635,"address":"484 S Main St, CANANDAIGUA NY","chain_name":null,"distance":0},{"name":"A-Plus Mini Market","code":null,"latitude":41.32992,"longitude":-74.12178,"address":"241 Route 32, CENTRAL VALLEY NY","chain_name":null,"distance":0},{"name":"A-Plus Mini Market","code":null,"latitude":42.93304,"longitude":-78.75387,"address":"4401 Union Rd, CHEEKTOWAGA NY","chain_name":null,"distance":0},{"name":"A-Plus Mini Market","code":null,"latitude":42.87785,"longitude":-78.79944,"address":"432 Dingens St, CHEEKTOWAGA NY","chain_name":null,"distance":0},{"name":"A-Plus Mini Market","code":null,"latitude":41.35571,"longitude":-74.28188,"address":"68 Brookside Ave, CHESTER NY","chain_name":null,"distance":0},{"name":"A-Plus Mini Market","code":null,"latitude":42.81892,"longitude":-73.77547,"address":"CRESCENT & LAPP ROADS, CLIFTON PARK NY","chain_name":null,"distance":0},{"name":"A-Plus Mini Market","code":null,"latitude":42.77441,"longitude":-73.69853,"address":"245 Ontario St, COHOES NY","chain_name":null,"distance":0},{"name":"A-Plus Mini Market","code":null,"latitude":42.14289,"longitude":-77.05679,"address":"48 Denison Pkwy W, CORNING NY","chain_name":null,"distance":0},{"name":"A-Plus Mini Market","code":null,"latitude":42.59793,"longitude":-76.1774,"address":"44 Port Watson St, CORTLAND NY","chain_name":null,"distance":0},{"name":"A-Plus Mini Market","code":null,"latitude":42.59688,"longitude":-76.2056,"address":"3947 State Route 281, CORTLAND NY","chain_name":null,"distance":0},{"name":"A-Plus Mini Market","code":null,"latitude":42.9186,"longitude":-78.73283,"address":"2017 George Urban Blvd, DEPEW NY","chain_name":null,"distance":0},{"name":"A-Plus Mini Market","code":null,"latitude":42.76764,"longitude":-78.62832,"address":"175 Main St, EAST AURORA NY","chain_name":null,"distance":0},{"name":"A-Plus Mini Market","code":null,"latitude":43.11047,"longitude":-77.49686,"address":"900 S Washington St, EAST ROCHESTER NY","chain_name":null,"distance":0},{"name":"A-Plus Mini Market","code":null,"latitude":42.83915,"longitude":-78.63754,"address":"2180 Bullis Rd, ELMA NY","chain_name":null,"distance":0},{"name":"A-Plus Mini Market","code":null,"latitude":42.09075,"longitude":-76.80892,"address":"359 N Main St, ELMIRA NY","chain_name":null,"distance":0},{"name":"A-Plus Mini Market","code":null,"latitude":42.07354,"longitude":-76.80454,"address":"625 Pennsylvania Ave, ELMIRA NY","chain_name":null,"distance":0},{"name":"A-Plus Mini Market","code":null,"latitude":42.12993,"longitude":-76.81841,"address":"1769 Grand Central Ave, ELMIRA HEIGHTS NY","chain_name":null,"distance":0},{"name":"A-Plus Mini Market","code":null,"latitude":40.69925,"longitude":-73.70566,"address":"244 Linden Blvd, ELMONT NY","chain_name":null,"distance":0},{"name":"A-Plus Mini Market","code":null,"latitude":43.09597,"longitude":-77.42435,"address":"265 Macedon Center Rd, FAIRPORT NY","chain_name":null,"distance":0},{"name":"A-Plus Mini Market","code":null,"latitude":43.20499,"longitude":-77.66633,"address":"1475 Ridge Rd W, GREECE NY","chain_name":null,"distance":0},{"name":"A-Plus Mini Market","code":null,"latitude":41.0192,"longitude":-73.7979,"address":"17 N Central Ave, HARTSDALE NY","chain_name":null,"distance":0},{"name":"A-Plus Mini Market","code":null,"latitude":40.69616,"longitude":-73.63014,"address":"665 Peninsula Blvd, HEMPSTEAD NY","chain_name":null,"distance":0},{"name":"A-Plus Mini Market","code":null,"latitude":40.69515,"longitude":-73.61458,"address":"221 Baldwin Rd, HEMPSTEAD NY","chain_name":null,"distance":0},{"name":"A-Plus Mini Market","code":null,"latitude":40.7728,"longitude":-73.0646,"address":"5140 Veterans Memorial Hwy, HOLBROOK NY","chain_name":null,"distance":0},{"name":"A-Plus Mini Market","code":null,"latitude":42.9549,"longitude":-77.58958,"address":"40 N Main St, HONEOYE FALLS NY","chain_name":null,"distance":0},{"name":"A-Plus Mini Market","code":null,"latitude":42.43844,"longitude":-76.49916,"address":"210 S Cayuga St, ITHACA NY","chain_name":null,"distance":0},{"name":"A-Plus Mini Market","code":null,"latitude":41.33209,"longitude":-73.80942,"address":"3650 Lee Rd, JEFFERSON VALLEY NY","chain_name":null,"distance":0},{"name":"A-Plus Mini Market","code":null,"latitude":42.98068,"longitude":-78.88593,"address":"1311 Sheridan Dr, KENMORE NY","chain_name":null,"distance":0},{"name":"A-Plus Mini Market","code":null,"latitude":42.82845,"longitude":-78.80467,"address":"1329 Abbott Rd, LACKAWANNA NY","chain_name":null,"distance":0},{"name":"A-Plus Mini Market","code":null,"latitude":44.27945,"longitude":-73.98031,"address":"2 Wilmington Rd, LAKE PLACID NY","chain_name":null,"distance":0},{"name":"A-Plus Mini Market","code":null,"latitude":42.88028,"longitude":-78.69665,"address":"4949 TRANSIT ROAD, LANCASTER NY","chain_name":null,"distance":0},{"name":"A-Plus Mini Market","code":null,"latitude":43.17275,"longitude":-79.03228,"address":"890 Center St, LEWISTON NY","chain_name":null,"distance":0},{"name":"A-Plus Mini Market","code":null,"latitude":43.12176,"longitude":-76.15952,"address":"5136 W Taft Rd, LIVERPOOL NY","chain_name":null,"distance":0},{"name":"A-Plus Mini Market","code":null,"latitude":43.1027,"longitude":-76.20452,"address":"500 Oswego St, LIVERPOOL NY","chain_name":null,"distance":0},{"name":"A-Plus Mini Market","code":null,"latitude":43.78453,"longitude":-75.49087,"address":"7509 S State St, LOWVILLE NY","chain_name":null,"distance":0},{"name":"A-Plus Mini Market","code":null,"latitude":43.00177,"longitude":-75.98002,"address":"101 Fayette St, MANLIUS NY","chain_name":null,"distance":0},{"name":"A-Plus Mini Market","code":null,"latitude":44.91967,"longitude":-74.88944,"address":"386 Main St, MASSENA NY","chain_name":null,"distance":0},{"name":"A-Plus Mini Market","code":null,"latitude":44.93022,"longitude":-74.89267,"address":"82 Main St, MASSENA NY","chain_name":null,"distance":0},{"name":"A-Plus Mini Market","code":null,"latitude":41.33241,"longitude":-74.19208,"address":"771 State Route 17m, MONROE NY","chain_name":null,"distance":0},{"name":"A-Plus Mini Market","code":null,"latitude":41.1517,"longitude":-73.98883,"address":"128 N Main St, NEW CITY NY","chain_name":null,"distance":0},{"name":"A-Plus Mini Market","code":null,"latitude":43.05314,"longitude":-75.27367,"address":"9272 Kellogg Rd, NEW HARTFORD NY","chain_name":null,"distance":0},{"name":"A-Plus Mini Market","code":null,"latitude":43.0802,"longitude":-75.31923,"address":"8516 Seneca Tpke, NEW HARTFORD NY","chain_name":null,"distance":0},{"name":"A-Plus Mini Market","code":null,"latitude":41.74168,"longitude":-74.06727,"address":"270 Main St, NEW PALTZ NY","chain_name":null,"distance":0},{"name":"A-Plus Mini Market","code":null,"latitude":40.91348,"longitude":-73.7766,"address":"71 Huguenot St, NEW ROCHELLE NY","chain_name":null,"distance":0},{"name":"A-Plus Mini Market","code":null,"latitude":41.5519,"longitude":-74.0634,"address":"ROUTE 300 & ROUTE 32, NEWBURGH NY","chain_name":null,"distance":0},{"name":"A-Plus Mini Market","code":null,"latitude":41.51854,"longitude":-74.01969,"address":"5004 Route 9w, NEWBURGH NY","chain_name":null,"distance":0},{"name":"A-Plus Mini Market","code":null,"latitude":41.52584,"longitude":-74.03367,"address":"69 N Plank Rd, NEWBURGH NY","chain_name":null,"distance":0},{"name":"A-Plus Mini Market","code":null,"latitude":43.09058,"longitude":-78.96651,"address":"8505 Niagara Falls Blvd, NIAGARA FALLS NY","chain_name":null,"distance":0},{"name":"Sunoco","code":null,"latitude":43.09163,"longitude":-79.05999,"address":"502 Main St, NIAGARA FALLS NY","chain_name":null,"distance":0},{"name":"A-Plus Mini Market","code":null,"latitude":43.10816,"longitude":-78.98707,"address":"6730 Packard Rd, NIAGARA FALLS NY","chain_name":null,"distance":0},{"name":"A-Plus Mini Market","code":null,"latitude":40.62793,"longitude":-73.64113,"address":"3414 Long Beach Rd, OCEANSIDE NY","chain_name":null,"distance":0},{"name":"A-Plus Mini Market","code":null,"latitude":44.69013,"longitude":-75.47727,"address":"728 Canton St, OGDENSBURG NY","chain_name":null,"distance":0},{"name":"A-Plus Mini Market","code":null,"latitude":43.45283,"longitude":-76.50896,"address":"299 W 1st St, OSWEGO NY","chain_name":null,"distance":0},{"name":"A-Plus Mini Market","code":null,"latitude":42.1593,"longitude":-77.09098,"address":"234 N Hamilton St, PAINTED POST NY","chain_name":null,"distance":0},{"name":"A-Plus Mini Market","code":null,"latitude":42.66083,"longitude":-77.05538,"address":"139 Elm St, PENN YAN NY","chain_name":null,"distance":0},{"name":"A-Plus Mini Market","code":null,"latitude":40.9956,"longitude":-73.67262,"address":"314 Boston Post Rd, PORT CHESTER NY","chain_name":null,"distance":0},{"name":"A-Plus Mini Market","code":null,"latitude":40.89695,"longitude":-73.0452,"address":"669 Old Town Rd, PORT JEFFERSON STATION NY","chain_name":null,"distance":0},{"name":"A-Plus Mini Market","code":null,"latitude":43.17965,"longitude":-77.63927,"address":"780 Dewey Ave, ROCHESTER NY","chain_name":null,"distance":0},{"name":"A-Plus Mini Market","code":null,"latitude":43.2531,"longitude":-77.64723,"address":"1324 Latta Rd, ROCHESTER NY","chain_name":null,"distance":0},{"name":"A-Plus Mini Market","code":null,"latitude":43.2032,"longitude":-77.56214,"address":"2075 Ridge Rd E, ROCHESTER NY","chain_name":null,"distance":0},{"name":"A-Plus Mini Market","code":null,"latitude":43.16479,"longitude":-77.6552,"address":"1140 Lyell Ave, ROCHESTER NY","chain_name":null,"distance":0},{"name":"A-Plus Mini Market","code":null,"latitude":43.24206,"longitude":-77.64664,"address":"3930 Dewey Ave, ROCHESTER NY","chain_name":null,"distance":0},{"name":"A-Plus Mini Market","code":null,"latitude":43.1418,"longitude":-77.5983,"address":"809 Clinton Ave S, ROCHESTER NY","chain_name":null,"distance":0},{"name":"A-Plus Mini Market","code":null,"latitude":43.06965,"longitude":-77.60771,"address":"2499 E Henrietta Rd, ROCHESTER NY","chain_name":null,"distance":0},{"name":"A-Plus Mini Market","code":null,"latitude":43.19273,"longitude":-77.63905,"address":"1431 Dewey Ave # C, ROCHESTER NY","chain_name":null,"distance":0},{"name":"A-Plus Mini Market","code":null,"latitude":43.20963,"longitude":-75.45836,"address":"131 S James St, ROME NY","chain_name":null,"distance":0},{"name":"A-Plus Mini Market","code":null,"latitude":40.8076,"longitude":-73.12426,"address":"885 Johnson Ave, RONKONKOMA NY","chain_name":null,"distance":0},{"name":"A-Plus Mini Market","code":null,"latitude":43.08492,"longitude":-73.78426,"address":"521 Broadway, SARATOGA SPRINGS NY","chain_name":null,"distance":0},{"name":"A-Plus Mini Market","code":null,"latitude":43.19168,"longitude":-77.80085,"address":"161 S Union St, SPENCERPORT NY","chain_name":null,"distance":0},{"name":"Sunoco","code":null,"latitude":42.49901,"longitude":-78.69051,"address":"405 S Cascade Dr # 219, SPRINGVILLE NY","chain_name":null,"distance":0},{"name":"A-Plus Mini Market","code":null,"latitude":40.6211,"longitude":-74.169,"address":"700 South Ave, STATEN ISLAND NY","chain_name":null,"distance":0},{"name":"A-Plus Mini Market","code":null,"latitude":43.04967,"longitude":-76.12162,"address":"1701 Erie Blvd E, SYRACUSE NY","chain_name":null,"distance":0},{"name":"A-Plus Mini Market","code":null,"latitude":43.05357,"longitude":-76.1025,"address":"2500 Erie Blvd E, SYRACUSE NY","chain_name":null,"distance":0},{"name":"A-Plus Mini Market","code":null,"latitude":43.04292,"longitude":-76.06816,"address":"3492 Erie Blvd E, SYRACUSE NY","chain_name":null,"distance":0},{"name":"A-Plus Mini Market","code":null,"latitude":43.0538,"longitude":-76.17054,"address":"1000 W Genesee St, SYRACUSE NY","chain_name":null,"distance":0},{"name":"A-Plus Mini Market","code":null,"latitude":43.0525,"longitude":-76.14821,"address":"200 N State St, SYRACUSE NY","chain_name":null,"distance":0},{"name":"A-Plus Mini Market","code":null,"latitude":43.00311,"longitude":-76.12972,"address":"971 E Brighton Ave, SYRACUSE NY","chain_name":null,"distance":0},{"name":"A-Plus Mini Market","code":null,"latitude":43.0238,"longitude":-78.82239,"address":"2546 Niagara Falls Blvd, TONAWANDA NY","chain_name":null,"distance":0},{"name":"A-Plus Mini Market","code":null,"latitude":43.00828,"longitude":-78.87359,"address":"402 Delaware St, TONAWANDA NY","chain_name":null,"distance":0},{"name":"A-Plus Mini Market","code":null,"latitude":41.42813,"longitude":-74.16501,"address":"32 E Main St, WASHINGTONVILLE NY","chain_name":null,"distance":0},{"name":"A-Plus Mini Market","code":null,"latitude":43.97242,"longitude":-75.90151,"address":"610 State St, WATERTOWN NY","chain_name":null,"distance":0},{"name":"A-Plus Mini Market","code":null,"latitude":42.37787,"longitude":-76.87181,"address":"814 N Franklin St, WATKINS GLEN NY","chain_name":null,"distance":0},{"name":"A-Plus Mini Market","code":null,"latitude":43.20524,"longitude":-77.47465,"address":"828 Ridge Rd, WEBSTER NY","chain_name":null,"distance":0},{"name":"A-Plus Mini Market","code":null,"latitude":43.21862,"longitude":-77.43028,"address":"226 North Ave, WEBSTER NY","chain_name":null,"distance":0},{"name":"A-Plus Mini Market","code":null,"latitude":42.11981,"longitude":-77.94429,"address":"1 S Main St, WELLSVILLE NY","chain_name":null,"distance":0},{"name":"A-Plus Mini Market","code":null,"latitude":42.83947,"longitude":-78.75426,"address":"1442 Union Rd, WEST SENECA NY","chain_name":null,"distance":0},{"name":"A-Plus Mini Market","code":null,"latitude":42.82749,"longitude":-78.69815,"address":"5665 Seneca St, WEST SENECA NY","chain_name":null,"distance":0},{"name":"A-Plus Mini Market","code":null,"latitude":41.05258,"longitude":-73.7702,"address":"555 N Broadway, WHITE PLAINS NY","chain_name":null,"distance":0},{"name":"A-Plus Mini Market","code":null,"latitude":41.41794,"longitude":-82.20863,"address":"979 N Leavitt Rd, AMHERST OH","chain_name":null,"distance":0},{"name":"Food Market","code":null,"latitude":41.58313,"longitude":-81.55,"address":"910 E 185th St, CLEVELAND OH","chain_name":null,"distance":0},{"name":"A-Plus Mini Market","code":null,"latitude":41.4562,"longitude":-81.78613,"address":"13601 Lorain Ave, CLEVELAND OH","chain_name":null,"distance":0},{"name":"A-Plus Mini Market","code":null,"latitude":41.45639,"longitude":-81.63916,"address":"7025 Fleet Ave, CLEVELAND OH","chain_name":null,"distance":0},{"name":"Sunoco","code":null,"latitude":41.14863,"longitude":-81.50865,"address":"2816 State Rd, CUYAHOGA FALLS OH","chain_name":null,"distance":0},{"name":"Food Market","code":null,"latitude":41.13641,"longitude":-81.50836,"address":"2113 State Rd, CUYAHOGA FALLS OH","chain_name":null,"distance":0},{"name":"Sunoco","code":null,"latitude":41.61264,"longitude":-83.6974,"address":"6504 Airport Hwy, HOLLAND OH","chain_name":null,"distance":0},{"name":"Food Market","code":null,"latitude":41.15494,"longitude":-81.32654,"address":"1836 State Route 59, KENT OH","chain_name":null,"distance":0},{"name":"A-Plus Mini Market","code":null,"latitude":41.44217,"longitude":-82.1851,"address":"3105 Oberlin Ave, LORAIN OH","chain_name":null,"distance":0},{"name":"A-Plus Mini Market","code":null,"latitude":41.41014,"longitude":-81.53704,"address":"5601 Warrensville Center Rd, MAPLE HEIGHTS OH","chain_name":null,"distance":0},{"name":"A-Plus Mini Market","code":null,"latitude":41.68411,"longitude":-81.33957,"address":"6866 Center St, MENTOR OH","chain_name":null,"distance":0},{"name":"A-Plus Mini Market","code":null,"latitude":41.5589,"longitude":-83.46474,"address":"3510 State Route 795, MILLBURY OH","chain_name":null,"distance":0},{"name":"A-Plus Mini Market","code":null,"latitude":41.62845,"longitude":-83.50454,"address":"1855 Woodville Rd, OREGON OH","chain_name":null,"distance":0},{"name":"Food Market","code":null,"latitude":41.72105,"longitude":-83.60408,"address":"2445 W Alexis Rd, TOLEDO OH","chain_name":null,"distance":0},{"name":"Food Market","code":null,"latitude":41.7082,"longitude":-83.49909,"address":"4810 Suder Ave, TOLEDO OH","chain_name":null,"distance":0},{"name":"Food Market","code":null,"latitude":41.63797,"longitude":-83.62601,"address":"3503 Hill Ave, TOLEDO OH","chain_name":null,"distance":0},{"name":"Food Market","code":null,"latitude":41.66175,"longitude":-83.68271,"address":"2205 N Holland Sylvania Rd, TOLEDO OH","chain_name":null,"distance":0},{"name":"Food Market","code":null,"latitude":41.64499,"longitude":-83.66477,"address":"541 N Reynolds Rd, TOLEDO OH","chain_name":null,"distance":0},{"name":"Sunoco","code":null,"latitude":41.70643,"longitude":-83.60477,"address":"2515 W Laskey Rd, TOLEDO OH","chain_name":null,"distance":0},{"name":"A-Plus Mini Market","code":null,"latitude":41.64264,"longitude":-81.44662,"address":"33945 Vine St, WILLOWICK OH","chain_name":null,"distance":0},{"name":"A-Plus Mini Market","code":null,"latitude":40.59062,"longitude":-80.2656,"address":"2046 Brodhead Rd, ALIQUIPPA PA","chain_name":null,"distance":0},{"name":"A-Plus Mini Market","code":null,"latitude":40.59799,"longitude":-75.52732,"address":"3131 W Tilghman St, ALLENTOWN PA","chain_name":null,"distance":0},{"name":"A-Plus Mini Market","code":null,"latitude":40.59959,"longitude":-75.48177,"address":"1201 W Hamilton St, ALLENTOWN PA","chain_name":null,"distance":0},{"name":"A-Plus Mini Market","code":null,"latitude":40.59372,"longitude":-75.50196,"address":"2138 W Hamilton St, ALLENTOWN PA","chain_name":null,"distance":0},{"name":"A-Plus Mini Market","code":null,"latitude":40.62457,"longitude":-75.43593,"address":"1300 Union Blvd, ALLENTOWN PA","chain_name":null,"distance":0},{"name":"A-Plus Mini Market","code":null,"latitude":40.61751,"longitude":-75.49801,"address":"1501 Mauch Chunk Rd, ALLENTOWN PA","chain_name":null,"distance":0},{"name":"A-Plus Mini Market","code":null,"latitude":40.21233,"longitude":-75.18556,"address":"1146 Limekiln Pike, AMBLER PA","chain_name":null,"distance":0},{"name":"A-Plus Mini Market","code":null,"latitude":40.58915,"longitude":-80.22902,"address":"800 Merchant St, AMBRIDGE PA","chain_name":null,"distance":0},{"name":"A-Plus Mini Market","code":null,"latitude":40.3291,"longitude":-76.51545,"address":"2 W Main St, ANNVILLE PA","chain_name":null,"distance":0},{"name":"A-Plus Mini Market","code":null,"latitude":39.8084,"longitude":-75.74915,"address":"8955 Gap Newport Pike, AVONDALE PA","chain_name":null,"distance":0},{"name":"A-Plus Mini Market","code":null,"latitude":40.00138,"longitude":-75.22647,"address":"1 EAST CITY LINE AVENUE, BALA CYNWYD PA","chain_name":null,"distance":0},{"name":"A-Plus Mini Market","code":null,"latitude":40.7257,"longitude":-75.39321,"address":"109 W Main St, BATH PA","chain_name":null,"distance":0},{"name":"A-Plus Mini Market","code":null,"latitude":40.69165,"longitude":-80.3132,"address":"1199 3rd St, BEAVER PA","chain_name":null,"distance":0},{"name":"A-Plus Mini Market","code":null,"latitude":40.76647,"longitude":-80.32039,"address":"2614 8th Ave, BEAVER FALLS PA","chain_name":null,"distance":0},{"name":"A-Plus Mini Market","code":null,"latitude":40.49232,"longitude":-80.06168,"address":"4528 Ohio River Blvd, BELLEVUE PA","chain_name":null,"distance":0},{"name":"A-Plus Mini Market","code":null,"latitude":40.06401,"longitude":-75.45899,"address":"904 Swedesford Rd, BERWYN PA","chain_name":null,"distance":0},{"name":"A-Plus Mini Market","code":null,"latitude":40.57622,"longitude":-75.62163,"address":"240 N Route 100, BREINIGSVILLE PA","chain_name":null,"distance":0},{"name":"A-Plus Mini Market","code":null,"latitude":40.36438,"longitude":-80.10918,"address":"1001 Washington Pike, BRIDGEVILLE PA","chain_name":null,"distance":0},{"name":"A-Plus Mini Market","code":null,"latitude":39.98279,"longitude":-75.36925,"address":"2850 W Chester Pike, BROOMALL PA","chain_name":null,"distance":0},{"name":"A-Plus Mini Market","code":null,"latitude":40.01443,"longitude":-79.89658,"address":"High And Broad Street, BROWNSVILLE PA","chain_name":null,"distance":0},{"name":"A-Plus Mini Market","code":null,"latitude":40.02575,"longitude":-75.32735,"address":"1240 E Lancaster Ave, BRYN MAWR PA","chain_name":null,"distance":0},{"name":"A-Plus Mini Market","code":null,"latitude":40.02064,"longitude":-75.31656,"address":"LANCASTER & MORRIS, BRYN MAWR PA","chain_name":null,"distance":0},{"name":"A-Plus Mini Market","code":null,"latitude":40.86082,"longitude":-79.88855,"address":"366 E Jefferson St, BUTLER PA","chain_name":null,"distance":0},{"name":"A-Plus Mini Market","code":null,"latitude":40.86123,"longitude":-79.90044,"address":"400 W Jefferson St, BUTLER PA","chain_name":null,"distance":0},{"name":"A-Plus Mini Market","code":null,"latitude":40.23997,"longitude":-76.93434,"address":"3180 Market St, CAMP HILL PA","chain_name":null,"distance":0},{"name":"A-Plus Mini Market","code":null,"latitude":40.36643,"longitude":-80.0145,"address":"3505 Library Rd, CASTLE SHANNON PA","chain_name":null,"distance":0},{"name":"A-Plus Mini Market","code":null,"latitude":39.86376,"longitude":-75.36864,"address":"2200 Edgmont Ave, CHESTER PA","chain_name":null,"distance":0},{"name":"A-Plus Mini Market","code":null,"latitude":39.84849,"longitude":-75.37147,"address":"700 W 9th St, CHESTER PA","chain_name":null,"distance":0},{"name":"A-Plus Mini Market","code":null,"latitude":39.83771,"longitude":-75.40532,"address":"1120 Township Line Rd, CHESTER PA","chain_name":null,"distance":0},{"name":"A-Plus Mini Market","code":null,"latitude":40.08055,"longitude":-75.63279,"address":"904 Route 113, CHESTER SPRINGS PA","chain_name":null,"distance":0},{"name":"A-Plus Mini Market","code":null,"latitude":41.4759,"longitude":-75.68346,"address":"800 Northern Blvd, CLARKS SUMMIT PA","chain_name":null,"distance":0},{"name":"A-Plus Mini Market","code":null,"latitude":39.91522,"longitude":-75.27,"address":"327 Macdade Blvd, COLLINGDALE PA","chain_name":null,"distance":0},{"name":"Sunoco","code":null,"latitude":40.02379,"longitude":-79.59473,"address":"225 Memorial Blvd, CONNELLSVILLE PA","chain_name":null,"distance":0},{"name":"A-Plus Mini Market","code":null,"latitude":40.43523,"longitude":-80.06541,"address":"113 Noble Ave, CRAFTON PA","chain_name":null,"distance":0},{"name":"A-Plus Mini Market","code":null,"latitude":40.08635,"longitude":-74.90692,"address":"503 State Rd, CROYDON PA","chain_name":null,"distance":0},{"name":"A-Plus Mini Market","code":null,"latitude":39.91524,"longitude":-75.26995,"address":"321 Macdade Blvd, DARBY PA","chain_name":null,"distance":0},{"name":"A-Plus Mini Market","code":null,"latitude":40.03385,"longitude":-75.76489,"address":"1205 Horseshoe Pike, DOWNINGTOWN PA","chain_name":null,"distance":0},{"name":"A-Plus Mini Market","code":null,"latitude":39.94674,"longitude":-75.32257,"address":"5101 State Rd, DREXEL HILL PA","chain_name":null,"distance":0},{"name":"A-Plus Mini Market","code":null,"latitude":40.38219,"longitude":-79.85694,"address":"825 Duquesne Blvd, DUQUESNE PA","chain_name":null,"distance":0},{"name":"A-Plus Mini Market","code":null,"latitude":40.1575,"longitude":-75.40411,"address":"3201 Ridge Pike, EAGLEVILLE PA","chain_name":null,"distance":0},{"name":"A-Plus Mini Market","code":null,"latitude":40.39567,"longitude":-79.83863,"address":"ROUTE 30 & CENTRE, EAST PITTSBURGH PA","chain_name":null,"distance":0},{"name":"A-Plus Mini Market","code":null,"latitude":40.66794,"longitude":-75.25994,"address":"3337 Freemansburg Ave, EASTON PA","chain_name":null,"distance":0},{"name":"A-Plus Mini Market","code":null,"latitude":40.48532,"longitude":-78.72482,"address":"115 E High St, EBENSBURG PA","chain_name":null,"distance":0},{"name":"A-Plus Mini Market","code":null,"latitude":40.07044,"longitude":-75.09865,"address":"209 Township Line Rd, ELKINS PARK PA","chain_name":null,"distance":0},{"name":"A-Plus Mini Market","code":null,"latitude":39.90867,"longitude":-77.55501,"address":"4650 Lincoln Way E, FAYETTEVILLE PA","chain_name":null,"distance":0},{"name":"A-Plus Mini Market","code":null,"latitude":40.39966,"longitude":-75.86046,"address":"3123 Pricetown Rd, FLEETWOOD PA","chain_name":null,"distance":0},{"name":"A-Plus Mini Market","code":null,"latitude":39.83083,"longitude":-77.2272,"address":"225 York St, GETTYSBURG PA","chain_name":null,"distance":0},{"name":"A-Plus Mini Market","code":null,"latitude":40.11566,"longitude":-75.69449,"address":"1105 Pottstown Pike, GLENMOORE PA","chain_name":null,"distance":0},{"name":"A-Plus Mini Market","code":null,"latitude":40.29581,"longitude":-79.54288,"address":"31 Mount Pleasant St, GREENSBURG PA","chain_name":null,"distance":0},{"name":"A-Plus Mini Market","code":null,"latitude":40.30184,"longitude":-79.54674,"address":"140 W Pittsburgh St, GREENSBURG PA","chain_name":null,"distance":0},{"name":"A-Plus Mini Market","code":null,"latitude":40.29882,"longitude":-76.82158,"address":"4240 Jonestown Rd, HARRISBURG PA","chain_name":null,"distance":0},{"name":"A-Plus Mini Market","code":null,"latitude":40.26235,"longitude":-76.86233,"address":"1700 Derry St, HARRISBURG PA","chain_name":null,"distance":0},{"name":"A-Plus Mini Market","code":null,"latitude":40.27766,"longitude":-76.89789,"address":"2053 N 2nd St, HARRISBURG PA","chain_name":null,"distance":0},{"name":"A-Plus Mini Market","code":null,"latitude":40.25467,"longitude":-76.85482,"address":"1901 Paxton St, HARRISBURG PA","chain_name":null,"distance":0},{"name":"A-Plus Mini Market","code":null,"latitude":40.27893,"longitude":-76.81368,"address":"4301 Union Deposit Rd, HARRISBURG PA","chain_name":null,"distance":0},{"name":"A-Plus Mini Market","code":null,"latitude":40.27245,"longitude":-76.87713,"address":"1101 N Cameron St, HARRISBURG PA","chain_name":null,"distance":0},{"name":"A-Plus Mini Market","code":null,"latitude":40.17714,"longitude":-75.1056,"address":"3250 E County Line Rd, HATBORO PA","chain_name":null,"distance":0},{"name":"A-Plus Mini Market","code":null,"latitude":40.27531,"longitude":-76.63656,"address":"305 GOVERNOR ROAD, HERSHEY PA","chain_name":null,"distance":0},{"name":"A-Plus Mini Market","code":null,"latitude":40.43008,"longitude":-78.39156,"address":"522 Allegheny St, HOLLIDAYSBURG PA","chain_name":null,"distance":0},{"name":"A-Plus Mini Market","code":null,"latitude":40.32302,"longitude":-79.69793,"address":"9299 Route 30, IRWIN PA","chain_name":null,"distance":0},{"name":"A-Plus Mini Market","code":null,"latitude":40.31081,"longitude":-79.61826,"address":"RT 30 & LEWIS AVENUE, JEANNETTE PA","chain_name":null,"distance":0},{"name":"A-Plus Mini Market","code":null,"latitude":40.31063,"longitude":-78.90021,"address":"942 Bedford St, JOHNSTOWN PA","chain_name":null,"distance":0},{"name":"A-Plus Mini Market","code":null,"latitude":40.34511,"longitude":-78.95003,"address":"307 Fairfield Ave, JOHNSTOWN PA","chain_name":null,"distance":0},{"name":"A-Plus Mini Market","code":null,"latitude":39.74728,"longitude":-75.82426,"address":"1762 NEW LONDON ROAD, KEMBLESVILLE PA","chain_name":null,"distance":0},{"name":"A-Plus Mini Market","code":null,"latitude":39.88251,"longitude":-75.6623,"address":"1697 E Street Rd, KENNETT SQUARE PA","chain_name":null,"distance":0},{"name":"A-Plus Mini Market","code":null,"latitude":39.84093,"longitude":-75.73888,"address":"975 W Cypress St, KENNETT SQUARE PA","chain_name":null,"distance":0},{"name":"A-Plus Mini Market","code":null,"latitude":40.08266,"longitude":-75.3804,"address":"290 S Gulph Rd, KING OF PRUSSIA PA","chain_name":null,"distance":0},{"name":"A-Plus Mini Market","code":null,"latitude":40.09472,"longitude":-75.36343,"address":"100 W Dekalb Pike, KING OF PRUSSIA PA","chain_name":null,"distance":0},{"name":"A-Plus Mini Market","code":null,"latitude":40.05393,"longitude":-76.39774,"address":"520 Centerville Rd, LANCASTER PA","chain_name":null,"distance":0},{"name":"A-Plus Mini Market","code":null,"latitude":40.05651,"longitude":-76.30587,"address":"1204 Lititz Pike, LANCASTER PA","chain_name":null,"distance":0},{"name":"A-Plus Mini Market","code":null,"latitude":40.03942,"longitude":-76.30814,"address":"111 W Orange St, LANCASTER PA","chain_name":null,"distance":0},{"name":"A-Plus Mini Market","code":null,"latitude":40.2833,"longitude":-79.40404,"address":"Route 30 Box 211, LATROBE PA","chain_name":null,"distance":0},{"name":"A-Plus Mini Market","code":null,"latitude":40.31411,"longitude":-79.38857,"address":"124 Lloyd Ave, LATROBE PA","chain_name":null,"distance":0},{"name":"A-Plus Mini Market","code":null,"latitude":40.17183,"longitude":-74.83402,"address":"8596 New Falls Rd, LEVITTOWN PA","chain_name":null,"distance":0},{"name":"A-Plus Mini Market","code":null,"latitude":40.28648,"longitude":-75.26364,"address":"Rte 309 & Hilltown Pk, LINE LEXINGTON PA","chain_name":null,"distance":0},{"name":"A-Plus Mini Market","code":null,"latitude":41.13131,"longitude":-77.4612,"address":"840 Bellefonte Ave, LOCK HAVEN PA","chain_name":null,"distance":0},{"name":"A-Plus Mini Market","code":null,"latitude":40.35189,"longitude":-79.85971,"address":"600 Lysle Blvd, MCKEESPORT PA","chain_name":null,"distance":0},{"name":"A-Plus Mini Market","code":null,"latitude":40.27237,"longitude":-80.12571,"address":"120 E McMurray Rd, MCMURRAY PA","chain_name":null,"distance":0},{"name":"A-Plus Mini Market","code":null,"latitude":40.2405,"longitude":-76.98515,"address":"5520 Carlisle Pike, MECHANICSBURG PA","chain_name":null,"distance":0},{"name":"A-Plus Mini Market","code":null,"latitude":39.91597,"longitude":-75.38435,"address":"296 E Baltimore Ave, MEDIA PA","chain_name":null,"distance":0},{"name":"A-Plus Mini Market","code":null,"latitude":40.47944,"longitude":-79.97196,"address":"300 Grant Ave, MILLVALE PA","chain_name":null,"distance":0},{"name":"A-Plus Mini Market","code":null,"latitude":40.49608,"longitude":-79.97702,"address":"1329 Babcock Blvd, MILLVALE PA","chain_name":null,"distance":0},{"name":"A-Plus Mini Market","code":null,"latitude":40.38268,"longitude":-80.05254,"address":"339 Cochran Rd, MOUNT LEBANON PA","chain_name":null,"distance":0},{"name":"A-Plus Mini Market","code":null,"latitude":40.41265,"longitude":-79.9891,"address":"427 Brownsville Rd, MOUNT OLIVER PA","chain_name":null,"distance":0},{"name":"A-Plus Mini Market","code":null,"latitude":41.23741,"longitude":-76.81157,"address":"140 Lycoming Mall Dr, MUNCY PA","chain_name":null,"distance":0},{"name":"A-Plus Mini Market","code":null,"latitude":40.73104,"longitude":-75.31341,"address":"868 Nazareth Pike, NAZARETH PA","chain_name":null,"distance":0},{"name":"A-Plus Mini Market","code":null,"latitude":41.00191,"longitude":-79.33504,"address":"200 Liberty St, NEW BETHLEHEM PA","chain_name":null,"distance":0},{"name":"A-Plus Mini Market","code":null,"latitude":40.99441,"longitude":-80.33415,"address":"719 E Washington St, NEW CASTLE PA","chain_name":null,"distance":0},{"name":"A-Plus Mini Market","code":null,"latitude":40.59028,"longitude":-79.75101,"address":"SEC RTE 366 & CALDWELL, NEW KENSINGTON PA","chain_name":null,"distance":0},{"name":"A-Plus Mini Market","code":null,"latitude":39.80419,"longitude":-75.92306,"address":"2066 NEWARK ROAD, NEW LONDON PA","chain_name":null,"distance":0},{"name":"A-Plus Mini Market","code":null,"latitude":40.21576,"longitude":-79.6067,"address":"106 N Center Ave, NEW STANTON PA","chain_name":null,"distance":0},{"name":"A-Plus Mini Market","code":null,"latitude":39.98691,"longitude":-75.39908,"address":"3607 W Chester Pike, NEWTOWN SQUARE PA","chain_name":null,"distance":0},{"name":"A-Plus Mini Market","code":null,"latitude":40.14081,"longitude":-75.31092,"address":"15 E Germantown Pike, NORRISTOWN PA","chain_name":null,"distance":0},{"name":"A-Plus Mini Market","code":null,"latitude":40.11853,"longitude":-75.35283,"address":"630 W Main St, NORRISTOWN PA","chain_name":null,"distance":0},{"name":"A-Plus Mini Market","code":null,"latitude":39.88721,"longitude":-75.30083,"address":"560 Chester Pike, NORWOOD PA","chain_name":null,"distance":0},{"name":"A-Plus Mini Market","code":null,"latitude":39.80428,"longitude":-75.96898,"address":"301 Limestone Rd, OXFORD PA","chain_name":null,"distance":0},{"name":"A-Plus Mini Market","code":null,"latitude":39.98154,"longitude":-75.93329,"address":"700 Commons Dr, PARKESBURG PA","chain_name":null,"distance":0},{"name":"A-Plus Mini Market","code":null,"latitude":39.90589,"longitude":-75.19401,"address":"2601 Penrose Ave, PHILADELPHIA PA","chain_name":null,"distance":0},{"name":"A-Plus Mini Market","code":null,"latitude":40.02956,"longitude":-75.18604,"address":"5901 Wissahickon Ave, PHILADELPHIA PA","chain_name":null,"distance":0},{"name":"A-Plus Mini Market","code":null,"latitude":39.925,"longitude":-75.17434,"address":"2101 S 17th St, PHILADELPHIA PA","chain_name":null,"distance":0},{"name":"A-Plus Mini Market","code":null,"latitude":40.12444,"longitude":-75.01512,"address":"13000 Bustleton Ave, PHILADELPHIA PA","chain_name":null,"distance":0},{"name":"A-Plus Mini Market","code":null,"latitude":39.99211,"longitude":-75.10952,"address":"Amber & Allegheny Avenue, PHILADELPHIA PA","chain_name":null,"distance":0},{"name":"A-Plus Mini Market","code":null,"latitude":40.07308,"longitude":-75.03673,"address":"9000 Roosevelt Blvd, PHILADELPHIA PA","chain_name":null,"distance":0},{"name":"A-Plus Mini Market","code":null,"latitude":40.02877,"longitude":-75.20571,"address":"630 Walnut Ln, PHILADELPHIA PA","chain_name":null,"distance":0},{"name":"A-Plus Mini Market","code":null,"latitude":40.10509,"longitude":-75.03336,"address":"10000 Verree Rd, PHILADELPHIA PA","chain_name":null,"distance":0},{"name":"A-Plus Mini Market","code":null,"latitude":39.96723,"longitude":-75.17537,"address":"2300 Fairmount Ave # 16, PHILADELPHIA PA","chain_name":null,"distance":0},{"name":"A-Plus Mini Market","code":null,"latitude":40.0724,"longitude":-75.07613,"address":"7965 Verree Rd, PHILADELPHIA PA","chain_name":null,"distance":0},{"name":"A-Plus Mini Market","code":null,"latitude":39.95105,"longitude":-75.17728,"address":"2201 Walnut St, PHILADELPHIA PA","chain_name":null,"distance":0},{"name":"A-Plus Mini Market","code":null,"latitude":40.06809,"longitude":-75.1568,"address":"7434 Ogontz Ave, PHILADELPHIA PA","chain_name":null,"distance":0},{"name":"A-Plus Mini Market","code":null,"latitude":39.9215,"longitude":-75.19311,"address":"2751 W Passyunk Ave, PHILADELPHIA PA","chain_name":null,"distance":0},{"name":"A-Plus Mini Market","code":null,"latitude":40.03233,"longitude":-75.08433,"address":"5700 ROOSEVELT BOULEVARD, PHILADELPHIA PA","chain_name":null,"distance":0},{"name":"A-Plus Mini Market","code":null,"latitude":39.97707,"longitude":-75.22686,"address":"5200 Lancaster Ave, PHILADELPHIA PA","chain_name":null,"distance":0},{"name":"A-Plus Mini Market","code":null,"latitude":40.04248,"longitude":-75.1805,"address":"6240 Germantown Ave, PHILADELPHIA PA","chain_name":null,"distance":0},{"name":"A-Plus Mini Market","code":null,"latitude":40.03112,"longitude":-75.12434,"address":"143 W Fisher Ave, PHILADELPHIA PA","chain_name":null,"distance":0},{"name":"A-Plus Mini Market","code":null,"latitude":40.0876,"longitude":-74.97098,"address":"4001 Woodhaven Rd, PHILADELPHIA PA","chain_name":null,"distance":0},{"name":"A-Plus Mini Market","code":null,"latitude":39.98886,"longitude":-75.09033,"address":"3670 Richmond St, PHILADELPHIA PA","chain_name":null,"distance":0},{"name":"A-Plus Mini Market","code":null,"latitude":39.9932,"longitude":-75.15488,"address":"2634 N Broad St, PHILADELPHIA PA","chain_name":null,"distance":0},{"name":"A-Plus Mini Market","code":null,"latitude":39.97325,"longitude":-75.15924,"address":"1300 N Broad St, PHILADELPHIA PA","chain_name":null,"distance":0},{"name":"A-Plus Mini Market","code":null,"latitude":40.05467,"longitude":-75.12516,"address":"440 W Cheltenham Ave, PHILADELPHIA PA","chain_name":null,"distance":0},{"name":"A-Plus Mini Market","code":null,"latitude":39.94075,"longitude":-75.16598,"address":"801 S Broad St, PHILADELPHIA PA","chain_name":null,"distance":0},{"name":"A-Plus Mini Market","code":null,"latitude":40.00833,"longitude":-75.19329,"address":"4168 Ridge Ave, PHILADELPHIA PA","chain_name":null,"distance":0},{"name":"A-Plus Mini Market","code":null,"latitude":39.95457,"longitude":-75.22584,"address":"301 S 52nd St, PHILADELPHIA PA","chain_name":null,"distance":0},{"name":"A-Plus Mini Market","code":null,"latitude":40.04066,"longitude":-75.03061,"address":"7830 Frankford Ave, PHILADELPHIA PA","chain_name":null,"distance":0},{"name":"A-Plus Mini Market","code":null,"latitude":39.94892,"longitude":-75.21291,"address":"4500 Baltimore Ave, PHILADELPHIA PA","chain_name":null,"distance":0},{"name":"A-Plus Mini Market","code":null,"latitude":40.02717,"longitude":-75.11075,"address":"3951 Roosevelt Blvd, PHILADELPHIA PA","chain_name":null,"distance":0},{"name":"A-Plus Mini Market","code":null,"latitude":40.03151,"longitude":-75.08405,"address":"5801 Roosevelt Blvd, PHILADELPHIA PA","chain_name":null,"distance":0},{"name":"A-Plus Mini Market","code":null,"latitude":40.06024,"longitude":-75.0814,"address":"1115 Cottman Ave, PHILADELPHIA PA","chain_name":null,"distance":0},{"name":"A-Plus Mini Market","code":null,"latitude":40.05521,"longitude":-75.08991,"address":"6865 Rising Sun Ave, PHILADELPHIA PA","chain_name":null,"distance":0},{"name":"A-Plus Mini Market","code":null,"latitude":40.03012,"longitude":-75.17016,"address":"100 W Queen Ln, PHILADELPHIA PA","chain_name":null,"distance":0},{"name":"A-Plus Mini Market","code":null,"latitude":40.02999,"longitude":-75.15342,"address":"5000 Ogontz Ave, PHILADELPHIA PA","chain_name":null,"distance":0},{"name":"A-Plus Mini Market","code":null,"latitude":40.02955,"longitude":-75.03595,"address":"7241 Torresdale Ave, PHILADELPHIA PA","chain_name":null,"distance":0},{"name":"A-Plus Mini Market","code":null,"latitude":39.91396,"longitude":-75.1475,"address":"59 Oregon Ave, PHILADELPHIA PA","chain_name":null,"distance":0},{"name":"A-Plus Mini Market","code":null,"latitude":40.04163,"longitude":-75.14429,"address":"5810 N Broad St, PHILADELPHIA PA","chain_name":null,"distance":0},{"name":"A-Plus Mini Market","code":null,"latitude":40.01608,"longitude":-75.14984,"address":"4140 N Broad St, PHILADELPHIA PA","chain_name":null,"distance":0},{"name":"A-Plus Mini Market","code":null,"latitude":40.03295,"longitude":-75.13142,"address":"5338 N 5th St, PHILADELPHIA PA","chain_name":null,"distance":0},{"name":"A-Plus Mini Market","code":null,"latitude":39.9745,"longitude":-75.19921,"address":"3750 W Girard Ave, PHILADELPHIA PA","chain_name":null,"distance":0},{"name":"A-Plus Mini Market","code":null,"latitude":40.08233,"longitude":-75.17274,"address":"3200 W Cheltenham Ave, PHILADELPHIA PA","chain_name":null,"distance":0},{"name":"A-Plus Mini Market","code":null,"latitude":40.06412,"longitude":-75.02114,"address":"9200 Ashton Rd, PHILADELPHIA PA","chain_name":null,"distance":0},{"name":"A-Plus Mini Market","code":null,"latitude":40.05049,"longitude":-75.06656,"address":"7265 Castor Ave, PHILADELPHIA PA","chain_name":null,"distance":0},{"name":"A-Plus Mini Market","code":null,"latitude":39.98308,"longitude":-75.10153,"address":"3200 Richmond St, PHILADELPHIA PA","chain_name":null,"distance":0},{"name":"A-Plus Mini Market","code":null,"latitude":40.0357,"longitude":-75.21725,"address":"6201 Ridge Ave, PHILADELPHIA PA","chain_name":null,"distance":0},{"name":"A-Plus Mini Market","code":null,"latitude":40.03101,"longitude":-75.14625,"address":"5017 N Broad St, PHILADELPHIA PA","chain_name":null,"distance":0},{"name":"A-Plus Mini Market","code":null,"latitude":40.1235,"longitude":-75.51253,"address":"Main & Nutt Road, PHOENIXVILLE PA","chain_name":null,"distance":0},{"name":"A-Plus Mini Market","code":null,"latitude":40.35629,"longitude":-79.97991,"address":"4639 Clairton Blvd, PITTSBURGH PA","chain_name":null,"distance":0},{"name":"A-Plus Mini Market","code":null,"latitude":40.45096,"longitude":-80.00071,"address":"310 Cedar Ave, PITTSBURGH PA","chain_name":null,"distance":0},{"name":"A-Plus Mini Market","code":null,"latitude":40.44544,"longitude":-79.97296,"address":"2350 Centre Ave, PITTSBURGH PA","chain_name":null,"distance":0},{"name":"A-Plus Mini Market","code":null,"latitude":40.46101,"longitude":-79.9475,"address":"4779 Liberty Ave, PITTSBURGH PA","chain_name":null,"distance":0},{"name":"A-Plus Mini Market","code":null,"latitude":40.37571,"longitude":-79.9834,"address":"3299 Saw Mill Run Blvd, PITTSBURGH PA","chain_name":null,"distance":0},{"name":"Sunoco","code":null,"latitude":40.49788,"longitude":-80.21407,"address":"PITTSBURGH INTL AIRPORT, PITTSBURGH PA","chain_name":null,"distance":0},{"name":"A-Plus Mini Market","code":null,"latitude":40.34987,"longitude":-80.05159,"address":"1710 Washington Rd, PITTSBURGH PA","chain_name":null,"distance":0},{"name":"A-Plus Mini Market","code":null,"latitude":40.39156,"longitude":-80.03891,"address":"3100 W Liberty Ave, PITTSBURGH PA","chain_name":null,"distance":0},{"name":"A-Plus Mini Market","code":null,"latitude":40.44957,"longitude":-79.95079,"address":"195 N Craig St, PITTSBURGH PA","chain_name":null,"distance":0},{"name":"A-Plus Mini Market","code":null,"latitude":40.4306,"longitude":-79.81473,"address":"3406 William Penn Hwy, PITTSBURGH PA","chain_name":null,"distance":0},{"name":"A-Plus Mini Market","code":null,"latitude":40.51696,"longitude":-79.95884,"address":"1020 Mount Royal Blvd, PITTSBURGH PA","chain_name":null,"distance":0},{"name":"A-Plus Mini Market","code":null,"latitude":40.39543,"longitude":-80.03338,"address":"2873 W Liberty Ave, PITTSBURGH PA","chain_name":null,"distance":0},{"name":"A-Plus Mini Market","code":null,"latitude":40.37041,"longitude":-79.91298,"address":"5204 Interboro Ave, PITTSBURGH PA","chain_name":null,"distance":0},{"name":"A-Plus Mini Market","code":null,"latitude":40.46621,"longitude":-79.92244,"address":"514 N Highland Ave, PITTSBURGH PA","chain_name":null,"distance":0},{"name":"A-Plus Mini Market","code":null,"latitude":40.3917,"longitude":-80.06041,"address":"1630 Cochran Rd, PITTSBURGH PA","chain_name":null,"distance":0},{"name":"A-Plus Mini Market","code":null,"latitude":40.47824,"longitude":-79.95601,"address":"5013 Butler St, PITTSBURGH PA","chain_name":null,"distance":0},{"name":"A-Plus Mini Market","code":null,"latitude":40.46068,"longitude":-79.91408,"address":"6481 Frankstown Ave, PITTSBURGH PA","chain_name":null,"distance":0},{"name":"A-Plus Mini Market","code":null,"latitude":40.46333,"longitude":-80.05756,"address":"351 Stanhope St, PITTSBURGH PA","chain_name":null,"distance":0},{"name":"A-Plus Mini Market","code":null,"latitude":40.39597,"longitude":-80.02278,"address":"533 Brookline Blvd, PITTSBURGH PA","chain_name":null,"distance":0},{"name":"A-Plus Mini Market","code":null,"latitude":40.55735,"longitude":-80.02323,"address":"8197 McKnight Rd, PITTSBURGH PA","chain_name":null,"distance":0},{"name":"A-Plus Mini Market","code":null,"latitude":41.3164,"longitude":-75.79556,"address":"308 S Main St, PITTSTON PA","chain_name":null,"distance":0},{"name":"A-Plus Mini Market","code":null,"latitude":40.33882,"longitude":-79.96033,"address":"104 Clairton Blvd, PLEASANT HILLS PA","chain_name":null,"distance":0},{"name":"A-Plus Mini Market","code":null,"latitude":40.17488,"longitude":-75.66248,"address":"2200 Pottstown Pike, POTTSTOWN PA","chain_name":null,"distance":0},{"name":"A-Plus Mini Market","code":null,"latitude":40.689,"longitude":-76.251,"address":"Norwegian & Lord St, POTTSVILLE PA","chain_name":null,"distance":0},{"name":"A-Plus Mini Mart","code":null,"latitude":39.88063,"longitude":-75.30438,"address":"401 Lincoln Ave, PROSPECT PARK PA","chain_name":null,"distance":0},{"name":"A-Plus Mini Market","code":null,"latitude":40.44166,"longitude":-75.33754,"address":"331 W Broad St, QUAKERTOWN PA","chain_name":null,"distance":0},{"name":"A-Plus Mini Market","code":null,"latitude":40.33799,"longitude":-76.47394,"address":"Rt 72 & 419, QUENTIN PA","chain_name":null,"distance":0},{"name":"A-Plus Mini Market","code":null,"latitude":40.31061,"longitude":-75.952,"address":"1547 Lancaster Ave, READING PA","chain_name":null,"distance":0},{"name":"A-Plus Mini Market","code":null,"latitude":40.34822,"longitude":-75.91211,"address":"842 N 13th St, READING PA","chain_name":null,"distance":0},{"name":"A-Plus Mini Market","code":null,"latitude":40.29846,"longitude":-75.94471,"address":"701 Philadelphia Ave, READING PA","chain_name":null,"distance":0},{"name":"A-Plus Mini Market","code":null,"latitude":40.38439,"longitude":-75.93481,"address":"100 W Bellevue Ave, READING PA","chain_name":null,"distance":0},{"name":"A-Plus Mini Market","code":null,"latitude":40.35048,"longitude":-75.92072,"address":"719 Spring St, READING PA","chain_name":null,"distance":0},{"name":"A-Plus Mini Market","code":null,"latitude":39.94807,"longitude":-76.22952,"address":"1404 NORTH READING ROAD, REAMSTOWN PA","chain_name":null,"distance":0},{"name":"A-Plus Mini Market","code":null,"latitude":40.08404,"longitude":-75.09321,"address":"812 Huntingdon Pike, ROCKLEDGE PA","chain_name":null,"distance":0},{"name":"A-Plus Mini Market","code":null,"latitude":40.10847,"longitude":-79.58482,"address":"800 Water St, SCOTTDALE PA","chain_name":null,"distance":0},{"name":"A-Plus Mini Market","code":null,"latitude":41.39812,"longitude":-75.68813,"address":"1227 S Main Ave, SCRANTON PA","chain_name":null,"distance":0},{"name":"A-Plus Mini Market","code":null,"latitude":41.41055,"longitude":-75.68263,"address":"234 S Main Ave, SCRANTON PA","chain_name":null,"distance":0},{"name":"A-Plus Mini Market","code":null,"latitude":40.68419,"longitude":-80.06595,"address":"675 Castle Creek Dr, SEVEN FIELDS PA","chain_name":null,"distance":0},{"name":"A-Plus Mini Market","code":null,"latitude":40.04904,"longitude":-77.52404,"address":"92 W King St, SHIPPENSBURG PA","chain_name":null,"distance":0},{"name":"A-Plus Mini Market","code":null,"latitude":40.75271,"longitude":-75.60574,"address":"160 Main St, SLATINGTON PA","chain_name":null,"distance":0},{"name":"A-Plus Mini Market","code":null,"latitude":40.18293,"longitude":-75.56795,"address":"3395 Schuylkill Rd, SPRING CITY PA","chain_name":null,"distance":0},{"name":"A-Plus Mini Market","code":null,"latitude":40.97869,"longitude":-75.18869,"address":"134 Park Ave, STROUDSBURG PA","chain_name":null,"distance":0},{"name":"A-Plus Mini Market","code":null,"latitude":40.8626,"longitude":-76.79036,"address":"4th & Arch Street, SUNBURY PA","chain_name":null,"distance":0},{"name":"A-Plus Mini Market","code":null,"latitude":40.42018,"longitude":-79.88917,"address":"7403 Washington Ave, SWISSVALE PA","chain_name":null,"distance":0},{"name":"A-Plus Mini Market","code":null,"latitude":39.89925,"longitude":-79.71538,"address":"55 Connellsville St, UNIONTOWN PA","chain_name":null,"distance":0},{"name":"A-Plus Mini Market","code":null,"latitude":39.8983,"longitude":-79.72877,"address":"55 Morgantown St, UNIONTOWN PA","chain_name":null,"distance":0},{"name":"A-Plus Mini Market","code":null,"latitude":39.96588,"longitude":-75.27918,"address":"8203 W Chester Pike, UPPER DARBY PA","chain_name":null,"distance":0},{"name":"A-Plus Mini Market","code":null,"latitude":39.88525,"longitude":-78.24323,"address":"9648 Old 126, WARFORDSBURG PA","chain_name":null,"distance":0},{"name":"A-Plus Mini Market","code":null,"latitude":40.20726,"longitude":-75.09999,"address":"610 York Rd, WARMINSTER PA","chain_name":null,"distance":0},{"name":"A-Plus Mini Market","code":null,"latitude":40.22893,"longitude":-75.13912,"address":"580 Easton Rd, WARRINGTON PA","chain_name":null,"distance":0},{"name":"Sunoco","code":null,"latitude":41.07985,"longitude":-76.85859,"address":"15 Main St, WATSONTOWN PA","chain_name":null,"distance":0},{"name":"A-Plus Mini Market","code":null,"latitude":40.04385,"longitude":-75.38125,"address":"301 E Lancaster Ave, WAYNE PA","chain_name":null,"distance":0},{"name":"A-Plus Mini Market","code":null,"latitude":39.90713,"longitude":-75.5681,"address":"1301 Wilmington Pike, WEST CHESTER PA","chain_name":null,"distance":0},{"name":"A-Plus Mini Market","code":null,"latitude":39.96991,"longitude":-75.56452,"address":"1165 W Chester Pike, WEST CHESTER PA","chain_name":null,"distance":0},{"name":"A-Plus Mini Market","code":null,"latitude":39.98789,"longitude":-75.55426,"address":"1425 Paoli Pike, WEST CHESTER PA","chain_name":null,"distance":0},{"name":"A-Plus Mini Market","code":null,"latitude":39.82648,"longitude":-75.82092,"address":"305 E Baltimore Pike, WEST GROVE PA","chain_name":null,"distance":0},{"name":"A-Plus Mini Market","code":null,"latitude":40.98186,"longitude":-76.02498,"address":"RTE 93 & KIWANIS DRIVE, WEST HAZLETON PA","chain_name":null,"distance":0},{"name":"A-Plus Mini Market","code":null,"latitude":41.24215,"longitude":-75.89717,"address":"144 Academy St, WILKES BARRE PA","chain_name":null,"distance":0},{"name":"A-Plus Mini Market","code":null,"latitude":40.44677,"longitude":-79.8936,"address":"7701 Penn Ave, WILKINSBURG PA","chain_name":null,"distance":0},{"name":"A-Plus Mini Market","code":null,"latitude":41.25033,"longitude":-76.98114,"address":"1300 Washington Blvd, WILLIAMSPORT PA","chain_name":null,"distance":0},{"name":"A-Plus Mini Market","code":null,"latitude":39.99326,"longitude":-75.26535,"address":"330 E Lancaster Ave, WYNNEWOOD PA","chain_name":null,"distance":0},{"name":"A-Plus Mini Market","code":null,"latitude":40.34428,"longitude":-75.99909,"address":"3100 State Hill Rd, WYOMISSING PA","chain_name":null,"distance":0},{"name":"A-Plus Mini Market","code":null,"latitude":40.34325,"longitude":-75.9578,"address":"624 N Park Rd, WYOMISSING PA","chain_name":null,"distance":0},{"name":"A-Plus Express","code":null,"latitude":39.95278,"longitude":-76.77025,"address":"1947 W Market St, YORK PA","chain_name":null,"distance":0},{"name":"A-Plus Mini Market","code":null,"latitude":39.97306,"longitude":-76.71297,"address":"260 N Sherman St, YORK PA","chain_name":null,"distance":0},{"name":"A-Plus Mini Market","code":null,"latitude":40.23287,"longitude":-79.58366,"address":"506 S 4th St, YOUNGWOOD PA","chain_name":null,"distance":0},{"name":"A-Plus Mini Market","code":null,"latitude":41.93508,"longitude":-71.48041,"address":"630 George Washington Hwy, LINCOLN RI","chain_name":null,"distance":0},{"name":"A-Plus Mini Market","code":null,"latitude":41.69581,"longitude":-71.51871,"address":"139 Legris Ave, WEST WARWICK RI","chain_name":null,"distance":0},{"name":"A-Plus Mini Market","code":null,"latitude":38.90057,"longitude":-77.22393,"address":"2210 Gallows Rd, DUNN LORING VA","chain_name":null,"distance":0},{"name":"Coastal","code":null,"latitude":29.49593,"longitude":-82.86805,"address":"1824 N Young Blvd, CHIEFLAND FL","chain_name":null,"distance":0},{"name":"Coastal","code":null,"latitude":28.37537,"longitude":-82.19059,"address":"14922 US Highway 301, DADE CITY FL","chain_name":null,"distance":0},{"name":"Coastal","code":null,"latitude":28.37927,"longitude":-82.19277,"address":"15207 US Highway 301, DADE CITY FL","chain_name":null,"distance":0},{"name":"Coastal","code":null,"latitude":29.05673,"longitude":-82.45617,"address":"11716 N Williams St, DUNNELLON FL","chain_name":null,"distance":0},{"name":"Coastal","code":null,"latitude":29.65953,"longitude":-82.33023,"address":"528 NW 8th Ave, GAINESVILLE FL","chain_name":null,"distance":0},{"name":"Coastal","code":null,"latitude":29.82716,"longitude":-82.59689,"address":"10 NW 1st Ave, HIGH SPRINGS FL","chain_name":null,"distance":0},{"name":"Coastal","code":null,"latitude":30.1805,"longitude":-82.66178,"address":"1909 W US Highway 90, LAKE CITY FL","chain_name":null,"distance":0},{"name":"Coastal","code":null,"latitude":28.7788,"longitude":-81.27448,"address":"2623 S Orlando Dr, SANFORD FL","chain_name":null,"distance":0},{"name":"Coastal","code":null,"latitude":29.91269,"longitude":-81.32325,"address":"2199 N Ponce De Leon Blvd, ST AUGUSTINE FL","chain_name":null,"distance":0},{"name":"Coastal","code":null,"latitude":28.01082,"longitude":-82.45311,"address":"810 E Sligh Ave, TAMPA FL","chain_name":null,"distance":0},{"name":"Coastal","code":null,"latitude":27.94114,"longitude":-82.49349,"address":"403 S Macdill Ave, TAMPA FL","chain_name":null,"distance":0},{"name":"Coastal","code":null,"latitude":29.78585,"longitude":-82.14702,"address":"14455 Kennard St, WALDO FL","chain_name":null,"distance":0},{"name":"Coastal","code":null,"latitude":29.38657,"longitude":-82.45125,"address":"340 W Noble Ave, WILLISTON FL","chain_name":null,"distance":0},{"name":"Coastal","code":null,"latitude":39.48541,"longitude":-74.58521,"address":"282 W WHITE HORSE PIKE, POMONA NJ","chain_name":null,"distance":0},{"name":"Sunoco","code":null,"latitude":40.94622,"longitude":-77.07406,"address":"CHESTNUT & BUFFALO ROAD, MIFFLINBURG PA","chain_name":null,"distance":0},{"name":"Sunoco","code":null,"latitude":34.53894,"longitude":-82.49488,"address":"709 N Main St, BELTON SC","chain_name":null,"distance":0},{"name":"Optima","code":null,"latitude":42.17146,"longitude":-71.88043,"address":"740 Main St, NORTH OXFORD MA","chain_name":null,"distance":0},{"name":"Optima","code":null,"latitude":44.12053,"longitude":-70.23116,"address":"94 Mount Auburn Ave, AUBURN ME","chain_name":null,"distance":0},{"name":"Optima","code":null,"latitude":42.89806,"longitude":-71.33385,"address":"32 Manchester Rd, DERRY NH","chain_name":null,"distance":0},{"name":"Optima","code":null,"latitude":43.25255,"longitude":-70.88464,"address":"11 Waltons Way, SOMERSWORTH NH","chain_name":null,"distance":0},{"name":"Optima","code":null,"latitude":43.28696,"longitude":-76.12803,"address":"3016 East Ave, CENTRAL SQUARE NY","chain_name":null,"distance":0},{"name":"Optima","code":null,"latitude":42.45319,"longitude":-79.30951,"address":"10399 Bennett Rd, FREDONIA NY","chain_name":null,"distance":0},{"name":"Optima","code":null,"latitude":43.09633,"longitude":-75.30427,"address":"4759 Commercial Dr, NEW HARTFORD NY","chain_name":null,"distance":0},{"name":"Optima","code":null,"latitude":42.49745,"longitude":-75.52897,"address":"5398 State Highway 12, NORWICH NY","chain_name":null,"distance":0},{"name":"Optima","code":null,"latitude":43.1935,"longitude":-77.59978,"address":"1470 Hudson Ave, ROCHESTER NY","chain_name":null,"distance":0},{"name":"Optima","code":null,"latitude":43.23343,"longitude":-75.49972,"address":"5809 Rome Taberg Rd, ROME NY","chain_name":null,"distance":0},{"name":"Optima","code":null,"latitude":42.50234,"longitude":-78.68972,"address":"287 S Cascade Dr, SPRINGVILLE NY","chain_name":null,"distance":0},{"name":"Optima","code":null,"latitude":42.90256,"longitude":-76.84078,"address":"1857 Us Route 20, WATERLOO NY","chain_name":null,"distance":0},{"name":"Optima","code":null,"latitude":39.92391,"longitude":-77.61042,"address":"1716 Lincoln Way E, CHAMBERSBURG PA","chain_name":null,"distance":0},{"name":"Optima","code":null,"latitude":41.10615,"longitude":-78.42341,"address":"461 Supercenter Dr, CLEARFIELD PA","chain_name":null,"distance":0},{"name":"Optima","code":null,"latitude":40.78827,"longitude":-76.50946,"address":"3200 State Route 61, COAL TOWNSHIP PA","chain_name":null,"distance":0},{"name":"Optima","code":null,"latitude":41.06882,"longitude":-75.14657,"address":"255 LINCOLN AVE, E STROUDSBURG PA","chain_name":null,"distance":0},{"name":"Optima","code":null,"latitude":41.55508,"longitude":-75.22426,"address":"778 Willow Ave, HONESDALE PA","chain_name":null,"distance":0},{"name":"Optima","code":null,"latitude":40.34739,"longitude":-76.39058,"address":"1375 E Lehman St, LEBANON PA","chain_name":null,"distance":0},{"name":"Optima","code":null,"latitude":40.58292,"longitude":-77.6128,"address":"10190 US Highway 522 S, LEWISTOWN PA","chain_name":null,"distance":0},{"name":"Optima","code":null,"latitude":41.79982,"longitude":-77.07645,"address":"1167 S Main St, MANSFIELD PA","chain_name":null,"distance":0},{"name":"Optima","code":null,"latitude":40.3865,"longitude":-79.82253,"address":"107 Walmart Dr, NORTH VERSAILLES PA","chain_name":null,"distance":0},{"name":"Optima","code":null,"latitude":42.01477,"longitude":-71.47022,"address":"1907 Diamond Hill Rd, WOONSOCKET RI","chain_name":null,"distance":0},{"name":"Optima","code":null,"latitude":39.42697,"longitude":-79.00888,"address":"RR 4 Box 81, KEYSER WV","chain_name":null,"distance":0},{"name":"Optima","code":null,"latitude":37.8114,"longitude":-80.43278,"address":"514 N Jefferson St, LEWISBURG WV","chain_name":null,"distance":0},{"name":"Optima","code":null,"latitude":39.01921,"longitude":-78.98252,"address":"9 Harness Rd, MOOREFIELD WV","chain_name":null,"distance":0},{"name":"Optima","code":null,"latitude":39.65532,"longitude":-80.85879,"address":"1140 S Bridge St, NEW MARTINSVILLE WV","chain_name":null,"distance":0},{"name":"Optima","code":null,"latitude":39.30502,"longitude":-81.55064,"address":"703 Grand Central Ave, VIENNA WV","chain_name":null,"distance":0},{"name":"Optima","code":null,"latitude":39.01888,"longitude":-80.41652,"address":"50 Berlin Rd, WESTON WV","chain_name":null,"distance":0},{"name":"A-Plus Mini Market","code":null,"latitude":28.059,"longitude":-81.78774,"address":"420 Magnolia Ave, AUBURNDALE FL","chain_name":null,"distance":0},{"name":"A-Plus Mini Market","code":null,"latitude":27.90825,"longitude":-81.84371,"address":"1385 N Broadway Ave, BARTOW FL","chain_name":null,"distance":0},{"name":"A-Plus Mini Market","code":null,"latitude":28.5334,"longitude":-82.49161,"address":"7170 Barclay Ave, BROOKSVILLE FL","chain_name":null,"distance":0},{"name":"A-Plus Mini Market","code":null,"latitude":28.54906,"longitude":-82.39833,"address":"765 S Broad St, BROOKSVILLE FL","chain_name":null,"distance":0},{"name":"A-Plus Mini Market","code":null,"latitude":28.66878,"longitude":-82.14543,"address":"2460 W C 48, BUSHNELL FL","chain_name":null,"distance":0},{"name":"A-Plus Mini Market","code":null,"latitude":27.96083,"longitude":-82.70686,"address":"3130 Gulf To Bay Blvd, CLEARWATER FL","chain_name":null,"distance":0},{"name":"A-Plus Mini Market","code":null,"latitude":27.87729,"longitude":-82.71105,"address":"11600 US Highway 19 N, CLEARWATER FL","chain_name":null,"distance":0},{"name":"Sunoco","code":null,"latitude":28.35765,"longitude":-81.6778,"address":"940 US Highway 27, CLERMONT FL","chain_name":null,"distance":0},{"name":"Sunoco","code":null,"latitude":28.30295,"longitude":-81.66613,"address":"44009 Highway 27, DAVENPORT FL","chain_name":null,"distance":0},{"name":"A-Plus Mini Market","code":null,"latitude":26.93869,"longitude":-82.34032,"address":"1680 S McCall Rd, ENGLEWOOD FL","chain_name":null,"distance":0},{"name":"A-Plus Mini Market","code":null,"latitude":28.17799,"longitude":-82.74019,"address":"1324 US Highway 19, HOLIDAY FL","chain_name":null,"distance":0},{"name":"A-Plus Mini Market","code":null,"latitude":27.89421,"longitude":-81.55923,"address":"1349 State Road 60 E, LAKE WALES FL","chain_name":null,"distance":0},{"name":"A-Plus Mini Market","code":null,"latitude":28.04764,"longitude":-81.90725,"address":"2707 US Highway 92 E, LAKELAND FL","chain_name":null,"distance":0},{"name":"Sunoco","code":null,"latitude":27.95305,"longitude":-81.92374,"address":"2190 E County Road 540a, LAKELAND FL","chain_name":null,"distance":0},{"name":"A-Plus Mini Market","code":null,"latitude":28.01727,"longitude":-81.90796,"address":"2225 S Combee Rd, LAKELAND FL","chain_name":null,"distance":0},{"name":"A-Plus Mini Market","code":null,"latitude":27.9819,"longitude":-81.94841,"address":"4612 Cleveland Heights Blvd, LAKELAND FL","chain_name":null,"distance":0},{"name":"A-Plus Mini Market","code":null,"latitude":28.01852,"longitude":-81.97337,"address":"1920 Harden Blvd, LAKELAND FL","chain_name":null,"distance":0},{"name":"Sunoco","code":null,"latitude":28.12836,"longitude":-81.95628,"address":"6655 N Socrum Loop Rd, LAKELAND FL","chain_name":null,"distance":0},{"name":"Sunoco","code":null,"latitude":28.05449,"longitude":-81.99178,"address":"2100 W Memorial Blvd, LAKELAND FL","chain_name":null,"distance":0},{"name":"A-Plus Mini Market","code":null,"latitude":27.92923,"longitude":-82.796,"address":"1403 Clearwater Largo Rd N, LARGO FL","chain_name":null,"distance":0},{"name":"A-Plus Mini Market","code":null,"latitude":28.81264,"longitude":-81.85588,"address":"1347 NORTH BLVD, LEESBURG FL","chain_name":null,"distance":0},{"name":"A-Plus Mini Market","code":null,"latitude":28.81566,"longitude":-81.84814,"address":"1705 E Main St, LEESBURG FL","chain_name":null,"distance":0},{"name":"A-Plus Mini Market","code":null,"latitude":28.82031,"longitude":-81.6716,"address":"16950 US Highway 441, MOUNT DORA FL","chain_name":null,"distance":0},{"name":"A-Plus Mini Market","code":null,"latitude":28.24211,"longitude":-82.72743,"address":"5736 US Highway 19, NEW PORT RICHEY FL","chain_name":null,"distance":0},{"name":"A-Plus Mini Market","code":null,"latitude":26.99491,"longitude":-82.11702,"address":"2483 Tamiami Trl, PORT CHARLOTTE FL","chain_name":null,"distance":0},{"name":"A-Plus Mini Market","code":null,"latitude":26.96241,"longitude":-82.07119,"address":"4580 Tamiami Trl, PORT CHARLOTTE FL","chain_name":null,"distance":0},{"name":"A-Plus Mini Market","code":null,"latitude":27.29867,"longitude":-82.50604,"address":"3190 Bee Ridge Rd, SARASOTA FL","chain_name":null,"distance":0},{"name":"A-Plus Mini Market","code":null,"latitude":27.29889,"longitude":-82.48979,"address":"3953 Bee Ridge Rd, SARASOTA FL","chain_name":null,"distance":0},{"name":"A-Plus Mini Market","code":null,"latitude":27.25463,"longitude":-82.49779,"address":"6988 Beneva Rd, SARASOTA FL","chain_name":null,"distance":0},{"name":"A-Plus Mini Market","code":null,"latitude":27.34526,"longitude":-82.54668,"address":"1012 N Tamiami Trl, SARASOTA FL","chain_name":null,"distance":0},{"name":"A-Plus Mini Market","code":null,"latitude":27.82454,"longitude":-82.67978,"address":"5790 34th St N, ST PETERSBURG FL","chain_name":null,"distance":0},{"name":"A-Plus Mini Market","code":null,"latitude":27.72136,"longitude":-82.67901,"address":"5100 34th St S, ST PETERSBURG FL","chain_name":null,"distance":0},{"name":"A-Plus Mini Market","code":null,"latitude":27.96572,"longitude":-82.40193,"address":"2602 N 50th St, TAMPA FL","chain_name":null,"distance":0},{"name":"A-Plus Mini Market","code":null,"latitude":28.08409,"longitude":-82.57872,"address":"8402 Gunn Hwy, TAMPA FL","chain_name":null,"distance":0},{"name":"A-Plus Mini Market","code":null,"latitude":28.00464,"longitude":-82.50498,"address":"6211 N Dale Mabry Hwy, TAMPA FL","chain_name":null,"distance":0},{"name":"A-Plus Mini Market","code":null,"latitude":28.81413,"longitude":-81.72791,"address":"105 W Burleigh Blvd, TAVARES FL","chain_name":null,"distance":0},{"name":"A-Plus Mini Market","code":null,"latitude":27.06712,"longitude":-82.41978,"address":"1805 Tamiami Trl S, VENICE FL","chain_name":null,"distance":0},{"name":"A-Plus Mini Market","code":null,"latitude":28.00082,"longitude":-81.75639,"address":"1502 Recker Hwy, WINTER HAVEN FL","chain_name":null,"distance":0},{"name":"A-Plus Mini Market","code":null,"latitude":28.03317,"longitude":-81.73255,"address":"1202 6th St NW, WINTER HAVEN FL","chain_name":null,"distance":0},{"name":"A-Plus Mini Market SUNOCO","code":null,"latitude":28.23058,"longitude":-82.21383,"address":"36445 State Road 54, ZEPHYRHILLS FL","chain_name":null,"distance":0},{"name":"A-Plus Mini Market","code":null,"latitude":32.92387,"longitude":-80.68177,"address":"1137 Bells Hwy, WALTERBORO SC","chain_name":null,"distance":0},{"name":"Sunoco","code":null,"latitude":41.27829,"longitude":-72.83993,"address":"700 W Main St, BRANFORD CT","chain_name":null,"distance":0},{"name":"Sunoco","code":null,"latitude":41.03653,"longitude":-73.60811,"address":"510 E Putnam Ave, GREENWICH CT","chain_name":null,"distance":0},{"name":"Sunoco","code":null,"latitude":41.36987,"longitude":-72.1147,"address":"715 Colman St, NEW LONDON CT","chain_name":null,"distance":0},{"name":"Sunoco","code":null,"latitude":41.39424,"longitude":-72.85728,"address":"95 Washington Ave, NORTH HAVEN CT","chain_name":null,"distance":0},{"name":"Sunoco","code":null,"latitude":41.29722,"longitude":-72.37742,"address":"583 Boston Post Rd, OLD SAYBROOK CT","chain_name":null,"distance":0},{"name":"Sunoco","code":null,"latitude":41.62942,"longitude":-72.87387,"address":"474 Queen St, SOUTHINGTON CT","chain_name":null,"distance":0},{"name":"Sunoco","code":null,"latitude":38.90826,"longitude":-77.0058,"address":"101 New York Ave NE, WASHINGTON DC","chain_name":null,"distance":0},{"name":"Sunoco","code":null,"latitude":29.64354,"longitude":-81.60847,"address":"167 S US Highway 17, EAST PALATKA FL","chain_name":null,"distance":0},{"name":"Sunoco","code":null,"latitude":30.30087,"longitude":-81.73066,"address":"1266 Cassat Ave, JACKSONVILLE FL","chain_name":null,"distance":0},{"name":"Sunoco","code":null,"latitude":27.72936,"longitude":-82.43399,"address":"1202 N US Highway 41, RUSKIN FL","chain_name":null,"distance":0},{"name":"Sunoco","code":null,"latitude":27.29888,"longitude":-82.48403,"address":"4131 Bee Ridge Rd, SARASOTA FL","chain_name":null,"distance":0},{"name":"Sunoco","code":null,"latitude":28.02545,"longitude":-82.47334,"address":"1401 W Waters Ave, TAMPA FL","chain_name":null,"distance":0},{"name":"Sunoco","code":null,"latitude":28.15544,"longitude":-82.75659,"address":"940 N Pinellas Ave, TARPON SPRINGS FL","chain_name":null,"distance":0},{"name":"Sunoco","code":null,"latitude":42.475,"longitude":-71.45363,"address":"421 Massachusetts Ave, ACTON MA","chain_name":null,"distance":0},{"name":"Sunoco","code":null,"latitude":42.3451,"longitude":-71.09526,"address":"1250 Boylston St, BOSTON MA","chain_name":null,"distance":0},{"name":"Sunoco","code":null,"latitude":42.34639,"longitude":-71.12835,"address":"454 Harvard St, BROOKLINE MA","chain_name":null,"distance":0},{"name":"Gas Plus","code":null,"latitude":42.07224,"longitude":-72.51865,"address":"204 N Main St, EAST LONGMEADOW MA","chain_name":null,"distance":0},{"name":"Gas Plus","code":null,"latitude":42.06691,"longitude":-72.67884,"address":"2 S Westfield St, FEEDING HILLS MA","chain_name":null,"distance":0},{"name":"A-Plus Express","code":null,"latitude":42.29756,"longitude":-71.41853,"address":"554 Worcester Rd, FRAMINGHAM MA","chain_name":null,"distance":0},{"name":"Sunoco","code":null,"latitude":42.54332,"longitude":-71.76023,"address":"344 N Main St, LEOMINSTER MA","chain_name":null,"distance":0},{"name":"A-Plus Express","code":null,"latitude":42.02819,"longitude":-71.228,"address":"70 Copeland Dr, MANSFIELD MA","chain_name":null,"distance":0},{"name":"Sunoco","code":null,"latitude":42.42413,"longitude":-71.08941,"address":"69 Fellsway W, MEDFORD MA","chain_name":null,"distance":0},{"name":"A-Plus Express","code":null,"latitude":41.88429,"longitude":-70.91919,"address":"157 S Main St, MIDDLEBORO MA","chain_name":null,"distance":0},{"name":"Sunoco","code":null,"latitude":41.69966,"longitude":-70.93548,"address":"2942 Acushnet Ave, NEW BEDFORD MA","chain_name":null,"distance":0},{"name":"A-Plus Express","code":null,"latitude":42.31941,"longitude":-71.18199,"address":"325 Boylston St, NEWTON CENTER MA","chain_name":null,"distance":0},{"name":"A-Plus Express","code":null,"latitude":42.19447,"longitude":-71.18412,"address":"515 Boston Providence Tpke, NORWOOD MA","chain_name":null,"distance":0},{"name":"Ray S. Circle Service","code":null,"latitude":42.42197,"longitude":-71.0043,"address":"1030 Broadway, REVERE MA","chain_name":null,"distance":0},{"name":"A-Plus Mini Market","code":null,"latitude":42.40145,"longitude":-70.99685,"address":"1781 N Shore Rd, REVERE MA","chain_name":null,"distance":0},{"name":"Sunoco","code":null,"latitude":42.47699,"longitude":-71.02285,"address":"700 Broadway, SAUGUS MA","chain_name":null,"distance":0},{"name":"Sunoco","code":null,"latitude":42.27649,"longitude":-71.71688,"address":"524 Boston Tpke # 9, SHREWSBURY MA","chain_name":null,"distance":0},{"name":"A-Plus Mini Market","code":null,"latitude":42.38251,"longitude":-71.09111,"address":"434 McGrath Hwy, SOMERVILLE MA","chain_name":null,"distance":0},{"name":"Gas Plus","code":null,"latitude":42.14045,"longitude":-72.49995,"address":"1313 Boston Rd, SPRINGFIELD MA","chain_name":null,"distance":0},{"name":"Sunoco","code":null,"latitude":42.47528,"longitude":-70.91503,"address":"182 Paradise Rd, SWAMPSCOTT MA","chain_name":null,"distance":0},{"name":"Gas Plus","code":null,"latitude":42.31652,"longitude":-71.36317,"address":"19 Main St, WAYLAND MA","chain_name":null,"distance":0},{"name":"Sunoco","code":null,"latitude":42.21149,"longitude":-71.79531,"address":"527 SW Cutoff, WORCESTER MA","chain_name":null,"distance":0},{"name":"Sunoco","code":null,"latitude":42.8192,"longitude":-83.26014,"address":"135 S Washington St, OXFORD MI","chain_name":null,"distance":0},{"name":"Sunoco","code":null,"latitude":35.86598,"longitude":-80.07191,"address":"1032 Randolph St, THOMASVILLE NC","chain_name":null,"distance":0},{"name":"Gas Plus","code":null,"latitude":42.83779,"longitude":-71.16101,"address":"PO Box 11, ATKINSON NH","chain_name":null,"distance":0},{"name":"Sunoco","code":null,"latitude":39.86651,"longitude":-75.09473,"address":"N S FREEWAY & BELLGARDEN, BELLMAWR NJ","chain_name":null,"distance":0},{"name":"Sunoco","code":null,"latitude":39.69772,"longitude":-75.45065,"address":"MILEPOST 5 4 NJ TPK, CARNEYS POINT NJ","chain_name":null,"distance":0},{"name":"Sunoco","code":null,"latitude":39.3335,"longitude":-75.20198,"address":"358 Main St, CEDARVILLE NJ","chain_name":null,"distance":0},{"name":"Sunoco","code":null,"latitude":39.93116,"longitude":-75.02506,"address":"MILEPOST 30 2 NJ TPK S, CHERRY HILL NJ","chain_name":null,"distance":0},{"name":"Sunoco","code":null,"latitude":40.3219,"longitude":-74.52846,"address":"MILEPOST 71 7 NJ TPK, CRANBURY NJ","chain_name":null,"distance":0},{"name":"Sunoco","code":null,"latitude":40.43217,"longitude":-74.41286,"address":"MILEPOST 78 7 NJ TPK NORT, E BRUNSWICK NJ","chain_name":null,"distance":0},{"name":"Sunoco","code":null,"latitude":40.51027,"longitude":-74.38711,"address":"737 US Highway 1 # OLD, EDISON NJ","chain_name":null,"distance":0},{"name":"Sunoco","code":null,"latitude":39.43584,"longitude":-74.59555,"address":"6501 Delilah Rd, EGG HARBOR TOWNSHIP NJ","chain_name":null,"distance":0},{"name":"Sunoco","code":null,"latitude":40.88375,"longitude":-73.98866,"address":"137 W State Rt 4, ENGLEWOOD NJ","chain_name":null,"distance":0},{"name":"Sunoco","code":null,"latitude":40.8787,"longitude":-73.98096,"address":"100 E State Rt 4, ENGLEWOOD NJ","chain_name":null,"distance":0},{"name":"Sunoco","code":null,"latitude":40.88485,"longitude":-73.95021,"address":"Palisades Pkwy South, ENGLWD CLIFFS NJ","chain_name":null,"distance":0},{"name":"Sunoco","code":null,"latitude":40.88485,"longitude":-73.95021,"address":"PALISADES PKWY NORTHBOUND, ENGLWD CLIFFS NJ","chain_name":null,"distance":0},{"name":"Sunoco","code":null,"latitude":40.87431,"longitude":-74.27648,"address":"152 Passaic Ave, FAIRFIELD NJ","chain_name":null,"distance":0},{"name":"Sunoco","code":null,"latitude":39.37991,"longitude":-75.22251,"address":"Main St & Fairton Pike, FAIRTON NJ","chain_name":null,"distance":0},{"name":"Sunoco","code":null,"latitude":40.86524,"longitude":-74.40705,"address":"1695 US Highway 46, FORT LEE NJ","chain_name":null,"distance":0},{"name":"Sunoco","code":null,"latitude":39.63237,"longitude":-74.77115,"address":"MILEPOST 21 4 A C EXPRE, HAMMONTON NJ","chain_name":null,"distance":0},{"name":"A-Plus Express","code":null,"latitude":40.08406,"longitude":-74.26729,"address":"1 N Hope Chapel Rd, JACKSON NJ","chain_name":null,"distance":0},{"name":"A-Plus Mini Market","code":null,"latitude":40.80698,"longitude":-74.46191,"address":"299 E Hanover Ave, MORRISTOWN NJ","chain_name":null,"distance":0},{"name":"Sunoco","code":null,"latitude":39.69772,"longitude":-75.45065,"address":"MILEPOST 5 4 NJ TPK, PENNS GROVE NJ","chain_name":null,"distance":0},{"name":"Sunoco","code":null,"latitude":39.65822,"longitude":-75.36445,"address":"843 Route 40, PILESGROVE NJ","chain_name":null,"distance":0},{"name":"Sunoco","code":null,"latitude":39.39461,"longitude":-74.51778,"address":"MILEPOST 3 0 ATLANTIC CIT, PLEASANTVILLE NJ","chain_name":null,"distance":0},{"name":"Sunoco","code":null,"latitude":40.83115,"longitude":-74.01444,"address":"MILEPOST 116E 115W NJ TPK, RIDGEFIELD NJ","chain_name":null,"distance":0},{"name":"Sunoco","code":null,"latitude":39.01751,"longitude":-74.87145,"address":"1 WILDWOOD BLVD, RIO GRANDE NJ","chain_name":null,"distance":0},{"name":"Sunoco","code":null,"latitude":40.99822,"longitude":-74.30413,"address":"75 Hamburg Tpke, RIVERDALE NJ","chain_name":null,"distance":0},{"name":"Sunoco","code":null,"latitude":39.56377,"longitude":-75.45991,"address":"EAST BROADWAY & YORK ST, SALEM NJ","chain_name":null,"distance":0},{"name":"Sunoco","code":null,"latitude":40.79438,"longitude":-74.06067,"address":"249 State Rt 3 # HOMBOLDT, SECAUCUS NJ","chain_name":null,"distance":0},{"name":"Sunoco","code":null,"latitude":40.78095,"longitude":-74.06598,"address":"MILEPOST 111 6 NJ TPK, SECAUCUS NJ","chain_name":null,"distance":0},{"name":"Sunoco","code":null,"latitude":40.55415,"longitude":-74.28756,"address":"NORTH MILEPOST 92 9 NJ TP, WOODBRIDGE NJ","chain_name":null,"distance":0},{"name":"Sunoco","code":null,"latitude":40.55415,"longitude":-74.28756,"address":"SOUTH MILEPOST 92 9 NJ TP, WOODBRIDGE TWP NJ","chain_name":null,"distance":0},{"name":"Sunoco","code":null,"latitude":40.68515,"longitude":-73.41323,"address":"MONTAUK & BAYVIEW AVENUES, AMITYVILLE NY","chain_name":null,"distance":0},{"name":"A-Plus Express","code":null,"latitude":42.78992,"longitude":-78.82363,"address":"3942 S Park Ave, BLASDELL NY","chain_name":null,"distance":0},{"name":"Sunoco","code":null,"latitude":40.60661,"longitude":-73.98731,"address":"1626 Stillwell Ave, BROOKLYN NY","chain_name":null,"distance":0},{"name":"A-Plus Express","code":null,"latitude":42.94092,"longitude":-78.86744,"address":"2075 Delaware Ave, BUFFALO NY","chain_name":null,"distance":0},{"name":"Sunoco","code":null,"latitude":44.59653,"longitude":-75.15766,"address":"71 E Main St, CANTON NY","chain_name":null,"distance":0},{"name":"Sunoco","code":null,"latitude":41.44561,"longitude":-73.71274,"address":"I-84 & RT 52, CARMEL NY","chain_name":null,"distance":0},{"name":"Sunoco","code":null,"latitude":44.92616,"longitude":-74.08345,"address":"102 W Main St, CHATEAUGAY NY","chain_name":null,"distance":0},{"name":"A-Plus Express","code":null,"latitude":42.59166,"longitude":-76.13672,"address":"3817 Us Route 11, CORTLAND NY","chain_name":null,"distance":0},{"name":"Gas Plus","code":null,"latitude":43.11554,"longitude":-77.49502,"address":"420 W Commercial St, EAST ROCHESTER NY","chain_name":null,"distance":0},{"name":"A-Plus Express","code":null,"latitude":43.07023,"longitude":-77.44698,"address":"6610 Pittsford Palmyra Rd, FAIRPORT NY","chain_name":null,"distance":0},{"name":"A-Plus Express","code":null,"latitude":43.14074,"longitude":-76.20689,"address":"7653 Morgan Rd, LIVERPOOL NY","chain_name":null,"distance":0},{"name":"Sunoco","code":null,"latitude":43.16493,"longitude":-78.69665,"address":"100 S Transit St, LOCKPORT NY","chain_name":null,"distance":0},{"name":"Sunoco","code":null,"latitude":43.06018,"longitude":-76.99204,"address":"93 Geneva St, LYONS NY","chain_name":null,"distance":0},{"name":"Sunoco","code":null,"latitude":44.85011,"longitude":-74.28064,"address":"587 E Main St, MALONE NY","chain_name":null,"distance":0},{"name":"Sunoco","code":null,"latitude":40.93611,"longitude":-73.0163,"address":"572 Route 25a, MOUNT SINAI NY","chain_name":null,"distance":0},{"name":"A-Plus Express","code":null,"latitude":41.50471,"longitude":-74.06924,"address":"78 Route 17k, NEWBURGH NY","chain_name":null,"distance":0},{"name":"Sunoco","code":null,"latitude":43.09452,"longitude":-79.05148,"address":"925 Pine Ave, NIAGARA FALLS NY","chain_name":null,"distance":0},{"name":"Gas Plus","code":null,"latitude":41.16963,"longitude":-73.86416,"address":"173A N Highland Ave, OSSINING NY","chain_name":null,"distance":0},{"name":"A-Plus Express","code":null,"latitude":44.68062,"longitude":-74.98711,"address":"147 Market St, POTSDAM NY","chain_name":null,"distance":0},{"name":"Gas Plus","code":null,"latitude":43.18123,"longitude":-77.57609,"address":"1435 Goodman St N, ROCHESTER NY","chain_name":null,"distance":0},{"name":"A-Plus Express","code":null,"latitude":43.08724,"longitude":-77.58498,"address":"1540 Jefferson Rd, ROCHESTER NY","chain_name":null,"distance":0},{"name":"Sunoco","code":null,"latitude":43.20429,"longitude":-75.43354,"address":"1400 E Dominick St, ROME NY","chain_name":null,"distance":0},{"name":"Sunoco","code":null,"latitude":42.91036,"longitude":-76.80484,"address":"193 Fall St, SENECA FALLS NY","chain_name":null,"distance":0},{"name":"Sunoco","code":null,"latitude":43.07402,"longitude":-76.1234,"address":"1825 Teall Ave, SYRACUSE NY","chain_name":null,"distance":0},{"name":"Gas Plus","code":null,"latitude":43.04704,"longitude":-76.21889,"address":"3111 W Genesee St, SYRACUSE NY","chain_name":null,"distance":0},{"name":"Sunoco","code":null,"latitude":40.71926,"longitude":-73.59031,"address":"1220 Hempstead Tpke, UNIONDALE NY","chain_name":null,"distance":0},{"name":"A-Plus Mini Market","code":null,"latitude":43.97612,"longitude":-75.94493,"address":"1255 Arsenal St, WATERTOWN NY","chain_name":null,"distance":0},{"name":"Sunoco","code":null,"latitude":40.80948,"longitude":-72.9487,"address":"80A Horseblock Rd, YAPHANK NY","chain_name":null,"distance":0},{"name":"Sunoco","code":null,"latitude":41.3887,"longitude":-82.21497,"address":"46402 Middle Ridge Rd, AMHERST OH","chain_name":null,"distance":0},{"name":"Sunoco","code":null,"latitude":41.37796,"longitude":-82.21046,"address":"7998 Leavitt Rd, AMHERST OH","chain_name":null,"distance":0},{"name":"Gas Plus","code":null,"latitude":41.3835,"longitude":-81.52662,"address":"10 Northfield Rd, BEDFORD OH","chain_name":null,"distance":0},{"name":"Sunoco","code":null,"latitude":41.38927,"longitude":-81.85307,"address":"871 N Rocky River Dr, BEREA OH","chain_name":null,"distance":0},{"name":"Sunoco","code":null,"latitude":41.49196,"longitude":-81.7064,"address":"2000 Edgerton Rd # 6 N, BROADVIEW HEIGH OH","chain_name":null,"distance":0},{"name":"Sunoco","code":null,"latitude":41.29265,"longitude":-81.68458,"address":"10037 Broadview Rd # 6, BROADVIEW HEIGHTS OH","chain_name":null,"distance":0},{"name":"A-Plus Mini Market","code":null,"latitude":41.45588,"longitude":-81.80215,"address":"15240 Triskett Rd, CLEVELAND OH","chain_name":null,"distance":0},{"name":"A-Plus Express","code":null,"latitude":41.41906,"longitude":-81.71019,"address":"3500 Brookpark Rd, CLEVELAND OH","chain_name":null,"distance":0},{"name":"Sunoco","code":null,"latitude":41.36993,"longitude":-82.95452,"address":"1012 N County Road 260, CLYDE OH","chain_name":null,"distance":0},{"name":"Sunoco","code":null,"latitude":41.36459,"longitude":-82.95466,"address":"888 N County Road 260 Unit 4, CLYDE OH","chain_name":null,"distance":0},{"name":"Sunoco","code":null,"latitude":41.37703,"longitude":-82.07811,"address":"645 Cleveland St, ELYRIA OH","chain_name":null,"distance":0},{"name":"A-Plus Mini Market","code":null,"latitude":41.58349,"longitude":-81.5336,"address":"20710 Lakeland Blvd, EUCLID OH","chain_name":null,"distance":0},{"name":"Sunoco","code":null,"latitude":41.25009,"longitude":-81.18263,"address":"9270 Limeridge Rd # 7, MANTUA OH","chain_name":null,"distance":0},{"name":"Sunoco","code":null,"latitude":41.24961,"longitude":-81.18263,"address":"9250 Limeridge Rd # 7, MANTUA OH","chain_name":null,"distance":0},{"name":"Sunoco","code":null,"latitude":40.94385,"longitude":-80.58775,"address":"3500 E South Range Rd # 8, NEW SPRINGFIELD OH","chain_name":null,"distance":0},{"name":"Sunoco","code":null,"latitude":40.93676,"longitude":-80.59587,"address":"12500 Beard Rd Ste 8, NEW SPRINGFIELD OH","chain_name":null,"distance":0},{"name":"Gas Plus","code":null,"latitude":41.03295,"longitude":-81.24823,"address":"1497 State Route 44, RANDOLPH OH","chain_name":null,"distance":0},{"name":"A-Plus Express","code":null,"latitude":41.15754,"longitude":-81.24134,"address":"203 S Prospect St, RAVENNA OH","chain_name":null,"distance":0},{"name":"Sunoco","code":null,"latitude":41.58672,"longitude":-83.56524,"address":"1133 Buck Rd, ROSSFORD OH","chain_name":null,"distance":0},{"name":"Sunoco","code":null,"latitude":41.60318,"longitude":-83.87836,"address":"14105 Shaffer Rd # 2, SWANTON OH","chain_name":null,"distance":0},{"name":"Sunoco","code":null,"latitude":41.59599,"longitude":-83.86385,"address":"2400 Scott Rd, SWANTON OH","chain_name":null,"distance":0},{"name":"Mini Market","code":null,"latitude":41.68754,"longitude":-83.51825,"address":"1407 E Manhattan Blvd, TOLEDO OH","chain_name":null,"distance":0},{"name":"Sunoco","code":null,"latitude":41.57175,"longitude":-84.40523,"address":"21738 COUNTY RD PLAZA # 1, WEST UNITY OH","chain_name":null,"distance":0},{"name":"Sunoco","code":null,"latitude":41.57203,"longitude":-84.40508,"address":"21747 COUNTY RD PLAZA # 1, WEST UNITY OH","chain_name":null,"distance":0},{"name":"A-Plus Express","code":null,"latitude":41.46721,"longitude":-81.92123,"address":"27179 Detroit Rd, WESTLAKE OH","chain_name":null,"distance":0},{"name":"A-Plus Express","code":null,"latitude":40.58859,"longitude":-80.261,"address":"2680 Brodhead Rd, ALIQUIPPA PA","chain_name":null,"distance":0},{"name":"Sunoco","code":null,"latitude":40.57721,"longitude":-75.56178,"address":"5052 Cetronia Rd, ALLENTOWN PA","chain_name":null,"distance":0},{"name":"A-Plus Express","code":null,"latitude":41.10765,"longitude":-76.89865,"address":"Route 15 & 44, ALLENWOOD PA","chain_name":null,"distance":0},{"name":"Gas Plus","code":null,"latitude":40.50863,"longitude":-78.40113,"address":"1700 7th Ave, ALTOONA PA","chain_name":null,"distance":0},{"name":"Gas Plus","code":null,"latitude":40.58275,"longitude":-79.75824,"address":"2033 Freeport Rd, ARNOLD PA","chain_name":null,"distance":0},{"name":"Gas Plus","code":null,"latitude":40.35634,"longitude":-75.62788,"address":"722 Route 100 N, BECHTELSVILLE PA","chain_name":null,"distance":0},{"name":"Sunoco","code":null,"latitude":39.95043,"longitude":-78.55231,"address":"14738 E Pennsylvania Tpke, BEDFORD PA","chain_name":null,"distance":0},{"name":"Sunoco","code":null,"latitude":39.95043,"longitude":-78.55231,"address":"14731 W Pennsylvania Tpke, BEDFORD PA","chain_name":null,"distance":0},{"name":"Sunoco","code":null,"latitude":40.13207,"longitude":-79.86017,"address":"15 Fayette Ave # I-70, N BELLE VERNON PA","chain_name":null,"distance":0},{"name":"A-Plus Express","code":null,"latitude":40.0247,"longitude":-75.22963,"address":"Belmont & Jefferson St, BELMONT HILLS PA","chain_name":null,"distance":0},{"name":"Sunoco","code":null,"latitude":41.05086,"longitude":-76.24397,"address":"FRONT & IDA STREET, BERWICK PA","chain_name":null,"distance":0},{"name":"Sunoco","code":null,"latitude":40.49868,"longitude":-79.85363,"address":"806 Freeport Rd, BLAWNOX PA","chain_name":null,"distance":0},{"name":"Sunoco","code":null,"latitude":41.04224,"longitude":-76.54204,"address":"111 Peppermill Rd, BLOOMSBURG PA","chain_name":null,"distance":0},{"name":"Sunoco","code":null,"latitude":41.00969,"longitude":-76.41928,"address":"2087 Columbia Blvd, BLOOMSBURG PA","chain_name":null,"distance":0},{"name":"Sunoco","code":null,"latitude":40.99941,"longitude":-76.46472,"address":"510 W Main St, BLOOMSBURG PA","chain_name":null,"distance":0},{"name":"Sunoco","code":null,"latitude":40.19696,"longitude":-76.02659,"address":"PA RT 625 & PA TPK, BOWMANSVILLE PA","chain_name":null,"distance":0},{"name":"Sunoco","code":null,"latitude":40.23104,"longitude":-76.95625,"address":"4501 Trindle Rd, CAMP HILL PA","chain_name":null,"distance":0},{"name":"Sunoco","code":null,"latitude":39.9756,"longitude":-77.58179,"address":"3448 Black Gap Rd, CHAMBERSBURG PA","chain_name":null,"distance":0},{"name":"Sunoco","code":null,"latitude":40.5032,"longitude":-80.20393,"address":"6700 University Blvd, CORAOPOLIS PA","chain_name":null,"distance":0},{"name":"Sunoco","code":null,"latitude":40.96866,"longitude":-76.61732,"address":"100 Montour St, DANVILLE PA","chain_name":null,"distance":0},{"name":"Sunoco","code":null,"latitude":40.96542,"longitude":-76.59932,"address":"1011 Bloom St, DANVILLE PA","chain_name":null,"distance":0},{"name":"Sunoco","code":null,"latitude":41.43841,"longitude":-75.61794,"address":"1218 Oneill Hwy, DUNMORE PA","chain_name":null,"distance":0},{"name":"Sunoco","code":null,"latitude":40.08982,"longitude":-74.94,"address":"1432 Street Rd, EDDINGTON PA","chain_name":null,"distance":0},{"name":"Sunoco","code":null,"latitude":40.15878,"longitude":-75.79979,"address":"PA TPK AND MARSH RD, ELVERSON PA","chain_name":null,"distance":0},{"name":"Sunoco","code":null,"latitude":40.86111,"longitude":-76.55006,"address":"4 W Valley Ave, ELYSBURG PA","chain_name":null,"distance":0},{"name":"Sunoco","code":null,"latitude":40.30768,"longitude":-76.92417,"address":"611 N Enola Rd, ENOLA PA","chain_name":null,"distance":0},{"name":"A-Plus Express","code":null,"latitude":40.05577,"longitude":-75.65267,"address":"850 N Pottstown Pike, EXTON PA","chain_name":null,"distance":0},{"name":"A-Plus Express","code":null,"latitude":40.635,"longitude":-79.93949,"address":"5600 William Flynn Hwy, GIBSONIA PA","chain_name":null,"distance":0},{"name":"Sunoco","code":null,"latitude":39.94353,"longitude":-75.46961,"address":"1405 Middletown Rd, GLEN MILLS PA","chain_name":null,"distance":0},{"name":"Gas Plus","code":null,"latitude":40.32979,"longitude":-79.52378,"address":"Humphrey & Todd Rd, GREENSBURG PA","chain_name":null,"distance":0},{"name":"Sunoco","code":null,"latitude":40.68843,"longitude":-76.78515,"address":"4328 STATE ROUTE 147, HERNDON PA","chain_name":null,"distance":0},{"name":"Sunoco","code":null,"latitude":40.27197,"longitude":-76.6318,"address":"7 6 MILE WEST OF EXIT 20, HERSHEY PA","chain_name":null,"distance":0},{"name":"Sunoco","code":null,"latitude":40.20723,"longitude":-79.58314,"address":"13 MILE W EXIT 9 MILEPOST, HUNKER PA","chain_name":null,"distance":0},{"name":"Sunoco","code":null,"latitude":40.61451,"longitude":-79.17263,"address":"1726 Oakland Ave, INDIANA PA","chain_name":null,"distance":0},{"name":"Sunoco","code":null,"latitude":40.33978,"longitude":-79.75335,"address":"12970 Route 30, IRWIN PA","chain_name":null,"distance":0},{"name":"Sunoco","code":null,"latitude":40.92674,"longitude":-75.6974,"address":"HL 2 BOX 2362 STAR ROUTE, JIM THORPE PA","chain_name":null,"distance":0},{"name":"Sunoco","code":null,"latitude":40.3112,"longitude":-78.91634,"address":"977 Franklin St, JOHNSTOWN PA","chain_name":null,"distance":0},{"name":"Sunoco","code":null,"latitude":40.27071,"longitude":-78.85794,"address":"1462 Scalp Ave, JOHNSTOWN PA","chain_name":null,"distance":0},{"name":"Sunoco","code":null,"latitude":40.10178,"longitude":-75.34429,"address":"4 7 MILE WEST OF EXIT 25, KING OF PRUSSIA PA","chain_name":null,"distance":0},{"name":"Gas Plus","code":null,"latitude":40.80703,"longitude":-79.53015,"address":"222 Butler Rd, KITTANNING PA","chain_name":null,"distance":0},{"name":"Gas Plus","code":null,"latitude":40.2833,"longitude":-79.40404,"address":"LINCOLN AVE & JAMES STREE, LATROBE PA","chain_name":null,"distance":0},{"name":"Sunoco","code":null,"latitude":40.62645,"longitude":-79.60421,"address":"265 Market St, LEECHBURG PA","chain_name":null,"distance":0},{"name":"Sunoco","code":null,"latitude":40.95751,"longitude":-76.90851,"address":"2114 Old Turnpike Rd, LEWISBURG PA","chain_name":null,"distance":0},{"name":"Gas Plus","code":null,"latitude":40.59413,"longitude":-77.57046,"address":"MAIN & CHARLES STREET, LEWISTOWN PA","chain_name":null,"distance":0},{"name":"A-Plus Mini Market","code":null,"latitude":40.67145,"longitude":-80.09768,"address":"19090 Perry Hwy, MARS PA","chain_name":null,"distance":0},{"name":"Sunoco","code":null,"latitude":40.24155,"longitude":-76.98722,"address":"6025 Carlisle Pike, MECHANICSBURG PA","chain_name":null,"distance":0},{"name":"Gas Plus","code":null,"latitude":39.93489,"longitude":-75.39115,"address":"1300 N Providence Rd, MEDIA PA","chain_name":null,"distance":0},{"name":"Sunoco","code":null,"latitude":40.79903,"longitude":-77.02304,"address":"RR 4 Box 172C, MIDDLEBURG PA","chain_name":null,"distance":0},{"name":"Sunoco","code":null,"latitude":40.20013,"longitude":-76.71895,"address":"ROUTE 441 & FRUEHAUF LANE, MIDDLETOWN PA","chain_name":null,"distance":0},{"name":"Sunoco","code":null,"latitude":41.1204,"longitude":-76.53033,"address":"State & Main Street, MILLVILLE PA","chain_name":null,"distance":0},{"name":"Sunoco","code":null,"latitude":41.01687,"longitude":-76.85484,"address":"55 Race St, MILTON PA","chain_name":null,"distance":0},{"name":"Sunoco","code":null,"latitude":41.02071,"longitude":-76.83792,"address":"884 Broadway Rd, MILTON PA","chain_name":null,"distance":0},{"name":"Sunoco","code":null,"latitude":40.96553,"longitude":-76.85454,"address":"Rt 45 & Housel Run Road, MONTANDON PA","chain_name":null,"distance":0},{"name":"Sunoco","code":null,"latitude":41.17656,"longitude":-76.92521,"address":"Rt 15 & Rt 54, MONTGOMERY PA","chain_name":null,"distance":0},{"name":"Sunoco","code":null,"latitude":40.69891,"longitude":-77.00709,"address":"Rt 35 & Rt 104, MOUNT PLEASANT PA","chain_name":null,"distance":0},{"name":"Gas Plus","code":null,"latitude":40.15205,"longitude":-79.54878,"address":"819 W Main St, MT PLEASANT PA","chain_name":null,"distance":0},{"name":"Sunoco","code":null,"latitude":40.64237,"longitude":-79.71066,"address":"3039 Freeport Rd, NATRONA HEIGHTS PA","chain_name":null,"distance":0},{"name":"A-Plus Express","code":null,"latitude":40.55212,"longitude":-79.7515,"address":"298 Freeport St, NEW KENSINGTON PA","chain_name":null,"distance":0},{"name":"Sunoco","code":null,"latitude":40.1542,"longitude":-77.56946,"address":"24 MILE WEST OF EXIT 16, NEWBURG PA","chain_name":null,"distance":0},{"name":"A-Plus Express","code":null,"latitude":40.20916,"longitude":-75.23,"address":"1406 Welsh Rd, NORTH WALES PA","chain_name":null,"distance":0},{"name":"Sunoco","code":null,"latitude":40.88962,"longitude":-76.7995,"address":"303 Duke St, NORTHUMBERLAND PA","chain_name":null,"distance":0},{"name":"Sunoco","code":null,"latitude":40.09866,"longitude":-75.01111,"address":"10610 Roosevelt Blvd, PHILADELPHIA PA","chain_name":null,"distance":0},{"name":"Sunoco","code":null,"latitude":39.99111,"longitude":-75.10169,"address":"3398 Aramingo Ave, PHILADELPHIA PA","chain_name":null,"distance":0},{"name":"A-Plus Express","code":null,"latitude":40.0687,"longitude":-75.18115,"address":"8261 Stenton Ave, PHILADELPHIA PA","chain_name":null,"distance":0},{"name":"A-Plus Mini Market","code":null,"latitude":40.4498,"longitude":-79.82725,"address":"600 Rodi Rd, PITTSBURGH PA","chain_name":null,"distance":0},{"name":"Gas Plus","code":null,"latitude":40.5112,"longitude":-79.94667,"address":"900 Butler St, PITTSBURGH PA","chain_name":null,"distance":0},{"name":"Sunoco","code":null,"latitude":41.30773,"longitude":-75.76297,"address":"346 Highway 315, PITTSTON PA","chain_name":null,"distance":0},{"name":"Sunoco","code":null,"latitude":40.20212,"longitude":-77.2861,"address":"18 MILE EAST OF EXIT 15, PLAINFIELD PA","chain_name":null,"distance":0},{"name":"Sunoco","code":null,"latitude":40.94336,"longitude":-76.64978,"address":"Rt 54 & Mill Street, RIVERSIDE PA","chain_name":null,"distance":0},{"name":"Sunoco","code":null,"latitude":40.71421,"longitude":-80.18927,"address":"68& Route 989 # 1, ROCHESTER PA","chain_name":null,"distance":0},{"name":"Sunoco","code":null,"latitude":41.4027,"longitude":-75.65894,"address":"551 Moosic St, SCRANTON PA","chain_name":null,"distance":0},{"name":"Sunoco","code":null,"latitude":40.7971,"longitude":-76.86276,"address":"226 S Market St, SELINSGROVE PA","chain_name":null,"distance":0},{"name":"Gas Plus Carwash","code":null,"latitude":39.91211,"longitude":-75.26819,"address":"CHESTER PK & CALCON HOOK, SHARON HILL PA","chain_name":null,"distance":0},{"name":"Sunoco","code":null,"latitude":40.06073,"longitude":-77.4776,"address":"200 Walnut Bottom Rd, SHIPPENSBURG PA","chain_name":null,"distance":0},{"name":"Sunoco","code":null,"latitude":39.99679,"longitude":-79.04716,"address":"328 Industrial Park Rd, SOMERSET PA","chain_name":null,"distance":0},{"name":"Sunoco","code":null,"latitude":40.00115,"longitude":-79.04633,"address":"169 N Plaza Access Rd, SOMERSET PA","chain_name":null,"distance":0},{"name":"Sunoco","code":null,"latitude":40.8579,"longitude":-76.77137,"address":"439 Grant St, SUNBURY PA","chain_name":null,"distance":0},{"name":"Sunoco","code":null,"latitude":40.76189,"longitude":-76.65477,"address":"Rt 225, TREVORTON PA","chain_name":null,"distance":0},{"name":"Sunoco","code":null,"latitude":40.12431,"longitude":-74.97311,"address":"2767 Us Route 1, TREVOSE PA","chain_name":null,"distance":0},{"name":"Sunoco","code":null,"latitude":40.18216,"longitude":-74.9107,"address":"6 MILE EAST OF EXIT 28, TREVOSE PA","chain_name":null,"distance":0},{"name":"Sunoco","code":null,"latitude":40.18216,"longitude":-74.9107,"address":"5 8 MILE WEST OF EXIT 29, TREVOSE PA","chain_name":null,"distance":0},{"name":"Sunoco","code":null,"latitude":40.14235,"longitude":-75.38965,"address":"2601 W Main St, TROOPER PA","chain_name":null,"distance":0},{"name":"Gas Plus","code":null,"latitude":41.38234,"longitude":-77.06034,"address":"Route 14 & 15, TROUT RUN PA","chain_name":null,"distance":0},{"name":"Sunoco","code":null,"latitude":40.52179,"longitude":-79.81253,"address":"2000 Eastern Ave, VERONA PA","chain_name":null,"distance":0},{"name":"Gas Plus","code":null,"latitude":40.07904,"longitude":-78.09263,"address":"10 MILE EAST OF EXIT 12, WATERFALL PA","chain_name":null,"distance":0},{"name":"Sunoco","code":null,"latitude":40.08032,"longitude":-75.44349,"address":"1495 Valley Forge Rd, WAYNE PA","chain_name":null,"distance":0},{"name":"Sunoco","code":null,"latitude":41.01951,"longitude":-76.87233,"address":"Broad & 5th Street, WEST MILTON PA","chain_name":null,"distance":0},{"name":"A-Plus Express","code":null,"latitude":40.33946,"longitude":-79.81038,"address":"1969 Lincoln Way, MCKEESPORT PA","chain_name":null,"distance":0},{"name":"Sunoco","code":null,"latitude":41.2301,"longitude":-76.99239,"address":"4 E Mountain Ave, WILLIAMSPORT PA","chain_name":null,"distance":0},{"name":"Sunoco","code":null,"latitude":41.24959,"longitude":-77.04891,"address":"1601 Dewey Ave, WILLIAMSPORT PA","chain_name":null,"distance":0},{"name":"Gas Plus","code":null,"latitude":41.23901,"longitude":-77.05217,"address":"840 Arch St, WILLIAMSPORT PA","chain_name":null,"distance":0},{"name":"Sunoco","code":null,"latitude":41.94603,"longitude":-71.40348,"address":"2093 Diamond Hill Rd, CUMBERLAND RI","chain_name":null,"distance":0},{"name":"Sunoco","code":null,"latitude":41.8735,"longitude":-71.38104,"address":"81 School St, PAWTUCKET RI","chain_name":null,"distance":0},{"name":"A-Plus Express","code":null,"latitude":41.68358,"longitude":-71.50073,"address":"425 Quaker Ln, WEST WARWICK RI","chain_name":null,"distance":0},{"name":"Sunoco","code":null,"latitude":33.92766,"longitude":-80.36568,"address":"440 N Guignard Dr, SUMTER SC","chain_name":null,"distance":0},{"name":"Sunoco","code":null,"latitude":36.36586,"longitude":-82.18703,"address":"525 Highway 91, ELIZABETHTON TN","chain_name":null,"distance":0},{"name":"Sunoco","code":null,"latitude":36.11719,"longitude":-83.48987,"address":"1431 George Ave, JEFFERSON CITY TN","chain_name":null,"distance":0},{"name":"Sunoco","code":null,"latitude":36.31351,"longitude":-82.34726,"address":"1001 S Roan St, JOHNSON CITY TN","chain_name":null,"distance":0},{"name":"Sunoco","code":null,"latitude":36.30028,"longitude":-82.39415,"address":"2810 W Walnut St, JOHNSON CITY TN","chain_name":null,"distance":0},{"name":"Sunoco","code":null,"latitude":36.3327,"longitude":-82.34114,"address":"408 N Broadway St, JOHNSON CITY TN","chain_name":null,"distance":0},{"name":"Sunoco","code":null,"latitude":36.30282,"longitude":-82.31978,"address":"1258 Milligan Hwy # 8, JOHNSON CITY TN","chain_name":null,"distance":0},{"name":"Sunoco","code":null,"latitude":36.56294,"longitude":-82.54814,"address":"1045 Bloomingdale Pike, KINGSPORT TN","chain_name":null,"distance":0},{"name":"Sunoco","code":null,"latitude":36.44917,"longitude":-82.46306,"address":"5670 Fort Henry Dr, KINGSPORT TN","chain_name":null,"distance":0},{"name":"Sunoco","code":null,"latitude":36.48515,"longitude":-82.50331,"address":"4101 Fort Henry Dr, KINGSPORT TN","chain_name":null,"distance":0},{"name":"Sunoco","code":null,"latitude":36.55347,"longitude":-82.5741,"address":"828 W Center St, KINGSPORT TN","chain_name":null,"distance":0},{"name":"Sunoco","code":null,"latitude":36.57607,"longitude":-82.56716,"address":"1205 Lynn Garden Dr, KINGSPORT TN","chain_name":null,"distance":0},{"name":"Sunoco","code":null,"latitude":36.53099,"longitude":-82.49479,"address":"4001 Memorial Blvd, KINGSPORT TN","chain_name":null,"distance":0},{"name":"Sunoco","code":null,"latitude":36.58233,"longitude":-82.49454,"address":"2919 Bloomingdale Rd, KINGSPORT TN","chain_name":null,"distance":0},{"name":"Sunoco","code":null,"latitude":36.21554,"longitude":-83.28258,"address":"924 E Morris Blvd, MORRISTOWN TN","chain_name":null,"distance":0},{"name":"Sunoco","code":null,"latitude":36.19683,"longitude":-83.34738,"address":"3700 W Andrew Johnson Hwy, MORRISTOWN TN","chain_name":null,"distance":0},{"name":"Sunoco","code":null,"latitude":36.22807,"longitude":-83.29244,"address":"1344 Buffalo Trl, MORRISTOWN TN","chain_name":null,"distance":0},{"name":"Sunoco","code":null,"latitude":36.42044,"longitude":-82.98702,"address":"1515 E Main St, ROGERSVILLE TN","chain_name":null,"distance":0},{"name":"Food Market","code":null,"latitude":43.99869,"longitude":-81.28379,"address":"29 Clinton St S, TEESWATER ON","chain_name":null,"distance":0},{"name":"Mini Market","code":null,"latitude":45.61748,"longitude":-122.51128,"address":"608 SE 157th Ave, VANCOUVER WA","chain_name":null,"distance":0},{"name":"Mini Market","code":null,"latitude":45.57841,"longitude":-122.33689,"address":"3191 D St, WASHOUGAL WA","chain_name":null,"distance":0},{"name":"Sunoco","code":null,"latitude":25.98453,"longitude":-80.17326,"address":"3180 W Hallandale Beach Blvd, HALLANDALE FL","chain_name":null,"distance":0},{"name":"A-Plus Mini Market","code":null,"latitude":25.48082,"longitude":-80.46458,"address":"1101 N Flagler Ave, HOMESTEAD FL","chain_name":null,"distance":0},{"name":"A-Plus Mini Market","code":null,"latitude":26.25902,"longitude":-80.11852,"address":"2291 N Dixie Hwy, POMPANO BEACH FL","chain_name":null,"distance":0},{"name":"Sunoco","code":null,"latitude":27.63982,"longitude":-80.39708,"address":"1901 US Highway 1, VERO BEACH FL","chain_name":null,"distance":0},{"name":"A-Plus Mini Market","code":null,"latitude":34.9928,"longitude":-78.34261,"address":"1109 Sunset Ave, CLINTON NC","chain_name":null,"distance":0},{"name":"A-Plus Mini Market","code":null,"latitude":35.04432,"longitude":-78.98163,"address":"6022 Raeford Rd, FAYETTEVILLE NC","chain_name":null,"distance":0},{"name":"Sunoco","code":null,"latitude":34.791,"longitude":-77.49809,"address":"2840 Richlands Hwy, JACKSONVILLE NC","chain_name":null,"distance":0},{"name":"A-Plus Mini Market","code":null,"latitude":35.49174,"longitude":-78.34588,"address":"US-70 & 1-95 EXIT 95, SMITHFIELD NC","chain_name":null,"distance":0},{"name":"Sunoco","code":null,"latitude":33.57736,"longitude":-81.70261,"address":"1100 York St NE # 118, AIKEN SC","chain_name":null,"distance":0},{"name":"A-Plus Mini Market","code":null,"latitude":32.80529,"longitude":-80.02079,"address":"1880 Ashley River Rd, CHARLESTON SC","chain_name":null,"distance":0},{"name":"A-Plus Mini Market","code":null,"latitude":32.74341,"longitude":-79.96889,"address":"737 Folly Rd, CHARLESTON SC","chain_name":null,"distance":0},{"name":"A-Plus Mini Market","code":null,"latitude":33.96683,"longitude":-80.94474,"address":"7467 Garners Ferry Rd # A, COLUMBIA SC","chain_name":null,"distance":0},{"name":"A-Plus Mini Market","code":null,"latitude":34.06779,"longitude":-81.14157,"address":"495 Piney Grove Rd # I-26, COLUMBIA SC","chain_name":null,"distance":0},{"name":"A-Plus Mini Market","code":null,"latitude":34.03122,"longitude":-81.10649,"address":"1203 Bush River Rd, COLUMBIA SC","chain_name":null,"distance":0},{"name":"A-Plus Mini Market","code":null,"latitude":34.44099,"longitude":-79.37183,"address":"826 Radford Blvd, DILLON SC","chain_name":null,"distance":0},{"name":"Sunoco","code":null,"latitude":34.82386,"longitude":-82.57623,"address":"5806 Calhoun Memorial Hwy, EASLEY SC","chain_name":null,"distance":0},{"name":"A-Plus Mini Market","code":null,"latitude":33.37645,"longitude":-79.29418,"address":"1729 Highmarket St, GEORGETOWN SC","chain_name":null,"distance":0},{"name":"A-Plus Mini Market","code":null,"latitude":33.3488,"longitude":-79.29447,"address":"1806 S Fraser St, GEORGETOWN SC","chain_name":null,"distance":0},{"name":"A-Plus Mini Market","code":null,"latitude":33.00442,"longitude":-80.04294,"address":"200 Saint James Ave, GOOSE CREEK SC","chain_name":null,"distance":0},{"name":"A-Plus Mini Market","code":null,"latitude":32.96963,"longitude":-80.00644,"address":"1519 Red Bank Rd, GOOSE CREEK SC","chain_name":null,"distance":0},{"name":"A-Plus Mini Market","code":null,"latitude":33.00375,"longitude":-80.03803,"address":"301 N Goose Creek Blvd, GOOSE CREEK SC","chain_name":null,"distance":0},{"name":"Sunoco","code":null,"latitude":34.89167,"longitude":-82.40645,"address":"1804 Poinsett Hwy # 291, GREENVILLE SC","chain_name":null,"distance":0},{"name":"Sunoco","code":null,"latitude":34.83541,"longitude":-82.43952,"address":"1702 Easley Bridge Rd # 123N, GREENVILLE SC","chain_name":null,"distance":0},{"name":"A-Plus Mini Market","code":null,"latitude":32.2731,"longitude":-81.08051,"address":"US Hwy 17 & I-95, HARDEEVILLE SC","chain_name":null,"distance":0},{"name":"A-Plus Mini Market","code":null,"latitude":32.19729,"longitude":-80.70179,"address":"612 William Hilton Pkwy, HILTON HEAD ISLAND SC","chain_name":null,"distance":0},{"name":"A-Plus Mini Market","code":null,"latitude":32.16424,"longitude":-80.74492,"address":"1031 William Hilton Pkwy, HILTON HEAD ISLAND SC","chain_name":null,"distance":0},{"name":"A-Plus Mini Market","code":null,"latitude":32.21654,"longitude":-80.70835,"address":"421 William Hilton Pkwy # H, HILTON HEAD ISLAND SC","chain_name":null,"distance":0},{"name":"A-Plus Mini Market","code":null,"latitude":32.98483,"longitude":-80.09266,"address":"9488 Highway 78, LADSON SC","chain_name":null,"distance":0},{"name":"A-Plus Mini Market","code":null,"latitude":33.00021,"longitude":-80.09174,"address":"336 College Park Rd, LADSON SC","chain_name":null,"distance":0},{"name":"A-Plus Mini Market","code":null,"latitude":33.98371,"longitude":-81.25513,"address":"1107 W Main St, LEXINGTON SC","chain_name":null,"distance":0},{"name":"A-Plus Mini Market","code":null,"latitude":32.8542,"longitude":-80.01054,"address":"4390 Dorchester Rd, N CHARLESTON SC","chain_name":null,"distance":0},{"name":"A-Plus Mini Market","code":null,"latitude":32.91998,"longitude":-80.1006,"address":"4900 Ashley Phosphate Rd, N CHARLESTON SC","chain_name":null,"distance":0},{"name":"A-Plus Mini Market","code":null,"latitude":32.88624,"longitude":-80.0674,"address":"6855 Dorchester Rd, N CHARLESTON SC","chain_name":null,"distance":0},{"name":"A-Plus Mini Market","code":null,"latitude":32.90064,"longitude":-80.00545,"address":"1628 Remount Rd, NORTH CHARLESTON SC","chain_name":null,"distance":0},{"name":"A-Plus Mini Market","code":null,"latitude":33.49827,"longitude":-80.83975,"address":"105 Joe S Jeffords Hwy SE, ORANGEBURG SC","chain_name":null,"distance":0},{"name":"A-Plus Mini Market","code":null,"latitude":33.56599,"longitude":-80.89,"address":"BOX 3615 ST MATTEWS RD EX, ORANGEBURG SC","chain_name":null,"distance":0},{"name":"Sunoco","code":null,"latitude":34.9577,"longitude":-81.00964,"address":"1657 Cherry Rd, ROCK HILL SC","chain_name":null,"distance":0},{"name":"A-Plus Mini Market","code":null,"latitude":32.97137,"longitude":-80.21652,"address":"10600 Dorchester Rd, SUMMERVILLE SC","chain_name":null,"distance":0},{"name":"A-Plus Mini Market","code":null,"latitude":33.00222,"longitude":-80.18449,"address":"600 Bacons Bridge Rd, SUMMERVILLE SC","chain_name":null,"distance":0},{"name":"A-Plus Mini Market","code":null,"latitude":33.95149,"longitude":-80.37689,"address":"1083 Broad St # B, SUMTER SC","chain_name":null,"distance":0},{"name":"A-Plus Mini Market","code":null,"latitude":33.98503,"longitude":-81.07324,"address":"412 Charleston Hwy, WEST COLUMBIA SC","chain_name":null,"distance":0},{"name":"A-Plus Mini Market","code":null,"latitude":26.33129,"longitude":-81.80618,"address":"27990 S Tamiami Trl, BONITA SPRINGS FL","chain_name":null,"distance":0},{"name":"Sunoco","code":null,"latitude":28.39508,"longitude":-80.7491,"address":"2700 N Cocoa Blvd, COCOA FL","chain_name":null,"distance":0},{"name":"Sunoco","code":null,"latitude":28.39237,"longitude":-80.77742,"address":"3500 State Road 524, COCOA FL","chain_name":null,"distance":0},{"name":"A-Plus Mini Market","code":null,"latitude":28.31614,"longitude":-80.61023,"address":"102 S Orlando Ave, COCOA BEACH FL","chain_name":null,"distance":0},{"name":"Sunoco","code":null,"latitude":26.45802,"longitude":-80.0671,"address":"200 SE 6th Ave, DELRAY BEACH FL","chain_name":null,"distance":0},{"name":"A-Plus Mini Market","code":null,"latitude":25.46029,"longitude":-80.4774,"address":"1350 N Krome Ave, FLORIDA CITY FL","chain_name":null,"distance":0},{"name":"A-Plus Mini Market","code":null,"latitude":26.62476,"longitude":-81.87206,"address":"2907 Cleveland Ave, FORT MYERS FL","chain_name":null,"distance":0},{"name":"A-Plus Mini Market","code":null,"latitude":26.63741,"longitude":-81.80721,"address":"2241 Park 82 Dr, FORT MYERS FL","chain_name":null,"distance":0},{"name":"A-Plus Mini Market","code":null,"latitude":26.70963,"longitude":-81.72087,"address":"2311 Buckingham Rd, FORT MYERS FL","chain_name":null,"distance":0},{"name":"A-Plus Mini Market","code":null,"latitude":26.59694,"longitude":-81.86083,"address":"2562 Colonial Blvd, FORT MYERS FL","chain_name":null,"distance":0},{"name":"A-Plus Mini Market","code":null,"latitude":27.37377,"longitude":-80.32601,"address":"5001 S US Highway 1, FORT PIERCE FL","chain_name":null,"distance":0},{"name":"A-Plus Mini Market","code":null,"latitude":29.65987,"longitude":-82.41405,"address":"6800 W Newberry Rd, GAINESVILLE FL","chain_name":null,"distance":0},{"name":"Sunoco","code":null,"latitude":29.69228,"longitude":-82.3388,"address":"4207 NW 13th St, GAINESVILLE FL","chain_name":null,"distance":0},{"name":"A-Plus Mini Market","code":null,"latitude":29.22737,"longitude":-81.02935,"address":"100 Daytona Ave, HOLLY HILL FL","chain_name":null,"distance":0},{"name":"A-Plus Mini Market","code":null,"latitude":29.24215,"longitude":-81.06041,"address":"1705 N Nova Rd, HOLLY HILL FL","chain_name":null,"distance":0},{"name":"A-Plus Mini Market","code":null,"latitude":26.93793,"longitude":-80.17945,"address":"9250 W Indiantown Rd, JUPITER FL","chain_name":null,"distance":0},{"name":"A-Plus Mini Market","code":null,"latitude":28.90688,"longitude":-81.91627,"address":"413 S US Highway 441, LADY LAKE FL","chain_name":null,"distance":0},{"name":"A-Plus Mini Market","code":null,"latitude":26.62058,"longitude":-80.05732,"address":"425 N Dixie Hwy, LAKE WORTH FL","chain_name":null,"distance":0},{"name":"A-Plus Mini Market","code":null,"latitude":26.61823,"longitude":-80.1051,"address":"3981 Lake Worth Rd, LAKE WORTH FL","chain_name":null,"distance":0},{"name":"A-Plus Mini Market","code":null,"latitude":26.61411,"longitude":-81.65572,"address":"1361 Lee Blvd, LEHIGH ACRES FL","chain_name":null,"distance":0},{"name":"A-Plus Mini Market","code":null,"latitude":28.07909,"longitude":-80.70352,"address":"4600 W New Haven Ave, MELBOURNE FL","chain_name":null,"distance":0},{"name":"A-Plus Mini Market","code":null,"latitude":28.13542,"longitude":-80.63309,"address":"1755 N Harbor City Blvd, MELBOURNE FL","chain_name":null,"distance":0},{"name":"A-Plus Mini Market","code":null,"latitude":28.23097,"longitude":-80.69883,"address":"7798 N Wickham Rd, MELBOURNE FL","chain_name":null,"distance":0},{"name":"Sunoco","code":null,"latitude":28.35758,"longitude":-80.66542,"address":"1760 E Merritt Island Cswy, MERRITT ISLAND FL","chain_name":null,"distance":0},{"name":"Sunoco","code":null,"latitude":28.36924,"longitude":-80.70008,"address":"698 N Courtenay Pkwy, MERRITT ISLAND FL","chain_name":null,"distance":0},{"name":"A-Plus Mini Market","code":null,"latitude":28.35692,"longitude":-80.69199,"address":"405 E Merritt Island Cswy, MERRITT ISLAND FL","chain_name":null,"distance":0},{"name":"Sunoco","code":null,"latitude":25.98473,"longitude":-80.2107,"address":"6201 Miramar Pkwy, MIRAMAR FL","chain_name":null,"distance":0},{"name":"A-Plus Mini Market","code":null,"latitude":26.11016,"longitude":-81.75104,"address":"4716 Tamiami Trl E, NAPLES FL","chain_name":null,"distance":0},{"name":"A-Plus Mini Market","code":null,"latitude":27.2711,"longitude":-80.8694,"address":"3093 US Highway 98 N, OKEECHOBEE FL","chain_name":null,"distance":0},{"name":"A-Plus Mini Market","code":null,"latitude":28.56814,"longitude":-81.25775,"address":"9400 E Colonial Dr, ORLANDO FL","chain_name":null,"distance":0},{"name":"A-Plus Mini Market","code":null,"latitude":28.53804,"longitude":-81.24413,"address":"324 S Dean Rd, ORLANDO FL","chain_name":null,"distance":0},{"name":"A-Plus Mini Market","code":null,"latitude":29.65609,"longitude":-81.65819,"address":"2600 Reid St, PALATKA FL","chain_name":null,"distance":0},{"name":"Sunoco","code":null,"latitude":27.99886,"longitude":-80.70522,"address":"1210 Malabar Rd SE, PALM BAY FL","chain_name":null,"distance":0},{"name":"A-Plus Mini Market","code":null,"latitude":27.99886,"longitude":-80.70439,"address":"1180 Malabar Rd SE, PALM BAY FL","chain_name":null,"distance":0},{"name":"A-Plus Mini Market","code":null,"latitude":26.8444,"longitude":-80.07194,"address":"2490 Pga Blvd, PALM BEACH GARDENS FL","chain_name":null,"distance":0},{"name":"A-Plus Mini Market","code":null,"latitude":27.16126,"longitude":-80.26923,"address":"3585 SW Mapp Rd, PALM CITY FL","chain_name":null,"distance":0},{"name":"Sunoco","code":null,"latitude":28.33823,"longitude":-80.72654,"address":"1298 US Highway 1, ROCKLEDGE FL","chain_name":null,"distance":0},{"name":"Sunoco","code":null,"latitude":28.81181,"longitude":-81.27331,"address":"110 N French Ave, SANFORD FL","chain_name":null,"distance":0},{"name":"A-Plus Mini Market","code":null,"latitude":28.8115,"longitude":-81.33545,"address":"4730 W State Road 46, SANFORD FL","chain_name":null,"distance":0},{"name":"A-Plus Mini Market","code":null,"latitude":27.76752,"longitude":-80.5402,"address":"9020 Fellsmere Rd, SEBASTIAN FL","chain_name":null,"distance":0},{"name":"Sunoco","code":null,"latitude":29.17413,"longitude":-81.00351,"address":"2000 S Ridgewood Ave, SOUTH DAYTONA FL","chain_name":null,"distance":0},{"name":"A-Plus Mini Market","code":null,"latitude":27.08787,"longitude":-80.27806,"address":"1805 SW Kanner Hwy, STUART FL","chain_name":null,"distance":0},{"name":"A-Plus Mini Market","code":null,"latitude":27.16729,"longitude":-80.22124,"address":"3024 SE Dixie Hwy, STUART FL","chain_name":null,"distance":0},{"name":"A-Plus Mini Market","code":null,"latitude":26.95953,"longitude":-80.08488,"address":"104 N US Highway 1, TEQUESTA FL","chain_name":null,"distance":0},{"name":"Sunoco","code":null,"latitude":28.53129,"longitude":-80.80991,"address":"6058 Sisson Rd, TITUSVILLE FL","chain_name":null,"distance":0},{"name":"Sunoco","code":null,"latitude":28.91392,"longitude":-81.67525,"address":"793 S Central Ave, UMATILLA FL","chain_name":null,"distance":0},{"name":"Sunoco","code":null,"latitude":27.63906,"longitude":-80.51235,"address":"9009 20th St, VERO BEACH FL","chain_name":null,"distance":0},{"name":"Sunoco","code":null,"latitude":26.65143,"longitude":-80.08826,"address":"1733 S Congress Ave, WEST PALM BEACH FL","chain_name":null,"distance":0},{"name":"A-Plus Mini Market","code":null,"latitude":26.65048,"longitude":-80.08108,"address":"2500 Forest Hill Blvd, WEST PALM BEACH FL","chain_name":null,"distance":0},{"name":"A-Plus Mini Market","code":null,"latitude":26.75344,"longitude":-80.07077,"address":"1149 45th St, WEST PALM BEACH FL","chain_name":null,"distance":0},{"name":"A-Plus Mini Market","code":null,"latitude":28.84894,"longitude":-82.04525,"address":"900 S Main St, WILDWOOD FL","chain_name":null,"distance":0},{"name":"A-Plus Mini Market","code":null,"latitude":28.60994,"longitude":-81.365,"address":"1240 N Orlando Ave, WINTER PARK FL","chain_name":null,"distance":0},{"name":"Sunoco","code":null,"latitude":28.62328,"longitude":-81.3126,"address":"1735 Semoran North Cir, WINTER PARK FL","chain_name":null,"distance":0},{"name":"Sunoco","code":null,"latitude":33.47598,"longitude":-82.00504,"address":"2013 Walton Way, AUGUSTA GA","chain_name":null,"distance":0},{"name":"Sunoco","code":null,"latitude":33.45211,"longitude":-82.04673,"address":"1901 Gordon Hwy, AUGUSTA GA","chain_name":null,"distance":0},{"name":"Sunoco","code":null,"latitude":35.27698,"longitude":-80.76613,"address":"6500 N Tryon St, CHARLOTTE NC","chain_name":null,"distance":0},{"name":"Sunoco","code":null,"latitude":35.26336,"longitude":-80.87968,"address":"3814 Brookshire Blvd, CHARLOTTE NC","chain_name":null,"distance":0},{"name":"A-Plus Mini Market","code":null,"latitude":35.11121,"longitude":-78.87911,"address":"3740 Ramsey St, FAYETTEVILLE NC","chain_name":null,"distance":0},{"name":"A-Plus Mini Market","code":null,"latitude":35.39314,"longitude":-78.81829,"address":"1307 S Main St, LILLINGTON NC","chain_name":null,"distance":0},{"name":"A-Plus Mini Market","code":null,"latitude":35.52729,"longitude":-83.00836,"address":"1980 Dellwood Rd, WAYNESVILLE NC","chain_name":null,"distance":0},{"name":"A-Plus Mini Market","code":null,"latitude":32.79619,"longitude":-80.02647,"address":"1984 Sam Rittenberg Blvd, CHARLESTON SC","chain_name":null,"distance":0},{"name":"A-Plus Mini Market","code":null,"latitude":32.76168,"longitude":-79.98889,"address":"2019 Maybank Hwy, CHARLESTON SC","chain_name":null,"distance":0},{"name":"A-Plus Mini Market","code":null,"latitude":33.97123,"longitude":-80.94981,"address":"7232 Garners Ferry Rd, COLUMBIA SC","chain_name":null,"distance":0},{"name":"A-Plus Mini Market","code":null,"latitude":33.3894,"longitude":-79.28926,"address":"1211 N Fraser St, GEORGETOWN SC","chain_name":null,"distance":0},{"name":"A-Plus Mini Market","code":null,"latitude":34.36631,"longitude":-80.0657,"address":"719 S 4th St, HARTSVILLE SC","chain_name":null,"distance":0},{"name":"A-Plus Mini Market","code":null,"latitude":34.19189,"longitude":-79.39769,"address":"1204 N Main St, MARION SC","chain_name":null,"distance":0},{"name":"A-Plus Mini Market","code":null,"latitude":33.19607,"longitude":-80.01319,"address":"101 S Live Oak Dr, MONCKS CORNER SC","chain_name":null,"distance":0},{"name":"A-Plus Mini Market","code":null,"latitude":33.21011,"longitude":-79.98093,"address":"610 N Highway 52, MONCKS CORNER SC","chain_name":null,"distance":0},{"name":"A-Plus Mini Market","code":null,"latitude":32.81761,"longitude":-79.84479,"address":"1515 N Highway 17, MOUNT PLEASANT SC","chain_name":null,"distance":0},{"name":"A-Plus Mini Market","code":null,"latitude":32.7943,"longitude":-79.85972,"address":"1265 Ben Sawyer Blvd, MT PLEASANT SC","chain_name":null,"distance":0},{"name":"A-Plus Mini Market","code":null,"latitude":32.86244,"longitude":-80.02656,"address":"3564 W Montague Ave, N CHARLESTON SC","chain_name":null,"distance":0},{"name":"A-Plus Mini Market","code":null,"latitude":32.91927,"longitude":-80.02873,"address":"6800 Rivers Ave, N CHARLESTON SC","chain_name":null,"distance":0},{"name":"Sunoco","code":null,"latitude":38.74111,"longitude":-77.16453,"address":"6401 Landsdowne Ctr, ALEXANDRIA VA","chain_name":null,"distance":0},{"name":"Sunoco","code":null,"latitude":39.01761,"longitude":-77.51919,"address":"42870 Truro Parish Dr, BROADLANDS VA","chain_name":null,"distance":0},{"name":"Sunoco","code":null,"latitude":39.04052,"longitude":-77.48099,"address":"44111 Ashburn Village Blvd, ASHBURN VA","chain_name":null,"distance":0},{"name":"Sunoco","code":null,"latitude":38.65933,"longitude":-77.36987,"address":"5350 Dale Blvd, DALE CITY VA","chain_name":null,"distance":0},{"name":"Sunoco","code":null,"latitude":38.85313,"longitude":-77.3723,"address":"4647 W Ox Rd, FAIRFAX VA","chain_name":null,"distance":0},{"name":"Sunoco","code":null,"latitude":38.86108,"longitude":-77.38751,"address":"12730 Shoppes Ln, FAIRFAX VA","chain_name":null,"distance":0},{"name":"Sunoco","code":null,"latitude":38.82561,"longitude":-77.31298,"address":"10619 Braddock Rd, FAIRFAX VA","chain_name":null,"distance":0},{"name":"Sunoco","code":null,"latitude":38.97786,"longitude":-77.31605,"address":"10701 Leesburg Pike, HERNDON VA","chain_name":null,"distance":0},{"name":"Sunoco","code":null,"latitude":38.99955,"longitude":-77.34296,"address":"11516 Leesburg Pike, HERNDON VA","chain_name":null,"distance":0},{"name":"Sunoco","code":null,"latitude":39.10774,"longitude":-77.55048,"address":"615 E Market St, LEESBURG VA","chain_name":null,"distance":0},{"name":"Sunoco","code":null,"latitude":38.75613,"longitude":-77.23332,"address":"7320 Gambrill Rd, SPRINGFIELD VA","chain_name":null,"distance":0},{"name":"Sunoco","code":null,"latitude":39.0384,"longitude":-77.4133,"address":"1 Pidgeon Hill Dr, STERLING VA","chain_name":null,"distance":0},{"name":"Sunoco","code":null,"latitude":39.03893,"longitude":-77.3583,"address":"20850 Hardwood Forest Dr, STERLING VA","chain_name":null,"distance":0},{"name":"Sunoco","code":null,"latitude":39.03454,"longitude":-77.39986,"address":"46230 Cranston St, STERLING VA","chain_name":null,"distance":0},{"name":"Sunoco","code":null,"latitude":38.67555,"longitude":-77.25643,"address":"1320 Old Bridge Rd, WOODBRIDGE VA","chain_name":null,"distance":0},{"name":"Sunoco","code":null,"latitude":38.67855,"longitude":-77.27406,"address":"2010 Old Bridge Rd, WOODBRIDGE VA","chain_name":null,"distance":0},{"name":"Sunoco","code":null,"latitude":38.68459,"longitude":-77.30994,"address":"3220 Old Bridge Rd, WOODBRIDGE VA","chain_name":null,"distance":0},{"name":"Sunoco","code":null,"latitude":38.93856,"longitude":-77.32914,"address":"11190 S Lakes Dr, RESTON VA","chain_name":null,"distance":0},{"name":"Sunoco","code":null,"latitude":38.90729,"longitude":-77.40566,"address":"13300 Franklin Farm Rd, HERNDON VA","chain_name":null,"distance":0},{"name":"Sunoco","code":null,"latitude":28.6155,"longitude":-80.81872,"address":"1390 Garden St, TITUSVILLE FL","chain_name":null,"distance":0},{"name":"Sunoco","code":null,"latitude":35.03901,"longitude":-78.9608,"address":"407 Hope Mills Rd, FAYETTEVILLE NC","chain_name":null,"distance":0},{"name":"Sunoco","code":null,"latitude":42.72767,"longitude":-73.79544,"address":"656 Albany Shaker Rd, ALBANY NY","chain_name":null,"distance":0},{"name":"Sunoco","code":null,"latitude":39.94798,"longitude":-74.90445,"address":"NJ Tpke Milepost 39.4 N, MOUNT LAUREL NJ","chain_name":null,"distance":0},{"name":"A-Plus Mini Mart","code":null,"latitude":42.89566,"longitude":-78.87129,"address":"800 Main, WILLIAMSVILLE NY","chain_name":null,"distance":0},{"name":"A-Plus Mini Mart","code":null,"latitude":43.22342,"longitude":-77.65884,"address":"3550 Mount Read Blvd, ROCHESTER NY","chain_name":null,"distance":0},{"name":"A-Plus Mini Mart","code":null,"latitude":40.32914,"longitude":-75.90497,"address":"1658 Perkiomen Ave, READING PA","chain_name":null,"distance":0},{"name":"Sunoco","code":null,"latitude":38.82704,"longitude":-77.08832,"address":"3500 King St, ALEXANDRIA VA","chain_name":null,"distance":0},{"name":"Sunoco","code":null,"latitude":38.88552,"longitude":-77.11722,"address":"4601 Washington Blvd, ARLINGTON VA","chain_name":null,"distance":0},{"name":"Sunoco","code":null,"latitude":38.88846,"longitude":-77.41768,"address":"13617 Lee Jackson Memorial Hwy, CHANTILLY VA","chain_name":null,"distance":0},{"name":"Sunoco","code":null,"latitude":38.715,"longitude":-77.26425,"address":"8915 Ox Rd, LORTON VA","chain_name":null,"distance":0},{"name":"Sunoco","code":null,"latitude":38.91928,"longitude":-77.22475,"address":"1957 Chain Bridge Rd, MC LEAN VA","chain_name":null,"distance":0},{"name":"Sunoco","code":null,"latitude":38.92226,"longitude":-77.50611,"address":"43270 Defender Dr, SOUTH RIDING VA","chain_name":null,"distance":0},{"name":"Sunoco","code":null,"latitude":38.77883,"longitude":-77.18633,"address":"7025 Old Keene Mill Rd, SPRINGFIELD VA","chain_name":null,"distance":0},{"name":"Sunoco","code":null,"latitude":38.90524,"longitude":-77.2609,"address":"308 Maple Ave E, VIENNA VA","chain_name":null,"distance":0},{"name":"Sunoco","code":null,"latitude":39.66448,"longitude":-75.68903,"address":"520 Jfk Memorial Hwy, NEWARK DE","chain_name":null,"distance":0},{"name":"Sunoco","code":null,"latitude":40.66785,"longitude":-73.70798,"address":"301 W Merrick Rd, VALLEY STREAM NY","chain_name":null,"distance":0},{"name":"Sunoco","code":null,"latitude":39.79761,"longitude":-79.54558,"address":"4142 National Pike, FARMINGTON PA","chain_name":null,"distance":0},{"name":"Sunoco","code":null,"latitude":40.69017,"longitude":-74.29234,"address":"2350 Us Highway 22, UNION NJ","chain_name":null,"distance":0},{"name":"Sunoco","code":null,"latitude":40.1832,"longitude":-76.18468,"address":"529 W Main St, EPHRATA PA","chain_name":null,"distance":0},{"name":"Sunoco","code":null,"latitude":39.89542,"longitude":-80.1868,"address":"10 E Greene St, WAYNESBURG PA","chain_name":null,"distance":0},{"name":"Sunoco","code":null,"latitude":42.94496,"longitude":-78.78405,"address":"3705 Harlem\/Cleveland, CHEEKTOWAGA NY","chain_name":null,"distance":0},{"name":"Sunoco","code":null,"latitude":40.67635,"longitude":-73.84447,"address":"134 Crossbay Blvd, OZONE PARK NY","chain_name":null,"distance":0},{"name":"Sunoco","code":null,"latitude":40.46375,"longitude":-79.93071,"address":"121 N Negley Ave, PITTSBURGH PA","chain_name":null,"distance":0},{"name":"Sunoco","code":null,"latitude":40.43586,"longitude":-79.96127,"address":"301 Craft Ave, PITTSBURGH PA","chain_name":null,"distance":0},{"name":"Sunoco","code":null,"latitude":38.8778,"longitude":-77.1922,"address":"7301 Lee Hwy, FALLS CHURCH VA","chain_name":null,"distance":0},{"name":"Sunoco","code":null,"latitude":39.47951,"longitude":-76.24854,"address":"1319 Riverside Pkwy, BELCAMP MD","chain_name":null,"distance":0},{"name":"Sunoco","code":null,"latitude":40.15631,"longitude":-74.97146,"address":"620 E Bristol Rd, TREVOSE PA","chain_name":null,"distance":0},{"name":"Sunoco","code":null,"latitude":39.1343,"longitude":-76.63592,"address":"7930 Crain Hwy S, GLEN BURNIE MD","chain_name":null,"distance":0}]