[{"name":"Taco Bell","code":null,"latitude":40.705552,"longitude":-89.44505,"address":"1896 Washington Rd., Washington IL","chain_name":null,"distance":0},{"name":"Taco Bell","code":null,"latitude":33.453696,"longitude":-87.0098461,"address":"3064 Warrior River Road, Hueytown AL","chain_name":null,"distance":0},{"name":"Taco Bell","code":null,"latitude":40.4421196,"longitude":-86.1261016,"address":"3801 S Reed Rd, Kokomo IN","chain_name":null,"distance":0},{"name":"Taco Bell","code":null,"latitude":26.012105,"longitude":-80.2486778,"address":"298 N. University Drive, Pembroke Pines FL","chain_name":null,"distance":0},{"name":"Taco Bell","code":null,"latitude":34.1722995,"longitude":-118.3346612,"address":"2425 W Magnolia Blvd., Burbank CA","chain_name":null,"distance":0},{"name":"Taco Bell","code":null,"latitude":38.6119147,"longitude":-121.4973216,"address":"1580 W. El Camino Avenue Suite A-1, Sacramento CA","chain_name":null,"distance":0},{"name":"Taco Bell","code":null,"latitude":33.699991,"longitude":-116.213755,"address":"83-157 Avenue 48, Coachella CA","chain_name":null,"distance":0},{"name":"Taco Bell","code":null,"latitude":40.9313669,"longitude":-74.2682127,"address":"1400 Route 23 North, Wayne NJ","chain_name":null,"distance":0},{"name":"Taco Bell","code":null,"latitude":42.4859396,"longitude":-71.0192176,"address":"421 Broadway, Saugus MA","chain_name":null,"distance":0},{"name":"Taco Bell","code":null,"latitude":37.0567999,"longitude":-100.9228964,"address":"1720 North Kansas Ave, Liberal KS","chain_name":null,"distance":0},{"name":"Taco Bell","code":null,"latitude":44.9722102,"longitude":-93.3644422,"address":"6620 Wayzata Blvd, Golden Valley MN","chain_name":null,"distance":0},{"name":"Taco Bell","code":null,"latitude":32.2827091,"longitude":-90.1184033,"address":"3051 Highway 80 East, Pearl MS","chain_name":null,"distance":0},{"name":"Taco Bell","code":null,"latitude":30.1892391,"longitude":-92.0140711,"address":"1935 West Pinhook Road, Lafayette LA","chain_name":null,"distance":0},{"name":"Taco Bell","code":null,"latitude":38.6172169,"longitude":-121.3633062,"address":"4318 Marconi Ave, Sacramento CA","chain_name":null,"distance":0},{"name":"Taco Bell","code":null,"latitude":42.3937688,"longitude":-88.1839118,"address":"54 S US Highway 12, Fox Lake IL","chain_name":null,"distance":0},{"name":"Taco Bell","code":null,"latitude":28.5784509,"longitude":-81.4412918,"address":"2600 Orlando West Dr, Orlando FL","chain_name":null,"distance":0},{"name":"Taco Bell","code":null,"latitude":35.2961748,"longitude":-80.7555015,"address":"5540 University Pointe Blvd, Charlotte NC","chain_name":null,"distance":0},{"name":"Taco Bell","code":null,"latitude":30.4314269,"longitude":-91.0565827,"address":"2313 Sherwood Forest Blvd., Baton Rouge LA","chain_name":null,"distance":0},{"name":"Taco Bell","code":null,"latitude":37.5972001,"longitude":-122.5037463,"address":"5200 Coast Highway, Pacifica CA","chain_name":null,"distance":0},{"name":"Taco Bell","code":null,"latitude":41.2771747,"longitude":-72.9896223,"address":"89 Boston Post Rd, Orange CT","chain_name":null,"distance":0},{"name":"Taco Bell","code":null,"latitude":34.2979427,"longitude":-118.4378717,"address":"1968 Glen Oaks Blvd, San Fernando CA","chain_name":null,"distance":0},{"name":"Taco Bell","code":null,"latitude":32.2066248,"longitude":-110.9084596,"address":"3930 East 22nd Street, Tucson AZ","chain_name":null,"distance":0},{"name":"Taco Bell","code":null,"latitude":33.8490644,"longitude":-87.2811279,"address":"508 Hwy #78 West, Jasper AL","chain_name":null,"distance":0},{"name":"Taco Bell","code":null,"latitude":40.113102,"longitude":-88.2791147,"address":"1910 West Springfield, Champaign IL","chain_name":null,"distance":0},{"name":"Taco Bell","code":null,"latitude":38.6911101,"longitude":-90.3898426,"address":"10426 Page Ave, Olivette MO","chain_name":null,"distance":0},{"name":"Taco Bell","code":null,"latitude":41.0270164,"longitude":-85.1680858,"address":"6224 Bluffton Rd, Fort Wayne IN","chain_name":null,"distance":0},{"name":"Taco Bell","code":null,"latitude":34.8273216,"longitude":-92.3881324,"address":"11525 Maumelle Blvd, North Little Rock AR","chain_name":null,"distance":0},{"name":"Taco Bell","code":null,"latitude":42.6050511,"longitude":-84.481662,"address":"805 N Cedar St, Mason MI","chain_name":null,"distance":0},{"name":"Taco Bell","code":null,"latitude":42.4647809,"longitude":-73.1978815,"address":"555 Hubbard Ave, Pittsfield MA","chain_name":null,"distance":0},{"name":"Taco Bell","code":null,"latitude":32.5992359,"longitude":-93.839204,"address":"4520 Northport Blvd, Shreveport LA","chain_name":null,"distance":0},{"name":"Taco Bell","code":null,"latitude":38.6589666,"longitude":-90.2990277,"address":"851 N Skinker Blvd, Saint Louis MO","chain_name":null,"distance":0},{"name":"Taco Bell","code":null,"latitude":25.9385926,"longitude":-80.2456187,"address":"17950 NW 27th Ave, Miami Gardens FL","chain_name":null,"distance":0},{"name":"Taco Bell","code":null,"latitude":42.489451,"longitude":-90.6647545,"address":"240 South Locust Street, Dubuque IA","chain_name":null,"distance":0},{"name":"Taco Bell","code":null,"latitude":28.0546454,"longitude":-81.9498816,"address":"727 E. Memorial Boulevard, Lakeland FL","chain_name":null,"distance":0},{"name":"Taco Bell","code":null,"latitude":35.3937477,"longitude":-119.0928957,"address":"3707 Coffee Rd., Bakersfield CA","chain_name":null,"distance":0},{"name":"Taco Bell","code":null,"latitude":33.847515,"longitude":-118.0280681,"address":"7878 Valley View St, Buena Park CA","chain_name":null,"distance":0},{"name":"Taco Bell","code":null,"latitude":35.81744,"longitude":-78.5979503,"address":"2748 Capital Blvd., Raleigh NC","chain_name":null,"distance":0},{"name":"Taco Bell","code":null,"latitude":39.8331964,"longitude":-89.604173,"address":"2300 N. Dirkson Parkway., Springfield IL","chain_name":null,"distance":0},{"name":"Taco Bell","code":null,"latitude":39.1766758,"longitude":-76.8429576,"address":"7102 Minstrel Way, Columbia MD","chain_name":null,"distance":0},{"name":"Taco Bell","code":null,"latitude":33.9462932,"longitude":-117.424825,"address":"5587 Arlington Avenue, Riverside CA","chain_name":null,"distance":0},{"name":"Taco Bell","code":null,"latitude":38.4182006,"longitude":-122.7131529,"address":"2000 Santa Rosa Ave, Santa Rosa CA","chain_name":null,"distance":0},{"name":"Taco Bell","code":null,"latitude":39.531945,"longitude":-107.324882,"address":"2002 Grand Ave, Glenwood Springs CO","chain_name":null,"distance":0},{"name":"Taco Bell","code":null,"latitude":40.8254484,"longitude":-91.1408204,"address":"2761 Mt Pleasant Street, Burlington IA","chain_name":null,"distance":0},{"name":"Taco Bell","code":null,"latitude":39.4615976,"longitude":-76.3183943,"address":"406 Constant Friendship Blvd, Abingdon MD","chain_name":null,"distance":0},{"name":"Taco Bell","code":null,"latitude":41.7200807,"longitude":-85.9721422,"address":"2508 Cassopolis St, Elkhart IN","chain_name":null,"distance":0},{"name":"Taco Bell","code":null,"latitude":33.3352316,"longitude":-86.7842938,"address":"101 Cahaba Valley Pkwy, Pelham AL","chain_name":null,"distance":0},{"name":"Taco Bell","code":null,"latitude":37.6896456,"longitude":-122.130638,"address":"15501 Hesperian Blvd, San Leandro CA","chain_name":null,"distance":0},{"name":"Taco Bell","code":null,"latitude":43.5928915,"longitude":-83.888287,"address":"260 Washington Avenue, Bay City MI","chain_name":null,"distance":0},{"name":"Taco Bell","code":null,"latitude":42.6387038,"longitude":-83.3262762,"address":"119 North Telegraph Road, Waterford MI","chain_name":null,"distance":0},{"name":"Taco Bell","code":null,"latitude":34.0628765,"longitude":-118.4466819,"address":"10937 Weyburn Ave., Los Angeles CA","chain_name":null,"distance":0},{"name":"Taco Bell","code":null,"latitude":34.0111997,"longitude":-118.3384684,"address":"4050 Marlton Ave, Los Angeles CA","chain_name":null,"distance":0},{"name":"Taco Bell","code":null,"latitude":37.7869359,"longitude":-89.0281561,"address":"1709 S Park Ave, Herrin IL","chain_name":null,"distance":0},{"name":"Taco Bell","code":null,"latitude":33.5073104,"longitude":-86.7974014,"address":"2124 7th Ave S, Birmingham AL","chain_name":null,"distance":0},{"name":"Taco Bell","code":null,"latitude":33.8240332,"longitude":-84.107794,"address":"5160 Hwy 78, Stone Mountain GA","chain_name":null,"distance":0},{"name":"Taco Bell","code":null,"latitude":38.9648928,"longitude":-76.8455306,"address":"9409 Annapolis Road, Lanham MD","chain_name":null,"distance":0},{"name":"Taco Bell","code":null,"latitude":42.0234426,"longitude":-87.8963771,"address":"1175 E. Oakton, Des Plaines IL","chain_name":null,"distance":0},{"name":"Taco Bell","code":null,"latitude":46.793713,"longitude":-100.748172,"address":"2616 Rock Island Place, Bismarck ND","chain_name":null,"distance":0},{"name":"Taco Bell","code":null,"latitude":33.3333974,"longitude":-86.9958466,"address":"5050 Bond Boulevard, Bessemer AL","chain_name":null,"distance":0},{"name":"Taco Bell","code":null,"latitude":34.1475641,"longitude":-118.6982238,"address":"4955 Las Virgenes Rd, Calabasas CA","chain_name":null,"distance":0},{"name":"Taco Bell","code":null,"latitude":32.52817,"longitude":-93.700953,"address":"1990 Airline Dr, Bossier City LA","chain_name":null,"distance":0},{"name":"Taco Bell","code":null,"latitude":41.1786249,"longitude":-85.0945224,"address":"3950 East DuPont Rd, Fort Wayne IN","chain_name":null,"distance":0},{"name":"Taco Bell","code":null,"latitude":42.1798436,"longitude":-71.8705139,"address":"820 Southbridge St., Auburn MA","chain_name":null,"distance":0},{"name":"Taco Bell","code":null,"latitude":39.9903193,"longitude":-75.0260017,"address":"1061 Rt 73, Pennsauken NJ","chain_name":null,"distance":0},{"name":"Taco Bell","code":null,"latitude":33.8279124,"longitude":-117.9585669,"address":"324 S Brookhurst, Anaheim CA","chain_name":null,"distance":0},{"name":"Taco Bell","code":null,"latitude":38.7600673,"longitude":-121.3105302,"address":"5002 Foothills Blvd, Roseville CA","chain_name":null,"distance":0},{"name":"Taco Bell","code":null,"latitude":39.8867567,"longitude":-104.8825888,"address":"10402 S Belle Creek Drive, Henderson CO","chain_name":null,"distance":0},{"name":"Taco Bell","code":null,"latitude":29.0848651,"longitude":-82.2512971,"address":"7919 SW Highway 200, Ocala FL","chain_name":null,"distance":0},{"name":"Taco Bell","code":null,"latitude":39.8298024,"longitude":-86.0417346,"address":"7230 Pendleton Pike, Lawrence IN","chain_name":null,"distance":0},{"name":"Taco Bell","code":null,"latitude":38.9279554,"longitude":-94.7288133,"address":"12208 College Blvd, Overland Park KS","chain_name":null,"distance":0},{"name":"Taco Bell","code":null,"latitude":33.5063147,"longitude":-112.2731391,"address":"4850 N. 99th Ave, Phoenix AZ","chain_name":null,"distance":0},{"name":"Taco Bell","code":null,"latitude":40.498691,"longitude":-74.855664,"address":"280A Route 202 31, Flemington NJ","chain_name":null,"distance":0},{"name":"Taco Bell","code":null,"latitude":32.46206,"longitude":-86.450241,"address":"411 S Memorial Dr, Prattville AL","chain_name":null,"distance":0},{"name":"Taco Bell","code":null,"latitude":39.5991349,"longitude":-75.8258946,"address":"110 E Pulaski Hwy, Elkton MD","chain_name":null,"distance":0},{"name":"Taco Bell","code":null,"latitude":30.5050305,"longitude":-84.2487019,"address":"3839 Capital Circle NE, Tallahassee FL","chain_name":null,"distance":0},{"name":"Taco Bell","code":null,"latitude":35.4762481,"longitude":-107.0760898,"address":"10300 Alondra Blvd, Bellflower CA","chain_name":null,"distance":0},{"name":"Taco Bell","code":null,"latitude":33.8433271,"longitude":-84.3275942,"address":"3385 Buford Hwy, Atlanta GA","chain_name":null,"distance":0},{"name":"Taco Bell","code":null,"latitude":41.846098,"longitude":-87.80951,"address":"7501 W Cermak Road, North Riverside IL","chain_name":null,"distance":0},{"name":"Taco Bell","code":null,"latitude":34.7421342,"longitude":-92.2760934,"address":"719 South Broadway, Little Rock AR","chain_name":null,"distance":0},{"name":"Taco Bell","code":null,"latitude":34.4295349,"longitude":-119.6900686,"address":"821 N Milpas Street, Santa Barbara CA","chain_name":null,"distance":0},{"name":"Taco Bell","code":null,"latitude":36.0549484,"longitude":-79.9020773,"address":"1301 Bridford Pkwy, Greensboro NC","chain_name":null,"distance":0},{"name":"Taco Bell","code":null,"latitude":31.3588111,"longitude":-92.4133115,"address":"3200 Monroe Hwy, Pineville LA","chain_name":null,"distance":0},{"name":"Taco Bell","code":null,"latitude":39.1419153,"longitude":-121.622351,"address":"619 Colusa Ave, Yuba City CA","chain_name":null,"distance":0},{"name":"Taco Bell","code":null,"latitude":46.843514,"longitude":-96.8840698,"address":"815 23rd Ave East, West Fargo ND","chain_name":null,"distance":0},{"name":"Taco Bell","code":null,"latitude":33.8120633,"longitude":-117.9927547,"address":"10360 Beach Blvd, Stanton CA","chain_name":null,"distance":0},{"name":"Taco Bell","code":null,"latitude":39.9348675,"longitude":-91.353885,"address":"3828 Broadway, Quincy IL","chain_name":null,"distance":0},{"name":"Taco Bell","code":null,"latitude":37.7140307,"longitude":-85.8324818,"address":"105 Buffalo Creek Drive, Elizabethtown KY","chain_name":null,"distance":0},{"name":"Taco Bell","code":null,"latitude":32.9272427,"longitude":-83.7326808,"address":"1604 Bass Road, Macon GA","chain_name":null,"distance":0},{"name":"Taco Bell","code":null,"latitude":42.5959622,"longitude":-114.4546761,"address":"1920 Blue Lakes Blvd North, Twin Falls ID","chain_name":null,"distance":0},{"name":"Taco Bell","code":null,"latitude":38.9943431,"longitude":-76.9329032,"address":"8428 Baltimore Ave., College Park MD","chain_name":null,"distance":0},{"name":"Taco Bell","code":null,"latitude":38.5563694,"longitude":-121.4100118,"address":"7590 La Riviera Drive, Sacramento CA","chain_name":null,"distance":0},{"name":"Taco Bell","code":null,"latitude":27.7208796,"longitude":-82.6788041,"address":"5210 34th Street South, Saint Petersburg FL","chain_name":null,"distance":0},{"name":"Taco Bell","code":null,"latitude":30.1736984,"longitude":-92.0697885,"address":"3630 Ambassador Caffery Pkwy, Lafayette LA","chain_name":null,"distance":0},{"name":"Taco Bell","code":null,"latitude":33.469176,"longitude":-112.221169,"address":"1860 N 75th Ave, Phoenix AZ","chain_name":null,"distance":0},{"name":"Taco Bell","code":null,"latitude":36.1818662,"longitude":-94.139183,"address":"406 S. Thompson, Springdale AR","chain_name":null,"distance":0},{"name":"Taco Bell","code":null,"latitude":42.733488,"longitude":-84.4761429,"address":"601 E Grand River Ave, East Lansing MI","chain_name":null,"distance":0},{"name":"Taco Bell","code":null,"latitude":41.2285041,"longitude":-95.8502769,"address":"3150 Dial Drive, Council Bluffs IA","chain_name":null,"distance":0},{"name":"Taco Bell","code":null,"latitude":30.1798086,"longitude":-81.5540353,"address":"10400 Phillips Hwy, Jacksonville FL","chain_name":null,"distance":0},{"name":"Taco Bell","code":null,"latitude":39.125371,"longitude":-76.5311598,"address":"8099 Edwin Raynor Blvd, Pasadena MD","chain_name":null,"distance":0},{"name":"Taco Bell","code":null,"latitude":42.1977998,"longitude":-72.5732772,"address":"1471 Memorial Drive, Chicopee MA","chain_name":null,"distance":0},{"name":"Taco Bell","code":null,"latitude":27.2993712,"longitude":-82.4531026,"address":"5811 Bee Ridge Road, Sarasota FL","chain_name":null,"distance":0},{"name":"Taco Bell","code":null,"latitude":37.3378661,"longitude":-122.0418485,"address":"1695 Hollenbeck Road, Sunnyvale CA","chain_name":null,"distance":0},{"name":"Taco Bell","code":null,"latitude":42.7624451,"longitude":-84.5432034,"address":"2809 N East St, Lansing MI","chain_name":null,"distance":0},{"name":"Taco Bell","code":null,"latitude":33.5346971,"longitude":-82.1269638,"address":"4292 Washington Rd, Evans GA","chain_name":null,"distance":0},{"name":"Taco Bell","code":null,"latitude":32.532985,"longitude":-93.6709083,"address":"4100 Industrial Dr, Bossier City LA","chain_name":null,"distance":0},{"name":"Taco Bell","code":null,"latitude":27.7775819,"longitude":-82.6798764,"address":"3401 5th Avenue N, Saint Petersburg FL","chain_name":null,"distance":0},{"name":"Taco Bell","code":null,"latitude":34.321927,"longitude":-83.8328775,"address":"1452 Thompson Bridge Rd, Gainesville GA","chain_name":null,"distance":0},{"name":"Taco Bell","code":null,"latitude":39.0383755,"longitude":-95.7612884,"address":"1560 S.w. Wanamaker Rd, Topeka KS","chain_name":null,"distance":0},{"name":"Taco Bell","code":null,"latitude":34.0445899,"longitude":-118.3289023,"address":"1601 Crenshaw Blvd., Los Angeles CA","chain_name":null,"distance":0},{"name":"Taco Bell","code":null,"latitude":30.6706675,"longitude":-87.85163,"address":"30500-F State Hwy 181, Spanish Fort AL","chain_name":null,"distance":0},{"name":"Taco Bell","code":null,"latitude":35.2196265,"longitude":-114.0353925,"address":"3220 Stockton Hill Rd, Kingman AZ","chain_name":null,"distance":0},{"name":"Taco Bell","code":null,"latitude":30.6755047,"longitude":-88.1425037,"address":"3843 Airport Blvd, Mobile AL","chain_name":null,"distance":0},{"name":"Taco Bell","code":null,"latitude":39.0935887,"longitude":-120.9513725,"address":"555 South Auburn Street, Colfax CA","chain_name":null,"distance":0},{"name":"Taco Bell","code":null,"latitude":33.9088071,"longitude":-84.2069001,"address":"5518 Jimmy Carter Blvd, Norcross GA","chain_name":null,"distance":0},{"name":"Taco Bell","code":null,"latitude":40.1448292,"longitude":-105.1266825,"address":"2010 Ken Pratt Blvd., Longmont CO","chain_name":null,"distance":0},{"name":"Taco Bell","code":null,"latitude":39.0758289,"longitude":-84.8920297,"address":"1020 Green Blvd, Aurora IN","chain_name":null,"distance":0},{"name":"Taco Bell","code":null,"latitude":34.1225889,"longitude":-77.9006037,"address":"5972 Carolina Beach Rd, Wilmington NC","chain_name":null,"distance":0},{"name":"Taco Bell","code":null,"latitude":29.6600789,"longitude":-82.4212106,"address":"7410 W Newberry Rd, Gainesville FL","chain_name":null,"distance":0},{"name":"Taco Bell","code":null,"latitude":34.3625654,"longitude":-89.5114748,"address":"1726 University Ave, Oxford MS","chain_name":null,"distance":0},{"name":"Taco Bell","code":null,"latitude":38.4228636,"longitude":-96.2174904,"address":"2807 Eaglecrest Drive, Emporia KS","chain_name":null,"distance":0},{"name":"Taco Bell","code":null,"latitude":30.4779088,"longitude":-81.6354998,"address":"600 Airport Center Dr., Jacksonville FL","chain_name":null,"distance":0},{"name":"Taco Bell","code":null,"latitude":42.4932175,"longitude":-83.1832008,"address":"2260 Colidge Hwy., Berkley MI","chain_name":null,"distance":0},{"name":"Taco Bell","code":null,"latitude":34.1882168,"longitude":-118.3191433,"address":"1115 N San Fernando Blvd, Burbank CA","chain_name":null,"distance":0},{"name":"Taco Bell","code":null,"latitude":38.6558667,"longitude":-90.5546259,"address":"15548 Olive Blvd, Chesterfield MO","chain_name":null,"distance":0},{"name":"Taco Bell","code":null,"latitude":35.7984856,"longitude":-78.4938301,"address":"7036 Highway 64 East, Knightdale NC","chain_name":null,"distance":0},{"name":"Taco Bell","code":null,"latitude":39.7819822,"longitude":-86.0458585,"address":"6990 E 10th St, Indianapolis IN","chain_name":null,"distance":0},{"name":"Taco Bell","code":null,"latitude":42.0345348,"longitude":-87.9405737,"address":"945 Elmhurst Rd, Des Plaines IL","chain_name":null,"distance":0},{"name":"Taco Bell","code":null,"latitude":34.2572478,"longitude":-118.5940022,"address":"21120 Devonshire Street, Chatsworth CA","chain_name":null,"distance":0},{"name":"Taco Bell","code":null,"latitude":35.0267702,"longitude":-79.0518686,"address":"7647 S Raeford Rd, Fayetteville NC","chain_name":null,"distance":0},{"name":"Taco Bell","code":null,"latitude":33.8107542,"longitude":-118.2908193,"address":"921 West Sepulveda Blvd, Torrance CA","chain_name":null,"distance":0},{"name":"Taco Bell","code":null,"latitude":33.3354502,"longitude":-111.8599203,"address":"2030 North Alma School Rd, Chandler AZ","chain_name":null,"distance":0},{"name":"Taco Bell","code":null,"latitude":33.7750916,"longitude":-118.1903046,"address":"228 E Seventh, Long Beach CA","chain_name":null,"distance":0},{"name":"Taco Bell","code":null,"latitude":41.2593224,"longitude":-95.9707453,"address":"3855 Dodge Street, Omaha NE","chain_name":null,"distance":0},{"name":"Taco Bell","code":null,"latitude":37.724062,"longitude":-97.2440769,"address":"2230 North Rock Rd, Wichita KS","chain_name":null,"distance":0},{"name":"Taco Bell","code":null,"latitude":44.882706,"longitude":-93.319715,"address":"3210 Southdale Circle, Edina MN","chain_name":null,"distance":0},{"name":"Taco Bell","code":null,"latitude":29.6268254,"longitude":-82.3736087,"address":"3408 SW Archer Rd, Gainesville FL","chain_name":null,"distance":0},{"name":"Taco Bell","code":null,"latitude":29.6327975,"longitude":-90.7589981,"address":"5974 W Main St, Houma LA","chain_name":null,"distance":0},{"name":"Taco Bell","code":null,"latitude":44.9987834,"longitude":-93.2852232,"address":"425 W Broadway, Minneapolis MN","chain_name":null,"distance":0},{"name":"Taco Bell","code":null,"latitude":38.9642233,"longitude":-92.2889333,"address":"3301 Clark Lane, Columbia MO","chain_name":null,"distance":0},{"name":"Taco Bell","code":null,"latitude":33.6303688,"longitude":-88.445413,"address":"Bidg. 160 Simler Blvd., Columbus MS","chain_name":null,"distance":0},{"name":"Taco Bell","code":null,"latitude":27.9227465,"longitude":-82.3216338,"address":"11315 Causeway Blvd, Brandon FL","chain_name":null,"distance":0},{"name":"Taco Bell","code":null,"latitude":38.6771164,"longitude":-90.2528977,"address":"5031 Natural Bridge, Saint Louis MO","chain_name":null,"distance":0},{"name":"Taco Bell","code":null,"latitude":40.2487523,"longitude":-74.7704418,"address":"1760 North Olden Avenue, Ewing NJ","chain_name":null,"distance":0},{"name":"Taco Bell","code":null,"latitude":32.1913057,"longitude":-110.7918303,"address":"9410 E. Golf Links Rd., Tucson AZ","chain_name":null,"distance":0},{"name":"Taco Bell","code":null,"latitude":42.9241242,"longitude":-72.2941089,"address":"85 Key Rd, Keene NH","chain_name":null,"distance":0},{"name":"Taco Bell","code":null,"latitude":42.9123931,"longitude":-85.6527501,"address":"560 28th St SE, Wyoming MI","chain_name":null,"distance":0},{"name":"Taco Bell","code":null,"latitude":28.0491985,"longitude":-82.5037168,"address":"11007 North Dale Mabry, Tampa FL","chain_name":null,"distance":0},{"name":"Taco Bell","code":null,"latitude":38.595524,"longitude":-89.9856864,"address":"6599 N Illinois St., Fairview Heights IL","chain_name":null,"distance":0},{"name":"Taco Bell","code":null,"latitude":39.7135113,"longitude":-105.0537046,"address":"165 S Sheridan Blvd, Lakewood CO","chain_name":null,"distance":0},{"name":"Taco Bell","code":null,"latitude":32.3344032,"longitude":-106.7811888,"address":"2583 N. Main St., Las Cruces NM","chain_name":null,"distance":0},{"name":"Taco Bell","code":null,"latitude":43.6151265,"longitude":-83.9140952,"address":"1004 North Euclid Avenue, Bay City MI","chain_name":null,"distance":0},{"name":"Taco Bell","code":null,"latitude":41.6618397,"longitude":-70.2858537,"address":"314 Barnstable Road, Hyannis MA","chain_name":null,"distance":0},{"name":"Taco Bell","code":null,"latitude":34.0472713,"longitude":-118.2071495,"address":"320 North Soto, Los Angeles CA","chain_name":null,"distance":0},{"name":"Taco Bell","code":null,"latitude":41.6358655,"longitude":-72.8733422,"address":"709 Queen St, Southington CT","chain_name":null,"distance":0},{"name":"Taco Bell","code":null,"latitude":32.4252757,"longitude":-84.9487371,"address":"3456 Victory Drive, Columbus GA","chain_name":null,"distance":0},{"name":"Taco Bell","code":null,"latitude":34.2939149,"longitude":-118.4161445,"address":"12910 Foothill Blvd, Sylmar CA","chain_name":null,"distance":0},{"name":"Taco Bell","code":null,"latitude":41.259295,"longitude":-96.0219479,"address":"7051 Dodge Street, Omaha NE","chain_name":null,"distance":0},{"name":"Taco Bell","code":null,"latitude":33.5673478,"longitude":-84.4135255,"address":"6865 Hwy 85, Riverdale GA","chain_name":null,"distance":0},{"name":"Taco Bell","code":null,"latitude":33.1332288,"longitude":-117.1214135,"address":"704 Center Dr, San Marcos CA","chain_name":null,"distance":0},{"name":"Taco Bell","code":null,"latitude":32.7428865,"longitude":-117.0419762,"address":"7232 Broadway, Lemon Grove CA","chain_name":null,"distance":0},{"name":"Taco Bell","code":null,"latitude":26.6677029,"longitude":-81.8909041,"address":"14041 N Cleveland Ave, North Fort Myers FL","chain_name":null,"distance":0},{"name":"Taco Bell","code":null,"latitude":33.1758092,"longitude":-87.4466533,"address":"3501 Buttermilk Road, Cottondale AL","chain_name":null,"distance":0},{"name":"Taco Bell","code":null,"latitude":38.9238935,"longitude":-121.0595375,"address":"1895 Auburn Ravine Road, Auburn CA","chain_name":null,"distance":0},{"name":"Taco Bell","code":null,"latitude":46.8618166,"longitude":-96.8504834,"address":"4135 13th Ave, South, Fargo ND","chain_name":null,"distance":0},{"name":"Taco Bell","code":null,"latitude":38.8576892,"longitude":-104.7207938,"address":"1750 N Powers Blvd, Colorado Springs CO","chain_name":null,"distance":0},{"name":"Taco Bell","code":null,"latitude":40.1512588,"longitude":-85.673149,"address":"2618 N Broadway Ave, Anderson IN","chain_name":null,"distance":0},{"name":"Taco Bell","code":null,"latitude":37.5230267,"longitude":-122.0048727,"address":"39199 Cedar Blvd., Newark CA","chain_name":null,"distance":0},{"name":"Taco Bell","code":null,"latitude":35.8448621,"longitude":-78.579358,"address":"4506 Capital Blvd, Raleigh NC","chain_name":null,"distance":0},{"name":"Taco Bell","code":null,"latitude":33.989859,"longitude":-118.0644561,"address":"10722 E Whittier Blvd, Whittier CA","chain_name":null,"distance":0},{"name":"Taco Bell","code":null,"latitude":42.4539741,"longitude":-83.129533,"address":"21900 Woodward Avenue, Ferndale MI","chain_name":null,"distance":0},{"name":"Taco Bell","code":null,"latitude":39.9865387,"longitude":-105.0949558,"address":"450 W South Boulder Rd, Lafayette CO","chain_name":null,"distance":0},{"name":"Taco Bell","code":null,"latitude":37.5966465,"longitude":-93.4034498,"address":"1875 S Springfield Ave, Bolivar MO","chain_name":null,"distance":0},{"name":"Taco Bell","code":null,"latitude":36.7039952,"longitude":-121.6533592,"address":"1345 N. Main Street, Salinas CA","chain_name":null,"distance":0},{"name":"Taco Bell","code":null,"latitude":37.5619816,"longitude":-122.3247415,"address":"465 El Camino Real, South San Francisco CA","chain_name":null,"distance":0},{"name":"Taco Bell","code":null,"latitude":33.8914988,"longitude":-84.7531967,"address":"4495 Jimmy Lee Smith Parkway, Hiram GA","chain_name":null,"distance":0},{"name":"Taco Bell","code":null,"latitude":43.5078193,"longitude":-70.4356331,"address":"491 Main St., Saco ME","chain_name":null,"distance":0},{"name":"Taco Bell","code":null,"latitude":26.0477213,"longitude":-80.1590405,"address":"2700 Stirling Road, Hollywood FL","chain_name":null,"distance":0},{"name":"Taco Bell","code":null,"latitude":38.5380046,"longitude":-90.4933701,"address":"2115 Smizer Station Road, Valley Park MO","chain_name":null,"distance":0},{"name":"Taco Bell","code":null,"latitude":40.4530423,"longitude":-122.2913393,"address":"2770 Mcmurry, Anderson CA","chain_name":null,"distance":0},{"name":"Taco Bell","code":null,"latitude":36.0995914,"longitude":-115.1149698,"address":"2565 E Tropicana Ave, Las Vegas NV","chain_name":null,"distance":0},{"name":"Taco Bell","code":null,"latitude":33.5945761,"longitude":-86.6944114,"address":"9509 Parkway East, Birmingham AL","chain_name":null,"distance":0},{"name":"Taco Bell","code":null,"latitude":38.8181422,"longitude":-121.1898907,"address":"6079 Horseshoe Bar Road, Loomis CA","chain_name":null,"distance":0},{"name":"Taco Bell","code":null,"latitude":31.5786005,"longitude":-90.4677794,"address":"977 Brookway Blvd, Brookhaven MS","chain_name":null,"distance":0},{"name":"Taco Bell","code":null,"latitude":42.2505969,"longitude":-83.1953306,"address":"2306 Dix Hwy, Lincoln Park MI","chain_name":null,"distance":0},{"name":"Taco Bell","code":null,"latitude":38.9888361,"longitude":-76.5481638,"address":"1050 Annapolis Mall, Annapolis MD","chain_name":null,"distance":0},{"name":"Taco Bell","code":null,"latitude":43.4290228,"longitude":-83.9506333,"address":"1472 N Michigan Ave, Saginaw MI","chain_name":null,"distance":0},{"name":"Taco Bell","code":null,"latitude":37.0263004,"longitude":-93.2274939,"address":"880 North 18th Street, Ozark MO","chain_name":null,"distance":0},{"name":"Taco Bell","code":null,"latitude":33.4685752,"longitude":-86.8185763,"address":"381 Palisades Blvd, Birmingham AL","chain_name":null,"distance":0},{"name":"Taco Bell","code":null,"latitude":36.0421725,"longitude":-79.7726711,"address":"2239 Martin Luther King Jr Blvd, Greensboro NC","chain_name":null,"distance":0},{"name":"Taco Bell","code":null,"latitude":39.0418534,"longitude":-94.569871,"address":"1310 E 47th St, Kansas City MO","chain_name":null,"distance":0},{"name":"Taco Bell","code":null,"latitude":33.9265433,"longitude":-118.2391649,"address":"11758 S Wilmington, Los Angeles CA","chain_name":null,"distance":0},{"name":"Taco Bell","code":null,"latitude":36.7799008,"longitude":-119.7730438,"address":"3095 E Shields Ave, Fresno CA","chain_name":null,"distance":0},{"name":"Taco Bell","code":null,"latitude":37.6940222,"longitude":-122.0741828,"address":"20925 Redwood Rd, Castro Valley CA","chain_name":null,"distance":0},{"name":"Taco Bell","code":null,"latitude":37.4750185,"longitude":-105.8932085,"address":"2435 Main Street (Lot 4B-2), Alamosa CO","chain_name":null,"distance":0},{"name":"Taco Bell","code":null,"latitude":35.1331129,"longitude":-120.6062047,"address":"867 Oak Park Blvd, Pismo Beach CA","chain_name":null,"distance":0},{"name":"Taco Bell","code":null,"latitude":44.9915231,"longitude":-93.1053525,"address":"1672 Rice St, Saint Paul MN","chain_name":null,"distance":0},{"name":"Taco Bell","code":null,"latitude":43.0025921,"longitude":-83.7337716,"address":"3606 Corunna Rd., Flint MI","chain_name":null,"distance":0},{"name":"Taco Bell","code":null,"latitude":37.3682989,"longitude":-89.6427708,"address":"2271 East Jackson Blvd, Jackson MO","chain_name":null,"distance":0},{"name":"Taco Bell","code":null,"latitude":38.3647174,"longitude":-122.7136278,"address":"5000 Redwood Dr, Rohnert Park CA","chain_name":null,"distance":0},{"name":"Taco Bell","code":null,"latitude":38.2371336,"longitude":-104.6628754,"address":"1717 South Pueblo Blvd, Pueblo CO","chain_name":null,"distance":0},{"name":"Taco Bell","code":null,"latitude":40.1551033,"longitude":-74.2297146,"address":"3810 Rt 9 S, Howell NJ","chain_name":null,"distance":0},{"name":"Taco Bell","code":null,"latitude":42.3417565,"longitude":-88.032718,"address":"115 S. State Route 83, Grayslake IL","chain_name":null,"distance":0},{"name":"Taco Bell","code":null,"latitude":25.7657362,"longitude":-80.2102576,"address":"966 SW 8th St, Miami FL","chain_name":null,"distance":0},{"name":"Taco Bell","code":null,"latitude":34.111727,"longitude":-118.1878252,"address":"6060 North Figueroa Street, Highland Park CA","chain_name":null,"distance":0},{"name":"Taco Bell","code":null,"latitude":34.2218402,"longitude":-119.0676863,"address":"95 Daily Dr, Camarillo CA","chain_name":null,"distance":0},{"name":"Taco Bell","code":null,"latitude":34.1404892,"longitude":-117.988498,"address":"733 E Huntington Dr, Monrovia CA","chain_name":null,"distance":0},{"name":"Taco Bell","code":null,"latitude":38.7766432,"longitude":-104.8137193,"address":"745 Cheyenne Meadows Road, Colorado Springs CO","chain_name":null,"distance":0},{"name":"Taco Bell","code":null,"latitude":30.6807068,"longitude":-83.2204682,"address":"1258 Lakes Blvd, Lake Park GA","chain_name":null,"distance":0},{"name":"Taco Bell","code":null,"latitude":35.6873222,"longitude":-79.8233045,"address":"625 W Dixie Dr, Asheboro NC","chain_name":null,"distance":0},{"name":"Taco Bell","code":null,"latitude":33.4936735,"longitude":-88.3669025,"address":"905 Alabama Street, Columbus MS","chain_name":null,"distance":0},{"name":"Taco Bell","code":null,"latitude":46.8422332,"longitude":-100.773666,"address":"3310 State Street, Bismarck ND","chain_name":null,"distance":0},{"name":"Taco Bell","code":null,"latitude":41.1868032,"longitude":-87.8507126,"address":"2036 State Route 50 North, Bradley IL","chain_name":null,"distance":0},{"name":"Taco Bell","code":null,"latitude":28.5525602,"longitude":-81.4735062,"address":"6611 West Colonial Drive, Orlando FL","chain_name":null,"distance":0},{"name":"Taco Bell","code":null,"latitude":38.9036273,"longitude":-94.341438,"address":"1700 SE Blue Parkway, Lees Summit MO","chain_name":null,"distance":0},{"name":"Taco Bell","code":null,"latitude":46.9052646,"longitude":-96.802774,"address":"1599 19th Avenue North, Fargo ND","chain_name":null,"distance":0},{"name":"Taco Bell","code":null,"latitude":39.0859873,"longitude":-95.6654848,"address":"2013 NW Topeka Blvd, Topeka KS","chain_name":null,"distance":0},{"name":"Taco Bell","code":null,"latitude":35.4119897,"longitude":-119.0581337,"address":"5121 Olive Drive, Bakersfield CA","chain_name":null,"distance":0},{"name":"Taco Bell","code":null,"latitude":27.8395859,"longitude":-82.6957025,"address":"4599 Park Blvd, Pinellas Park FL","chain_name":null,"distance":0},{"name":"Taco Bell","code":null,"latitude":26.2445784,"longitude":-80.2015209,"address":"2466 N State Road 7, Margate FL","chain_name":null,"distance":0},{"name":"Taco Bell","code":null,"latitude":39.7686117,"longitude":-94.8040837,"address":"320 N. Belt Hwy., Saint Joseph MO","chain_name":null,"distance":0},{"name":"Taco Bell","code":null,"latitude":39.3046857,"longitude":-75.6051413,"address":"134 N Dupont Blvd, Smyrna DE","chain_name":null,"distance":0},{"name":"Taco Bell","code":null,"latitude":46.900189,"longitude":-102.7888486,"address":"1560 3rd Avenue West, Dickinson ND","chain_name":null,"distance":0},{"name":"Taco Bell","code":null,"latitude":41.4519653,"longitude":-96.4789259,"address":"1540 E 23rd St., Fremont NE","chain_name":null,"distance":0},{"name":"Taco Bell","code":null,"latitude":34.1408249,"longitude":-118.1816012,"address":"1734 W Colorado Blvd, Los Angeles CA","chain_name":null,"distance":0},{"name":"Taco Bell","code":null,"latitude":35.8704117,"longitude":-78.6218694,"address":"6405 Falls Of Neuse Rd., Raleigh NC","chain_name":null,"distance":0},{"name":"Taco Bell","code":null,"latitude":33.9452851,"longitude":-118.300633,"address":"1408 W Century Blvd, Los Angeles CA","chain_name":null,"distance":0},{"name":"Taco Bell","code":null,"latitude":39.3965915,"longitude":-77.4369145,"address":"305 Ballenger Center Dr., Frederick MD","chain_name":null,"distance":0},{"name":"Taco Bell","code":null,"latitude":30.1594825,"longitude":-92.0447474,"address":"2317 Kaliste Saloom Road, Lafayette LA","chain_name":null,"distance":0},{"name":"Taco Bell","code":null,"latitude":34.573198,"longitude":-87.0161728,"address":"1807 Beltline Rd SW, Decatur AL","chain_name":null,"distance":0},{"name":"Taco Bell","code":null,"latitude":33.9533094,"longitude":-118.1142115,"address":"9551 Lakewood Blvd, Downey CA","chain_name":null,"distance":0},{"name":"Taco Bell","code":null,"latitude":27.8950128,"longitude":-82.7591086,"address":"8671 Ulmerton Rd, Largo FL","chain_name":null,"distance":0},{"name":"Taco Bell","code":null,"latitude":40.2376843,"longitude":-74.0375857,"address":"1102 Highway 35, Ocean NJ","chain_name":null,"distance":0},{"name":"Taco Bell","code":null,"latitude":41.718122,"longitude":-86.250899,"address":"231 Dixie Highway, Roseland IN","chain_name":null,"distance":0},{"name":"Taco Bell","code":null,"latitude":26.0087817,"longitude":-80.2074939,"address":"235 S.R. 7 (HWY 441), Hollywood FL","chain_name":null,"distance":0},{"name":"Taco Bell","code":null,"latitude":37.7264994,"longitude":-122.4650951,"address":"2040 Ocean Avenue, San Francisco CA","chain_name":null,"distance":0},{"name":"Taco Bell","code":null,"latitude":39.4704963,"longitude":-87.4126607,"address":"401 Chestnut Street, Terre Haute IN","chain_name":null,"distance":0},{"name":"Taco Bell","code":null,"latitude":39.8069851,"longitude":-75.5491155,"address":"3902 Concord Pke, Wilmington DE","chain_name":null,"distance":0},{"name":"Taco Bell","code":null,"latitude":27.4298591,"longitude":-80.325542,"address":"1812 S Us Hwy 1, Fort Pierce FL","chain_name":null,"distance":0},{"name":"Taco Bell","code":null,"latitude":30.2682677,"longitude":-81.6151689,"address":"5151 University Blvd W, Jacksonville FL","chain_name":null,"distance":0},{"name":"Taco Bell","code":null,"latitude":38.4639238,"longitude":-107.8667152,"address":"2050 S Townsend, Montrose CO","chain_name":null,"distance":0},{"name":"Taco Bell","code":null,"latitude":36.8516631,"longitude":-119.7750603,"address":"7785 N. 1st St., Fresno CA","chain_name":null,"distance":0},{"name":"Taco Bell","code":null,"latitude":39.0864676,"longitude":-94.6253063,"address":"635 S 7th St, Kansas City KS","chain_name":null,"distance":0},{"name":"Taco Bell","code":null,"latitude":37.6112473,"longitude":-122.0674326,"address":"30075 Industrial Pkwy, Union City CA","chain_name":null,"distance":0},{"name":"Taco Bell","code":null,"latitude":42.2666449,"longitude":-71.014878,"address":"707 Hancock St, Quincy MA","chain_name":null,"distance":0},{"name":"Taco Bell","code":null,"latitude":35.6048955,"longitude":-105.2233484,"address":"1415 7th St, Las Vegas NM","chain_name":null,"distance":0},{"name":"Taco Bell","code":null,"latitude":38.789429,"longitude":-104.7565208,"address":"2935 Hancock Expressway, Colorado Springs CO","chain_name":null,"distance":0},{"name":"Taco Bell","code":null,"latitude":38.0067194,"longitude":-84.5188674,"address":"2275 Nicholasville Rd, Lexington KY","chain_name":null,"distance":0},{"name":"Taco Bell","code":null,"latitude":38.2195826,"longitude":-85.627012,"address":"3950 Taylorsville Road, Louisville KY","chain_name":null,"distance":0},{"name":"Taco Bell","code":null,"latitude":37.6942737,"longitude":-97.2689715,"address":"5808 E Central, Wichita KS","chain_name":null,"distance":0},{"name":"Taco Bell","code":null,"latitude":42.3681321,"longitude":-71.0763644,"address":"100 Cambridgeside Place, Cambridge MA","chain_name":null,"distance":0},{"name":"Taco Bell","code":null,"latitude":37.5346569,"longitude":-121.9664228,"address":"40660 Grimmer Blvd, Fremont CA","chain_name":null,"distance":0},{"name":"Taco Bell","code":null,"latitude":32.5163829,"longitude":-92.1904973,"address":"5322 Cypress Street, West Monroe LA","chain_name":null,"distance":0},{"name":"Taco Bell","code":null,"latitude":33.9753202,"longitude":-117.3425155,"address":"1420 University Ave, Riverside CA","chain_name":null,"distance":0},{"name":"Taco Bell","code":null,"latitude":41.6908916,"longitude":-86.2937713,"address":"3208 Lincolnway West, South Bend IN","chain_name":null,"distance":0},{"name":"Taco Bell","code":null,"latitude":46.6130117,"longitude":-112.0203369,"address":"2815 North Montana, Helena MT","chain_name":null,"distance":0},{"name":"Taco Bell","code":null,"latitude":33.6964567,"longitude":-86.6795377,"address":"6651 Highway 75, Pinson AL","chain_name":null,"distance":0},{"name":"Taco Bell","code":null,"latitude":38.9832165,"longitude":-76.9436871,"address":"1150 South Campus Dining Hall, College Park MD","chain_name":null,"distance":0},{"name":"Taco Bell","code":null,"latitude":41.7623552,"longitude":-72.6327335,"address":"268 Silver Lane Road, East Hartford CT","chain_name":null,"distance":0},{"name":"Taco Bell","code":null,"latitude":42.2837477,"longitude":-71.648742,"address":"289 Turnpike Rd, Westborough MA","chain_name":null,"distance":0},{"name":"Taco Bell","code":null,"latitude":38.8972765,"longitude":-104.8318426,"address":"502 Garden Of The Gods Road, Colorado Springs CO","chain_name":null,"distance":0},{"name":"Taco Bell","code":null,"latitude":39.356781,"longitude":-76.7041418,"address":"6600 Reisterstown Road, Baltimore MD","chain_name":null,"distance":0},{"name":"Taco Bell","code":null,"latitude":34.6372083,"longitude":-86.567563,"address":"11210 Memorial Pkwy SW, Huntsville AL","chain_name":null,"distance":0},{"name":"Taco Bell","code":null,"latitude":28.5159774,"longitude":-81.484431,"address":"2403 Hiawassee Rd, Orlando FL","chain_name":null,"distance":0},{"name":"Taco Bell","code":null,"latitude":28.7780869,"longitude":-81.2758348,"address":"2700 S Orlando Dr, Sanford FL","chain_name":null,"distance":0},{"name":"Taco Bell","code":null,"latitude":33.5510752,"longitude":-112.1855756,"address":"7795 North 59th Ave., Glendale AZ","chain_name":null,"distance":0},{"name":"Taco Bell","code":null,"latitude":37.3720879,"longitude":-122.0475011,"address":"991 W El Camino Real, Sunnyvale CA","chain_name":null,"distance":0},{"name":"Taco Bell","code":null,"latitude":41.9370994,"longitude":-88.0779696,"address":"270 E Army Trail Rd, Glendale Heights IL","chain_name":null,"distance":0},{"name":"Taco Bell","code":null,"latitude":37.4277115,"longitude":-121.9212911,"address":"81 Ranch Drive, Milpitas CA","chain_name":null,"distance":0},{"name":"Taco Bell","code":null,"latitude":27.9449093,"longitude":-82.4762327,"address":"1605 W. Kennedy Boulevard, Tampa FL","chain_name":null,"distance":0},{"name":"Taco Bell","code":null,"latitude":32.3062933,"longitude":-111.012866,"address":"2150 W. River Rd., Tucson AZ","chain_name":null,"distance":0},{"name":"Taco Bell","code":null,"latitude":35.1099195,"longitude":-106.5866922,"address":"2615 San Mateo NE, Albuquerque NM","chain_name":null,"distance":0},{"name":"Taco Bell","code":null,"latitude":33.8598257,"longitude":-117.923127,"address":"131 E. Orangethorpe Ave., Fullerton CA","chain_name":null,"distance":0},{"name":"Taco Bell","code":null,"latitude":42.2316297,"longitude":-83.3860077,"address":"9920 Wayne Rd, Romulus MI","chain_name":null,"distance":0},{"name":"Taco Bell","code":null,"latitude":42.2925604,"longitude":-71.7785549,"address":"463 Lincoln Street, Worcester MA","chain_name":null,"distance":0},{"name":"Taco Bell","code":null,"latitude":33.5327186,"longitude":-84.3645902,"address":"8127 Tara Blvd, Jonesboro GA","chain_name":null,"distance":0},{"name":"Taco Bell","code":null,"latitude":34.0709257,"longitude":-117.3950267,"address":"18772 Valley Blvd, Bloomington CA","chain_name":null,"distance":0},{"name":"Taco Bell","code":null,"latitude":44.7386377,"longitude":-92.8751307,"address":"1229 N Frontage Rd, Hastings MN","chain_name":null,"distance":0},{"name":"Taco Bell","code":null,"latitude":38.5475924,"longitude":-76.9859179,"address":"5995 Crain Hwy., La Plata MD","chain_name":null,"distance":0},{"name":"Taco Bell","code":null,"latitude":43.0604008,"longitude":-83.8156506,"address":"1535 E PIERSON RD, Flushing MI","chain_name":null,"distance":0},{"name":"Taco Bell","code":null,"latitude":35.7696117,"longitude":-78.7821849,"address":"1120 Kildaire Farm Rd, Cary NC","chain_name":null,"distance":0},{"name":"Taco Bell","code":null,"latitude":42.9853975,"longitude":-85.6825501,"address":"605 Leonard Street NW, Grand Rapids MI","chain_name":null,"distance":0},{"name":"Taco Bell","code":null,"latitude":38.026876,"longitude":-84.533713,"address":"1970 Harrodsburg Road, Lexington KY","chain_name":null,"distance":0},{"name":"Taco Bell","code":null,"latitude":33.9605362,"longitude":-118.2567132,"address":"8515 S. Central Ave., Los Angeles CA","chain_name":null,"distance":0},{"name":"Taco Bell","code":null,"latitude":33.9449712,"longitude":-84.6247817,"address":"3480 Ernest W Barrett Pkwy SW, Marietta GA","chain_name":null,"distance":0},{"name":"Taco Bell","code":null,"latitude":28.820387,"longitude":-81.6721244,"address":"17060 Us Hwy 441, Mount Dora FL","chain_name":null,"distance":0},{"name":"Taco Bell","code":null,"latitude":37.6381127,"longitude":-91.5350896,"address":"704 S. Main, Salem MO","chain_name":null,"distance":0},{"name":"Taco Bell","code":null,"latitude":33.8032625,"longitude":-118.0140998,"address":"6827 Katella Ave, Cypress CA","chain_name":null,"distance":0},{"name":"Taco Bell","code":null,"latitude":38.0200276,"longitude":-87.5737431,"address":"4501 1st Ave, Evansville IN","chain_name":null,"distance":0},{"name":"Taco Bell","code":null,"latitude":34.0811429,"longitude":-118.090346,"address":"1518 S San Gabriel, San Gabriel CA","chain_name":null,"distance":0},{"name":"Taco Bell","code":null,"latitude":32.7449257,"longitude":-116.9304319,"address":"2506 Jamacha Rd, El Cajon CA","chain_name":null,"distance":0},{"name":"Taco Bell","code":null,"latitude":34.2713647,"longitude":-118.7711756,"address":"1438 Los Angeles Ave, Simi Valley CA","chain_name":null,"distance":0},{"name":"Taco Bell","code":null,"latitude":37.7785676,"longitude":-122.2763528,"address":"1900 Webster, Alameda CA","chain_name":null,"distance":0},{"name":"Taco Bell","code":null,"latitude":33.2835848,"longitude":-111.6843054,"address":"18510 E Rittenhouse Rd, Queen Creek AZ","chain_name":null,"distance":0},{"name":"Taco Bell","code":null,"latitude":47.1123851,"longitude":-88.5870434,"address":"900 Razorback Drive, Houghton MI","chain_name":null,"distance":0},{"name":"Taco Bell","code":null,"latitude":33.8005167,"longitude":-118.3162176,"address":"2054 Lomita Blvd, Lomita CA","chain_name":null,"distance":0},{"name":"Taco Bell","code":null,"latitude":37.4901719,"longitude":-122.2240774,"address":"1103 Veterans Blvd, Redwood City CA","chain_name":null,"distance":0},{"name":"Taco Bell","code":null,"latitude":26.4934911,"longitude":-81.938854,"address":"11290 Summerlin Square Dr, Fort Myers Beach FL","chain_name":null,"distance":0},{"name":"Taco Bell","code":null,"latitude":35.4983882,"longitude":-82.5216296,"address":"1885 Hendersonville Rd, Asheville NC","chain_name":null,"distance":0},{"name":"Taco Bell","code":null,"latitude":38.4800624,"longitude":-122.7373273,"address":"923 Hopper Avenue, Santa Rosa CA","chain_name":null,"distance":0},{"name":"Taco Bell","code":null,"latitude":39.1925581,"longitude":-96.606703,"address":"1155 Westport Road, Manhattan KS","chain_name":null,"distance":0},{"name":"Taco Bell","code":null,"latitude":33.9456293,"longitude":-118.3732563,"address":"5307 West Century Blvd, Los Angeles CA","chain_name":null,"distance":0},{"name":"Taco Bell","code":null,"latitude":30.1953252,"longitude":-93.1800411,"address":"3407 Gerstner Memorial Blvd, Lake Charles LA","chain_name":null,"distance":0},{"name":"Taco Bell","code":null,"latitude":41.5510537,"longitude":-87.2368816,"address":"8476 E Ridge Rd, Hobart IN","chain_name":null,"distance":0},{"name":"Taco Bell","code":null,"latitude":37.6792842,"longitude":-97.3888645,"address":"328 S West St, Wichita KS","chain_name":null,"distance":0},{"name":"Taco Bell","code":null,"latitude":42.4824965,"longitude":-88.3055345,"address":"10710 Main St, Richmond IL","chain_name":null,"distance":0},{"name":"Taco Bell","code":null,"latitude":41.7584094,"longitude":-70.6603839,"address":"3015 Cranberry Hwy, East Wareham MA","chain_name":null,"distance":0},{"name":"Taco Bell","code":null,"latitude":31.5978123,"longitude":-84.1764065,"address":"1505 N. Slappey Blvd, Albany GA","chain_name":null,"distance":0},{"name":"Taco Bell","code":null,"latitude":35.2335231,"longitude":-81.1686769,"address":"1110 E. Hudson Blvd., Gastonia NC","chain_name":null,"distance":0},{"name":"Taco Bell","code":null,"latitude":34.4243476,"longitude":-119.2882955,"address":"11850 Old Grade Road, Ojai CA","chain_name":null,"distance":0},{"name":"Taco Bell","code":null,"latitude":28.4872639,"longitude":-81.4581266,"address":"5147 S Kirkman Rd, Orlando FL","chain_name":null,"distance":0},{"name":"Taco Bell","code":null,"latitude":34.0579772,"longitude":-118.2925666,"address":"3029 W 8th St, Los Angeles CA","chain_name":null,"distance":0},{"name":"Taco Bell","code":null,"latitude":39.1385365,"longitude":-86.5308751,"address":"2400 S Walnut, Bloomington IN","chain_name":null,"distance":0},{"name":"Taco Bell","code":null,"latitude":36.8086712,"longitude":-119.8272279,"address":"2040 West Shaw Avenue, Fresno CA","chain_name":null,"distance":0},{"name":"Taco Bell","code":null,"latitude":42.7413441,"longitude":-84.7332999,"address":"820 Torch Street, Grand Ledge MI","chain_name":null,"distance":0},{"name":"Taco Bell","code":null,"latitude":36.1376577,"longitude":-80.2408784,"address":"349 Akron Drive, Winston Salem NC","chain_name":null,"distance":0},{"name":"Taco Bell","code":null,"latitude":43.0241099,"longitude":-83.5948366,"address":"1176 N Belsay Rd, Burton MI","chain_name":null,"distance":0},{"name":"Taco Bell","code":null,"latitude":39.1368422,"longitude":-88.5650445,"address":"1201 N Keller, Effingham IL","chain_name":null,"distance":0},{"name":"Taco Bell","code":null,"latitude":33.7785008,"longitude":-118.3101465,"address":"26715 Western Ave., Lomita CA","chain_name":null,"distance":0},{"name":"Taco Bell","code":null,"latitude":32.4911079,"longitude":-92.0841975,"address":"1510 Martin Luther King Dr., Monroe LA","chain_name":null,"distance":0},{"name":"Taco Bell","code":null,"latitude":33.790874,"longitude":-118.263686,"address":"100 W Pacific Coast Hwy, Wilmington CA","chain_name":null,"distance":0},{"name":"Taco Bell","code":null,"latitude":26.6218954,"longitude":-81.9411777,"address":"1616 Del Prado Blvd S, Cape Coral FL","chain_name":null,"distance":0},{"name":"Taco Bell","code":null,"latitude":37.9621657,"longitude":-121.2735627,"address":"627 N Wilson Way, Stockton CA","chain_name":null,"distance":0},{"name":"Taco Bell","code":null,"latitude":30.1389916,"longitude":-85.5915384,"address":"434 S Tyndall Parkway, Panama City FL","chain_name":null,"distance":0},{"name":"Taco Bell","code":null,"latitude":41.5679402,"longitude":-73.0075688,"address":"973 Wolcott Street, Waterbury CT","chain_name":null,"distance":0},{"name":"Taco Bell","code":null,"latitude":38.4046517,"longitude":-96.1977773,"address":"1407 W Sixth Avenue, Emporia KS","chain_name":null,"distance":0},{"name":"Taco Bell","code":null,"latitude":30.218714,"longitude":-92.007057,"address":"1224 NE Evangeline Trwy., Lafayette LA","chain_name":null,"distance":0},{"name":"Taco Bell","code":null,"latitude":41.9970211,"longitude":-87.7165174,"address":"3511 Devon Avenue, Chicago IL","chain_name":null,"distance":0},{"name":"Taco Bell","code":null,"latitude":36.164908,"longitude":-80.1344429,"address":"3409 Pearlview Drive, Walkertown NC","chain_name":null,"distance":0},{"name":"Taco Bell","code":null,"latitude":33.9494537,"longitude":-83.4091298,"address":"2197 W Broad St, Athens GA","chain_name":null,"distance":0},{"name":"Taco Bell","code":null,"latitude":38.1757665,"longitude":-85.8209695,"address":"4643 Dixie Hwy, Louisville KY","chain_name":null,"distance":0},{"name":"Taco Bell","code":null,"latitude":33.8814307,"longitude":-118.3261156,"address":"16414 Crenshaw Blvd, Torrance CA","chain_name":null,"distance":0},{"name":"Taco Bell","code":null,"latitude":34.0694615,"longitude":-118.2772664,"address":"103 S Rampart Blvd, Los Angeles CA","chain_name":null,"distance":0},{"name":"Taco Bell","code":null,"latitude":40.9470601,"longitude":-90.3382075,"address":"2118 E Main St, Galesburg IL","chain_name":null,"distance":0},{"name":"Taco Bell","code":null,"latitude":39.0753165,"longitude":-76.5445801,"address":"578 Richie Hwy, Severna Park MD","chain_name":null,"distance":0},{"name":"Taco Bell","code":null,"latitude":44.2795094,"longitude":-85.4060914,"address":"2030 N Mitchell, Cadillac MI","chain_name":null,"distance":0},{"name":"Taco Bell","code":null,"latitude":37.3393802,"longitude":-121.9725817,"address":"2600 Homestead Rd, Santa Clara CA","chain_name":null,"distance":0},{"name":"Taco Bell","code":null,"latitude":39.374586,"longitude":-76.5083123,"address":"7933 Belair Road, Baltimore MD","chain_name":null,"distance":0},{"name":"Taco Bell","code":null,"latitude":39.1326779,"longitude":-121.639099,"address":"1483 Bridge Street, Yuba City CA","chain_name":null,"distance":0},{"name":"Taco Bell","code":null,"latitude":42.2736589,"longitude":-71.7509721,"address":"21 S Quinsigamond Ave, Shrewsbury MA","chain_name":null,"distance":0},{"name":"Taco Bell","code":null,"latitude":31.9815652,"longitude":-81.1699936,"address":"14005 Abercorn St, Savannah GA","chain_name":null,"distance":0},{"name":"Taco Bell","code":null,"latitude":33.823049,"longitude":-118.3362532,"address":"2840 Sepulveda Blvd, Torrance CA","chain_name":null,"distance":0},{"name":"Taco Bell","code":null,"latitude":39.0719899,"longitude":-77.1324742,"address":"1100 Rockville Pike, Rockville MD","chain_name":null,"distance":0},{"name":"Taco Bell","code":null,"latitude":43.6249977,"longitude":-70.3438538,"address":"400 Gallery Boulevard, Scarborough ME","chain_name":null,"distance":0},{"name":"Taco Bell","code":null,"latitude":41.402072,"longitude":-73.4594384,"address":"392 Main St, Danbury CT","chain_name":null,"distance":0},{"name":"Taco Bell","code":null,"latitude":38.8523662,"longitude":-104.8717018,"address":"3029 West Colorado Avenue, Colorado Springs CO","chain_name":null,"distance":0},{"name":"Taco Bell","code":null,"latitude":39.0172305,"longitude":-84.5085851,"address":"5067 Sandman Drive, Taylor Mill KY","chain_name":null,"distance":0},{"name":"Taco Bell","code":null,"latitude":40.7806723,"longitude":-124.1857105,"address":"3080 Broadway, Eureka CA","chain_name":null,"distance":0},{"name":"Taco Bell","code":null,"latitude":35.7683079,"longitude":-91.6413557,"address":"1102 S Saint Louis St, Batesville AR","chain_name":null,"distance":0},{"name":"Taco Bell","code":null,"latitude":39.7644407,"longitude":-89.7109727,"address":"3025 W White Oaks Dr, Springfield IL","chain_name":null,"distance":0},{"name":"Taco Bell","code":null,"latitude":33.3784316,"longitude":-111.7534258,"address":"3601 East Baseline Road, Gilbert AZ","chain_name":null,"distance":0},{"name":"Taco Bell","code":null,"latitude":43.4144245,"longitude":-83.8995758,"address":"3262 E Holland Road, Saginaw MI","chain_name":null,"distance":0},{"name":"Taco Bell","code":null,"latitude":38.812992,"longitude":-94.2643705,"address":"2015 N Highway 7, Pleasant Hill MO","chain_name":null,"distance":0},{"name":"Taco Bell","code":null,"latitude":33.9414738,"longitude":-117.2279896,"address":"24936 Elder Ave., Moreno Valley CA","chain_name":null,"distance":0},{"name":"Taco Bell","code":null,"latitude":37.7937384,"longitude":-122.2011299,"address":"3535 35th Avenue, Oakland CA","chain_name":null,"distance":0},{"name":"Taco Bell","code":null,"latitude":39.1006462,"longitude":-77.2121638,"address":"9910 Key West Avenue, Rockville MD","chain_name":null,"distance":0},{"name":"Taco Bell","code":null,"latitude":33.6081686,"longitude":-85.8300065,"address":"504 Hamric Dr E, Oxford AL","chain_name":null,"distance":0},{"name":"Taco Bell","code":null,"latitude":43.2363027,"longitude":-70.8814731,"address":"9 Commercial Drive, Somersworth NH","chain_name":null,"distance":0},{"name":"Taco Bell","code":null,"latitude":33.1821494,"longitude":-117.2915479,"address":"3845 Plaza Dr, Oceanside CA","chain_name":null,"distance":0},{"name":"Taco Bell","code":null,"latitude":34.9128674,"longitude":-85.1256082,"address":"5422 Alabama Hwy, Ringgold GA","chain_name":null,"distance":0},{"name":"Taco Bell","code":null,"latitude":35.7008444,"longitude":-81.2888049,"address":"2505 US Highway 70 SE, Hickory NC","chain_name":null,"distance":0},{"name":"Taco Bell","code":null,"latitude":42.0965582,"longitude":-72.6019362,"address":"298 Memorial Ave, West Springfield MA","chain_name":null,"distance":0},{"name":"Taco Bell","code":null,"latitude":39.2619181,"longitude":-119.582759,"address":"2 Pine Cone Rd., Dayton NV","chain_name":null,"distance":0},{"name":"Taco Bell","code":null,"latitude":30.1092292,"longitude":-92.0130484,"address":"3100 E. Milton Ave, Youngsville LA","chain_name":null,"distance":0},{"name":"Taco Bell","code":null,"latitude":28.455414,"longitude":-81.3988339,"address":"7601 S. Orange Blossom Trail, Orlando FL","chain_name":null,"distance":0},{"name":"Taco Bell","code":null,"latitude":41.9285092,"longitude":-87.6733117,"address":"2575 North Clybourn, Chicago IL","chain_name":null,"distance":0},{"name":"Taco Bell","code":null,"latitude":33.8415322,"longitude":-117.8888892,"address":"100 N State College Blvd, Anaheim CA","chain_name":null,"distance":0},{"name":"Taco Bell","code":null,"latitude":37.728894,"longitude":-85.8851923,"address":"1604 North Dixie Hwy, Elizabethtown KY","chain_name":null,"distance":0},{"name":"Taco Bell","code":null,"latitude":33.8272066,"longitude":-84.3256694,"address":"2420 N Druid Hills Rd NE, Atlanta GA","chain_name":null,"distance":0},{"name":"Taco Bell","code":null,"latitude":29.8748012,"longitude":-90.1041762,"address":"5141 Lapalco Blvd, Marrero LA","chain_name":null,"distance":0},{"name":"Taco Bell","code":null,"latitude":33.9103062,"longitude":-84.8244086,"address":"451 Nathan Dean Blvd, Dallas GA","chain_name":null,"distance":0},{"name":"Taco Bell","code":null,"latitude":41.689295,"longitude":-87.8083914,"address":"7601 W 111th St, Palos Hills IL","chain_name":null,"distance":0},{"name":"Taco Bell","code":null,"latitude":32.8383587,"longitude":-116.9827815,"address":"9825 Mission Gorge Road, Santee CA","chain_name":null,"distance":0},{"name":"Taco Bell","code":null,"latitude":39.7593407,"longitude":-105.1420896,"address":"3050 Youngfield St, Wheat Ridge CO","chain_name":null,"distance":0},{"name":"Taco Bell","code":null,"latitude":35.191105,"longitude":-111.6303332,"address":"1801 E Butler Ave, Flagstaff AZ","chain_name":null,"distance":0},{"name":"Taco Bell","code":null,"latitude":42.243921,"longitude":-85.6780514,"address":"5076 South 9th Street, Kalamazoo MI","chain_name":null,"distance":0},{"name":"Taco Bell","code":null,"latitude":40.9001847,"longitude":-98.3392316,"address":"2211 S Locust St, Grand Island NE","chain_name":null,"distance":0},{"name":"Taco Bell","code":null,"latitude":34.0379391,"longitude":-118.147307,"address":"1214 Avenida Cesar Chavez, Monterey Park CA","chain_name":null,"distance":0},{"name":"Taco Bell","code":null,"latitude":42.500509,"longitude":-83.2889085,"address":"24705 W 12 MILE RD, Southfield MI","chain_name":null,"distance":0},{"name":"Taco Bell","code":null,"latitude":32.5447905,"longitude":-93.7770379,"address":"1911 North Market, Shreveport LA","chain_name":null,"distance":0},{"name":"Taco Bell","code":null,"latitude":34.0631487,"longitude":-118.0354123,"address":"11007 Garvey Ave, El Monte CA","chain_name":null,"distance":0},{"name":"Taco Bell","code":null,"latitude":39.6529217,"longitude":-104.9942942,"address":"540 West Hampden Avenue, Englewood CO","chain_name":null,"distance":0},{"name":"Taco Bell","code":null,"latitude":34.1660049,"longitude":-118.3532979,"address":"4301 W Magnolia Blvd, Burbank CA","chain_name":null,"distance":0},{"name":"Taco Bell","code":null,"latitude":42.2836443,"longitude":-83.3638835,"address":"32940 Michigan Ave, Wayne MI","chain_name":null,"distance":0},{"name":"Taco Bell","code":null,"latitude":32.4813168,"longitude":-85.0306028,"address":"2059 Highway 280, Phenix City AL","chain_name":null,"distance":0},{"name":"Taco Bell","code":null,"latitude":32.3626098,"longitude":-106.7472492,"address":"3350 Rinconada Blvd., Las Cruces NM","chain_name":null,"distance":0},{"name":"Taco Bell","code":null,"latitude":37.6828844,"longitude":-122.4885483,"address":"287 Westmoor Ave, Daly City CA","chain_name":null,"distance":0},{"name":"Taco Bell","code":null,"latitude":28.5236447,"longitude":-82.2333723,"address":"31001 Cortez Blvd, Brooksville FL","chain_name":null,"distance":0},{"name":"Taco Bell","code":null,"latitude":38.0029072,"longitude":-121.2914393,"address":"5115 West Lane, Stockton CA","chain_name":null,"distance":0},{"name":"Taco Bell","code":null,"latitude":41.109362,"longitude":-100.7655429,"address":"102 Holiday Frontage Rd, North Platte NE","chain_name":null,"distance":0},{"name":"Taco Bell","code":null,"latitude":30.4331817,"longitude":-91.0823951,"address":"9656 Airline Hwy, Baton Rouge LA","chain_name":null,"distance":0},{"name":"Taco Bell","code":null,"latitude":32.6434852,"longitude":-85.3487691,"address":"1300 Columbus Parkway, Opelika AL","chain_name":null,"distance":0},{"name":"Taco Bell","code":null,"latitude":28.5537668,"longitude":-81.3327537,"address":"4225 E Colonial Drive, Orlando FL","chain_name":null,"distance":0},{"name":"Taco Bell","code":null,"latitude":38.9796861,"longitude":-76.7327754,"address":"15701 Annapolis Rd, Bowie MD","chain_name":null,"distance":0},{"name":"Taco Bell","code":null,"latitude":36.0788638,"longitude":-94.2069319,"address":"1147 North Colorado, Fayetteville AR","chain_name":null,"distance":0},{"name":"Taco Bell","code":null,"latitude":35.2284271,"longitude":-80.923989,"address":"2834 Boyer Street, Charlotte NC","chain_name":null,"distance":0},{"name":"Taco Bell","code":null,"latitude":41.9604525,"longitude":-91.7116334,"address":"3045 Williams Blvd SW, Cedar Rapids IA","chain_name":null,"distance":0},{"name":"Taco Bell","code":null,"latitude":30.4407768,"longitude":-88.8989442,"address":"10569 D'iberville Road, D'iberville MS","chain_name":null,"distance":0},{"name":"Taco Bell","code":null,"latitude":34.1061765,"longitude":-117.4311562,"address":"17111 Foothill Blvd, Fontana CA","chain_name":null,"distance":0},{"name":"Taco Bell","code":null,"latitude":39.935204,"longitude":-91.4021597,"address":"826 Broadway, Quincy IL","chain_name":null,"distance":0},{"name":"Taco Bell","code":null,"latitude":33.819353,"longitude":-84.230853,"address":"4540 E Ponce De Leon Ave, Clarkston GA","chain_name":null,"distance":0},{"name":"Taco Bell","code":null,"latitude":39.8249827,"longitude":-86.1164278,"address":"2809 East 38th Street, Indianapolis IN","chain_name":null,"distance":0},{"name":"Taco Bell","code":null,"latitude":30.3516982,"longitude":-81.598065,"address":"5905 Merrill, Jacksonville FL","chain_name":null,"distance":0},{"name":"Taco Bell","code":null,"latitude":30.5083714,"longitude":-87.2208468,"address":"8088 N Davis Hwy, Pensacola FL","chain_name":null,"distance":0},{"name":"Taco Bell","code":null,"latitude":32.5197735,"longitude":-84.958331,"address":"2450 Airport Thruway, Columbus GA","chain_name":null,"distance":0},{"name":"Taco Bell","code":null,"latitude":42.5346886,"longitude":-83.1129181,"address":"412 W. 14 Mile Road, Troy MI","chain_name":null,"distance":0},{"name":"Taco Bell","code":null,"latitude":41.1587346,"longitude":-87.8863804,"address":"582 Main NW, Bourbonnais IL","chain_name":null,"distance":0},{"name":"Taco Bell","code":null,"latitude":39.7875166,"longitude":-86.0646496,"address":"1402 N Arlington, Indianapolis IN","chain_name":null,"distance":0},{"name":"Taco Bell","code":null,"latitude":42.9728314,"longitude":-85.9091903,"address":"4989 Lake Michigan Dr, Allendale MI","chain_name":null,"distance":0},{"name":"Taco Bell","code":null,"latitude":39.9451004,"longitude":-104.939746,"address":"13732 Colorado Blvd., Thornton CO","chain_name":null,"distance":0},{"name":"Taco Bell","code":null,"latitude":40.914763,"longitude":-74.075323,"address":"One Garden State Plaza, Paramus NJ","chain_name":null,"distance":0},{"name":"Taco Bell","code":null,"latitude":39.3081176,"longitude":-85.9641302,"address":"11740 N US 31, Edinburgh IN","chain_name":null,"distance":0},{"name":"Taco Bell","code":null,"latitude":37.8832705,"longitude":-90.5107119,"address":"412 N State St, Desloge MO","chain_name":null,"distance":0},{"name":"Taco Bell","code":null,"latitude":35.2214536,"longitude":-114.0056883,"address":"3350 E Andy Devine, Kingman AZ","chain_name":null,"distance":0},{"name":"Taco Bell","code":null,"latitude":40.5695519,"longitude":-122.3592967,"address":"2610 Hilltop Dr, Redding CA","chain_name":null,"distance":0},{"name":"Taco Bell","code":null,"latitude":34.0756631,"longitude":-118.0216511,"address":"3858 North Peck Rd, El Monte CA","chain_name":null,"distance":0},{"name":"Taco Bell","code":null,"latitude":36.9781049,"longitude":-121.9062853,"address":"7887 Soquel Drive, Aptos CA","chain_name":null,"distance":0},{"name":"Taco Bell","code":null,"latitude":42.3856763,"longitude":-87.9592059,"address":"6360 Grand Ave, Gurnee IL","chain_name":null,"distance":0},{"name":"Taco Bell","code":null,"latitude":37.814381,"longitude":-87.6174929,"address":"1917 Us Hwy 41 N, Henderson KY","chain_name":null,"distance":0},{"name":"Taco Bell","code":null,"latitude":37.5259773,"longitude":-82.5729806,"address":"4368 North Mayo Trail, Pikeville KY","chain_name":null,"distance":0},{"name":"Taco Bell","code":null,"latitude":34.0225755,"longitude":-118.3719836,"address":"3562 S La Cienega Blvd, Los Angeles CA","chain_name":null,"distance":0},{"name":"Taco Bell","code":null,"latitude":31.2721083,"longitude":-92.4626277,"address":"3840 Alexandria Mall Dr, Alexandria LA","chain_name":null,"distance":0},{"name":"Taco Bell","code":null,"latitude":34.5067373,"longitude":-117.3277764,"address":"15357 Palmdale Rd, Victorville CA","chain_name":null,"distance":0},{"name":"Taco Bell","code":null,"latitude":41.5718248,"longitude":-87.405795,"address":"2510 Burr Street, Gary IN","chain_name":null,"distance":0},{"name":"Taco Bell","code":null,"latitude":42.0186639,"longitude":-97.4293599,"address":"1402 Omaha Avenue, Norfolk NE","chain_name":null,"distance":0},{"name":"Taco Bell","code":null,"latitude":34.419893,"longitude":-117.2879457,"address":"17170 Main Street, Hesperia CA","chain_name":null,"distance":0},{"name":"Taco Bell","code":null,"latitude":41.4524363,"longitude":-91.0294541,"address":"300 Cleveland, Muscatine IA","chain_name":null,"distance":0},{"name":"Taco Bell","code":null,"latitude":35.1604401,"longitude":-80.8765305,"address":"5518 South Blvd, Charlotte NC","chain_name":null,"distance":0},{"name":"Taco Bell","code":null,"latitude":38.0044661,"longitude":-84.4483446,"address":"2917 Richmond Road, Lexington KY","chain_name":null,"distance":0},{"name":"Taco Bell","code":null,"latitude":41.4520779,"longitude":-85.5884329,"address":"241 U.S. Highway 6, S., Ligonier IN","chain_name":null,"distance":0},{"name":"Taco Bell","code":null,"latitude":28.5922839,"longitude":-81.3647351,"address":"690 S Orlando Ave, Winter Park FL","chain_name":null,"distance":0},{"name":"Taco Bell","code":null,"latitude":36.1416866,"longitude":-115.1363995,"address":"2670 S Maryland, Las Vegas NV","chain_name":null,"distance":0},{"name":"Taco Bell","code":null,"latitude":42.645981,"longitude":-83.1708749,"address":"2290 Crooks Road, Rochester Hills MI","chain_name":null,"distance":0},{"name":"Taco Bell","code":null,"latitude":25.8901293,"longitude":-80.1857033,"address":"640 NE 125th Street, North Miami FL","chain_name":null,"distance":0},{"name":"Taco Bell","code":null,"latitude":39.5632813,"longitude":-76.9736122,"address":"625 Baltimore Blvd, Westminster MD","chain_name":null,"distance":0},{"name":"Taco Bell","code":null,"latitude":42.9618969,"longitude":-71.4404997,"address":"1045 S Willow Street, Manchester NH","chain_name":null,"distance":0},{"name":"Taco Bell","code":null,"latitude":38.9296421,"longitude":-84.5434128,"address":"2019 Centennial Blvd, Independence KY","chain_name":null,"distance":0},{"name":"Taco Bell","code":null,"latitude":32.2795566,"longitude":-90.0033924,"address":"1131 West Government Street, Brandon MS","chain_name":null,"distance":0},{"name":"Taco Bell","code":null,"latitude":34.3441491,"longitude":-119.0792575,"address":"535 West Harvard Blvd, Santa Paula CA","chain_name":null,"distance":0},{"name":"Taco Bell","code":null,"latitude":42.566667,"longitude":-71.980499,"address":"8 Pearson Blvd, Gardner MA","chain_name":null,"distance":0},{"name":"Taco Bell","code":null,"latitude":33.4129125,"longitude":-111.5474283,"address":"97 West Apache Trail, Apache Junction AZ","chain_name":null,"distance":0},{"name":"Taco Bell","code":null,"latitude":33.940813,"longitude":-83.4505369,"address":"3196 Atlanta Highway, Athens GA","chain_name":null,"distance":0},{"name":"Taco Bell","code":null,"latitude":32.3979427,"longitude":-93.7500356,"address":"105 East Bert Kouns, Shreveport LA","chain_name":null,"distance":0},{"name":"Taco Bell","code":null,"latitude":29.9537909,"longitude":-89.9785452,"address":"8317 W. Judge Perez, Chalmette LA","chain_name":null,"distance":0},{"name":"Taco Bell","code":null,"latitude":33.7625902,"longitude":-116.3007972,"address":"39335 Washington St., Palm Desert CA","chain_name":null,"distance":0},{"name":"Taco Bell","code":null,"latitude":42.9776026,"longitude":-83.772024,"address":"3383 S Linden Rd, Flint MI","chain_name":null,"distance":0},{"name":"Taco Bell","code":null,"latitude":32.589285,"longitude":-82.3272283,"address":"412 South Main Street, Swainsboro GA","chain_name":null,"distance":0},{"name":"Taco Bell","code":null,"latitude":37.7783318,"longitude":-122.3926255,"address":"710 Third Street, San Francisco CA","chain_name":null,"distance":0},{"name":"Taco Bell","code":null,"latitude":43.5988766,"longitude":-116.3929665,"address":"645 S Main St, Meridian ID","chain_name":null,"distance":0},{"name":"Taco Bell","code":null,"latitude":34.5856612,"longitude":-112.3289235,"address":"7820 E State Route 69, Prescott Valley AZ","chain_name":null,"distance":0},{"name":"Taco Bell","code":null,"latitude":38.8925404,"longitude":-104.756409,"address":"4195 N Academy, Colorado Springs CO","chain_name":null,"distance":0},{"name":"Taco Bell","code":null,"latitude":37.2412174,"longitude":-93.3079037,"address":"1335 W Kearney St, Springfield MO","chain_name":null,"distance":0},{"name":"Taco Bell","code":null,"latitude":34.2492202,"longitude":-119.1958512,"address":"2800 Johnson Drive, Ventura CA","chain_name":null,"distance":0},{"name":"Taco Bell","code":null,"latitude":38.5833709,"longitude":-89.874015,"address":"1403 W US Highway 50, O'Fallon IL","chain_name":null,"distance":0},{"name":"Taco Bell","code":null,"latitude":35.3392599,"longitude":-119.0546483,"address":"4675 Ming Ave., Bakersfield CA","chain_name":null,"distance":0},{"name":"Taco Bell","code":null,"latitude":40.2643521,"longitude":-85.8183981,"address":"1518 S. State Rd. 37, Elwood IN","chain_name":null,"distance":0},{"name":"Taco Bell","code":null,"latitude":33.9770701,"longitude":-118.3711961,"address":"5220 W Centinela Ave, Los Angeles CA","chain_name":null,"distance":0},{"name":"Taco Bell","code":null,"latitude":40.9574164,"longitude":-90.3836921,"address":"850 N Henderson St, Galesburg IL","chain_name":null,"distance":0},{"name":"Taco Bell","code":null,"latitude":40.7981136,"longitude":-74.14758,"address":"508 Washington Avenue, Belleville NJ","chain_name":null,"distance":0},{"name":"Taco Bell","code":null,"latitude":33.4959711,"longitude":-112.1522622,"address":"4304 W Indian School Rd, Phoenix AZ","chain_name":null,"distance":0},{"name":"Taco Bell","code":null,"latitude":27.8399612,"longitude":-82.7888128,"address":"10749 Park Blvd, Seminole FL","chain_name":null,"distance":0},{"name":"Taco Bell","code":null,"latitude":38.3297049,"longitude":-85.7573213,"address":"1325 Veterans Pkwy., Clarksville IN","chain_name":null,"distance":0},{"name":"Taco Bell","code":null,"latitude":30.0091544,"longitude":-90.2658738,"address":"3012 Loyola Drive, Kenner LA","chain_name":null,"distance":0},{"name":"Taco Bell","code":null,"latitude":43.020708,"longitude":-85.6883735,"address":"3160 Alpine Ave NW, Grand Rapids MI","chain_name":null,"distance":0},{"name":"Taco Bell","code":null,"latitude":38.8591142,"longitude":-84.6199013,"address":"211 Mary Grubbs Highway, Walton KY","chain_name":null,"distance":0},{"name":"Taco Bell","code":null,"latitude":45.0358375,"longitude":-93.0191666,"address":"1965 County Road D, Maplewood MN","chain_name":null,"distance":0},{"name":"Taco Bell","code":null,"latitude":35.1701971,"longitude":-78.9713674,"address":"116 N 4th St, Spring Lake NC","chain_name":null,"distance":0},{"name":"Taco Bell","code":null,"latitude":41.569262,"longitude":-87.6356278,"address":"17601 Halsted St, Homewood IL","chain_name":null,"distance":0},{"name":"Taco Bell","code":null,"latitude":34.7408348,"longitude":-92.372314,"address":"1300 John Barrow Rd, Little Rock AR","chain_name":null,"distance":0},{"name":"Taco Bell","code":null,"latitude":33.7812771,"longitude":-117.8678638,"address":"468 South Main Street, Orange CA","chain_name":null,"distance":0},{"name":"Taco Bell","code":null,"latitude":34.0105973,"longitude":-84.7528477,"address":"8876 Dallas Acworth Hwy, Dallas GA","chain_name":null,"distance":0},{"name":"Taco Bell","code":null,"latitude":37.1536292,"longitude":-93.2951212,"address":"3340 South Campbell, Springfield MO","chain_name":null,"distance":0},{"name":"Taco Bell","code":null,"latitude":35.2213472,"longitude":-93.1650814,"address":"618 Union St, Dardanelle AR","chain_name":null,"distance":0},{"name":"Taco Bell","code":null,"latitude":32.4456394,"longitude":-93.8629909,"address":"6810 Pines Rd, Shreveport LA","chain_name":null,"distance":0},{"name":"Taco Bell","code":null,"latitude":39.4390218,"longitude":-87.3335658,"address":"2319 S. State Road 46, Terre Haute IN","chain_name":null,"distance":0},{"name":"Taco Bell","code":null,"latitude":37.8940675,"longitude":-122.2998704,"address":"635 San Pablo Ave, Albany CA","chain_name":null,"distance":0},{"name":"Taco Bell","code":null,"latitude":41.8593018,"longitude":-88.0733767,"address":"370 Roosevelt Road, Glen Ellyn IL","chain_name":null,"distance":0},{"name":"Taco Bell","code":null,"latitude":40.1976403,"longitude":-85.4102378,"address":"2000 W. University Avenue, Muncie IN","chain_name":null,"distance":0},{"name":"Taco Bell","code":null,"latitude":41.932253,"longitude":-87.9401057,"address":"1140 S York Rd, Bensenville IL","chain_name":null,"distance":0},{"name":"Taco Bell","code":null,"latitude":41.6004242,"longitude":-87.6930062,"address":"2945 West 159th Street, Markham IL","chain_name":null,"distance":0},{"name":"Taco Bell","code":null,"latitude":32.819188,"longitude":-117.1835456,"address":"5230 Balboa Ave., San Diego CA","chain_name":null,"distance":0},{"name":"Taco Bell","code":null,"latitude":43.5240947,"longitude":-84.1229782,"address":"138 S. Main St, Freeland MI","chain_name":null,"distance":0},{"name":"Taco Bell","code":null,"latitude":30.2872241,"longitude":-81.4566839,"address":"13710 Beach Blvd, Jacksonville FL","chain_name":null,"distance":0},{"name":"Taco Bell","code":null,"latitude":33.5578544,"longitude":-86.8895856,"address":"1101 Forestdale Blvd, Birmingham AL","chain_name":null,"distance":0},{"name":"Taco Bell","code":null,"latitude":39.1460824,"longitude":-76.8088649,"address":"8620 Washington Blvd, Jessup MD","chain_name":null,"distance":0},{"name":"Taco Bell","code":null,"latitude":43.9051542,"longitude":-69.9148504,"address":"17 Gurnet Road, Brunswick ME","chain_name":null,"distance":0},{"name":"Taco Bell","code":null,"latitude":38.601511,"longitude":-121.4278631,"address":"1689 Arden Way, Sacramento CA","chain_name":null,"distance":0},{"name":"Taco Bell","code":null,"latitude":42.1296213,"longitude":-72.6274658,"address":"25 Morgan Road, West Springfield MA","chain_name":null,"distance":0},{"name":"Taco Bell","code":null,"latitude":38.3166315,"longitude":-85.8972058,"address":"900 LaFollette Center North, Floyds Knobs IN","chain_name":null,"distance":0},{"name":"Taco Bell","code":null,"latitude":37.7976546,"longitude":-121.2119741,"address":"421 E Yosemite Ave, Manteca CA","chain_name":null,"distance":0},{"name":"Taco Bell","code":null,"latitude":42.2655569,"longitude":-89.0383752,"address":"3805 East State St., Rockford IL","chain_name":null,"distance":0},{"name":"Taco Bell","code":null,"latitude":34.2423324,"longitude":-77.8947345,"address":"4101 Market St, Wilmington NC","chain_name":null,"distance":0},{"name":"Taco Bell","code":null,"latitude":30.4067003,"longitude":-88.9090061,"address":"506 Larcher Blvd., Bldg. 2306, Biloxi MS","chain_name":null,"distance":0},{"name":"Taco Bell","code":null,"latitude":38.548194,"longitude":-92.14978,"address":"2005 Schotthilll Woods Rd., Jefferson City MO","chain_name":null,"distance":0},{"name":"Taco Bell","code":null,"latitude":36.9811957,"longitude":-122.0065982,"address":"1404 Soquel Ave, Santa Cruz CA","chain_name":null,"distance":0},{"name":"Taco Bell","code":null,"latitude":42.140661,"longitude":-72.502152,"address":"1264 Boston Road, Springfield MA","chain_name":null,"distance":0},{"name":"Taco Bell","code":null,"latitude":33.7833718,"longitude":-89.8341563,"address":"1651 Sunset Drive, Grenada MS","chain_name":null,"distance":0},{"name":"Taco Bell","code":null,"latitude":38.7881242,"longitude":-121.2265769,"address":"4340 Rocklin Rd, Rocklin CA","chain_name":null,"distance":0},{"name":"Taco Bell","code":null,"latitude":40.6698488,"longitude":-89.5782436,"address":"108 W Camp St, East Peoria IL","chain_name":null,"distance":0},{"name":"Taco Bell","code":null,"latitude":37.7420627,"longitude":-88.9695527,"address":"2712 Walton Way, Marion IL","chain_name":null,"distance":0},{"name":"Taco Bell","code":null,"latitude":33.7947069,"longitude":-117.8361244,"address":"490 N Tustin St, Orange CA","chain_name":null,"distance":0},{"name":"Taco Bell","code":null,"latitude":33.7962347,"longitude":-84.2242281,"address":"5201 Memorial Drive, Stone Mountain GA","chain_name":null,"distance":0},{"name":"Taco Bell","code":null,"latitude":28.5459711,"longitude":-82.400084,"address":"849 S Broad St, Brooksville FL","chain_name":null,"distance":0},{"name":"Taco Bell","code":null,"latitude":34.2874992,"longitude":-83.8378938,"address":"1957 Jesse Jewell Pkwy, Gainesville GA","chain_name":null,"distance":0},{"name":"Taco Bell","code":null,"latitude":39.1650057,"longitude":-86.5806282,"address":"3702 W 3rd St, Bloomington IN","chain_name":null,"distance":0},{"name":"Taco Bell","code":null,"latitude":33.8540579,"longitude":-118.1852199,"address":"5395 Atlantic Ave, Long Beach CA","chain_name":null,"distance":0},{"name":"Taco Bell","code":null,"latitude":32.8091315,"longitude":-117.1169084,"address":"9821 Aero Dr, San Diego CA","chain_name":null,"distance":0},{"name":"Taco Bell","code":null,"latitude":34.2012453,"longitude":-118.4746604,"address":"15651 Sherman Way, Van Nuys CA","chain_name":null,"distance":0},{"name":"Taco Bell","code":null,"latitude":36.2533424,"longitude":-94.1372814,"address":"106 South Bloomington, Lowell AR","chain_name":null,"distance":0},{"name":"Taco Bell","code":null,"latitude":33.4978107,"longitude":-86.8760102,"address":"2300 Bessemer Rd., Birmingham AL","chain_name":null,"distance":0},{"name":"Taco Bell","code":null,"latitude":36.3440019,"longitude":-119.655395,"address":"1718 N 11th Ave, Hanford CA","chain_name":null,"distance":0},{"name":"Taco Bell","code":null,"latitude":40.9383687,"longitude":-124.1004853,"address":"1811 Central Ave, McKinleyville CA","chain_name":null,"distance":0},{"name":"Taco Bell","code":null,"latitude":37.8123,"longitude":-122.2695792,"address":"2255 Telegraph Avenue, Oakland CA","chain_name":null,"distance":0},{"name":"Taco Bell","code":null,"latitude":37.9911945,"longitude":-87.5387256,"address":"1500 N Willow Rd, Evansville IN","chain_name":null,"distance":0},{"name":"Taco Bell","code":null,"latitude":41.5379674,"longitude":-90.5957847,"address":"1443 W Locust Street, Davenport IA","chain_name":null,"distance":0},{"name":"Taco Bell","code":null,"latitude":41.1965743,"longitude":-73.192859,"address":"308 Lindley St, Bridgeport CT","chain_name":null,"distance":0},{"name":"Taco Bell","code":null,"latitude":27.240232,"longitude":-80.270797,"address":"2958 N West Federal Hwy, Jensen Beach FL","chain_name":null,"distance":0},{"name":"Taco Bell","code":null,"latitude":38.7464292,"longitude":-90.6344272,"address":"6082 Mid Rivers Mall Dr., Saint Peters MO","chain_name":null,"distance":0},{"name":"Taco Bell","code":null,"latitude":33.2064017,"longitude":-117.2892135,"address":"4100 Oceanside Blvd., Oceanside CA","chain_name":null,"distance":0},{"name":"Taco Bell","code":null,"latitude":35.6191319,"longitude":-106.0280838,"address":"5040 Promenade Blvd, Santa Fe NM","chain_name":null,"distance":0},{"name":"Taco Bell","code":null,"latitude":37.0557869,"longitude":-88.5738741,"address":"2921 Irvin Cobb Drive, Paducah KY","chain_name":null,"distance":0},{"name":"Taco Bell","code":null,"latitude":32.7951276,"longitude":-117.2548025,"address":"4401 Mission Blvd., San Diego CA","chain_name":null,"distance":0},{"name":"Taco Bell","code":null,"latitude":28.9384955,"longitude":-81.9441015,"address":"1005 Bichara Blvd., Lady Lake FL","chain_name":null,"distance":0},{"name":"Taco Bell","code":null,"latitude":39.7672535,"longitude":-94.8489257,"address":"910 Francis Street, Saint Joseph MO","chain_name":null,"distance":0},{"name":"Taco Bell","code":null,"latitude":39.4723508,"longitude":-87.3714767,"address":"3132 Wabash Ave, Terre Haute IN","chain_name":null,"distance":0},{"name":"Taco Bell","code":null,"latitude":38.778121,"longitude":-90.4881802,"address":"620 S. Fifth Street, Saint Charles MO","chain_name":null,"distance":0},{"name":"Taco Bell","code":null,"latitude":38.5587111,"longitude":-121.4806371,"address":"2431 Broadway, Sacramento CA","chain_name":null,"distance":0},{"name":"Taco Bell","code":null,"latitude":41.9469304,"longitude":-87.6573268,"address":"1111 West Addison, Chicago IL","chain_name":null,"distance":0},{"name":"Taco Bell","code":null,"latitude":42.8062868,"longitude":-71.5672707,"address":"125 Route 101A Ste B, Amherst NH","chain_name":null,"distance":0},{"name":"Taco Bell","code":null,"latitude":37.1610069,"longitude":-93.2776699,"address":"2933 S National Ave., Springfield MO","chain_name":null,"distance":0},{"name":"Taco Bell","code":null,"latitude":42.0605755,"longitude":-87.8445334,"address":"9870 N Milwaukee, Des Plaines IL","chain_name":null,"distance":0},{"name":"Taco Bell","code":null,"latitude":37.6785817,"longitude":-97.1996785,"address":"11877 E Kellogg, Wichita KS","chain_name":null,"distance":0},{"name":"Taco Bell","code":null,"latitude":34.2738435,"longitude":-118.4114833,"address":"12786 Van Nuys Blvd, Pacoima CA","chain_name":null,"distance":0},{"name":"Taco Bell","code":null,"latitude":30.3982118,"longitude":-89.0272215,"address":"831 Cowan Rd., Gulfport MS","chain_name":null,"distance":0},{"name":"Taco Bell","code":null,"latitude":34.1781346,"longitude":-118.8582588,"address":"25 Rancho Rd, Thousand Oaks CA","chain_name":null,"distance":0},{"name":"Taco Bell","code":null,"latitude":33.4768341,"longitude":-111.9864599,"address":"2601 North 44th Street, Phoenix AZ","chain_name":null,"distance":0},{"name":"Taco Bell","code":null,"latitude":34.1349084,"longitude":-117.5580884,"address":"6579 Milliken, Rancho Cucamonga CA","chain_name":null,"distance":0},{"name":"Taco Bell","code":null,"latitude":33.846669,"longitude":-118.1174971,"address":"5850 Del Amo Blvd, Lakewood CA","chain_name":null,"distance":0},{"name":"Taco Bell","code":null,"latitude":43.0156268,"longitude":-83.5169595,"address":"1153 S. State Rd, Davison MI","chain_name":null,"distance":0},{"name":"Taco Bell","code":null,"latitude":35.085516,"longitude":-80.879508,"address":"10917 Carolina Place Pkwy, Pineville NC","chain_name":null,"distance":0},{"name":"Taco Bell","code":null,"latitude":33.8314523,"longitude":-118.0366776,"address":"5502 Lincoln Ave, Cypress CA","chain_name":null,"distance":0},{"name":"Taco Bell","code":null,"latitude":34.135692,"longitude":-117.2892815,"address":"295 W Highland, San Bernardino CA","chain_name":null,"distance":0},{"name":"Taco Bell","code":null,"latitude":39.0366432,"longitude":-77.0549842,"address":"11160 Veirs Mill Road, Wheaton MD","chain_name":null,"distance":0},{"name":"Taco Bell","code":null,"latitude":43.1267125,"longitude":-95.1491384,"address":"320 11th St SW Plaza, Spencer IA","chain_name":null,"distance":0},{"name":"Taco Bell","code":null,"latitude":38.9397719,"longitude":-76.5638082,"address":"3091 Solomons Island Rd, Edgewater MD","chain_name":null,"distance":0},{"name":"Taco Bell","code":null,"latitude":41.2976137,"longitude":-91.6908724,"address":"120 East Jefferson, Washington IA","chain_name":null,"distance":0},{"name":"Taco Bell","code":null,"latitude":40.4831627,"longitude":-89.018438,"address":"1702 W. Market St, Bloomington IL","chain_name":null,"distance":0},{"name":"Taco Bell","code":null,"latitude":36.9861998,"longitude":-121.9646185,"address":"2730 41st Ave, Soquel CA","chain_name":null,"distance":0},{"name":"Taco Bell","code":null,"latitude":35.6538303,"longitude":-105.9949883,"address":"3029 Cerrillos Road, Santa Fe NM","chain_name":null,"distance":0},{"name":"Taco Bell","code":null,"latitude":33.4332691,"longitude":-111.8701614,"address":"917 N. Dobson Rd., Mesa AZ","chain_name":null,"distance":0},{"name":"Taco Bell","code":null,"latitude":28.1862697,"longitude":-80.5932912,"address":"1004 Hwy A1a, Satellite Beach FL","chain_name":null,"distance":0},{"name":"Taco Bell","code":null,"latitude":32.5220412,"longitude":-84.8897909,"address":"5609 Milgen Rd, Columbus GA","chain_name":null,"distance":0},{"name":"Taco Bell","code":null,"latitude":43.6370152,"longitude":-116.2315829,"address":"3377 West State, Boise ID","chain_name":null,"distance":0},{"name":"Taco Bell","code":null,"latitude":33.5238105,"longitude":-86.7251108,"address":"1541 Montclair Road, Birmingham AL","chain_name":null,"distance":0},{"name":"Taco Bell","code":null,"latitude":39.9560811,"longitude":-104.7770497,"address":"2121 Prairie Center Pkwy., Brighton CO","chain_name":null,"distance":0},{"name":"Taco Bell","code":null,"latitude":35.2518996,"longitude":-81.0279053,"address":"6805 W Wilkinson Blvd, Belmont NC","chain_name":null,"distance":0},{"name":"Taco Bell","code":null,"latitude":41.2044076,"longitude":-96.0817759,"address":"5310 South 108th Street, Omaha NE","chain_name":null,"distance":0},{"name":"Taco Bell","code":null,"latitude":37.8286894,"longitude":-122.2822357,"address":"3839 Emery Street #700, Emeryville CA","chain_name":null,"distance":0},{"name":"Taco Bell","code":null,"latitude":33.2470328,"longitude":-111.6253612,"address":"21222 E Rittenhouse Rd, Queen Creek AZ","chain_name":null,"distance":0},{"name":"Taco Bell","code":null,"latitude":27.4860831,"longitude":-82.454937,"address":"8347 SR 64 East, Bradenton FL","chain_name":null,"distance":0},{"name":"Taco Bell","code":null,"latitude":32.4311028,"longitude":-93.7146486,"address":"1630 E Bert Kouns Loop, Shreveport LA","chain_name":null,"distance":0},{"name":"Taco Bell","code":null,"latitude":35.208808,"longitude":-80.757066,"address":"3612 N Sharon Amity Rd., Charlotte NC","chain_name":null,"distance":0},{"name":"Taco Bell","code":null,"latitude":41.565253,"longitude":-72.9097238,"address":"1875 Meriden Waterbury Turnpike, Milldale CT","chain_name":null,"distance":0},{"name":"Taco Bell","code":null,"latitude":39.6275958,"longitude":-85.4454921,"address":"1709 N. Main St., Rushville IN","chain_name":null,"distance":0},{"name":"Taco Bell","code":null,"latitude":41.5683842,"longitude":-87.5085241,"address":"7949 Calumet Ave, Munster IN","chain_name":null,"distance":0},{"name":"Taco Bell","code":null,"latitude":26.1670836,"longitude":-80.1389993,"address":"593 East Oakland Park Blvd, Oakland Park FL","chain_name":null,"distance":0},{"name":"Taco Bell","code":null,"latitude":26.6510721,"longitude":-80.208439,"address":"10300 West Forest Hill Blvd., Wellington FL","chain_name":null,"distance":0},{"name":"Taco Bell","code":null,"latitude":38.8523615,"longitude":-94.3806812,"address":"3701 SW Hollywood Drive, Lees Summit MO","chain_name":null,"distance":0},{"name":"Taco Bell","code":null,"latitude":31.3226063,"longitude":-89.3648908,"address":"4908 Hardy St, Hattiesburg MS","chain_name":null,"distance":0},{"name":"Taco Bell","code":null,"latitude":46.4027103,"longitude":-117.0015918,"address":"1717 21st Street, Lewiston ID","chain_name":null,"distance":0},{"name":"Taco Bell","code":null,"latitude":30.2439244,"longitude":-92.065751,"address":"119 Ambassador Caffrey Pkwy, Scott LA","chain_name":null,"distance":0},{"name":"Taco Bell","code":null,"latitude":38.9417459,"longitude":-94.6077363,"address":"1313 West 103rd Street, Kansas City MO","chain_name":null,"distance":0},{"name":"Taco Bell","code":null,"latitude":35.18823,"longitude":-111.6619468,"address":"1255 S Milton Rd, Flagstaff AZ","chain_name":null,"distance":0},{"name":"Taco Bell","code":null,"latitude":43.0609706,"longitude":-83.7676918,"address":"4382 W Pierson Rd, Flint MI","chain_name":null,"distance":0},{"name":"Taco Bell","code":null,"latitude":32.3105876,"longitude":-106.7544628,"address":"770 Walnut Street, Las Cruces NM","chain_name":null,"distance":0},{"name":"Taco Bell","code":null,"latitude":28.0785018,"longitude":-80.6540808,"address":"2035 West New Haven Ave, West Melbourne FL","chain_name":null,"distance":0},{"name":"Taco Bell","code":null,"latitude":33.3942695,"longitude":-111.8741432,"address":"1125 S Dobson Rd, Mesa AZ","chain_name":null,"distance":0},{"name":"Taco Bell","code":null,"latitude":34.108355,"longitude":-83.8779479,"address":"2422 Hancock Drive, Buford GA","chain_name":null,"distance":0},{"name":"Taco Bell","code":null,"latitude":39.842221,"longitude":-105.0553104,"address":"5325 West 80th Ave, Arvada CO","chain_name":null,"distance":0},{"name":"Taco Bell","code":null,"latitude":44.9582016,"longitude":-93.1674032,"address":"565 No Snelling, Saint Paul MN","chain_name":null,"distance":0},{"name":"Taco Bell","code":null,"latitude":38.9271466,"longitude":-121.0872405,"address":"1717 Grass Valley Hwy, Auburn CA","chain_name":null,"distance":0},{"name":"Taco Bell","code":null,"latitude":41.5503848,"longitude":-87.4260517,"address":"105 E Ridge Rd, Griffith IN","chain_name":null,"distance":0},{"name":"Taco Bell","code":null,"latitude":25.8477787,"longitude":-80.2899807,"address":"390 West 29th Street, Hialeah FL","chain_name":null,"distance":0},{"name":"Taco Bell","code":null,"latitude":37.044101,"longitude":-93.3042413,"address":"507 West Mt Vernon Street, Nixa MO","chain_name":null,"distance":0},{"name":"Taco Bell","code":null,"latitude":42.5318814,"longitude":-83.1650573,"address":"131 S. Crooks Rd., Clawson MI","chain_name":null,"distance":0},{"name":"Taco Bell","code":null,"latitude":35.278838,"longitude":-81.540924,"address":"115 E. Dixon Blvd, Shelby NC","chain_name":null,"distance":0},{"name":"Taco Bell","code":null,"latitude":33.9254614,"longitude":-84.1736251,"address":"1720 Indian Trail Rd, Norcross GA","chain_name":null,"distance":0},{"name":"Taco Bell","code":null,"latitude":42.8614356,"longitude":-71.3531031,"address":"68 Nashua Road, Londonderry NH","chain_name":null,"distance":0},{"name":"Taco Bell","code":null,"latitude":44.9345079,"longitude":-93.3884377,"address":"919 Cambridge St, Hopkins MN","chain_name":null,"distance":0},{"name":"Taco Bell","code":null,"latitude":35.2914858,"longitude":-93.1330651,"address":"1308 N Arkansas Ave, Russellville AR","chain_name":null,"distance":0},{"name":"Taco Bell","code":null,"latitude":30.1611057,"longitude":-81.6330973,"address":"11646 San Jose Blvd, Jacksonville FL","chain_name":null,"distance":0},{"name":"Taco Bell","code":null,"latitude":39.7659297,"longitude":-86.1966357,"address":"2035 West Washington Street, Indianapolis IN","chain_name":null,"distance":0},{"name":"Taco Bell","code":null,"latitude":35.0191208,"longitude":-78.8983981,"address":"2966 Owen Dr, Fayetteville NC","chain_name":null,"distance":0},{"name":"Taco Bell","code":null,"latitude":38.5838367,"longitude":-90.3179986,"address":"7237 Watson Road, Saint Louis MO","chain_name":null,"distance":0},{"name":"Taco Bell","code":null,"latitude":30.4012445,"longitude":-91.1764077,"address":"4220 Burbank Dr, Baton Rouge LA","chain_name":null,"distance":0},{"name":"Taco Bell","code":null,"latitude":33.573509,"longitude":-92.855351,"address":"1320 Highway 278 Byp, Camden AR","chain_name":null,"distance":0},{"name":"Taco Bell","code":null,"latitude":34.0885035,"longitude":-117.7496772,"address":"2204 N Garey, Pomona CA","chain_name":null,"distance":0},{"name":"Taco Bell","code":null,"latitude":41.7144182,"longitude":-72.2298916,"address":"1320 Main St, Willimantic CT","chain_name":null,"distance":0},{"name":"Taco Bell","code":null,"latitude":36.9354085,"longitude":-121.772433,"address":"14 Green Valley Road, Freedom CA","chain_name":null,"distance":0},{"name":"Taco Bell","code":null,"latitude":40.1162138,"longitude":-88.221118,"address":"1003 University, Urbana IL","chain_name":null,"distance":0},{"name":"Taco Bell","code":null,"latitude":34.6018533,"longitude":-112.4574317,"address":"3188 Willow Creek Road, Prescott AZ","chain_name":null,"distance":0},{"name":"Taco Bell","code":null,"latitude":41.0741094,"longitude":-85.2050073,"address":"1209 Reckeweg Road, Fort Wayne IN","chain_name":null,"distance":0},{"name":"Taco Bell","code":null,"latitude":38.4956671,"longitude":-121.4559255,"address":"4244 Florin Rd, Sacramento CA","chain_name":null,"distance":0},{"name":"Taco Bell","code":null,"latitude":37.6319022,"longitude":-122.0958557,"address":"27316 Hesperian Blvd, Hayward CA","chain_name":null,"distance":0},{"name":"Taco Bell","code":null,"latitude":41.4266099,"longitude":-87.7512099,"address":"5737 W. Monee Manhattan Road, Monee IL","chain_name":null,"distance":0},{"name":"Taco Bell","code":null,"latitude":42.5671133,"longitude":-83.127124,"address":"3268 Rochester Road, Troy MI","chain_name":null,"distance":0},{"name":"Taco Bell","code":null,"latitude":33.4660129,"longitude":-112.2733135,"address":"9940 W McDowell Rd., Avondale AZ","chain_name":null,"distance":0},{"name":"Taco Bell","code":null,"latitude":32.8328383,"longitude":-117.2013791,"address":"4290 Clairemont Mesa Blvd, San Diego CA","chain_name":null,"distance":0},{"name":"Taco Bell","code":null,"latitude":35.0052755,"longitude":-78.8154393,"address":"2130 Cedar Creek Road, Fayetteville NC","chain_name":null,"distance":0},{"name":"Taco Bell","code":null,"latitude":36.7632317,"longitude":-108.153098,"address":"4601 E Main St, Farmington NM","chain_name":null,"distance":0},{"name":"Taco Bell","code":null,"latitude":42.304877,"longitude":-83.2228867,"address":"25120 Michigan, Dearborn MI","chain_name":null,"distance":0},{"name":"Taco Bell","code":null,"latitude":42.4905229,"longitude":-83.1253656,"address":"1611 E 11 Mile Rd, Royal Oak MI","chain_name":null,"distance":0},{"name":"Taco Bell","code":null,"latitude":34.2103788,"longitude":-119.194127,"address":"900 N Ventura Rd, Oxnard CA","chain_name":null,"distance":0},{"name":"Taco Bell","code":null,"latitude":30.6897981,"longitude":-88.1212656,"address":"3246 Dauphin Street, Mobile AL","chain_name":null,"distance":0},{"name":"Taco Bell","code":null,"latitude":34.1939418,"longitude":-92.0584685,"address":"3501 Camden Rd, Pine Bluff AR","chain_name":null,"distance":0},{"name":"Taco Bell","code":null,"latitude":35.3673656,"longitude":-94.379855,"address":"4710 Rogers Ave, Fort Smith AR","chain_name":null,"distance":0},{"name":"Taco Bell","code":null,"latitude":35.7565572,"longitude":-78.7408827,"address":"2101 Walnut St, Cary NC","chain_name":null,"distance":0},{"name":"Taco Bell","code":null,"latitude":39.801658,"longitude":-105.1005863,"address":"9200 Ralston Road, Arvada CO","chain_name":null,"distance":0},{"name":"Taco Bell","code":null,"latitude":34.1074258,"longitude":-117.6652288,"address":"989 W Foothill Blvd., Upland CA","chain_name":null,"distance":0},{"name":"Taco Bell","code":null,"latitude":38.5476864,"longitude":-90.2918976,"address":"4254 Bayless Ave, Saint Louis MO","chain_name":null,"distance":0},{"name":"Taco Bell","code":null,"latitude":34.4260152,"longitude":-103.1961089,"address":"2829 North Prince Street, Clovis NM","chain_name":null,"distance":0},{"name":"Taco Bell","code":null,"latitude":25.8085003,"longitude":-80.3257286,"address":"3750 NW 79th Ave, Miami FL","chain_name":null,"distance":0},{"name":"Taco Bell","code":null,"latitude":25.7701824,"longitude":-80.3310616,"address":"8363 W Flagler Street, Miami FL","chain_name":null,"distance":0},{"name":"Taco Bell","code":null,"latitude":39.1871426,"longitude":-94.5465852,"address":"2825 NE Vivion Road, Kansas City MO","chain_name":null,"distance":0},{"name":"Taco Bell","code":null,"latitude":42.3719602,"longitude":-71.5615477,"address":"282 Washington Street, Hudson MA","chain_name":null,"distance":0},{"name":"Taco Bell","code":null,"latitude":30.1979733,"longitude":-93.2099724,"address":"728 E Prien Lake Rd, Lake Charles LA","chain_name":null,"distance":0},{"name":"Taco Bell","code":null,"latitude":25.7796322,"longitude":-80.2560445,"address":"710 NW 37th Ave, Miami FL","chain_name":null,"distance":0},{"name":"Taco Bell","code":null,"latitude":38.5499081,"longitude":-90.0365249,"address":"15 S 59th St, Belleville IL","chain_name":null,"distance":0},{"name":"Taco Bell","code":null,"latitude":35.9781698,"longitude":-77.9735129,"address":"475 W Washington St, Nashville NC","chain_name":null,"distance":0},{"name":"Taco Bell","code":null,"latitude":27.4961725,"longitude":-82.6153753,"address":"5410 Manatee Ave, Bradenton FL","chain_name":null,"distance":0},{"name":"Taco Bell","code":null,"latitude":39.1163034,"longitude":-94.6712948,"address":"3651 State Avenue, Kansas City KS","chain_name":null,"distance":0},{"name":"Taco Bell","code":null,"latitude":34.0115456,"longitude":-117.436439,"address":"6970 Mission Blvd, Rubidoux CA","chain_name":null,"distance":0},{"name":"Taco Bell","code":null,"latitude":34.1027128,"longitude":-117.2673822,"address":"797 2nd Street, San Bernardino CA","chain_name":null,"distance":0},{"name":"Taco Bell","code":null,"latitude":38.0941222,"longitude":-122.5552344,"address":"180 Rowland Blvd, Novato CA","chain_name":null,"distance":0},{"name":"Taco Bell","code":null,"latitude":37.9772499,"longitude":-87.6291956,"address":"4422 West Lloyd Expressway, Evansville IN","chain_name":null,"distance":0},{"name":"Taco Bell","code":null,"latitude":41.6489294,"longitude":-93.6969356,"address":"4875 MERLE HAY LN, Des Moines IA","chain_name":null,"distance":0},{"name":"Taco Bell","code":null,"latitude":33.5813362,"longitude":-112.2043377,"address":"6745 W Peoria Ave, Peoria AZ","chain_name":null,"distance":0},{"name":"Taco Bell","code":null,"latitude":33.9851596,"longitude":-118.3305488,"address":"6000 Crenshaw Blvd, Los Angeles CA","chain_name":null,"distance":0},{"name":"Taco Bell","code":null,"latitude":32.7378555,"longitude":-117.1021644,"address":"6104 University Ave, San Diego CA","chain_name":null,"distance":0},{"name":"Taco Bell","code":null,"latitude":37.6535952,"longitude":-122.4087002,"address":"199 Airport Boulevard, South San Francisco CA","chain_name":null,"distance":0},{"name":"Taco Bell","code":null,"latitude":30.4871437,"longitude":-84.3154791,"address":"3209 N. Monroe St, Tallahassee FL","chain_name":null,"distance":0},{"name":"Taco Bell","code":null,"latitude":33.4654694,"longitude":-112.068893,"address":"301 East McDowell Road, Phoenix AZ","chain_name":null,"distance":0},{"name":"Taco Bell","code":null,"latitude":39.01483,"longitude":-95.6812723,"address":"101 S E 29th Street, Topeka KS","chain_name":null,"distance":0},{"name":"Taco Bell","code":null,"latitude":39.884704,"longitude":-104.9708259,"address":"1298 East 104th Avenue, Thornton CO","chain_name":null,"distance":0},{"name":"Taco Bell","code":null,"latitude":34.0700418,"longitude":-117.4365322,"address":"16863 Valley Blvd, Fontana CA","chain_name":null,"distance":0},