[{"name":"Uno's Pizzeria and Grill","code":null,"latitude":44.8271975,"longitude":-68.7518979,"address":"725 Stillwater Ave, Bangor ME","chain_name":null,"distance":0},{"name":"Uno's Pizzeria and Grill","code":null,"latitude":42.2217222,"longitude":-71.0220568,"address":"250 Granite Street, Braintree MA","chain_name":null,"distance":0},{"name":"Uno's Pizzeria and Grill","code":null,"latitude":40.134634,"longitude":-75.449111,"address":"106 Black Rock Road, Oaks PA","chain_name":null,"distance":0},{"name":"Uno's Pizzeria and Grill","code":null,"latitude":39.2494194,"longitude":-76.8163498,"address":"4470 Long Gate Parkway, Ellicott City MD","chain_name":null,"distance":0},{"name":"Uno's Pizzeria and Grill","code":null,"latitude":40.5479817,"longitude":-74.3267569,"address":"61 US Highway #1, Metuchen NJ","chain_name":null,"distance":0},{"name":"Uno's Pizzeria and Grill","code":null,"latitude":39.2153947,"longitude":-76.8602836,"address":"10300 Little Patuxent Parkway, Suite 3030, Columbia MD","chain_name":null,"distance":0},{"name":"Uno's Pizzeria and Grill","code":null,"latitude":41.6953487,"longitude":-73.8964161,"address":"842 Main Street, Poughkeepsie NY","chain_name":null,"distance":0},{"name":"Uno's Pizzeria and Grill","code":null,"latitude":39.7619111,"longitude":-84.1918682,"address":"126 North Main Street, Dayton OH","chain_name":null,"distance":0},{"name":"Uno's Pizzeria and Grill","code":null,"latitude":44.4342658,"longitude":-73.2100689,"address":"1330 Shelburne Road, S. Burlington VT","chain_name":null,"distance":0},{"name":"Uno's Pizzeria and Grill","code":null,"latitude":32.3434379,"longitude":-106.7651895,"address":"2102 Telshor Court, Las Cruces NM","chain_name":null,"distance":0},{"name":"Uno's Pizzeria and Grill","code":null,"latitude":42.3818017,"longitude":-71.2648211,"address":"155 Bear Hill Road, Waltham MA","chain_name":null,"distance":0},{"name":"Uno's Pizzeria and Grill","code":null,"latitude":36.8588971,"longitude":-76.2057865,"address":"5900 East Virginia Beach Blvd, Norfolk VA","chain_name":null,"distance":0},{"name":"Uno's Pizzeria and Grill","code":null,"latitude":41.8783822,"longitude":-71.0623216,"address":"904 County St., Taunton MA","chain_name":null,"distance":0},{"name":"Uno's Pizzeria and Grill","code":null,"latitude":40.0746093,"longitude":-83.1394051,"address":"5930 Britton Parkway, Dublin OH","chain_name":null,"distance":0},{"name":"Uno's Pizzeria and Grill","code":null,"latitude":43.0601823,"longitude":-89.5138753,"address":"7601 Mineral Point Road, Madison WI","chain_name":null,"distance":0},{"name":"Uno's Pizzeria and Grill","code":null,"latitude":43.0807173,"longitude":-77.628233,"address":"1000 Hylan Drive, Henrietta NY","chain_name":null,"distance":0},{"name":"Uno's Pizzeria and Grill","code":null,"latitude":39.380722,"longitude":-77.3987733,"address":"5449 Urbana Pike, Frederick MD","chain_name":null,"distance":0},{"name":"Uno's Pizzeria and Grill","code":null,"latitude":42.7029414,"longitude":-71.4405465,"address":"304 Daniel Webster Highway, Nashua NH","chain_name":null,"distance":0},{"name":"Uno's Pizzeria and Grill","code":null,"latitude":42.0952985,"longitude":-76.0092164,"address":"2503 Vestal Parkway E., Vestal NY","chain_name":null,"distance":0},{"name":"Uno's Pizzeria and Grill","code":null,"latitude":42.3495939,"longitude":-71.080256,"address":"731 Boylston Street, Boston MA","chain_name":null,"distance":0},{"name":"Uno's Pizzeria and Grill","code":null,"latitude":40.1384398,"longitude":-74.9579914,"address":"801 Neshaminy Mall, Bensalem PA","chain_name":null,"distance":0},{"name":"Uno's Pizzeria and Grill","code":null,"latitude":28.3319953,"longitude":-81.4977987,"address":"5350 W. Irlo Bronson Memorial Hwy, Kissimmee FL","chain_name":null,"distance":0},{"name":"Uno's Pizzeria and Grill","code":null,"latitude":43.0692261,"longitude":-76.1740719,"address":"9558 Destiny USA Drive, Syracuse NY","chain_name":null,"distance":0},{"name":"Uno's Pizzeria and Grill","code":null,"latitude":41.8931229,"longitude":-87.6264408,"address":"619 North Wabash Avenue, Chicago IL","chain_name":null,"distance":0},{"name":"Uno's Pizzeria and Grill","code":null,"latitude":28.5225575,"longitude":-81.587566,"address":"3167 Daniels Road, Winter Garden FL","chain_name":null,"distance":0},{"name":"Uno's Pizzeria and Grill","code":null,"latitude":42.1281472,"longitude":-72.0600509,"address":"100 Charlton Road, Sturbridge MA","chain_name":null,"distance":0},{"name":"Uno's Pizzeria and Grill","code":null,"latitude":43.0915625,"longitude":-75.3149901,"address":"8645 Clinton Street, New Hartford NY","chain_name":null,"distance":0},{"name":"Uno's Pizzeria and Grill","code":null,"latitude":42.167247,"longitude":-72.6413271,"address":"50 Holyoke Street, Holyoke MA","chain_name":null,"distance":0},{"name":"Uno's Pizzeria and Grill","code":null,"latitude":44.2577152,"longitude":-88.3523585,"address":"W3254 Van Roy Road, Appleton WI","chain_name":null,"distance":0},{"name":"Uno's Pizzeria and Grill","code":null,"latitude":42.8004935,"longitude":-71.5354327,"address":"593 Amherst Street, Nashua NH","chain_name":null,"distance":0},{"name":"Uno's Pizzeria and Grill","code":null,"latitude":42.0499882,"longitude":-88.044548,"address":"1160 Plaza Drive, Schaumburg IL","chain_name":null,"distance":0},{"name":"Uno's Pizzeria and Grill","code":null,"latitude":43.4789512,"longitude":-83.9622993,"address":"4960 Towne Centre Road, Saginaw MI","chain_name":null,"distance":0},{"name":"Uno's Pizzeria and Grill","code":null,"latitude":42.2670401,"longitude":-71.7985515,"address":"25 Major Taylor Blvd, Worcester MA","chain_name":null,"distance":0},{"name":"Uno's Pizzeria and Grill","code":null,"latitude":43.6245656,"longitude":-83.9397803,"address":"2795 E. Wilder Road, Bay City MI","chain_name":null,"distance":0},{"name":"Uno's Pizzeria and Grill","code":null,"latitude":42.195447,"longitude":-71.778282,"address":"70 Worcester Providence Highway, Suite 447, Millbury MA","chain_name":null,"distance":0},{"name":"Uno's Pizzeria and Grill","code":null,"latitude":42.1136649,"longitude":-71.4691858,"address":"205 Hartford Avenue, Bellingham MA","chain_name":null,"distance":0},{"name":"Uno's Pizzeria and Grill","code":null,"latitude":40.4109576,"longitude":-79.9141568,"address":"205 East Waterfront Drive, Homestead PA","chain_name":null,"distance":0},{"name":"Uno's Pizzeria and Grill","code":null,"latitude":41.8922896,"longitude":-87.6269045,"address":"29 East Ohio, Chicago IL","chain_name":null,"distance":0},{"name":"Uno's Pizzeria and Grill","code":null,"latitude":42.0374718,"longitude":-71.3479329,"address":"1048 South Street, Suite 30, Wrentham MA","chain_name":null,"distance":0},{"name":"Uno's Pizzeria and Grill","code":null,"latitude":43.2480416,"longitude":-83.7819873,"address":"8975 Marketplace Dr, Suite F600, Birch Run MI","chain_name":null,"distance":0},{"name":"Uno's Pizzeria and Grill","code":null,"latitude":43.031469,"longitude":-76.0177226,"address":"520 Towne Drive, Fayetteville NY","chain_name":null,"distance":0},{"name":"Uno's Pizzeria and Grill","code":null,"latitude":32.7551845,"longitude":-97.3329579,"address":"300 Houston Street, Fort Worth TX","chain_name":null,"distance":0},{"name":"Uno's Pizzeria and Grill","code":null,"latitude":43.1899677,"longitude":-88.1340665,"address":"W180 N9455 Premier Lane, Menomonee Falls WI","chain_name":null,"distance":0},{"name":"Uno's Pizzeria and Grill","code":null,"latitude":42.5053848,"longitude":-71.1329919,"address":"300 Mishawum Road, Woburn MA","chain_name":null,"distance":0},{"name":"Uno's Pizzeria and Grill","code":null,"latitude":42.2842183,"longitude":-71.6353932,"address":"225 Turnpike Road, Westborough MA","chain_name":null,"distance":0},{"name":"Uno's Pizzeria and Grill","code":null,"latitude":28.4465277,"longitude":-81.4716378,"address":"8250 International Drive, Orlando FL","chain_name":null,"distance":0},{"name":"Uno's Pizzeria and Grill","code":null,"latitude":36.8157276,"longitude":-76.0721947,"address":"1005 Lynnhaven Mall Loop, Virginia Beach VA","chain_name":null,"distance":0},{"name":"Uno's Pizzeria and Grill","code":null,"latitude":40.9865444,"longitude":-73.8250128,"address":"2650 Central Park Ave, Yonkers NY","chain_name":null,"distance":0},{"name":"Uno's Pizzeria and Grill","code":null,"latitude":42.3729198,"longitude":-71.1195813,"address":"22 JFK Street, Cambridge MA","chain_name":null,"distance":0},{"name":"Uno's Pizzeria and Grill","code":null,"latitude":42.5522828,"longitude":-71.7801505,"address":"905 Merriam Ave., Leominster MA","chain_name":null,"distance":0},{"name":"Uno's Pizzeria and Grill","code":null,"latitude":39.666455,"longitude":-86.08733,"address":"4740 East Southport Road, Southport IN","chain_name":null,"distance":0},{"name":"Uno's Pizzeria and Grill","code":null,"latitude":38.8663891,"longitude":-77.2290702,"address":"3058 Gatehouse Plaza, Falls Church VA","chain_name":null,"distance":0},{"name":"Uno's Pizzeria and Grill","code":null,"latitude":41.4647693,"longitude":-75.6390467,"address":"3905 Commerce Blvd., Dickson City PA","chain_name":null,"distance":0},{"name":"Uno's Pizzeria and Grill","code":null,"latitude":42.0923097,"longitude":-72.5831824,"address":"820 Hall of Fame Avenue, Springfield MA","chain_name":null,"distance":0},{"name":"Uno's Pizzeria and Grill","code":null,"latitude":44.6964001,"longitude":-73.5042327,"address":"578 State Route 3, Plattsburgh NY","chain_name":null,"distance":0},{"name":"Uno's Pizzeria and Grill","code":null,"latitude":43.0244384,"longitude":-77.4387502,"address":"7724 Victor-Pittsford Road, Victor NY","chain_name":null,"distance":0},{"name":"Uno's Pizzeria and Grill","code":null,"latitude":42.2983614,"longitude":-71.39604,"address":"70 Worcester Road, Framingham MA","chain_name":null,"distance":0},{"name":"Uno's Pizzeria and Grill","code":null,"latitude":41.9249846,"longitude":-71.3569746,"address":"221 Washington Street, Attleboro MA","chain_name":null,"distance":0},{"name":"Uno's Pizzeria and Grill","code":null,"latitude":39.5049212,"longitude":-79.3249222,"address":"19746 Garrett Highway, Oakland MD","chain_name":null,"distance":0},{"name":"Uno's Pizzeria and Grill","code":null,"latitude":41.0301107,"longitude":-73.7728752,"address":"14 Martine Ave, White Plains NY","chain_name":null,"distance":0},{"name":"Uno's Pizzeria and Grill","code":null,"latitude":40.617883,"longitude":-74.0297941,"address":"9201 Fourth Ave, Brooklyn NY","chain_name":null,"distance":0},{"name":"Uno's Pizzeria and Grill","code":null,"latitude":41.826605,"longitude":-71.415922,"address":"82 Providence Place, Providence RI","chain_name":null,"distance":0},{"name":"Uno's Pizzeria and Grill","code":null,"latitude":39.3217492,"longitude":-84.4270614,"address":"9246 Schulze Drive, West Chester OH","chain_name":null,"distance":0},{"name":"Uno's Pizzeria and Grill","code":null,"latitude":41.8711276,"longitude":-71.5213696,"address":"371 Putnam Pike, Suite 200, Smithfield RI","chain_name":null,"distance":0},{"name":"Uno's Pizzeria and Grill","code":null,"latitude":39.7732578,"longitude":-104.7963245,"address":"16375 E. 40th Avenue, Denver CO","chain_name":null,"distance":0},{"name":"Uno's Pizzeria and Grill","code":null,"latitude":43.1848573,"longitude":-76.2344482,"address":"3974 State Route 31, Liverpool NY","chain_name":null,"distance":0},{"name":"Uno's Pizzeria and Grill","code":null,"latitude":28.230757,"longitude":-80.7141255,"address":"8260 Wickham Road, Melbourne FL","chain_name":null,"distance":0},{"name":"Uno's Pizzeria and Grill","code":null,"latitude":38.7707549,"longitude":-77.1405139,"address":"5935 Kingstowne Center, Kingstowne VA","chain_name":null,"distance":0},{"name":"Uno's Pizzeria and Grill","code":null,"latitude":42.384845,"longitude":-87.9665878,"address":"6593 Grand Ave, Gurnee IL","chain_name":null,"distance":0},{"name":"Uno's Pizzeria and Grill","code":null,"latitude":42.482538,"longitude":-71.2135082,"address":"75 Middlesex Turnpike, Burlington MA","chain_name":null,"distance":0},{"name":"Uno's Pizzeria and Grill","code":null,"latitude":39.2862128,"longitude":-76.6106955,"address":"201 East Pratt Street, Baltimore MD","chain_name":null,"distance":0},{"name":"Uno's Pizzeria and Grill","code":null,"latitude":40.2681501,"longitude":-75.1292095,"address":"1661 Easton Road, Warrington PA","chain_name":null,"distance":0},{"name":"Uno's Pizzeria and Grill","code":null,"latitude":40.8308892,"longitude":-74.1396481,"address":"426 Highway 3 West, Clifton NJ","chain_name":null,"distance":0},{"name":"Uno's Pizzeria and Grill","code":null,"latitude":40.7650324,"longitude":-73.7720632,"address":"39-02 Bell Blvd, Bayside NY","chain_name":null,"distance":0},{"name":"Uno's Pizzeria and Grill","code":null,"latitude":39.8335256,"longitude":-75.0892934,"address":"1162 Hurffville Road, Deptford NJ","chain_name":null,"distance":0},{"name":"Uno's Pizzeria and Grill","code":null,"latitude":43.5794359,"longitude":-89.7793492,"address":"1000 Wisconsin Dells Parkway South, Lake Delton WI","chain_name":null,"distance":0},{"name":"Uno's Pizzeria and Grill","code":null,"latitude":42.2556529,"longitude":-71.1701016,"address":"270 Providence Highway, Dedham MA","chain_name":null,"distance":0},{"name":"Uno's Pizzeria and Grill","code":null,"latitude":38.8042745,"longitude":-77.5223573,"address":"10701 Bulloch Drive, Manassas VA","chain_name":null,"distance":0},{"name":"Uno's Pizzeria and Grill","code":null,"latitude":40.7781906,"longitude":-73.9532285,"address":"220 E.86th Street, New York NY","chain_name":null,"distance":0},{"name":"Uno's Pizzeria and Grill","code":null,"latitude":42.8141637,"longitude":-71.1034251,"address":"30 Cushing Avenue, Haverhill MA","chain_name":null,"distance":0},{"name":"Uno's Pizzeria and Grill","code":null,"latitude":43.2127522,"longitude":-77.4474955,"address":"931 Holt Road, Webster NY","chain_name":null,"distance":0},{"name":"Uno's Pizzeria and Grill","code":null,"latitude":42.3416917,"longitude":-71.0858404,"address":"280 Huntington Ave, Boston MA","chain_name":null,"distance":0},{"name":"Uno's Pizzeria and Grill","code":null,"latitude":40.1002405,"longitude":-75.3045961,"address":"1009 Ridge Pike, Conshohocken PA","chain_name":null,"distance":0},{"name":"Uno's Pizzeria and Grill","code":null,"latitude":28.381566,"longitude":-81.5046213,"address":"12553 Sr-535, Orlando FL","chain_name":null,"distance":0},{"name":"Uno's Pizzeria and Grill","code":null,"latitude":43.2102981,"longitude":-71.5322129,"address":"15 Fort Eddy Road, Concord NH","chain_name":null,"distance":0},{"name":"Uno's Pizzeria and Grill","code":null,"latitude":42.1442654,"longitude":-72.4871234,"address":"1722 Boston Road, Springfield MA","chain_name":null,"distance":0},{"name":"Uno's Pizzeria and Grill","code":null,"latitude":40.7833,"longitude":-73.9749567,"address":"432 Columbus Avenue, New York NY","chain_name":null,"distance":0},{"name":"Uno's Pizzeria and Grill","code":null,"latitude":39.9375606,"longitude":-74.9709761,"address":"2803 S. Route 73, Maple Shade NJ","chain_name":null,"distance":0},{"name":"Uno's Pizzeria and Grill","code":null,"latitude":42.623257,"longitude":-83.0529163,"address":"44805 Mound Road, Sterling Heights MI","chain_name":null,"distance":0},{"name":"Uno's Pizzeria and Grill","code":null,"latitude":34.0043259,"longitude":-81.2066686,"address":"5304 Sunset Blvd., Lexington SC","chain_name":null,"distance":0},{"name":"Uno's Pizzeria and Grill","code":null,"latitude":43.6365724,"longitude":-70.3353061,"address":"280 Maine Mall Road, S. Portland ME","chain_name":null,"distance":0},{"name":"Uno's Pizzeria and Grill","code":null,"latitude":39.9852372,"longitude":-75.4141731,"address":"3910 West Chester Pike, Newtown Square PA","chain_name":null,"distance":0},{"name":"Uno's Pizzeria and Grill","code":null,"latitude":42.6896278,"longitude":-73.8507596,"address":"1 Crossgate Mall Road, Albany NY","chain_name":null,"distance":0},{"name":"Uno's Pizzeria and Grill","code":null,"latitude":42.4829407,"longitude":-70.9019142,"address":"970 Paradise Road, Swampscott MA","chain_name":null,"distance":0},{"name":"Uno's Pizzeria and Grill","code":null,"latitude":43.335663,"longitude":-73.6781056,"address":"900 State Route 9, Queensbury NY","chain_name":null,"distance":0},{"name":"Uno's Pizzeria and Grill","code":null,"latitude":41.3136871,"longitude":-74.1345236,"address":"20 Centre Drive, Central Valley NY","chain_name":null,"distance":0},{"name":"Uno's Pizzeria and Grill","code":null,"latitude":37.1135021,"longitude":-76.4668864,"address":"5007 Victory Blvd, Tabb VA","chain_name":null,"distance":0},{"name":"Uno's Pizzeria and Grill","code":null,"latitude":40.249754,"longitude":-74.6913352,"address":"225 Sloan Avenue, Hamilton NJ","chain_name":null,"distance":0},{"name":"Uno's Pizzeria and Grill","code":null,"latitude":39.654336,"longitude":-77.7527025,"address":"17734 Garland Groh Blvd, Hagerstown MD","chain_name":null,"distance":0},{"name":"Uno's Pizzeria and Grill","code":null,"latitude":43.1354903,"longitude":-89.2908119,"address":"3010 Crossroads Drive, Madison WI","chain_name":null,"distance":0},{"name":"Uno's Pizzeria and Grill","code":null,"latitude":41.7263147,"longitude":-71.4812332,"address":"399 Bald Hill Road, Warwick RI","chain_name":null,"distance":0},{"name":"Uno's Pizzeria and Grill","code":null,"latitude":40.056767,"longitude":-75.6605991,"address":"8 North Pottstown Pike, Exton PA","chain_name":null,"distance":0},{"name":"Uno's Pizzeria and Grill","code":null,"latitude":43.4586863,"longitude":-71.560925,"address":"122 Laconia Road, Tilton NH","chain_name":null,"distance":0},{"name":"Uno's Pizzeria and Grill","code":null,"latitude":37.6666115,"longitude":-120.9582256,"address":"1533 Oakdale Road, Modesto CA","chain_name":null,"distance":0},{"name":"Uno's Pizzeria and Grill","code":null,"latitude":42.7530096,"longitude":-73.7673835,"address":"601 Troy-Schenectady Road, Latham NY","chain_name":null,"distance":0},{"name":"Uno's Pizzeria and Grill","code":null,"latitude":40.7558005,"longitude":-73.9231103,"address":"37-11 35th Avenue, Long Island City NY","chain_name":null,"distance":0},{"name":"Uno's Pizzeria and Grill","code":null,"latitude":42.3484278,"longitude":-71.0977677,"address":"645 Beacon Street, Boston MA","chain_name":null,"distance":0},{"name":"Uno's Pizzeria and Grill","code":null,"latitude":42.4280359,"longitude":-71.0127787,"address":"339 Squire Road, Revere MA","chain_name":null,"distance":0}]