[{"name":"Children's Place - Pinnacle at Tutweiler","address":"5012 Pinnacle Sqd Birmingham,\u00a0AL,\u00a035235","phone":"(205) 655-9210","latitude":-86.6395648,"longitude":33.6077426},{"name":"Children's Place - Riverchase Galleria","address":"2000 Riverchase Galleria Birmingham,\u00a0AL,\u00a035244","phone":"(205) 560-0363","latitude":-86.8083523,"longitude":33.3790316},{"name":"Children's Place - Wiregrass Commons","address":"900 Commons Drive Dothan,\u00a0AL,\u00a036303","phone":"(334) 792-9385","latitude":-85.423227,"longitude":31.254711},{"name":"Children's Place - Florence Mall","address":"301 Cox Creek Pkwy Florence,\u00a0AL,\u00a035630","phone":"(256) 718-1028","latitude":-87.63592299999999,"longitude":34.83711020000001},{"name":"Children's Place - Riviera Centre Factory Stores","address":"2601 S Mc Kensie Street Foley,\u00a0AL,\u00a036535","phone":"(251) 943-1914","latitude":-87.6797911,"longitude":30.3757462},{"name":"Children's Place - Gadsden Mall","address":"1001 Rainbow Drive Gadsden,\u00a0AL,\u00a035901","phone":"(256) 543-1353","latitude":-86.00710289999999,"longitude":33.9958772},{"name":"Children's Place - Big Springs Village","address":"11521 Us Highway 431 Guntersville,\u00a0AL,\u00a035976","phone":"(256) 894-8228","latitude":-86.2754749,"longitude":34.2991461},{"name":"Children's Place - Parkway Place","address":"2801 Memorial Parkway South Huntsville,\u00a0AL,\u00a035801","phone":"(256) 519-6253","latitude":-86.5872708,"longitude":34.7072886},{"name":"Children's Place - Jasper Mall","address":"300 Highway 78 Jasper,\u00a0AL,\u00a035501","phone":"(205) 302-6381","latitude":-87.2719096,"longitude":33.8519396},{"name":"Children's Place - the Shops of Grand River","address":"6200 Grand River Blvd Est Leeds,\u00a0AL,\u00a035094","phone":"(205) 702-2705","latitude":-86.5961212,"longitude":33.54970670000001},{"name":"Children's Place - Bel Air Mall","address":"3444 Bel Air Mall Mobile,\u00a0AL,\u00a036606","phone":"(251) 478-8876","latitude":-88.1225892,"longitude":30.6702796},{"name":"Children's Place - the Shops at Eastchase","address":"7044 Eastchase Parkway Montgomery,\u00a0AL,\u00a036117","phone":"(334) 215-8888","latitude":-86.1677483,"longitude":32.3583162},{"name":"Children's Place - Tiger Town","address":"2107 Tiger Town Parkway Opelika,\u00a0AL,\u00a036801","phone":"(334) 745-3546","latitude":-85.4057193,"longitude":32.6197568},{"name":"Children's Place - Oxford Exchange","address":"90 Oxford Exchange Blvd Oxford,\u00a0AL,\u00a036203","phone":"(256) 831-1875","latitude":-85.784184,"longitude":33.609305},{"name":"Children's Place - Conway Commons","address":"575 & 579 Elsinger Blvd Conway,\u00a0AR,\u00a072032","phone":"(501) 329-5336"},{"name":"Children's Place - Northwest Arkansas Mall","address":"4201 North Shiloh Dr Fayetteville,\u00a0AR,\u00a072703","phone":"(479) 442-9420","latitude":-94.1486386,"longitude":36.127968},{"name":"Children's Place - Central Mall Fort Smith","address":"5111 Rogers Ave. Fort Smith,\u00a0AR,\u00a072903","phone":"(479) 484-7879","latitude":-94.37511599999999,"longitude":35.366924},{"name":"Children's Place - Cornerstone Marketplace","address":"419 Cornerstone Market Place Hot Springs,\u00a0AR,\u00a071913","phone":"(501) 525-0333","latitude":-93.05883159999999,"longitude":34.4618411},{"name":"Children's Place - the Mall @ Turtle Creek","address":"3000 East Highland Jonesboro,\u00a0AR,\u00a072401","phone":"(870) 336-2531","latitude":-90.6640754,"longitude":35.8232295},{"name":"Children's Place - Midtown Shopping Center","address":"207 North University Little Rock,\u00a0AR,\u00a072205","phone":"(501) 280-9116","latitude":-92.3396374,"longitude":34.75360149999999},{"name":"Children's Place - Outlets at Little Rock","address":"11201 Bass Pro Parkway Little Rock,\u00a0AR,\u00a072210","phone":"(501) 407-0029","latitude":-92.40794849999999,"longitude":34.6609511},{"name":"Children's Place - the Promenade at Chenal","address":"17711 Chenal Parkway Little Rock,\u00a0AR,\u00a072223","phone":"(501) 821-0333","latitude":-92.4589331,"longitude":34.7662944},{"name":"Children's Place - Pinnacle Hills Promenade","address":"2203 S Promenade Blvd Rogers,\u00a0AR,\u00a072758","phone":"(479) 986-8918","latitude":-94.17455939999999,"longitude":36.3046613},{"name":"Children's Place - Outlets at Anthem","address":"4250 West Anthem Way Anthem,\u00a0AZ,\u00a085086","phone":"(623) 465-0345","latitude":-112.150162,"longitude":33.8740033},{"name":"Children's Place - Chandler Fashion Center","address":"3111 W Chandler Blvd Chandler,\u00a0AZ,\u00a085226","phone":"(480) 855-0632","latitude":-111.8984042,"longitude":33.30525000000001},{"name":"Children's Place - Phoenix Premium Outlets","address":"4976 Premium Outlets Way Chandler,\u00a0AZ,\u00a085226","phone":"(520) 796-1424","latitude":-111.973192,"longitude":33.289203},{"name":"Children's Place - Flagstaff Mall","address":"4650 Us 89 Flagstaff,\u00a0AZ,\u00a086004","phone":"(928) 526-1994","latitude":-111.5817908,"longitude":35.2231929},{"name":"Children's Place - San Tan Village","address":"2180 East Williams Field Gilbert,\u00a0AZ,\u00a085295","phone":"(480) 855-6007","latitude":-111.7526051,"longitude":33.3068216},{"name":"Children's Place - Arrowhead Towne Center","address":"7700 W Arrowhead Town Ctr Glendale,\u00a0AZ,\u00a085308","phone":"(623) 334-3186","latitude":-112.2254067,"longitude":33.6420894},{"name":"Children's Place - Tanger Outlets Westgate","address":"6800 95th Avenue Glendale,\u00a0AZ,\u00a085305","phone":"(623) 772-5310","latitude":-112.2674445,"longitude":33.535371},{"name":"Children's Place - Superstition Springs Center","address":"6555 East Southern Ave. Mesa,\u00a0AZ,\u00a085206","phone":"(480) 985-6558","latitude":-111.6903269,"longitude":33.390567},{"name":"Children's Place - Desert Sky Mall","address":"7611 W Thomas Road Phoenix,\u00a0AZ,\u00a085033","phone":"(623) 845-0355","latitude":-112.2256247,"longitude":33.4780654},{"name":"Children's Place - Metrocenter","address":"9617 N. Metro Prkwy West Phoenix,\u00a0AZ,\u00a085051","phone":"(602) 997-6004","latitude":-112.1210338,"longitude":33.574974},{"name":"Children's Place - Paradise Valley","address":"4550 E Cactus Rd Phoenix,\u00a0AZ,\u00a085032","phone":"(602) 485-4229","latitude":-111.9836094,"longitude":33.6021872},{"name":"Children's Place - Scottsdale Fashion Square","address":"7014-2220 E Camelback Rd Scottsdale,\u00a0AZ,\u00a085251","phone":"(480) 946-9015","latitude":-111.9291004,"longitude":33.502933},{"name":"Children's Place - Sierra Vista","address":"2200 El Mercado Loop Sierra Vista,\u00a0AZ,\u00a085635","phone":"(520) 458-2605","latitude":-110.2598487,"longitude":31.5291849},{"name":"Children's Place - Arizona Mills","address":"5000 Arizona Mills Circle Tempe,\u00a0AZ,\u00a085282","phone":"(480) 775-3511","latitude":-111.964485,"longitude":33.383123},{"name":"Children's Place - Park Place","address":"5870 East Broadway Tucson,\u00a0AZ,\u00a085711","phone":"(520) 790-5322","latitude":-110.8656379,"longitude":32.2213411},{"name":"Children's Place - Tucson Mall","address":"4500 North Oracle Road Tucson,\u00a0AZ,\u00a085705","phone":"(520) 888-9177","latitude":-110.9781248,"longitude":32.2881793},{"name":"Children's Place - Yuma Palms","address":"1490 South Yuma Palms Pky Yuma,\u00a0AZ,\u00a085365","phone":"(928) 782-6292","latitude":-114.6043002,"longitude":32.70035800000001},{"name":"Children's Place - Valley Plaza","address":"2710 Ming Ave Bakersfield,\u00a0CA,\u00a093304","phone":"(661) 397-5377","latitude":-119.0329756,"longitude":35.3400185},{"name":"Children's Place - the Streets at Brentwood","address":"2545 Sand Creek Road Brentwood,\u00a0CA,\u00a094513","phone":"(925) 240-1468","latitude":-121.7383979,"longitude":37.9462145},{"name":"Children's Place - Gran Plaza Outlets","address":"888 West Second Street Calexico,\u00a0CA,\u00a092231","phone":"(760) 768-0029","latitude":-115.5075792,"longitude":32.6651379},{"name":"Children's Place - Camarillo Premium Outlets","address":"950 Camarillo Center Drive Camarillo,\u00a0CA,\u00a093010","phone":"(805) 987-3718","latitude":-119.0589016,"longitude":34.2141896},{"name":"Children's Place - Westfield Topanga","address":"6600 Topanga Canyon Blvd Canoga Park,\u00a0CA,\u00a091303","phone":"(818) 610-8195","latitude":-118.6045941,"longitude":34.1854111},{"name":"Children's Place - Capitola Mall","address":"1855 41st Street Capitola,\u00a0CA,\u00a095010","phone":"(831) 464-1554","latitude":-121.9677388,"longitude":36.9758354},{"name":"Children's Place - Southbay Pavillion","address":"20700 Avalon Boulevard Carson,\u00a0CA,\u00a090746","phone":"(310) 516-1478","latitude":-118.2629711,"longitude":33.8438816},{"name":"Children's Place - Los Cerritos Center","address":"126 Los Ceritos Center Cerritos,\u00a0CA,\u00a090703","phone":"(562) 402-0425","latitude":-118.094574,"longitude":33.8637185},{"name":"Children's Place - Chico Mall","address":"1950 East 20th Street Chico,\u00a0CA,\u00a095928","phone":"(530) 894-2589","latitude":-121.806578,"longitude":39.7283368},{"name":"Children's Place - Shoppes @ Chino Hills","address":"13920 City Center Drive Chino Hills,\u00a0CA,\u00a091709","phone":"(909) 902-9520","latitude":-117.72936,"longitude":34.001085},{"name":"Children's Place - Chula Vista Center","address":"555 Broadway Chula Vista,\u00a0CA,\u00a091910","phone":"(619) 426-2316","latitude":-117.0873905,"longitude":32.630241},{"name":"Children's Place - Town Center @ Otay Ranch","address":"2015 Birch Road Chula Vista,\u00a0CA,\u00a091915","phone":"(619) 216-5261","latitude":-116.9654569,"longitude":32.623489},{"name":"Children's Place - Sunrise Mall","address":"6051 Sunrise Mall Citrus Heights,\u00a0CA,\u00a095610","phone":"(916) 967-1063","latitude":-121.2716119,"longitude":38.675343},{"name":"Children's Place - Puente Hills Mall","address":"1600 South Azusa Ave City of Industry,\u00a0CA,\u00a091748","phone":"(626) 581-4323","latitude":-117.9272572,"longitude":33.9939594},{"name":"Children's Place - Citadel Outlets","address":"100 Citadel Drive Commerce,\u00a0CA,\u00a090040","phone":"(323) 725-7873","latitude":-118.1516239,"longitude":34.006156},{"name":"Children's Place - Westfield Culver City","address":"6000 Sepulveda Boulevard Culver City,\u00a0CA,\u00a090230","phone":"(310) 636-8350","latitude":-118.395087,"longitude":33.9854088},{"name":"Children's Place - Serramonte Center","address":"3 Serramonte Center Daly City,\u00a0CA,\u00a094015","phone":"(650) 992-8053","latitude":-122.4720252,"longitude":37.6744212},{"name":"Children's Place - Stonewood Cntr","address":"423 Stonewood Street Downey,\u00a0CA,\u00a090241","phone":"(562) 862-0518","latitude":-118.1221074,"longitude":33.9368908},{"name":"Children's Place - Parkway Plaza","address":"665 Parkway Plaza El Cajon,\u00a0CA,\u00a092020","phone":"(619) 593-8049","latitude":-116.9665419,"longitude":32.8045334},{"name":"Children's Place - Imperial Valley Mall","address":"3451 South Dogwood Avenue El Centro,\u00a0CA,\u00a092243","phone":"(760) 337-2908","latitude":-115.5303615,"longitude":32.762862},{"name":"Children's Place - Marketplace 99","address":"9163 E. Stockton Blvd. Elk Grove,\u00a0CA,\u00a095624","phone":"(916) 686-4580","latitude":-121.3922327,"longitude":38.4266781},{"name":"Children's Place - North County Fair","address":"200 E via Rncho Pkwy Escondido,\u00a0CA,\u00a092025","phone":"(760) 871-0162","latitude":-117.0649122,"longitude":33.070471},{"name":"Children's Place - Bayshore Mall","address":"3300 Broadway Box 416 Eureka,\u00a0CA,\u00a095501","phone":"(707) 476-8990","latitude":-124.1780195,"longitude":40.7925415},{"name":"Children's Place - Solano Town Center","address":"1350 Travis Blvd. Fairfield,\u00a0CA,\u00a094533","phone":"(707) 425-3463","latitude":-122.054641,"longitude":38.2603841},{"name":"Children's Place - Folsom Premium Outlets","address":"13000 Folsom Blvd Folsom,\u00a0CA,\u00a095630","phone":"(916) 357-0121","latitude":-121.1885636,"longitude":38.6441993},{"name":"Children's Place - Fashion Fair Mall","address":"605 East Shaw Ave Fresno,\u00a0CA,\u00a093710","phone":"(559) 221-1010","latitude":-119.7768374,"longitude":36.8084898},{"name":"Children's Place - Shoppes @ Riverpark Sq","address":"75 via Deloro Fresno,\u00a0CA,\u00a093720","phone":"(559) 440-1019","latitude":-119.7895244,"longitude":36.8499231},{"name":"Children's Place - Gilroy Premium Outlets","address":"8300 Arroyo Circle Gilroy,\u00a0CA,\u00a095020","phone":"(408) 846-6934","latitude":-121.5609395,"longitude":37.021759},{"name":"Children's Place - Glendale Galleria","address":"2174 Glendale Galleria Glendale,\u00a0CA,\u00a091210","phone":"(818) 507-1085","latitude":-118.258304,"longitude":34.1440449},{"name":"Children's Place - Hanford Mall","address":"1675 West Lacey Blvd Hanford,\u00a0CA,\u00a093230","phone":"(559) 585-0848","latitude":-119.6697027,"longitude":36.3250837},{"name":"Children's Place - Southland Mall","address":"618 Southland Mall Hayward,\u00a0CA,\u00a094545","phone":"(510) 266-6640","latitude":-122.1021542,"longitude":37.6503739},{"name":"Children's Place - Loehmanns Five Points Plaza","address":"18597 Main Street Huntington Beach,\u00a0CA,\u00a092648","phone":"(714) 843-2652","latitude":-117.9918023,"longitude":33.6932503},{"name":"Children's Place - Pacific Avenue","address":"6423 Pacific Avenue Huntington Park,\u00a0CA,\u00a090255","phone":"(323) 582-5544","latitude":-118.2254361,"longitude":33.980953},{"name":"Children's Place - Village @ Century","address":"3350 West Century Blvd Inglewood,\u00a0CA,\u00a090303","phone":"(310) 672-0279","latitude":-118.330222,"longitude":33.9443709},{"name":"Children's Place - Irvine Spectrum Center","address":"826 Spectrum Center Drive Irvine,\u00a0CA,\u00a092618","phone":"(949) 788-0528","latitude":-117.7449971,"longitude":33.6492285},{"name":"Children's Place - Lake Elsinore Outlets","address":"17600 Collier Avenue Lake Elsinore,\u00a0CA,\u00a092530","phone":"(951) 245-1838","latitude":-117.354278,"longitude":33.7027421},{"name":"Children's Place - Lakewood Center","address":"366 Lakewood Center Lakewood,\u00a0CA,\u00a090712","phone":"(562) 630-0216","latitude":-118.1391955,"longitude":33.8502765},{"name":"Children's Place - San Francisco Premium Outlets","address":"3370 Livermore Outlets Dr Livermore,\u00a0CA,\u00a094551","phone":"(925) 724-0193","latitude":-121.844737,"longitude":37.6982545},{"name":"Children's Place - Long Beach","address":"4801 East 2nd Street Long Beach,\u00a0CA,\u00a090803","phone":"(562) 621-6764","latitude":-118.1376441,"longitude":33.7616875},{"name":"Children's Place - Baldwin Hills Crenshaw Plaza","address":"3650 Martin Luther Kingjr Los Angeles,\u00a0CA,\u00a090008","phone":"(323) 294-1416","latitude":-118.3393691,"longitude":34.0103811},{"name":"Children's Place - Plaza Mexico","address":"3170 E. Imperial Highway Lynwood,\u00a0CA,\u00a090262","phone":"(310) 608-5791","latitude":-118.2140611,"longitude":33.9288041},{"name":"Children's Place - the Commons at Madera Fair","address":"2140 West Cleveland Avenue Madera,\u00a0CA,\u00a093637","phone":"(559) 664-0102","latitude":-120.0828619,"longitude":36.9745556},{"name":"Children's Place - Merced Mall","address":"713 Merced Mall Merced,\u00a0CA,\u00a095348","phone":"(209) 723-0630","latitude":-120.4838243,"longitude":37.3208019},{"name":"Children's Place - Great Mall of Bay Area","address":"401 Great Mall Drive Milpitas,\u00a0CA,\u00a095035","phone":"(408) 586-9270","latitude":-121.8977157,"longitude":37.4190511},{"name":"Children's Place - Shops @ Mission Viejo","address":"310a the Shops @ Mission Mission Viejo,\u00a0CA,\u00a092691","phone":"(949) 347-0423","latitude":-117.6677663,"longitude":33.5590737},{"name":"Children's Place - Vintage Faire","address":"3401 Dale Road Modesto,\u00a0CA,\u00a095356","phone":"(209) 523-6674","latitude":-121.0498496,"longitude":37.6872578},{"name":"Children's Place - Montclair Place","address":"5040 Montclair Plaza Lane Montclair,\u00a0CA,\u00a091763","phone":"(909) 482-0549","latitude":-117.6922715,"longitude":34.0897698},{"name":"Children's Place - Montebello Town Center","address":"2068 Montebello Town Cent Montebello,\u00a0CA,\u00a090640","phone":"(323) 721-3718","latitude":-118.0873934,"longitude":34.0365587},{"name":"Children's Place - Atlantic Square","address":"2160 South Atlantic Blvd Monterey Park,\u00a0CA,\u00a091754","phone":"(323) 888-0930","latitude":-118.1441159,"longitude":34.0380487},{"name":"Children's Place - Moreno Valley Mall","address":"22500 Town Circle Moreno Valley,\u00a0CA,\u00a092553","phone":"(951) 653-1925","latitude":-117.2713013,"longitude":33.9387359},{"name":"Children's Place - Plaza Bonita","address":"3030 Plaza Bonita National City,\u00a0CA,\u00a091950","phone":"(619) 479-9653","latitude":-117.0662836,"longitude":32.6568985},{"name":"Children's Place - Newpark Mall","address":"2086 Newpark Mall Newark,\u00a0CA,\u00a094560","phone":"(510) 402-0027","latitude":-122.0012751,"longitude":37.5264691},{"name":"Children's Place - Northridge Mall","address":"9301 Tampa Ave Northridge,\u00a0CA,\u00a091324","phone":"(818) 721-0008","latitude":-118.5562362,"longitude":34.2385732},{"name":"Children's Place - Ontario Mills","address":"4543 Mills Circle Ontario,\u00a0CA,\u00a091764","phone":"(909) 987-4133","latitude":-117.5533373,"longitude":34.0739708},{"name":"Children's Place - Outlets at Orange","address":"20 City Boulevard West Orange,\u00a0CA,\u00a092868","phone":"(714) 940-0375","latitude":-117.8922272,"longitude":33.7828653},{"name":"Children's Place - Westfield Palm Desert Shopping","address":"72-840 Highway 111 Palm Desert,\u00a0CA,\u00a092260","phone":"(760) 341-4247","latitude":-116.3941443,"longitude":33.7237417},{"name":"Children's Place - Panorama Mall","address":"8401 Van Nuys Blvd Panorama City,\u00a0CA,\u00a091402","phone":"(818) 891-8259","latitude":-118.449588,"longitude":34.2234066},{"name":"Children's Place - Stoneridge Mall","address":"1248 Stoneridge Mall Pleasanton,\u00a0CA,\u00a094588","phone":"(925) 734-8588","latitude":-121.9250071,"longitude":37.6938667},{"name":"Children's Place - Victoria Gardens","address":"12501 North Mainstreet Rancho Cucamonga,\u00a0CA,\u00a091739","phone":"(909) 463-0725","latitude":-117.532415,"longitude":34.111331},{"name":"Children's Place - Mt Shasta Mall","address":"900 Dana Drive Redding,\u00a0CA,\u00a096003","phone":"(530) 222-4788","latitude":-122.3555321,"longitude":40.5879323},{"name":"Children's Place - South Bay Galleria","address":"1815 Hawthorne Blvd Redondo Beach,\u00a0CA,\u00a090278","phone":"(310) 542-5428","latitude":-118.3547081,"longitude":33.8714439},{"name":"Children's Place - Galleria at Tyler","address":"1262 Galleria at Tyler Riverside,\u00a0CA,\u00a092503","phone":"(951) 687-8344","latitude":-117.4573503,"longitude":33.9096339},{"name":"Children's Place - Galleria @ Roseville","address":"1151 Galleria Blvd Roseville,\u00a0CA,\u00a095678","phone":"(916) 788-1444","latitude":-121.2692829,"longitude":38.7734416},{"name":"Children's Place - Arden Fair","address":"1689 Arden Way Sacramento,\u00a0CA,\u00a095815","phone":"(916) 564-8304","latitude":-121.4278631,"longitude":38.601511},{"name":"Children's Place - Northridge Mall","address":"724 Northridge Mall Salinas,\u00a0CA,\u00a093906","phone":"(831) 443-4167","latitude":-121.6579557,"longitude":36.718396},{"name":"Children's Place - Inland Center","address":"238 Inland Center Drive San Bernardino,\u00a0CA,\u00a092408","phone":"(909) 889-4624","latitude":-117.2945183,"longitude":34.0916936},{"name":"Children's Place - the Shops at Tanforan","address":"1150 El Camino Real San Bruno,\u00a0CA,\u00a094066","phone":"(650) 225-9226","latitude":-122.4187981,"longitude":37.6359},{"name":"Children's Place - Mission Valley","address":"1640 Camino Del Rio North San Diego,\u00a0CA,\u00a092108","phone":"(619) 295-1810","latitude":-117.1557736,"longitude":32.7659127},{"name":"Children's Place - University Town Center","address":"4505 La Jolla Village Dr San Diego,\u00a0CA,\u00a092122","phone":"(858) 866-0394","latitude":-117.2092816,"longitude":32.8723957},{"name":"Children's Place - Eastridge Mall","address":"2200 Eastridge Loop San Jose,\u00a0CA,\u00a095122","phone":"(408) 532-0197","latitude":-121.8138869,"longitude":37.3256131},{"name":"Children's Place - Oakridge Mall","address":"925 Blossom Hill Road San Jose,\u00a0CA,\u00a095123","phone":"(408) 227-9060","latitude":-121.8624492,"longitude":37.2515431},{"name":"Children's Place - Hillsdale Shopping Ctr","address":"394 Hillsdale Shoppingctr San Mateo,\u00a0CA,\u00a094403","phone":"(650) 525-0682","latitude":-122.3003946,"longitude":37.5376314},{"name":"Children's Place - Las Americas","address":"4155 Camino De La Plaza San Ysidro,\u00a0CA,\u00a092173","phone":"(619) 662-1994","latitude":-117.0433388,"longitude":32.5436074},{"name":"Children's Place - Main Place Santa Ana","address":"2800 N Main Street Santa Ana,\u00a0CA,\u00a092705","phone":"(714) 972-0246","latitude":-117.8674186,"longitude":33.7737648},{"name":"Children's Place - Valley Fair","address":"2855 Stevens Creek Blvd. Santa Clara,\u00a0CA,\u00a095050","phone":"(408) 241-9925","latitude":-121.9456152,"longitude":37.325845},{"name":"Children's Place - Santa Rosa Plaza","address":"1044a Santa Rosa Plaza Santa Rosa,\u00a0CA,\u00a095401","phone":"(707) 575-5461","latitude":-122.7174447,"longitude":38.4409063},{"name":"Children's Place - Westfield Fashion Square Mall","address":"14006 Riverside Mall Sherman Oaks,\u00a0CA,\u00a091423","phone":"(818) 285-0162","latitude":-118.4369927,"longitude":34.1565639},{"name":"Children's Place - Thousand Oaks","address":"190 West Hillcrest Drive Thousand Oaks,\u00a0CA,\u00a091360","phone":"(805) 449-1713","latitude":-118.8859963,"longitude":34.1823585},{"name":"Children's Place - West Valley Mall","address":"3200 North Nagle Rd Tracy,\u00a0CA,\u00a095304","phone":"(209) 221-7165","latitude":-121.4615526,"longitude":37.7599029},{"name":"Children's Place - the Mall of Victor Valley","address":"14400 Bear Valley Road Victorville,\u00a0CA,\u00a092392","phone":"(760) 245-5224","latitude":-117.3474669,"longitude":34.4733829},{"name":"Children's Place - Visalia Mall","address":"2031 South Mooney Blvd Visalia,\u00a0CA,\u00a093277","phone":"(559) 713-0747","latitude":-119.3147092,"longitude":36.31139539999999},{"name":"Children's Place - Plaza West Covina","address":"304 Plaza Drive West Covina,\u00a0CA,\u00a091790","phone":"(626) 962-0259","latitude":-117.9348115,"longitude":34.0718445},{"name":"Children's Place - Westminster Mall","address":"1104a Westminster Mall Westminster,\u00a0CA,\u00a092683","phone":"(714) 934-6411","latitude":-118.0133752,"longitude":33.7498295},{"name":"Children's Place - Yuba Sutter Mall","address":"1215 Colusa Avenue Yuba City,\u00a0CA,\u00a095991","phone":"(530) 674-8386","latitude":-121.6326775,"longitude":39.1442645},{"name":"Children's Place - the Southland","address":"6150 South Main Aurora,\u00a0CO,\u00a080016","phone":"(303) 766-1713","latitude":-104.7085818,"longitude":39.6048166},{"name":"Children's Place - Town Center at Aurora Mall","address":"14200 East Alameda Avenue Aurora,\u00a0CO,\u00a080012","phone":"(303) 364-1831","latitude":-104.8236271,"longitude":39.7107351},{"name":"Children's Place - Flatiron Crossing","address":"1 West Flatirone Circle Broomfield,\u00a0CO,\u00a080021","phone":"(720) 887-8013","latitude":-105.1314025,"longitude":39.9321113},{"name":"Children's Place - Outlets of Castle Rock","address":"5050 Factory Shops Blvd Castle Rock,\u00a0CO,\u00a080108","phone":"(720) 733-2935","latitude":-104.873549,"longitude":39.4154639},{"name":"Children's Place - Chapel Hills Mall","address":"1710 Briargate Blvd Colorado Springs,\u00a0CO,\u00a080920","phone":"(719) 592-1110","latitude":-104.794477,"longitude":38.9476978},{"name":"Children's Place - Front Range Village","address":"2721 Council Tree Avenue Fort Collins,\u00a0CO,\u00a080525","phone":"(970) 266-8204","latitude":-105.0260583,"longitude":40.5251207},{"name":"Children's Place - Mesa Mall","address":"2424 Hwy 6 & 50 Grand Junction,\u00a0CO,\u00a081505","phone":"(970) 243-1348","latitude":-108.6034802,"longitude":39.0951733},{"name":"Children's Place - Belmar","address":"369 South Teller Street Lakewood,\u00a0CO,\u00a080226","phone":"(303) 975-2600","latitude":-105.0769674,"longitude":39.7096718},{"name":"Children's Place - Southwest Plaza","address":"8501 W Bowles Ave Littleton,\u00a0CO,\u00a080123","phone":"(303) 973-0208","latitude":-105.093282,"longitude":39.6098077},{"name":"Children's Place - Park Meadows","address":"8401 Park Meadows Cnt Dr. Lone Tree,\u00a0CO,\u00a080124","phone":"(303) 792-2228","latitude":-104.8768483,"longitude":39.5631709},{"name":"Children's Place - the Shoppes @ Centerra","address":"5971 Sky Pond Drive Loveland,\u00a0CO,\u00a080538","phone":"(970) 667-0209","latitude":-104.9892825,"longitude":40.4145646},{"name":"Children's Place - Pueblo Mall","address":"3429 Dillion Road Pueblo,\u00a0CO,\u00a081008","phone":"(719) 545-1330","latitude":-104.6084871,"longitude":38.302577},{"name":"Children's Place - Thorncreek Crossing","address":"1181 E. 120th Ave Thornton,\u00a0CO,\u00a080233","phone":"(303) 254-7798","latitude":-104.9727156,"longitude":39.9164538},{"name":"Children's Place - Branhaven Plaza","address":"1027 W. Main Street Branford,\u00a0CT,\u00a006405","phone":"(203) 481-5667","latitude":-72.8321709,"longitude":41.2751956},{"name":"Children's Place - Danbury Fair","address":"7 Backus Avenue Danbury,\u00a0CT,\u00a006810","phone":"(203) 791-0203","latitude":-73.4817327,"longitude":41.3800517},{"name":"Children's Place - West Farms Shopping Center","address":"1600 Southeast Road Farmington,\u00a0CT,\u00a006032","phone":"(860) 678-0550","latitude":-72.7654773,"longitude":41.7161518},{"name":"Children's Place - Charter Oak Marketplace","address":"495 Flatbush Avenue Hartford,\u00a0CT,\u00a006106","phone":"(860) 953-1191","latitude":-72.7123968,"longitude":41.7407806},{"name":"Children's Place - the Shoppes at Buckland Hills","address":"194 Buckland Hills Dr. Manchester,\u00a0CT,\u00a006042","phone":"(860) 644-7557","latitude":-72.5459,"longitude":41.80687},{"name":"Children's Place - Meriden Square","address":"470 Lewis Ave Meriden,\u00a0CT,\u00a006451","phone":"(203) 634-3970","latitude":-72.80785759999999,"longitude":41.55088980000001},{"name":"Children's Place - Connecticut Post Mall","address":"1201 Boston Post Road Milford,\u00a0CT,\u00a006460","phone":"(203) 877-1538","latitude":-73.0362329,"longitude":41.236614},{"name":"Children's Place - Darinor Plaza","address":"500 Connecticut Ave. Norwalk,\u00a0CT,\u00a006854","phone":"(203) 838-4772","latitude":-73.4444694,"longitude":41.0992468},{"name":"Children's Place - Trumbull Shopping Pard","address":"5065 Main Street Trumbull,\u00a0CT,\u00a006611","phone":"(203) 372-0430","latitude":-73.226474,"longitude":41.2293532},{"name":"Children's Place - Brass Mills Center","address":"495 Union Street Waterbury,\u00a0CT,\u00a006706","phone":"(203) 597-9860","latitude":-73.024568,"longitude":41.548914},{"name":"Children's Place - Tanger Outlets Westbrook","address":"314 Flat Rock Place Westbrook,\u00a0CT,\u00a006498","phone":"(860) 399-6718","latitude":-72.4293689,"longitude":41.2891184},{"name":"Children's Place - Dc Usa","address":"3100 14th St Nw Washington,\u00a0DC,\u00a020010","phone":"(202) 518-7147","latitude":-77.0331937,"longitude":38.92959099999999},{"name":"Children's Place - Dover Mall","address":"1088 Dover Mall Dover,\u00a0DE,\u00a019901","phone":"(302) 736-8130","latitude":-75.540483,"longitude":39.194555},{"name":"Children's Place - Tanger Outlets Seaside","address":"36461 Seaside Outlet Dr Rehoboth Beach,\u00a0DE,\u00a019971","phone":"(302) 226-2874","latitude":-75.1120725,"longitude":38.7183917},{"name":"Children's Place - Concord Mall","address":"4737 Concord Pike Wilmington,\u00a0DE,\u00a019803","phone":"(302) 478-7121","latitude":-75.5439358,"longitude":39.8228644},{"name":"Children's Place - Altamonte Mall","address":"451 East Altamonte Dr. Altamonte Springs,\u00a0FL,\u00a032701","phone":"(407) 339-7511","latitude":-81.377079,"longitude":28.663915},{"name":"Children's Place - Brandon Town Center","address":"592 Brandon Towncenter Brandon,\u00a0FL,\u00a033511","phone":"(813) 681-1322","latitude":-82.3276104,"longitude":27.9296455},{"name":"Children's Place - Countryside Mall","address":"27001 Us Hwy 19 North Clearwater,\u00a0FL,\u00a033761","phone":"(727) 725-2160","latitude":-82.7342675,"longitude":28.0173889},{"name":"Children's Place - Coral Square Mall","address":"9319 W. Atlantic Blvd. Coral Springs,\u00a0FL,\u00a033071","phone":"(954) 340-7012","latitude":-80.2513263,"longitude":26.2396647},{"name":"Children's Place - Delray Marketplace","address":"9097 Atlantic Avenue Delray Beach,\u00a0FL,\u00a033446","phone":"(561) 495-5758","latitude":-80.1893326,"longitude":26.4550403},{"name":"Children's Place - Silver Sands Factory Outlet","address":"10676 Emerald Coast Pkwy Destin,\u00a0FL,\u00a032550","phone":"(850) 654-7145","latitude":-86.35813739999999,"longitude":30.38186319999999},{"name":"Children's Place - Ellenton Premium Outlets","address":"5233 Factory Shops Blvd Ellenton,\u00a0FL,\u00a034222","phone":"(941) 721-3085","latitude":-82.5077079,"longitude":27.535696},{"name":"Children's Place - Edison Mall","address":"4125 Cleveland Ave Fort Myers,\u00a0FL,\u00a033901","phone":"(239) 278-5150","latitude":-81.869709,"longitude":26.600845},{"name":"Children's Place - the Oaks Mall","address":"6277 Newberry Road Gainesville,\u00a0FL,\u00a032605","phone":"(352) 331-0004","latitude":-82.4110462,"longitude":29.65672409999999},{"name":"Children's Place - Westland Mall","address":"1665 West 49th Street Hialeah,\u00a0FL,\u00a033012","phone":"(305) 825-0868","latitude":-80.3184594,"longitude":25.8681704},{"name":"Children's Place - Sheridan Plaza","address":"5087 Sheridan Street Hollywood,\u00a0FL,\u00a033021","phone":"(954) 987-0220","latitude":-80.1953546,"longitude":26.0326809},{"name":"Children's Place - the Avenues Mall","address":"10300 Southside Blvd. Jacksonville,\u00a0FL,\u00a032256","phone":"(904) 519-0131","latitude":-81.5537492,"longitude":30.1860323},{"name":"Children's Place - Lakeland Square","address":"3800 Us Highway 98 North Lakeland,\u00a0FL,\u00a033809","phone":"(863) 816-7998","latitude":-81.9781309,"longitude":28.0914616},{"name":"Children's Place - Melbourne Square","address":"1700 West New Haven Ave Melbourne,\u00a0FL,\u00a032904","phone":"(321) 722-9025","latitude":-80.6494748,"longitude":28.0815917},{"name":"Children's Place - 118 East Flagler Street","address":"118 East Flagler Street Miami,\u00a0FL,\u00a033131","phone":"(305) 416-6130","latitude":-80.19146099999999,"longitude":25.7739548},{"name":"Children's Place - Flagler Park Plaza","address":"8307 W. Flagler Street Nw Miami,\u00a0FL,\u00a033144","phone":"(305) 266-1930","latitude":-80.3282522,"longitude":25.7698108},{"name":"Children's Place - Kendall Mall","address":"8951 Sw 107th Avenue Miami,\u00a0FL,\u00a033176","phone":"(305) 598-8540","latitude":-80.3659503,"longitude":25.6857581},{"name":"Children's Place - Miami International Mall","address":"1455 Nw 107th Ave. Miami,\u00a0FL,\u00a033172","phone":"(305) 718-8727","latitude":-80.3686474,"longitude":25.7871835},{"name":"Children's Place - Southland Mall","address":"20505 South Dixie Highway Miami,\u00a0FL,\u00a033189","phone":"(305) 251-9860","latitude":-80.3689995,"longitude":25.5746699},{"name":"Children's Place - Coastland Center","address":"1822 Tamiami Trail North Naples,\u00a0FL,\u00a034102","phone":"(239) 434-9886","latitude":-81.7973526,"longitude":26.1693979},{"name":"Children's Place - West Oaks Mall","address":"9401 West Colonial Ocoee,\u00a0FL,\u00a034761","phone":"(407) 521-4500","latitude":-81.5151559,"longitude":28.5518911},{"name":"Children's Place - Orange Park Mall","address":"1910 Wells Road Orange Park,\u00a0FL,\u00a032073","phone":"(904) 213-8007","latitude":-81.73565289999999,"longitude":30.1847281},{"name":"Children's Place - Orlando Premium Outlets","address":"4967 International Dr Orlando,\u00a0FL,\u00a032819","phone":"(407) 226-8610","latitude":-81.45018499999999,"longitude":28.475977},{"name":"Children's Place - the Florida Mall","address":"8001 S Orange Blossom Ter Orlando,\u00a0FL,\u00a032809","phone":"(407) 438-8770","latitude":-81.398841,"longitude":28.4554186},{"name":"Children's Place - Oviedo Marketplace","address":"1210 Oviedo Marketpl Blvd Oviedo,\u00a0FL,\u00a032765","phone":"(407) 365-8776","latitude":-81.23467839999999,"longitude":28.6630649},{"name":"Children's Place - Pembroke Lakes Mall","address":"11401 Pines Blvd Pembroke Pines,\u00a0FL,\u00a033026","phone":"(954) 450-9497","latitude":-80.30461369999999,"longitude":26.0105739},{"name":"Children's Place - Tyrone Square","address":"6901 22nd Ave. North Saint Petersburg,\u00a0FL,\u00a033710","phone":"(727) 343-0104","latitude":-82.7333945,"longitude":27.7936617},{"name":"Children's Place - Seminole Towne Center","address":"263 Towne Center Ci Sanford,\u00a0FL,\u00a032771","phone":"(407) 324-0442","latitude":-81.3394495,"longitude":28.8050278},{"name":"Children's Place - Sarasota Square","address":"8201 S Tamiami Trail Sarasota,\u00a0FL,\u00a034238","phone":"(941) 927-2440","latitude":-82.49307440000001,"longitude":27.2346654},{"name":"Children's Place - Sawgrass Mills","address":"12801 W. Sunrise Blvd. Sunrise,\u00a0FL,\u00a033323","phone":"(954) 835-1122","latitude":-80.3225992,"longitude":26.154755},{"name":"Children's Place - Governors Square","address":"1500 Apalachee Pkwy Tallahassee,\u00a0FL,\u00a032301","phone":"(850) 219-8142","latitude":-84.2535477,"longitude":30.4373197},{"name":"Children's Place - Citrus Park Town Center","address":"8053 Citrus Park Tampa,\u00a0FL,\u00a033625","phone":"(813) 792-2123","latitude":-82.5714151,"longitude":28.0662281},{"name":"Children's Place - West Shore Plaza","address":"181 West Shore Plaza Tampa,\u00a0FL,\u00a033609","phone":"(813) 288-0640","latitude":-82.5280746,"longitude":27.9467631},{"name":"Children's Place - Shoppes at University Center","address":"8127 Cooper Creek Boulevard University Park,\u00a0FL,\u00a034201","phone":"(941) 351-2769","latitude":-82.45178399999999,"longitude":27.3902505},{"name":"Children's Place - Vero Beach Outlet","address":"1683\/1685 94th Drive Vero Beach,\u00a0FL,\u00a032966","phone":"(772) 563-0200","latitude":-80.5229607,"longitude":27.6390773},{"name":"Children's Place - the Shops at Wiregrass","address":"28152 Paseo Drive Wesley Chapel,\u00a0FL,\u00a033543","phone":"(813) 994-2076","latitude":-82.35021239999999,"longitude":28.1874122},{"name":"Children's Place - Palm Beach Outlet","address":"1751 Palm Beach Lakes Boulevar West Palm Beach,\u00a0FL,\u00a033401","phone":"(561) 687-9388","latitude":-80.0863657,"longitude":26.7251655},{"name":"Children's Place - Lakeside Marketplace","address":"3384 Cobb Parkway Acworth,\u00a0GA,\u00a030101","phone":"(678) 574-9885","latitude":-84.6857431,"longitude":34.0384465},{"name":"Children's Place - Albany Mall","address":"2601 Dawson Road Albany,\u00a0GA,\u00a031707","phone":"(229) 438-2647","latitude":-84.21674449999999,"longitude":31.6180573},{"name":"Children's Place - North Point Mall","address":"2034 North Point Circle Alpharetta,\u00a0GA,\u00a030022","phone":"(770) 521-9065","latitude":-84.2968733,"longitude":34.0501557},{"name":"Children's Place - Georgia Square Mall","address":"3700 Atlanta Highway Athens,\u00a0GA,\u00a030606","phone":"(706) 548-4720","latitude":-83.4675771,"longitude":33.9439705},{"name":"Children's Place - Cumberland Mall","address":"2860 Cumberland Mall Se Atlanta,\u00a0GA,\u00a030339","phone":"(770) 435-6112","latitude":-84.468664,"longitude":33.880363},{"name":"Children's Place - Augusta Mall","address":"1036 Augusta Mall Augusta,\u00a0GA,\u00a030909","phone":"(706) 481-8915","latitude":-82.07967760000001,"longitude":33.4635443},{"name":"Children's Place - Mall of Georgia","address":"3333 Buford Drive Buford,\u00a0GA,\u00a030519","phone":"(678) 482-6240","latitude":-83.982806,"longitude":34.0642698},{"name":"Children's Place - Calhoun Premium Outlets","address":"455 Belwood Road Calhoun,\u00a0GA,\u00a030701","phone":"(706) 625-1023","latitude":-84.9173024,"longitude":34.4611377},{"name":"Children's Place - Canton Marketplace","address":"1810 Cumming Highway Canton,\u00a0GA,\u00a030115","phone":"(678) 880-1495","latitude":-84.4573025,"longitude":34.2356426},{"name":"Children's Place - Mcintosh","address":"1109 South Park Street Carrollton,\u00a0GA,\u00a030117","phone":"(770) 834-7088","latitude":-85.0754583,"longitude":33.5594925},{"name":"Children's Place - Peachtree Mall","address":"3507 Manchester Expresswy Columbus,\u00a0GA,\u00a031909","phone":"(706) 321-1067","latitude":-84.9398578,"longitude":32.5100265},{"name":"Children's Place - Commerce Tanger Outlet Center","address":"800 Steven B. Tanger Blvd Commerce,\u00a0GA,\u00a030529","phone":"(706) 335-6679","latitude":-83.4739393,"longitude":34.2499499},{"name":"Children's Place - Walnut Square","address":"816 Walnut Sq Blvd Dalton,\u00a0GA,\u00a030721","phone":"(706) 278-0112","latitude":-84.933418,"longitude":34.7595072},{"name":"Children's Place - North Ga Premium Outlets","address":"800 Hwy 400 S\/dawson Frst Dawsonville,\u00a0GA,\u00a030534","phone":"(706) 429-0060","latitude":-84.0481059,"longitude":34.3568802},{"name":"Children's Place - Arbor Place Mall","address":"1420 Arbor Place Mall Douglasville,\u00a0GA,\u00a030135","phone":"(678) 838-9443","latitude":-84.7440046,"longitude":33.7279145},{"name":"Children's Place - Village Shoppes of Gainesville","address":"859 Dawsonville Highway Gainesville,\u00a0GA,\u00a030501","phone":"(770) 534-3246","latitude":-83.8529788,"longitude":34.2955948},{"name":"Children's Place - Town Center at Cobb","address":"400 Ernest w.barrett Pkwy Kennesaw,\u00a0GA,\u00a030144","phone":"(770) 792-1996","latitude":-84.5642654,"longitude":34.018009},{"name":"Children's Place - La Grange Mall","address":"1501 Lafayette Parkway Lagrange,\u00a0GA,\u00a030241","phone":"(706) 883-7402","latitude":-84.98154,"longitude":33.0440988},{"name":"Children's Place - Sugarloaf Mills","address":"5900 Sugarloaf Parkway Lawrenceville,\u00a0GA,\u00a030043","phone":"(678) 847-5020","latitude":-84.08078809999999,"longitude":33.9808374},{"name":"Children's Place - Mall @ Stonecrest","address":"2929 Turner Hill Rd Lithonia,\u00a0GA,\u00a030038","phone":"(770) 484-4498","latitude":-84.0887916,"longitude":33.6991241},{"name":"Children's Place - Tanger Outlets Locust Grove","address":"1000 Tanger Drive Locust Grove,\u00a0GA,\u00a030248","phone":"(770) 954-3095","latitude":-84.1223333,"longitude":33.3483423},{"name":"Children's Place - Shoppes at River Crossing","address":"5080 Riverside Drive Macon,\u00a0GA,\u00a031210","phone":"(478) 471-9238","latitude":-83.71510549999999,"longitude":32.9250006},{"name":"Children's Place - Southlake Mall","address":"1238 Southlake Mall Morrow,\u00a0GA,\u00a030260","phone":"(678) 422-3670","latitude":-84.3503234,"longitude":33.575158},{"name":"Children's Place - the Avenue @ Peachtree City","address":"226 City Circle Peachtree City,\u00a0GA,\u00a030269","phone":"(678) 364-0021","latitude":-84.592322,"longitude":33.3949156},{"name":"Children's Place - Tanger Outlets Savannah","address":"200 Tanger Outlet Boulevard Pooler,\u00a0GA,\u00a031322","phone":"(912) 450-7660","latitude":-81.2433679,"longitude":32.1343987},{"name":"Children's Place - Mount Berry Square","address":"2770 Marta Berry Blvd Rome,\u00a0GA,\u00a030165","phone":"(706) 232-1066","latitude":-85.1714539,"longitude":34.301784},{"name":"Children's Place - Oglethorpe Mall","address":"7804 Abercorn Street Savannah,\u00a0GA,\u00a031406","phone":"(912) 691-0706","latitude":-81.11703050000001,"longitude":32.0026394},{"name":"Children's Place - the Shoppes at Webb Gin","address":"1350 Scenic Highway Snellville,\u00a0GA,\u00a030078","phone":"(678) 344-3067","latitude":-84.00442199999999,"longitude":33.8994825},{"name":"Children's Place - Statesboro Mall","address":"325 Northside Drive East Statesboro,\u00a0GA,\u00a030458","phone":"(912) 489-4990","latitude":-81.7623785,"longitude":32.4358521},{"name":"Children's Place - Tifton Mall","address":"458 Virginia Ave North Tifton,\u00a0GA,\u00a031794","phone":"(229) 388-8346","latitude":-83.5284125,"longitude":31.4607056},{"name":"Children's Place - Colonial Mall @ Valdosta","address":"1700 Norman Drive Valdosta,\u00a0GA,\u00a031601","phone":"(229) 245-8830","latitude":-83.3206399,"longitude":30.8436225},{"name":"Children's Place - Outlet Shoppes of Atlanta","address":"915 Ridgewalk Parkway Woodstock,\u00a0GA,\u00a030188","phone":"(770) 516-2763","latitude":-84.5264395,"longitude":34.1202008},{"name":"Children's Place - Pearlridge Center","address":"98-1005 Moanalua Aiea,\u00a0HI,\u00a096701","phone":"(808) 487-6740","latitude":-157.9400345,"longitude":21.3856799},{"name":"Children's Place - Lindale Mall","address":"4444 1st Avenue Ne Cedar Rapids,\u00a0IA,\u00a052402","phone":"(319) 393-3227","latitude":-91.6272126,"longitude":42.0255179},{"name":"Children's Place - Coral Ridge Mall","address":"1451 Coral Ridge Avenue Coralville,\u00a0IA,\u00a052241","phone":"(319) 351-2488","latitude":-91.6052831,"longitude":41.690327},{"name":"Children's Place - Mall of the Bluffs","address":"1751 Madison Ave Council Bluffs,\u00a0IA,\u00a051503","phone":"(712) 388-9037","latitude":-95.8266178,"longitude":41.245025},{"name":"Children's Place - Northpark Mall","address":"320 West Kimberly Road Davenport,\u00a0IA,\u00a052806","phone":"(563) 386-3296","latitude":-90.57560529999999,"longitude":41.5633732},{"name":"Children's Place - Merle Hay Mall","address":"3800 Merle Hay Road Des Moines,\u00a0IA,\u00a050310","phone":"(515) 276-4613","latitude":-93.70114989999999,"longitude":41.6314163},{"name":"Children's Place - Kennedy Mall","address":"555 Jfk Road Dubuque,\u00a0IA,\u00a052002","phone":"(563) 557-2330","latitude":-90.720936,"longitude":42.4940345},{"name":"Children's Place - Southern Hills Mall","address":"4400 Sergeant Road Sioux City,\u00a0IA,\u00a051106","phone":"(712) 276-4152","latitude":-96.353217,"longitude":42.4463702},{"name":"Children's Place - Crossroads Center","address":"2060 Crossroads Blvd Waterloo,\u00a0IA,\u00a050702","phone":"(319) 233-0416","latitude":-92.322946,"longitude":42.46205579999999},{"name":"Children's Place - Jordan Creek Town Center","address":"101 Jordan Creek Pkwy West Des Moines,\u00a0IA,\u00a050266","phone":"(515) 226-0007","latitude":-93.80703919999999,"longitude":41.5702624},{"name":"Children's Place - Valley West Mall","address":"1551 Valley West Drive West Des Moines,\u00a0IA,\u00a050266","phone":"(515) 267-0148","latitude":-93.74897659999999,"longitude":41.5995333},{"name":"Children's Place - Boise Towne Square","address":"350 N Milwaukee Boise,\u00a0ID,\u00a083704","phone":"(208) 658-9363","latitude":-116.2794185,"longitude":43.6085179},{"name":"Children's Place - Grand Teton Mall","address":"2300 East 17th Street Idaho Falls,\u00a0ID,\u00a083404","phone":"(208) 522-0690","latitude":-111.987959,"longitude":43.4798084},{"name":"Children's Place - Treasure Valley Marketplace","address":"16465 N. Marketplace Blvd Nampa,\u00a0ID,\u00a083687","phone":"(208) 466-7333","latitude":-116.59169,"longitude":43.611786},{"name":"Children's Place - Magic Valley Mall","address":"1485 Pole Line Road E Twin Falls,\u00a0ID,\u00a083301","phone":"(208) 736-3908","latitude":-114.4573906,"longitude":42.59257119999999},{"name":"Children's Place - Algonquin Commons","address":"1928 South Randall Road Algonquin,\u00a0IL,\u00a060156","phone":"(847) 854-2961","latitude":-88.33582969999999,"longitude":42.1483078},{"name":"Children's Place - Chicago Premium Outlets","address":"1650 Premium Outlets Blvd Aurora,\u00a0IL,\u00a060502","phone":"(630) 898-0747","latitude":-88.2739699,"longitude":41.800478},{"name":"Children's Place - Fox Valley Shopping Center","address":"2200 Fox Valley Mall Dr. Aurora,\u00a0IL,\u00a060504","phone":"(630) 499-7216"},{"name":"Children's Place - Stratford Square","address":"211 Stratford Square Bloomingdale,\u00a0IL,\u00a060108","phone":"(630) 980-4360","latitude":-88.1156037,"longitude":41.9481909},{"name":"Children's Place - the Promenade at Bolingbrook","address":"635 East Boughton Road Bolingbrook,\u00a0IL,\u00a060440","phone":"(630) 972-2234","latitude":-88.0412757,"longitude":41.7182713},{"name":"Children's Place - River Oaks Shopping Center","address":"115 River Oaks Center Calumet City,\u00a0IL,\u00a060409","phone":"(708) 730-9082","latitude":-87.5550074,"longitude":41.5955851},{"name":"Children's Place - University Mall","address":"1237 East Main Street Carbondale,\u00a0IL,\u00a062901","phone":"(618) 457-2707","latitude":-89.19166659999999,"longitude":37.729709},{"name":"Children's Place - Market Place Mall","address":"2000 N Neil St Champaign,\u00a0IL,\u00a061820","phone":"(217) 356-3817","latitude":-88.24293039999999,"longitude":40.14233189999999},{"name":"Children's Place - Chatham Village","address":"712 East 87th Street Chicago,\u00a0IL,\u00a060619","phone":"(773) 874-1710","latitude":-87.60586699999999,"longitude":41.737091},{"name":"Children's Place - Ford City Mall","address":"7601 South Cicero Ave. Chicago,\u00a0IL,\u00a060652","phone":"(773) 284-8254","latitude":-87.7333881,"longitude":41.7535595},{"name":"Children's Place - Marshfield Plaza","address":"11606 S. Marshfield Ave Chicago,\u00a0IL,\u00a060643","phone":"(773) 928-2420","latitude":-87.6638915,"longitude":41.6833225},{"name":"Children's Place - Chicago Ridge Mall","address":"444 Chicago Ridge Mall Chicago Ridge,\u00a0IL,\u00a060415","phone":"(708) 952-9193","latitude":-87.7825411,"longitude":41.7155579},{"name":"Children's Place - St Clair Square","address":"134 St. Clair Square Fairview Heights,\u00a0IL,\u00a062208","phone":"(618) 628-6948","latitude":-89.980232,"longitude":38.596053},{"name":"Children's Place - Geneva Commons","address":"218 Commons Drive Geneva,\u00a0IL,\u00a060134","phone":"(630) 208-1097","latitude":-88.343886,"longitude":41.891493},{"name":"Children's Place - Gurnee Mills","address":"6170 West Grand Ave. Gurnee,\u00a0IL,\u00a060031","phone":"(847) 856-8401","latitude":-87.9551966,"longitude":42.3834168},{"name":"Children's Place - Louis Joliet Mall","address":"3340 Mall Loop Drive 1249 Joliet,\u00a0IL,\u00a060431","phone":"(815) 609-9093","latitude":-88.1652998,"longitude":41.575824},{"name":"Children's Place - Shops at Kildeer","address":"20505 North Rand Road Kildeer,\u00a0IL,\u00a060047","phone":"(847) 550-1603","latitude":-88.0502808,"longitude":42.1624839},{"name":"Children's Place - Lincolnwood Town Center","address":"3333 West Touhy Avenue Lincolnwood,\u00a0IL,\u00a060712","phone":"(847) 674-3311","latitude":-87.71398649999999,"longitude":42.00996},{"name":"Children's Place - Yorktown Shopping Center","address":"135 Yorktown Center Lombard,\u00a0IL,\u00a060148","phone":"(630) 932-7413","latitude":-88.0109707,"longitude":41.8398015},{"name":"Children's Place - South Park Mall","address":"4500 16th St. Moline,\u00a0IL,\u00a061265","phone":"(309) 764-5729","latitude":-90.5036538,"longitude":41.466283},{"name":"Children's Place - Randhurst Village Shop Center","address":"98 Randhurst Drive Mount Prospect,\u00a0IL,\u00a060056","phone":"(847) 590-9850","latitude":-87.9329323,"longitude":42.0845341},{"name":"Children's Place - Golf Mill","address":"350 Golf Mill Center Niles,\u00a0IL,\u00a060714","phone":"(847) 297-9250","latitude":-87.8368812,"longitude":42.04991830000001},{"name":"Children's Place - College Hills","address":"305 Veterans Parkway Normal,\u00a0IL,\u00a061761","phone":"(309) 862-2184","latitude":-88.95724539999999,"longitude":40.5068583},{"name":"Children's Place - Harlem-Irving Plaza","address":"Harlem-Irving Plaza Norridge,\u00a0IL,\u00a060706","phone":"(708) 456-4075","latitude":-87.8089127,"longitude":41.95521859999999},{"name":"Children's Place - North Riverside Park","address":"7501 West Cermak Road North Riverside,\u00a0IL,\u00a060546","phone":"(708) 442-0220","latitude":-87.80951,"longitude":41.846098},{"name":"Children's Place - Orland Square Mall","address":"828 Orland Square Center Orland Park,\u00a0IL,\u00a060462","phone":"(708) 460-3350","latitude":-87.8439819,"longitude":41.6168254},{"name":"Children's Place - Northwoods","address":"2200 W. War Memorial Drive Peoria,\u00a0IL,\u00a061613","phone":"(309) 685-7317","latitude":-89.62852079999999,"longitude":40.7399472},{"name":"Children's Place - Quincy Mall","address":"3372 Quincy Mall Quincy,\u00a0IL,\u00a062301","phone":"(217) 223-7390","latitude":-91.36139490000001,"longitude":39.9372286},{"name":"Children's Place - River Forest Town Center","address":"7335 Lake Street Unit 3 River Forest,\u00a0IL,\u00a060305","phone":"(708) 366-2390","latitude":-87.8080725,"longitude":41.88796869999999},{"name":"Children's Place - Cherry Vale Mall","address":"7200 Harrison Ave Rockford,\u00a0IL,\u00a061112","phone":"(815) 332-8782","latitude":-88.9756194,"longitude":42.2460425},{"name":"Children's Place - Fashion Outlets of Chicago","address":"5220 Fashion Outlets Way Rosemont,\u00a0IL,\u00a060018","phone":"(847) 678-8036","latitude":-87.8659742,"longitude":41.9754926},{"name":"Children's Place - White Oaks","address":"2501 Wabash Avenue Springfield,\u00a0IL,\u00a062704","phone":"(217) 698-8914","latitude":-89.7037216,"longitude":39.765743},{"name":"Children's Place - Hawthorn Center","address":"226 Hawthorn Center Vernon Hills,\u00a0IL,\u00a060061","phone":"(847) 816-3420","latitude":-87.94712849999999,"longitude":42.24128270000001},{"name":"Children's Place - Spring Hill Mall","address":"1542 Spring Hill Mall West Dundee,\u00a0IL,\u00a060118","phone":"(847) 844-1220","latitude":-88.2965388,"longitude":42.1004065},{"name":"Children's Place - College Mall","address":"2894 East Third Street Bloomington,\u00a0IN,\u00a047401","phone":"(812) 339-2842","latitude":-86.4938971,"longitude":39.1616277},{"name":"Children's Place - Edinburgh Premium Outlets","address":"11875 Ne Executive Drive Edinburgh,\u00a0IN,\u00a046124","phone":"(812) 526-4169","latitude":-85.96015729999999,"longitude":39.3123072},{"name":"Children's Place - Eastland Mall-In","address":"800 North Green River Rd. Evansville,\u00a0IN,\u00a047715","phone":"(812) 475-8570","latitude":-87.4960356,"longitude":37.9839977},{"name":"Children's Place - Glenbrook Square","address":"4201 Coldwater Road Fort Wayne,\u00a0IN,\u00a046805","phone":"(260) 482-8664","latitude":-85.1392108,"longitude":41.1152068},{"name":"Children's Place - the Outlet Shoppes at Fremont","address":"6425 North Old 27 Fremont,\u00a0IN,\u00a046737","phone":"(260) 833-9279","latitude":-85.0024825,"longitude":41.734945},{"name":"Children's Place - Greenwood Park","address":"1251 Us 31 North Greenwood,\u00a0IN,\u00a046142","phone":"(317) 882-0553","latitude":-86.12345049999999,"longitude":39.6309859},{"name":"Children's Place - Castleton Square","address":"6020 E 82nd Street Indianapolis,\u00a0IN,\u00a046250","phone":"(317) 570-0106","latitude":-86.0648858,"longitude":39.9089326},{"name":"Children's Place - Circle Center Mall","address":"49 W Maryland St Indianapolis,\u00a0IN,\u00a046204","phone":"(317) 917-1483","latitude":-86.15915969999999,"longitude":39.765012},{"name":"Children's Place - Markland Mall","address":"1114 S. 17th Street Kokomo,\u00a0IN,\u00a046902","phone":"(765) 868-8067","latitude":-86.1094523,"longitude":40.4736719},{"name":"Children's Place - Tippecanoe Mall","address":"2415 Sagamore Pkwy South Lafayette,\u00a0IN,\u00a047905","phone":"(765) 449-1836","latitude":-86.84997580000001,"longitude":40.3916997},{"name":"Children's Place - Southlake Mall","address":"1922 Southlake Mall Merrillville,\u00a0IN,\u00a046410","phone":"(219) 769-6437","latitude":-87.31064769999999,"longitude":41.4664511},{"name":"Children's Place - Lighthouse Place","address":"601 Wabash Street Michigan City,\u00a0IN,\u00a046360","phone":"(219) 872-0468","latitude":-86.90519359999999,"longitude":41.7152677},{"name":"Children's Place - University Park Mall","address":"6501 N Grape Road Mishawaka,\u00a0IN,\u00a046545","phone":"(574) 277-8514","latitude":-86.19101239999999,"longitude":41.71949},{"name":"Children's Place - Muncie Mall","address":"3501 N Granville Ave Muncie,\u00a0IN,\u00a047303","phone":"(765) 287-8536","latitude":-85.37834749999999,"longitude":40.2194167},{"name":"Children's Place - Hamilton Town Center","address":"13971 Town Center Blvd Noblesville,\u00a0IN,\u00a046060","phone":"(317) 770-1280","latitude":-85.93190709999999,"longitude":39.9924415},{"name":"Children's Place - the Shops at Perry Crossing","address":"351 Market Place Mile Plainfield,\u00a0IN,\u00a046168","phone":"(317) 839-7310","latitude":-86.358836,"longitude":39.712292},{"name":"Children's Place - Honey Creek Mall","address":"3401 S Us Hwy 41 Terre Haute,\u00a0IN,\u00a047802","phone":"(812) 478-1060","latitude":-87.4162448,"longitude":39.4245507},{"name":"Children's Place - Valparaiso Marketplace","address":"2410 Laporte Avenue Valparaiso,\u00a0IN,\u00a046383","phone":"(219) 464-0644","latitude":-87.03112829999999,"longitude":41.4669251},{"name":"Children's Place - Manhattan Town Center","address":"100 Manhattan Center Manhattan,\u00a0KS,\u00a066502","phone":"(785) 539-4998","latitude":-96.5601616,"longitude":39.1793207},{"name":"Children's Place - Oak Park Mall","address":"11215 W 95th. Street Overland Park,\u00a0KS,\u00a066214","phone":"(913) 492-7411","latitude":-94.7175338,"longitude":38.9564683},{"name":"Children's Place - West Ridge Mall","address":"1801 Sw Wanamaker Topeka,\u00a0KS,\u00a066604","phone":"(785) 271-4480","latitude":-95.76202649999999,"longitude":39.034512},{"name":"Children's Place - New Market Square","address":"2441 North Maize Road Wichita,\u00a0KS,\u00a067205","phone":"(316) 721-2369","latitude":-97.4665733,"longitude":37.7277993},{"name":"Children's Place - Towne East Square","address":"7700 E. Kellogg Wichita,\u00a0KS,\u00a067207","phone":"(316) 684-8555","latitude":-97.24709949999999,"longitude":37.6834039},{"name":"Children's Place - Ashland Town Center","address":"500 Winchester Ave Ashland,\u00a0KY,\u00a041101","phone":"(606) 326-0403","latitude":-82.6534111,"longitude":38.48383700000001},{"name":"Children's Place - Greenwood Mall","address":"2625 Scotsville Road Bowling Green,\u00a0KY,\u00a042104","phone":"(270) 393-8241","latitude":-86.4303846,"longitude":36.9507578},{"name":"Children's Place - Crestview Hills Twn Center","address":"2828 Town Center Blvd Crestview Hills,\u00a0KY,\u00a041017","phone":"(859) 331-7600","latitude":-84.57745489999999,"longitude":39.0257986},{"name":"Children's Place - the Towne Mall","address":"1704 North Dixie Hwy Elizabethtown,\u00a0KY,\u00a042701","phone":"(270) 769-0747","latitude":-85.88864439999999,"longitude":37.731735},{"name":"Children's Place - Florence Mall","address":"Mall Road Florence,\u00a0KY,\u00a041042","phone":"(859) 525-6164","latitude":-84.6517585,"longitude":38.9921078},{"name":"Children's Place - Parkside Center","address":"7800 John Davis Drive Frankfort,\u00a0KY,\u00a040601","phone":"(502) 234-5134","latitude":-84.8208618,"longitude":38.1758139},{"name":"Children's Place - Fayette Mall","address":"3473 Nicholasville Road Lexington,\u00a0KY,\u00a040503","phone":"(859) 245-9127","latitude":-84.5283274,"longitude":37.9884074},{"name":"Children's Place - Hamburg Pavillion","address":"2312 Sir Barton Way Lexington,\u00a0KY,\u00a040509","phone":"(859) 543-8320","latitude":-84.42231369999999,"longitude":38.02364840000001},{"name":"Children's Place - Jefferson Mall","address":"4801 Outer Loop Louisville,\u00a0KY,\u00a040219","phone":"(502) 964-3803","latitude":-85.6706973,"longitude":38.1418503},{"name":"Children's Place - Mall at St. Matthews","address":"5000 Shelbyville Road Louisville,\u00a0KY,\u00a040207","phone":"(502) 895-2249","latitude":-85.62420000000002,"longitude":38.250196},{"name":"Children's Place - Paddock Shops","address":"4134 Summit Pl Dr Louisville,\u00a0KY,\u00a040241","phone":"(502) 327-7340","latitude":-85.5783084,"longitude":38.3066996},{"name":"Children's Place - Towne Square Mall","address":"5000 Frederica St Owensboro,\u00a0KY,\u00a042301","phone":"(270) 684-7701","latitude":-87.1273662,"longitude":37.7204147},{"name":"Children's Place - Kentucky Oaks Mall","address":"5101 Hinkleville Road Paducah,\u00a0KY,\u00a042001","phone":"(270) 441-7133","latitude":-88.6886306,"longitude":37.0791231},{"name":"Children's Place - Richmond Centre","address":"2091 Lantern Ridge Drive Richmond,\u00a0KY,\u00a040475","phone":"(859) 624-5445","latitude":-84.32880999999999,"longitude":37.7385623},{"name":"Children's Place - the Outlet Shoppes of the Blue","address":"1155 Buck Creek Road Simpsonville,\u00a0KY,\u00a040067","phone":"(502) 722-3101","latitude":-85.35153969999999,"longitude":38.2059821},{"name":"Children's Place - Alexandria Mall","address":"3437 Masonic Drive Alexandria,\u00a0LA,\u00a071301","phone":"(318) 449-3521","latitude":-92.4639882,"longitude":31.277346},{"name":"Children's Place - Mall @ Cortana","address":"9773 Cortana Place Baton Rouge,\u00a0LA,\u00a070815","phone":"(225) 926-7171","latitude":-91.09223,"longitude":30.457355},{"name":"Children's Place - Town Center @ Cedar Lodge","address":"7445 Corporate Blvd Baton Rouge,\u00a0LA,\u00a070809","phone":"(225) 216-0700","latitude":-91.1245434,"longitude":30.424588},{"name":"Children's Place - Louisiana Boardwalk","address":"315 Boardwalk Blvd Bossier City,\u00a0LA,\u00a071111","phone":"(318) 752-2910","latitude":-93.7397958,"longitude":32.5178414},{"name":"Children's Place - River Chase","address":"69264 Highway 21 Covington,\u00a0LA,\u00a070433","phone":"(985) 893-3321","latitude":-90.1445978,"longitude":30.4416518},{"name":"Children's Place - Tanger Outlets Gonzales","address":"2400 Tanger Blvd Gonzales,\u00a0LA,\u00a070737","phone":"(225) 644-1588","latitude":-90.9521396,"longitude":30.2119129},{"name":"Children's Place - Oakwood Center","address":"197 Westbank Expwy. Gretna,\u00a0LA,\u00a070053","phone":"(504) 227-9795","latitude":-90.04175540000001,"longitude":29.9212694},{"name":"Children's Place - Hammond Square","address":"401 Palace Drive Hammond,\u00a0LA,\u00a070403","phone":"(985) 350-6406","latitude":-90.4601804,"longitude":30.481705},{"name":"Children's Place - Southland Mall","address":"5953 West Park Avenue Houma,\u00a0LA,\u00a070364","phone":"(985) 876-4300","latitude":-90.75588289999999,"longitude":29.6347256},{"name":"Children's Place - the Esplanade","address":"1401 W Esplanade Ave. Kenner,\u00a0LA,\u00a070065","phone":"(504) 467-4316","latitude":-90.2473985,"longitude":30.0201943},{"name":"Children's Place - Acadiana Mall","address":"5725 Johnston St. Lafayette,\u00a0LA,\u00a070503","phone":"(337) 993-0110","latitude":-92.0758348,"longitude":30.1712085},{"name":"Children's Place - Pecanland Mall","address":"4700 Milhaven Road Monroe,\u00a0LA,\u00a071203","phone":"(318) 324-8626","latitude":-92.06460229999999,"longitude":32.4999495},{"name":"Children's Place - Canal Street","address":"714 Canal Street New Orleans,\u00a0LA,\u00a070130","phone":"(504) 525-5333","latitude":-90.0698031,"longitude":29.95310139999999},{"name":"Children's Place - Elmwood Village","address":"1200 South Clearview Park New Orleans,\u00a0LA,\u00a070123","phone":"(504) 729-4128","latitude":-90.1845292,"longitude":29.9599963},{"name":"Children's Place - Auburn Mall","address":"385 Southbridge Street Auburn,\u00a0MA,\u00a001501","phone":"(508) 721-0260","latitude":-71.8354025,"longitude":42.2026297},{"name":"Children's Place - Southshore","address":"250 Granite St. 2nd Floor Braintree,\u00a0MA,\u00a002184","phone":"(781) 348-4920","latitude":-71.02266170000001,"longitude":42.2200925},{"name":"Children's Place - Westgate Mall","address":"200 Westgate Drive Brockton,\u00a0MA,\u00a002301","phone":"(508) 897-6500","latitude":-71.0543629,"longitude":42.093099},{"name":"Children's Place - Burlington Mall","address":"75 Middlesex Turnpike Burlington,\u00a0MA,\u00a001803","phone":"(781) 229-6678","latitude":-71.216752,"longitude":42.481127},{"name":"Children's Place - Cambridgeside Galleria","address":"100 Cambridgeside Place Cambridge,\u00a0MA,\u00a002141","phone":"(617) 494-6085","latitude":-71.0763644,"longitude":42.3681321},{"name":"Children's Place - Mystic Mall","address":"164 Everett Avenue Chelsea,\u00a0MA,\u00a002150","phone":"(617) 660-9190","latitude":-71.0428266,"longitude":42.3946201},{"name":"Children's Place - Dedham Plaza","address":"727 Providence Highway Dedham,\u00a0MA,\u00a002026","phone":"(781) 326-3560","latitude":-71.1778981,"longitude":42.238824},{"name":"Children's Place - Silver City","address":"Silver City Galleria East Taunton,\u00a0MA,\u00a002718","phone":"(508) 880-7322","latitude":-71.05143090000001,"longitude":41.8644273},{"name":"Children's Place - Hanover Mall","address":"1775 Washington Street Hanover,\u00a0MA,\u00a002339","phone":"(781) 826-5718","latitude":-70.8416163,"longitude":42.1462724},{"name":"Children's Place - Holyoke Mall at Ingleside","address":"50 Holyoke Street Holyoke,\u00a0MA,\u00a001040","phone":"(413) 533-2067","latitude":-72.64132699999999,"longitude":42.167247},{"name":"Children's Place - Cape Cod Mall","address":"Route 132 Hyannis,\u00a0MA,\u00a002601","phone":"(508) 771-2550","latitude":-70.3176948,"longitude":41.6785284},{"name":"Children's Place - Berkshire Mall","address":"Route 8 & Old State Rd Lanesboro,\u00a0MA,\u00a001237","phone":"(413) 236-0986","latitude":-73.2017712,"longitude":42.4936729},{"name":"Children's Place - Whitney Field","address":"100 Commercial Road Leominster,\u00a0MA,\u00a001453","phone":"(978) 466-7408","latitude":-71.7416015,"longitude":42.5290978},{"name":"Children's Place - Meadow Brook Center","address":"181 Plain Street Lowell,\u00a0MA,\u00a001852","phone":"(978) 275-3828","latitude":-71.3174313,"longitude":42.6236967},{"name":"Children's Place - Solomon Pond","address":"580 Donald Lynch Blvd. Marlborough,\u00a0MA,\u00a001752","phone":"(508) 303-0277","latitude":-71.6128974,"longitude":42.3554622},{"name":"Children's Place - Sherwood Plaza","address":"1324b Worcester Rd Natick,\u00a0MA,\u00a001760","phone":"(508) 647-0063","latitude":-71.3859401,"longitude":42.2990319},{"name":"Children's Place - Emerald Square","address":"999 South Washington St. North Attleboro,\u00a0MA,\u00a002760","phone":"(508) 643-0902","latitude":-71.34741439999999,"longitude":41.94548169999999},{"name":"Children's Place - Dartmouth Mall","address":"125-B Dartmouth Mall North Dartmouth,\u00a0MA,\u00a002747","phone":"(508) 990-3615","latitude":-70.99356139999999,"longitude":41.6430973},{"name":"Children's Place - Northshore Mall","address":"Junctions Rt 114 &128 Peabody,\u00a0MA,\u00a001960","phone":"(978) 531-1347"},{"name":"Children's Place - Colony Place","address":"126 Colony Place Plymouth,\u00a0MA,\u00a002360","phone":"(508) 732-0414","latitude":-70.7158336,"longitude":41.9540771},{"name":"Children's Place - Square One Mall","address":"1277 Broadway Drive Saugus,\u00a0MA,\u00a001906","phone":"(781) 231-9515","latitude":-71.024852,"longitude":42.4629199},{"name":"Children's Place - Greendale Mall","address":"7 Neponset Street Worcester,\u00a0MA,\u00a001606","phone":"(508) 852-4083","latitude":-71.8009521,"longitude":42.2965939},{"name":"Children's Place - Wrentham Village Outlets","address":"1 Premium Outlets Blvd. Wrentham,\u00a0MA,\u00a002093","phone":"(508) 384-8740","latitude":-71.35263909999999,"longitude":42.0381377},{"name":"Children's Place - Annapolis Mall","address":"2002 Annapolis Mall Annapolis,\u00a0MD,\u00a021401","phone":"(410) 841-6965","latitude":-76.54587049999999,"longitude":38.9869047},{"name":"Children's Place - Eastpoint Mall","address":"7839 Eastpoint Mall Baltimore,\u00a0MD,\u00a021224","phone":"(410) 284-0130","latitude":-76.50981589999999,"longitude":39.2931392},{"name":"Children's Place - Gallery @ Harborplace","address":"200 E Pratt St Baltimore,\u00a0MD,\u00a021202","phone":"(410) 605-9688","latitude":-76.61144399999999,"longitude":39.2870429},{"name":"Children's Place - Mondawmin Mall","address":"2401 Liberty Heights Ave Baltimore,\u00a0MD,\u00a021215","phone":"(410) 462-1030","latitude":-76.65449869999999,"longitude":39.3171601},{"name":"Children's Place - Festival @ Bel Air","address":"5 South Bel Air Pkwy Bel Air,\u00a0MD,\u00a021015","phone":"(410) 569-0023","latitude":-76.3272992,"longitude":39.4955946},{"name":"Children's Place - Montgomery Mall-Md","address":"7101 Democracy Blvd. Bethesda,\u00a0MD,\u00a020817","phone":"(301) 767-1863","latitude":-77.1475762,"longitude":39.0257717},{"name":"Children's Place - Bowie Town Center","address":"15530 Emerald Way Bowie,\u00a0MD,\u00a020716","phone":"(301) 860-1700","latitude":-76.7345765,"longitude":38.9437092},{"name":"Children's Place - Mall in Columbia","address":"10300 Little Patuxent Pky Columbia,\u00a0MD,\u00a021044","phone":"(410) 997-3160","latitude":-76.86121589999999,"longitude":39.2153109},{"name":"Children's Place - Francis Scott Key Mall","address":"5500 Buckeystown Pike Frederick,\u00a0MD,\u00a021703","phone":"(301) 228-2340","latitude":-77.4060411,"longitude":39.3827373},{"name":"Children's Place - Lake Forest","address":"Lake Forest Gaithersburg,\u00a0MD,\u00a020877","phone":"(301) 977-2900","latitude":-77.2041882,"longitude":39.1534897},{"name":"Children's Place - Marley Station","address":"7900 Governor Ritchie Hwy Glen Burnie,\u00a0MD,\u00a021061","phone":"(410) 761-5237","latitude":-76.6058583,"longitude":39.1387394},{"name":"Children's Place - Hagerstown Premium Outlet","address":"765 Premium Outlets Blvd Hagerstown,\u00a0MD,\u00a021740","phone":"(301) 665-9503","latitude":-77.73344399999999,"longitude":39.609859},{"name":"Children's Place - Arundel Mills","address":"7000 Arundel Mills Circle Hanover,\u00a0MD,\u00a021076","phone":"(443) 755-1525","latitude":-76.7252493,"longitude":39.1573631},{"name":"Children's Place - Mall at Prince Georges","address":"3500 East West Highway Hyattsville,\u00a0MD,\u00a020782","phone":"(301) 559-6212","latitude":-76.9575033,"longitude":38.9686274},{"name":"Children's Place - White Marsh Mall","address":"8200 Perry Hall Blvd Nottingham,\u00a0MD,\u00a021236","phone":"(410) 931-7192","latitude":-76.47186769999999,"longitude":39.3736725},{"name":"Children's Place - Ocean City Factory Outlet","address":"12741 Ocean Gateway Ocean City,\u00a0MD,\u00a021842","phone":"(410) 213-7101","latitude":-75.10647449999999,"longitude":38.337998},{"name":"Children's Place - National Harbor","address":"6800 Oxon Hill Road Oxon Hill,\u00a0MD,\u00a020745","phone":"(301) 567-1016","latitude":-77.0014573,"longitude":38.7948488},{"name":"Children's Place - Rivertown Commons","address":"6147 Oxon Hill Rd Oxon Hill,\u00a0MD,\u00a020745","phone":"(301) 686-9130","latitude":-76.97914829999999,"longitude":38.8045426},{"name":"Children's Place - the Centre at Salisbury","address":"2300 N. Salisbury Blvd Salisbury,\u00a0MD,\u00a021801","phone":"(410) 749-2191","latitude":-75.5662773,"longitude":38.3988567},{"name":"Children's Place - Wheaton Plaza","address":"11160 Viers Mill Road Silver Spring,\u00a0MD,\u00a020902","phone":"(301) 962-6880","latitude":-77.0530309,"longitude":39.0384223},{"name":"Children's Place - Towson Town Center","address":"825 Dulaney Valley Road Towson,\u00a0MD,\u00a021204","phone":"(410) 823-0546","latitude":-76.5987395,"longitude":39.4038642},{"name":"Children's Place - St. Charles Towne Center","address":"1110 Mall Circle Waldorf,\u00a0MD,\u00a020603","phone":"(301) 705-8060","latitude":-76.9169754,"longitude":38.6206506},{"name":"Children's Place - Marketplace at Augusta","address":"8 Stephen King Drive Augusta,\u00a0ME,\u00a004330","phone":"(207) 621-2390","latitude":-69.78726879999999,"longitude":44.3445979},{"name":"Children's Place - Bangor Mall","address":"663 Stillwater Ave. Bangor,\u00a0ME,\u00a004401","phone":"(207) 262-7135","latitude":-68.7492035,"longitude":44.8306219},{"name":"Children's Place - Kittery Premium Outlets","address":"345 Us Route 1 Kittery,\u00a0ME,\u00a003904","phone":"(207) 439-0185","latitude":-70.731185,"longitude":43.115928},{"name":"Children's Place - Maine Mall","address":"364 Maine Mall South Portland,\u00a0ME,\u00a004106","phone":"(207) 761-0038","latitude":-70.3348053,"longitude":43.6334545},{"name":"Children's Place - Great Lakes Crossing","address":"4600 Baldwin Road Auburn Hills,\u00a0MI,\u00a048326","phone":"(248) 745-9256","latitude":-83.30686089999999,"longitude":42.7069042},{"name":"Children's Place - Birch Run Premium Outlets","address":"12154 South Beyer Road Birch Run,\u00a0MI,\u00a048415","phone":"(989) 624-8034","latitude":-83.778864,"longitude":43.24763309999999},{"name":"Children's Place - Grand Rapids Outlet Center","address":"350 84th St Sw Byron Center,\u00a0MI,\u00a049315","phone":"(616) 583-0721","latitude":-85.6729506,"longitude":42.8113043},{"name":"Children's Place - Fairlane Town Center","address":"18900 Michigan Ave. Dearborn,\u00a0MI,\u00a048126","phone":"(313) 336-2188","latitude":-83.22306209999999,"longitude":42.3165242},{"name":"Children's Place - Genesee Valley Center","address":"3225 S. Linden Flint,\u00a0MI,\u00a048507","phone":"(810) 720-0574","latitude":-83.77216279999999,"longitude":42.982069},{"name":"Children's Place - Birchwood Mall","address":"4350 24th Avenue Fort Gratiot,\u00a0MI,\u00a048059","phone":"(810) 385-1352","latitude":-82.453615,"longitude":43.0361169},{"name":"Children's Place - Woodland Mall","address":"Woodland Mall Grand Rapids,\u00a0MI,\u00a049512","phone":"(616) 957-0320","latitude":-85.5879016,"longitude":42.9162803},{"name":"Children's Place - Rivertown Crossings","address":"Rivertown Pkwy & Wilson a Grandville,\u00a0MI,\u00a049418","phone":"(616) 257-7123","latitude":-85.7624166,"longitude":42.8825487},{"name":"Children's Place - Jackson Crossing","address":"1218 Jackson Crossing Jackson,\u00a0MI,\u00a049202","phone":"(517) 796-1651","latitude":-84.4335445,"longitude":42.2692095},{"name":"Children's Place - the Lakes Mall","address":"5600 Harvey St Muskegon,\u00a0MI,\u00a049444","phone":"(231) 798-9789","latitude":-86.202111,"longitude":43.150459},{"name":"Children's Place - Novi Town Center","address":"43303 Crescent Blvd Novi,\u00a0MI,\u00a048375","phone":"(248) 449-1544","latitude":-83.47328929999999,"longitude":42.4833808},{"name":"Children's Place - Meridian Mall","address":"1982 Grand River Ave. Okemos,\u00a0MI,\u00a048864","phone":"(517) 381-0586","latitude":-84.4198598,"longitude":42.7204962},{"name":"Children's Place - the Crossroads","address":"6650 S Westnedge Portage,\u00a0MI,\u00a049024","phone":"(269) 327-7317","latitude":-85.5894567,"longitude":42.2206293},{"name":"Children's Place - Fashion Square Mall","address":"4828 Fashion Square Mall Saginaw,\u00a0MI,\u00a048604","phone":"(989) 497-9760","latitude":-83.9745178,"longitude":43.4768462},{"name":"Children's Place - Lakeside","address":"14600 Lakeside Circle Sterling Heights,\u00a0MI,\u00a048313","phone":"(586) 247-3111","latitude":-82.985815,"longitude":42.622964},{"name":"Children's Place - Southland Center","address":"23000 Eureka Road Taylor,\u00a0MI,\u00a048180","phone":"(734) 287-2702","latitude":-83.254713,"longitude":42.200604},{"name":"Children's Place - Oakland Mall","address":"346 West 14th Mile Rd. Troy,\u00a0MI,\u00a048083","phone":"(248) 588-9165","latitude":-83.1100568,"longitude":42.534247},{"name":"Children's Place - Westland Shopping Center","address":"35000 Warren Road Westland,\u00a0MI,\u00a048185","phone":"(734) 427-6617","latitude":-83.3894354,"longitude":42.341046},{"name":"Children's Place - Albertville Premium Outlet","address":"6500 Labeaux Avenue Ne Albertville,\u00a0MN,\u00a055301","phone":"(763) 497-6661","latitude":-93.6624798,"longitude":45.2445393},{"name":"Children's Place - Mall of America","address":"S272 South Ave Bloomington,\u00a0MN,\u00a055425","phone":"(952) 854-5641","latitude":-93.24218250000001,"longitude":44.8532636},{"name":"Children's Place - Burnsville Center","address":"2063 Burnsville Center Burnsville,\u00a0MN,\u00a055306","phone":"(952) 898-7876","latitude":-93.2863826,"longitude":44.7456545},{"name":"Children's Place - Miller Hill Mall","address":"1600 Miller Trunk Hwy Duluth,\u00a0MN,\u00a055811","phone":"(218) 279-6031","latitude":-92.15972339999999,"longitude":46.80325800000001},{"name":"Children's Place - Twin Cities Premium Outlets","address":"3905 Eagen Outlets Parkway Eagan,\u00a0MN,\u00a055122","phone":"(651) 452-0464","latitude":-93.2152472,"longitude":44.8159532},{"name":"Children's Place - Eden Prairie Shopping Center","address":"1270 Eden Prairie Center Eden Prairie,\u00a0MN,\u00a055344","phone":"(952) 943-5092","latitude":-93.424559,"longitude":44.8538793},{"name":"Children's Place - River Hills Mall","address":"1850 Adams St Mankato,\u00a0MN,\u00a056001","phone":"(507) 388-2254","latitude":-93.95357659999999,"longitude":44.1729626},{"name":"Children's Place - Ridgedale Center","address":"12547 Wayzata Blvd. Minnetonka,\u00a0MN,\u00a055305","phone":"(952) 417-9841","latitude":-93.4396893,"longitude":44.9712657},{"name":"Children's Place - Apache Mall","address":"314 Apache Mall Rochester,\u00a0MN,\u00a055902","phone":"(507) 281-2555","latitude":-92.4796757,"longitude":44.0062335},{"name":"Children's Place - Branson Landing","address":"323 Branson Landing Blvd Branson,\u00a0MO,\u00a065616","phone":"(417) 332-0558","latitude":-93.21513279999999,"longitude":36.6458429},{"name":"Children's Place - Branson Tanger Outlet","address":"300 Tanger Blve Branson,\u00a0MO,\u00a065616","phone":"(417) 335-2598","latitude":-93.2649443,"longitude":36.6440444},{"name":"Children's Place - West Park Mall","address":"3049 William Street Cape Girardeau,\u00a0MO,\u00a063703","phone":"(573) 334-3179","latitude":-89.5710318,"longitude":37.2984548},{"name":"Children's Place - St. Louis Premium Outlets","address":"18521 Outlet Boulevard Chesterfield,\u00a0MO,\u00a063005","phone":"(636) 778-1322","latitude":-90.66043479999999,"longitude":38.6770193},{"name":"Children's Place - St. Louis Outlet Mall","address":"5555 St. Louis Mills Blvd Hazelwood,\u00a0MO,\u00a063042","phone":"(314) 227-5437","latitude":-90.41323179999999,"longitude":38.7886387},{"name":"Children's Place - Northpark Mall","address":"101 North Rangeline Rd Joplin,\u00a0MO,\u00a064801","phone":"(417) 206-6806","latitude":-94.47429960000001,"longitude":37.0908261},{"name":"Children's Place - Zona Rosa","address":"7220 Nw 86th Place Kansas City,\u00a0MO,\u00a064153","phone":"(816) 584-2788","latitude":-94.6636529,"longitude":39.2512438},{"name":"Children's Place - Summit Fair","address":"970-a Nw Blue Parkway Lees Summit,\u00a0MO,\u00a064086","phone":"(816) 347-9588","latitude":-94.4027381,"longitude":38.9318896},{"name":"Children's Place - Osage Beach Premium Outlets","address":"Osage Beach Premium Outle Osage Beach,\u00a0MO,\u00a065065","phone":"(573) 348-3013","latitude":-92.62727989999999,"longitude":38.1438834},{"name":"Children's Place - East Hills Mall","address":"3702 Frederick Ave Saint Joseph,\u00a0MO,\u00a064506","phone":"(816) 233-3649","latitude":-94.8003708,"longitude":39.774753},{"name":"Children's Place - South County Center","address":"55 South County Centerway Saint Louis,\u00a0MO,\u00a063129","phone":"(314) 487-8400","latitude":-90.3293712,"longitude":38.5052775},{"name":"Children's Place - St. Louis Galleria","address":"1155 Saint Louis Galleria Saint Louis,\u00a0MO,\u00a063117","phone":"(314) 863-0001","latitude":-90.34809709999999,"longitude":38.6349583},{"name":"Children's Place - Mid Rivers Mall","address":"2440 Mid Rivers Mall Saint Peters,\u00a0MO,\u00a063376","phone":"(636) 278-1284","latitude":-90.6158094,"longitude":38.7970481},{"name":"Children's Place - Battlefield Mall","address":"2825 S Glenstone Springfield,\u00a0MO,\u00a065804","phone":"(417) 890-1734","latitude":-93.26447999999999,"longitude":37.1622079},{"name":"Children's Place - Edgewater Mall","address":"2600 Beach Boulevard Biloxi,\u00a0MS,\u00a039531","phone":"(228) 385-3052","latitude":-88.9898269,"longitude":30.3922533},{"name":"Children's Place - Leigh Mall","address":"1404 Old Aberdeen Road Columbus,\u00a0MS,\u00a039705","phone":"(662) 327-6302","latitude":-88.4315771,"longitude":33.5115919},{"name":"Children's Place - Corinth Commons Shopping Cntr","address":"3041 Virginia Lane Corinth,\u00a0MS,\u00a038834","phone":"(662) 286-6400","latitude":-88.5049746,"longitude":34.9129641},{"name":"Children's Place - Dogwood Festival Market","address":"122 Dogwood Blvd. Flowood,\u00a0MS,\u00a039232","phone":"(601) 919-9717","latitude":-90.05911549999999,"longitude":32.3391722},{"name":"Children's Place - Gulfport Premium Outlets","address":"10435 Factory Shops Blvd Gulfport,\u00a0MS,\u00a039503","phone":"(228) 863-9225","latitude":-89.0992753,"longitude":30.427417},{"name":"Children's Place - Turtle Creek Crossing","address":"6055 Hwy 98 & Univrsty Dr Hattiesburg,\u00a0MS,\u00a039402","phone":"(601) 268-3204"},{"name":"Children's Place - Sawmill Square Mall","address":"910 Sawmill Road Laurel,\u00a0MS,\u00a039440","phone":"(601) 426-1064","latitude":-89.1361728,"longitude":31.6914949},{"name":"Children's Place - Edgewood Mall","address":"1722 Veterans Blvd Mccomb,\u00a0MS,\u00a039648","phone":"(601) 250-1229","latitude":-90.4738709,"longitude":31.2608049},{"name":"Children's Place - Meridian Crossroads","address":"131 S. Frontage Street Meridian,\u00a0MS,\u00a039301","phone":"(601) 482-4452","latitude":-88.6723514,"longitude":32.3641972},{"name":"Children's Place - Outlets of Mississippi","address":"200 Bass Pro Drive Pearl,\u00a0MS,\u00a039208","phone":"(601) 939-9879","latitude":-90.1528696,"longitude":32.2751993},{"name":"Children's Place - Northpark Mall","address":"1200 E County Line Ridgeland,\u00a0MS,\u00a039157","phone":"(601) 206-1162","latitude":-90.1290921,"longitude":32.4029852},{"name":"Children's Place - Southhaven Towne Center","address":"6566 Towne Center Loop Southaven,\u00a0MS,\u00a038671","phone":"(662) 349-3530","latitude":-89.995853,"longitude":34.9563317},{"name":"Children's Place - Mall @ Barnes Crossing","address":"1001 Barnes Crossing Road Tupelo,\u00a0MS,\u00a038804","phone":"(662) 620-0720","latitude":-88.7016646,"longitude":34.3085524},{"name":"Children's Place - Vicksburg Factory Shops","address":"4000 South Frontage Road Vicksburg,\u00a0MS,\u00a039180","phone":"(601) 636-5662","latitude":-90.84112209999999,"longitude":32.3408045},{"name":"Children's Place - Rimrock Mall","address":"300 South 24th Street W Billings,\u00a0MT,\u00a059102","phone":"(406) 656-0691","latitude":-108.5800058,"longitude":45.7663944},{"name":"Children's Place - Gallatin Valley Mall","address":"2825 West Main Street Bozeman,\u00a0MT,\u00a059718","phone":"(406) 586-0278","latitude":-111.0773777,"longitude":45.674028},{"name":"Children's Place - Asheville Outlets","address":"800 Brevard Road Asheville,\u00a0NC,\u00a028806","phone":"(828) 665-1884","latitude":-82.6033576,"longitude":35.52930060000001},{"name":"Children's Place - Alamance Crossing","address":"924 Boston Drive Burlington,\u00a0NC,\u00a027215","phone":"(336) 584-6240","latitude":-79.5082829,"longitude":36.0702834},{"name":"Children's Place - Cary Towne Center","address":"1105 Walnut Street Cary,\u00a0NC,\u00a027511","phone":"(919) 388-8877","latitude":-78.76041219999999,"longitude":35.7720009},{"name":"Children's Place - Charlotte Premium Outlets","address":"5512 New Fashion Way Charlotte,\u00a0NC,\u00a028217","phone":"(704) 583-0203","latitude":-80.9709951,"longitude":35.1694858},{"name":"Children's Place - Northlake Mall","address":"6801 Northlake Mall Drive Charlotte,\u00a0NC,\u00a028216","phone":"(704) 596-2211","latitude":-80.851181,"longitude":35.352549},{"name":"Children's Place - Carolina Mall","address":"1480 Concord Parkway Nrth Concord,\u00a0NC,\u00a028025","phone":"(704) 262-2284","latitude":-80.60352309999999,"longitude":35.4403311},{"name":"Children's Place - Concord Mills","address":"8111 Concord Mills Blvd. Concord,\u00a0NC,\u00a028027","phone":"(704) 979-1050","latitude":-80.7222273,"longitude":35.3689981},{"name":"Children's Place - Northgate Mall","address":"1058 West Club Blvd. Durham,\u00a0NC,\u00a027701","phone":"(919) 286-5324","latitude":-78.9102149,"longitude":36.018111},{"name":"Children's Place - Streets @ Southpoint","address":"6910 Fayetteville Road Durham,\u00a0NC,\u00a027713","phone":"(919) 248-0844","latitude":-78.941906,"longitude":35.903599},{"name":"Children's Place - Cross Creek Mall","address":"117 Cross Creek Mall Fayetteville,\u00a0NC,\u00a028303","phone":"(910) 868-9541","latitude":-78.9613609,"longitude":35.0717169},{"name":"Children's Place - Eastridge Mall","address":"246 N. New Hope Rd Gastonia,\u00a0NC,\u00a028054","phone":"(704) 867-8260","latitude":-81.1481879,"longitude":35.2646413},{"name":"Children's Place - Berkeley Commons","address":"Berkeley Blvd at Prkwy Dr Goldsboro,\u00a0NC,\u00a027534","phone":"(919) 778-5734","latitude":-77.9328841,"longitude":35.3804409},{"name":"Children's Place - Four Seasons Town Center","address":"141 Four Seasons Town Cnt Greensboro,\u00a0NC,\u00a027407","phone":"(336) 854-4061","latitude":-79.83713019999999,"longitude":36.0388527},{"name":"Children's Place - Friendly Shopping Center","address":"810 Friendly Center Road Greensboro,\u00a0NC,\u00a027408","phone":"(336) 856-7672","latitude":-79.8295031,"longitude":36.0865413},{"name":"Children's Place - Greenville Mall","address":"714 Se Greenville Blvd Space a Greenville,\u00a0NC,\u00a027858","phone":"(252) 353-0510","latitude":-77.36801559999999,"longitude":35.5863014},{"name":"Children's Place - Valley Hills Mall","address":"178 Valley Hills Mall Hickory,\u00a0NC,\u00a028602","phone":"(828) 431-3080","latitude":-81.3046744,"longitude":35.7030116},{"name":"Children's Place - Holly Springs Towne Center","address":"140 Grand Hill Place Holly Springs,\u00a0NC,\u00a027540","phone":"(919) 567-0108","latitude":-78.8496376,"longitude":35.6626561},{"name":"Children's Place - Jacksonville Mall","address":"375 Jacksonville Mall Jacksonville,\u00a0NC,\u00a028546","phone":"(910) 577-1300","latitude":-77.3810673,"longitude":34.7653549},{"name":"Children's Place - Tanger Piedmont","address":"4000 Arrowhead Boulevard Mebane,\u00a0NC,\u00a027302","phone":"(919) 563-2189","latitude":-79.2660193,"longitude":36.074507},{"name":"Children's Place - New Bern Mall","address":"3146 Drmartin Lthrkng Blv New Bern,\u00a0NC,\u00a028562","phone":"(252) 514-0281","latitude":-77.0888781,"longitude":35.10238160000001},{"name":"Children's Place - Carolina Place Mall","address":"11025 Carolina Place Pkwy Pineville,\u00a0NC,\u00a028134","phone":"(704) 540-0660","latitude":-80.876336,"longitude":35.082188},{"name":"Children's Place - Crabtree Valley Mall","address":"4325 Glenwood Avenue Raleigh,\u00a0NC,\u00a027612","phone":"(919) 784-9515","latitude":-78.67589439999999,"longitude":35.8377024},{"name":"Children's Place - Triangle Town Center","address":"5956 Triangle Town Blvd Raleigh,\u00a0NC,\u00a027616","phone":"(919) 792-2180","latitude":-78.5714953,"longitude":35.8685199},{"name":"Children's Place - Golden East Crossing","address":"1100 N Wesleyan Blvd Rocky Mount,\u00a0NC,\u00a027804","phone":"(252) 442-6636","latitude":-77.80656429999999,"longitude":35.9741386},{"name":"Children's Place - Carolina Premium Outlets","address":"1025 Outlet Center Drive Smithfield,\u00a0NC,\u00a027577","phone":"(919) 938-0078","latitude":-78.31249179999999,"longitude":35.5106202},{"name":"Children's Place - Independence Mall","address":"3500 Oleander Drive Wilmington,\u00a0NC,\u00a028403","phone":"(910) 452-4676","latitude":-77.9057715,"longitude":34.2130425},{"name":"Children's Place - Hanes Mall","address":"3320 Hanes Mall Winston-Salem,\u00a0NC,\u00a027103","phone":"(336) 760-4384","latitude":-80.301057,"longitude":36.0699383},{"name":"Children's Place - Kirkwood Mall","address":"706 Kirkwood Mall Bismarck,\u00a0ND,\u00a058501","phone":"(701) 221-1167","latitude":-100.7849241,"longitude":46.797522},{"name":"Children's Place - West Acres Shopping Center","address":"3902 13th Avenue Sw Fargo,\u00a0ND,\u00a058103","phone":"(701) 433-0856","latitude":-96.8465205,"longitude":46.8591805},{"name":"Children's Place - Columbia Mall","address":"2800 Columbia Road Grand Forks,\u00a0ND,\u00a058201","phone":"(701) 775-1051","latitude":-97.07115329999999,"longitude":47.8929865},{"name":"Children's Place - Dakota Square Mall","address":"2400 10th Street Sw Minot,\u00a0ND,\u00a058701","phone":"(701) 839-0326","latitude":-101.3118286,"longitude":48.206362},{"name":"Children's Place - Conestoga Mall","address":"3404 West 13th Street Grand Island,\u00a0NE,\u00a068803","phone":"(308) 381-9901","latitude":-98.3808952,"longitude":40.9343494},{"name":"Children's Place - Nebraska Crossing","address":"14333 Nebraska 31 Gretna,\u00a0NE,\u00a068028","phone":"(402) 332-5064","latitude":-96.25018,"longitude":41.0987639},{"name":"Children's Place - Oak View Mall","address":"3001 South 144th Street Omaha,\u00a0NE,\u00a068144","phone":"(402) 334-7775","latitude":-96.13801509999999,"longitude":41.2296974},{"name":"Children's Place - Mall of New Hampshire","address":"1500 South Willow Street Manchester,\u00a0NH,\u00a003103","phone":"(603) 624-2808","latitude":-71.4327448,"longitude":42.9553882},{"name":"Children's Place - Merrimack Premium Outlets","address":"80 Premium Outlets Boulevard Merrimack,\u00a0NH,\u00a003054","phone":"(603) 262-9338","latitude":-71.5018896,"longitude":42.8246326},{"name":"Children's Place - Pheasant Lane Mall","address":"310 Daniel Webster Hwy Nashua,\u00a0NH,\u00a003060","phone":"(603) 891-1910","latitude":-71.4367899,"longitude":42.7016049},{"name":"Children's Place - Settlers Green","address":"Rt 16 Settlers Green North Conway,\u00a0NH,\u00a003860","phone":"(603) 356-6700","latitude":-71.1146892,"longitude":44.0231704},{"name":"Children's Place - Rockingham","address":"99 Rockingham Park Blvd. Salem,\u00a0NH,\u00a003079","phone":"(603) 894-5538","latitude":-71.2303197,"longitude":42.7661196},{"name":"Children's Place - Tanger Tilton","address":"120 Laconia Road Tilton,\u00a0NH,\u00a003276","phone":"(603) 286-2668","latitude":-71.5621024,"longitude":43.4583512},{"name":"Children's Place - the Walk Outlet","address":"2101 Atlantic Ave Atlantic City,\u00a0NJ,\u00a008401","phone":"(609) 347-0149","latitude":-74.437856,"longitude":39.358779},{"name":"Children's Place - Franklin Square Sc","address":"10 Franklin Street Bloomfield,\u00a0NJ,\u00a007003","phone":"(973) 748-9200","latitude":-74.1839236,"longitude":40.7821135},{"name":"Children's Place - Bridgewater Town Center","address":"730 Route 202 South Bridgewater,\u00a0NJ,\u00a008807","phone":"(908) 725-0628","latitude":-74.6710543,"longitude":40.5748033},{"name":"Children's Place - Cherry Hill Mall","address":"2000 Route 38 Cherry Hill,\u00a0NJ,\u00a008002","phone":"(856) 486-1172","latitude":-75.025193,"longitude":39.9423869},{"name":"Children's Place - Deptford Mall","address":"102 Deptford Mall Deptford,\u00a0NJ,\u00a008096","phone":"(856) 845-0897","latitude":-75.0984098,"longitude":39.8308684},{"name":"Children's Place - Brunswick Square Mall","address":"755 State Highway East Brunswick,\u00a0NJ,\u00a008816","phone":"(732) 254-5454","latitude":-74.38229079999999,"longitude":40.4233915},{"name":"Children's Place - Monmouth Mall","address":"Route 35 & 36 Eatontown,\u00a0NJ,\u00a007724","phone":"(732) 460-0406","latitude":-74.0517819,"longitude":40.2907698},{"name":"Children's Place - Menlo Park Mall","address":"445 Menlo Park Mall Edison,\u00a0NJ,\u00a008837","phone":"(732) 549-8004","latitude":-74.33798589999999,"longitude":40.5486179},{"name":"Children's Place - Elizabeth","address":"23 Broad Street Elizabeth,\u00a0NJ,\u00a007201","phone":"(908) 355-7164","latitude":-74.2146516,"longitude":40.6627982},{"name":"Children's Place - the Mills at Jersey Gardens","address":"651 Kapkowski Road Elizabeth,\u00a0NJ,\u00a007201","phone":"(908) 527-6855","latitude":-74.1729273,"longitude":40.6606775},{"name":"Children's Place - Freehold Raceway Mall","address":"3710 Highway 9 Freehold,\u00a0NJ,\u00a007728","phone":"(732) 303-8480","latitude":-74.3002346,"longitude":40.2532995},{"name":"Children's Place - the Shoppes at Hamilton","address":"537 Route 130 Hamilton,\u00a0NJ,\u00a008691","phone":"(609) 585-6124","latitude":-74.6563688,"longitude":40.1861254},{"name":"Children's Place - the Commons at Holmdel","address":"2130 Highway 35 Holmdel,\u00a0NJ,\u00a007733","phone":"(732) 706-5340","latitude":-74.14197399999999,"longitude":40.411804},{"name":"Children's Place - Howell Commons","address":"4793 Us Hwy 9 Howell,\u00a0NJ,\u00a007731","phone":"(732) 364-2096","latitude":-74.2213347,"longitude":40.1350596},{"name":"Children's Place - Jackson Premium Outlets","address":"537 Monmouth Road Jackson,\u00a0NJ,\u00a008527","phone":"(732) 833-8833","latitude":-74.4174029,"longitude":40.1616374},{"name":"Children's Place - Newport Center","address":"30 Mall Drive West Jersey City,\u00a0NJ,\u00a007310","phone":"(201) 963-5537","latitude":-74.0384239,"longitude":40.72705879999999},{"name":"Children's Place - Quaker Bridge Mall","address":"173 Quaker Bridge Mall Lawrenceville,\u00a0NJ,\u00a008648","phone":"(609) 275-8018","latitude":-74.6816307,"longitude":40.2905097},{"name":"Children's Place - Aviation Plaza","address":"679 West Edgar Road Linden,\u00a0NJ,\u00a007036","phone":"(908) 862-9159","latitude":-74.2482461,"longitude":40.6201571},{"name":"Children's Place - Livingston Mall","address":"83 Livingston Mall Livingston,\u00a0NJ,\u00a007039","phone":"(973) 992-7337","latitude":-74.3550857,"longitude":40.7772496},{"name":"Children's Place - Hamilton Mall","address":"4403 Black Horse Pike Mays Landing,\u00a0NJ,\u00a008330","phone":"(609) 645-1050","latitude":-74.64701420000002,"longitude":39.4529831},{"name":"Children's Place - Union Lake Crossing","address":"2114 North 2nd Street Millville,\u00a0NJ,\u00a008332","phone":"(856) 765-9060","latitude":-75.0432568,"longitude":39.4209292},{"name":"Children's Place - Moorestown Mall","address":"400 Route 38 Moorestown,\u00a0NJ,\u00a008057","phone":"(856) 727-7966","latitude":-74.9591866,"longitude":39.9443947},{"name":"Children's Place - Ferry St Newark","address":"181 Ferry Street Newark,\u00a0NJ,\u00a007105","phone":"(973) 274-0716","latitude":-74.1573901,"longitude":40.7285793},{"name":"Children's Place - Newark","address":"771-787 Broad Street Newark,\u00a0NJ,\u00a007102","phone":"(973) 624-5625","latitude":-74.1722794,"longitude":40.7358851},{"name":"Children's Place - the Shoppes @ Old Bridge","address":"3885 Us Highway 9 Old Bridge,\u00a0NJ,\u00a008857","phone":"(732) 970-2650","latitude":-74.3022192,"longitude":40.3653169},{"name":"Children's Place - Bergen Town Center","address":"2701 Bergen Town Center Paramus,\u00a0NJ,\u00a007652","phone":"(201) 226-9710","latitude":-74.05924,"longitude":40.9156379},{"name":"Children's Place - Garden State Plaza","address":"1 Garden State Plaza Paramus,\u00a0NJ,\u00a007652","phone":"(201) 843-8060","latitude":-74.075323,"longitude":40.914763},{"name":"Children's Place - Paramus Park Mall","address":"329 Paramus Park Mall Paramus,\u00a0NJ,\u00a007652","phone":"(201) 261-1213","latitude":-74.0679893,"longitude":40.9561021},{"name":"Children's Place - Passaic","address":"698 Main Avenue Passaic,\u00a0NJ,\u00a007055","phone":"(973) 249-6362","latitude":-74.1265464,"longitude":40.862043},{"name":"Children's Place - Center City Paterson","address":"303 Main St (Main&ward) Paterson,\u00a0NJ,\u00a007505","phone":"(973) 225-0326","latitude":-74.1730632,"longitude":40.9151544},{"name":"Children's Place - Interstate Plaza","address":"1205 Route 17 South Ramsey,\u00a0NJ,\u00a007446","phone":"(201) 785-8831","latitude":-74.1380307,"longitude":41.0668638},{"name":"Children's Place - Rockaway Townsquare Mall","address":"Rt 80 & Mt. Hope Ave Rockaway,\u00a0NJ,\u00a007866","phone":"(973) 361-1007","latitude":-74.5548685,"longitude":40.908745},{"name":"Children's Place - Secaucus Outlet","address":"210 Meadowland Parkway Secaucus,\u00a0NJ,\u00a007094","phone":"(201) 223-4849","latitude":-74.0754103,"longitude":40.7835057},{"name":"Children's Place - Hadley Shopping Center","address":"4963 Stelton Road South Plainfield,\u00a0NJ,\u00a007080","phone":"(908) 791-2790","latitude":-74.4301218,"longitude":40.5490693},{"name":"Children's Place - Jersey Shore Premium Outlets","address":"1 Premium Outlet Blvd Tinton Falls,\u00a0NJ,\u00a007753","phone":"(732) 695-0213","latitude":-74.09490509999999,"longitude":40.2224755},{"name":"Children's Place - Ocean County Mall","address":"1201 Hooper Avenue Toms River,\u00a0NJ,\u00a008753","phone":"(732) 473-9320","latitude":-74.1788028,"longitude":39.9795364},{"name":"Children's Place - Cross Keys Commons","address":"3501 Route 42 Turnersville,\u00a0NJ,\u00a008012","phone":"(856) 629-5192","latitude":-75.0349219,"longitude":39.7268155},{"name":"Children's Place - Voorhees Town Center","address":"1110 Voorhees Town Center Voorhees,\u00a0NJ,\u00a008043","phone":"(856) 772-2129","latitude":-75.001468,"longitude":39.8498084},{"name":"Children's Place - Blue Star Shopping Center","address":"1701 Route 22 West Watchung,\u00a0NJ,\u00a007069","phone":"(908) 322-1237","latitude":-74.40983179999999,"longitude":40.6501688},{"name":"Children's Place - Willowbrook Mall","address":"2630 Willowbrook Mall Wayne,\u00a0NJ,\u00a007470","phone":"(973) 256-9306","latitude":-74.2604257,"longitude":40.8902834},{"name":"Children's Place - Bergenline Ave.","address":"5815 Bergenline Ave. West New York,\u00a0NJ,\u00a007093","phone":"(201) 864-9904","latitude":-74.0171563,"longitude":40.788253},{"name":"Children's Place - Westfield","address":"177 East Broad Street Westfield,\u00a0NJ,\u00a007090","phone":"(908) 789-7542","latitude":-74.3486775,"longitude":40.65175970000001},{"name":"Children's Place - Woodbridge Center","address":"300 Woodbridge Center Drive Woodbridge,\u00a0NJ,\u00a007095","phone":"(732) 326-0160","latitude":-74.30119239999999,"longitude":40.5547783},{"name":"Children's Place - Coronado Center","address":"6600 Menaul Blvd Ne Albuquerque,\u00a0NM,\u00a087110","phone":"(505) 884-0725","latitude":-106.572767,"longitude":35.1071069},{"name":"Children's Place - Cottonwood Mall","address":"10000 Coors Blvd Albuquerque,\u00a0NM,\u00a087114","phone":"(505) 897-3325","latitude":-106.6564673,"longitude":35.1974494},{"name":"Children's Place - North Plains Mall","address":"2809 North Prince Clovis,\u00a0NM,\u00a088101","phone":"(575) 763-9778","latitude":-103.1939373,"longitude":34.4251464},{"name":"Children's Place - Animas Valley","address":"4601 E. Main Street Farmington,\u00a0NM,\u00a087402","phone":"(505) 327-4169","latitude":-108.153098,"longitude":36.7632317},{"name":"Children's Place - Mesilla Valley Mall","address":"700 S. Telshor Blvd Las Cruces,\u00a0NM,\u00a088011","phone":"(575) 532-5030","latitude":-106.7434387,"longitude":32.3106212},{"name":"Children's Place - Santa Fe Place","address":"4250 Cerrillos Road Santa Fe,\u00a0NM,\u00a087592","phone":"(505) 438-6166","latitude":-106.0163673,"longitude":35.6378635},{"name":"Children's Place - Galleria at Sunset","address":"1300 West Sunset Road Henderson,\u00a0NV,\u00a089014","phone":"(702) 435-4583","latitude":-115.0403896,"longitude":36.0638052},{"name":"Children's Place - Centennial Center Las Vegas","address":"7909 W. Tropical Parkway Las Vegas,\u00a0NV,\u00a089149","phone":"(702) 839-0266","latitude":-115.26845,"longitude":36.27054},{"name":"Children's Place - Fashion Show","address":"3200 Las Vegas Blvd. Las Vegas,\u00a0NV,\u00a089109","phone":"(702) 733-9097","latitude":-115.1715512,"longitude":36.1272241},{"name":"Children's Place - Las Vegas Premium Outlets","address":"755 S Grand Central Pkwy Las Vegas,\u00a0NV,\u00a089106","phone":"(702) 471-0347","latitude":-115.1574463,"longitude":36.1643156},{"name":"Children's Place - Las Vegas Premium South","address":"7400 Las Vegas Blvd S Las Vegas,\u00a0NV,\u00a089123","phone":"(702) 896-5640","latitude":-115.1690207,"longitude":36.052392},{"name":"Children's Place - Meadows Mall","address":"4300 Meadows La Las Vegas,\u00a0NV,\u00a089107","phone":"(702) 870-7022","latitude":-115.1963237,"longitude":36.172259},{"name":"Children's Place - the Boulevard Mall","address":"3528 S Maryland Parkway Las Vegas,\u00a0NV,\u00a089169","phone":"(702) 697-0589","latitude":-115.1354186,"longitude":36.1249276},{"name":"Children's Place - Meadowood Mall","address":"5435 Meadowood Mall Circl Reno,\u00a0NV,\u00a089502","phone":"(775) 828-9964","latitude":-119.7828216,"longitude":39.4739918},{"name":"Children's Place - Colonie Mall","address":"401 Colonie Center Mall Albany,\u00a0NY,\u00a012205","phone":"(518) 459-4873","latitude":-73.8149603,"longitude":42.7113245},{"name":"Children's Place - Crossgate","address":"120 Washington Ave Albany,\u00a0NY,\u00a012203","phone":"(518) 464-0170","latitude":-73.85324,"longitude":42.691004},{"name":"Children's Place - Boulevard Mall","address":"1211 Niagara Falls Blvd. Amherst,\u00a0NY,\u00a014226","phone":"(716) 831-3201","latitude":-78.8225855,"longitude":42.9875955},{"name":"Children's Place - Steinway Street","address":"31-53 Steinway Street Astoria,\u00a0NY,\u00a011103","phone":"(718) 956-1999","latitude":-73.9181816,"longitude":40.75997539999999},{"name":"Children's Place - South Shore Mall","address":"1701 Sunrise Highway Bay Shore,\u00a0NY,\u00a011706","phone":"(631) 666-1979","latitude":-73.2463113,"longitude":40.7398877},{"name":"Children's Place - Bay Plaza","address":"2244 Bartow Avenue Bronx,\u00a0NY,\u00a010475","phone":"(718) 320-0680","latitude":-73.8225412,"longitude":40.8688143},{"name":"Children's Place - Bruckner Boulevard","address":"1937 Turnbull Ave Bronx,\u00a0NY,\u00a010473","phone":"(718) 862-0929","latitude":-73.8575559,"longitude":40.8228889},{"name":"Children's Place - Fordham Rd & Grand Concourse","address":"2501-2511 Grand Concourse Bronx,\u00a0NY,\u00a010468","phone":"(718) 563-5591","latitude":-73.89714839999999,"longitude":40.8630188},{"name":"Children's Place - Jerome Avenue","address":"3451 Jerome Avenue Bronx,\u00a0NY,\u00a010467","phone":"(718) 652-1860","latitude":-73.882885,"longitude":40.8816848},{"name":"Children's Place - Parkchester","address":"1420 Metropolitian Ave Bronx,\u00a0NY,\u00a010462","phone":"(718) 824-8430","latitude":-73.86072519999999,"longitude":40.8359392},{"name":"Children's Place - Pelham","address":"2184 White Plains Road Bronx,\u00a0NY,\u00a010462","phone":"(718) 823-6596","latitude":-73.8672399,"longitude":40.8559723},{"name":"Children's Place - Riverdale Shopping Center","address":"44 West 225th Street Bronx,\u00a0NY,\u00a010463","phone":"(718) 220-8391","latitude":-73.90807459999999,"longitude":40.8734371},{"name":"Children's Place - Southern Boulevard","address":"961 Southern Boulevard Bronx,\u00a0NY,\u00a010459","phone":"(718) 893-5317","latitude":-73.89210659999999,"longitude":40.82198},{"name":"Children's Place - the Hub","address":"2918 Third Avenue Bronx,\u00a0NY,\u00a010455","phone":"(718) 402-3426","latitude":-73.91572350000001,"longitude":40.8174443},{"name":"Children's Place - 44th Street & 13th Ave","address":"4402 13th Avenue Brooklyn,\u00a0NY,\u00a011219","phone":"(718) 871-4640","latitude":-73.9895721,"longitude":40.6378752},{"name":"Children's Place - Atlantic Terminal","address":"139 Flatbush Avenue Brooklyn,\u00a0NY,\u00a011217","phone":"(718) 857-5446","latitude":-73.9768194,"longitude":40.6846975},{"name":"Children's Place - Bayridge","address":"417-419 86th Street Brooklyn,\u00a0NY,\u00a011209","phone":"(718) 491-2711","latitude":-74.0276118,"longitude":40.6226349},{"name":"Children's Place - Bed Stuy (Fulton St)","address":"1244 Fulton St Brooklyn,\u00a0NY,\u00a011216","phone":"(718) 623-2317","latitude":-73.9508128,"longitude":40.680457},{"name":"Children's Place - Bensonhurst & 86th St","address":"2159 86th Street Brooklyn,\u00a0NY,\u00a011214","phone":"(718) 266-4035","latitude":-73.99430459999999,"longitude":40.6025793},{"name":"Children's Place - Fulton Street","address":"471-485 Fulton Street Brooklyn,\u00a0NY,\u00a011201","phone":"(718) 243-1150","latitude":-73.98591809999999,"longitude":40.6912218},{"name":"Children's Place - Gateway Center 2","address":"501 Gateway Drive Brooklyn,\u00a0NY,\u00a011239","phone":"(718) 827-3890","latitude":-73.8723393,"longitude":40.653645},{"name":"Children's Place - Kings Highway","address":"1313 Kings Highway Brooklyn,\u00a0NY,\u00a011229","phone":"(718) 336-3317","latitude":-73.9596297,"longitude":40.6085106},{"name":"Children's Place - Kings Plaza","address":"5344 Kings Plaza Brooklyn,\u00a0NY,\u00a011234","phone":"(718) 252-1204","latitude":-73.9208365,"longitude":40.6413476},{"name":"Children's Place - Pitkin Avenue","address":"1681 Pitkin Avenue Brooklyn,\u00a0NY,\u00a011212","phone":"(718) 345-1541","latitude":-73.911216,"longitude":40.669808},{"name":"Children's Place - Triangle Junction","address":"1620 Flatbush Ave Brooklyn,\u00a0NY,\u00a011210","phone":"(718) 434-3079","latitude":-73.945998,"longitude":40.6309545},{"name":"Children's Place - Woodbury Commons","address":"632 Race Track Lane Central Valley,\u00a0NY,\u00a010917","phone":"(845) 928-5365","latitude":-74.2028904,"longitude":40.7510791},{"name":"Children's Place - Walden Galleria","address":"Walden Galleria Cheektowaga,\u00a0NY,\u00a014225","phone":"(716) 681-7366","latitude":-78.76347539999999,"longitude":42.9147293},{"name":"Children's Place - Great Northern Mall","address":"4155 Route 31 Clay,\u00a0NY,\u00a013041","phone":"(315) 622-5400","latitude":-76.22412310000001,"longitude":43.1872358},{"name":"Children's Place - Deer Park Tanger Outlets","address":"Grand Blvd & Commack Rd Deer Park,\u00a0NY,\u00a011729","phone":"(631) 242-0321","latitude":-73.3133335,"longitude":40.7604592},{"name":"Children's Place - Queens Center","address":"90-15 Queens Blvd. Elmhurst,\u00a0NY,\u00a011373","phone":"(718) 760-4970","latitude":-73.87049710000001,"longitude":40.7344589},{"name":"Children's Place - Austin Street","address":"70-34 Austin Street Forest Hills,\u00a0NY,\u00a011375","phone":"(718) 263-0241","latitude":-73.8456588,"longitude":40.7203572},{"name":"Children's Place - Fresh Meadows Shopping Center","address":"61- 32 190th Street Fresh Meadows,\u00a0NY,\u00a011365","phone":"(718) 454-9220","latitude":-73.78492609999999,"longitude":40.740298},{"name":"Children's Place - Roosevelt Field Mall","address":"630 Old Country Road Garden City,\u00a0NY,\u00a011530","phone":"(516) 739-1650","latitude":-73.61357579999999,"longitude":40.7399709},{"name":"Children's Place - Broadway Mall","address":"883 Broadway Mall Hicksville,\u00a0NY,\u00a011801","phone":"(516) 935-5038","latitude":-73.52922439999999,"longitude":40.7739191},{"name":"Children's Place - Arnot Mall","address":"3300 Chambers Road South Horseheads,\u00a0NY,\u00a014845","phone":"(607) 739-6416","latitude":-76.8728016,"longitude":42.1599548},{"name":"Children's Place - Big H Shopping Center","address":"839 New York Avenue Huntington,\u00a0NY,\u00a011743","phone":"(631) 271-2304","latitude":-73.4192731,"longitude":40.8591359},{"name":"Children's Place - Jackson Heights","address":"37-16 82nd Street Jackson Heights,\u00a0NY,\u00a011372","phone":"(718) 533-0800","latitude":-73.8844584,"longitude":40.7491669},{"name":"Children's Place - Jamaica Avenue","address":"162-24 Jamaica Avenue Jamaica,\u00a0NY,\u00a011432","phone":"(718) 297-7655","latitude":-73.79712640000001,"longitude":40.7045573},{"name":"Children's Place - Oakdale Mall","address":"601-635 Harry L. Drive Johnson City,\u00a0NY,\u00a013790","phone":"(607) 770-1404","latitude":-75.97498139999999,"longitude":42.12700479999999},{"name":"Children's Place - Adirondack Factory Outlet","address":"1444 Stae Route 9 Lake George,\u00a0NY,\u00a012845","phone":"(518) 926-7209","latitude":-73.6985868,"longitude":43.3655278},{"name":"Children's Place - Smith Haven Mall","address":"304 Smith Haven Mall Lake Grove,\u00a0NY,\u00a011755","phone":"(631) 724-8770","latitude":-73.1297341,"longitude":40.8629707},{"name":"Children's Place - Levittown Mews","address":"3361 Hempstead Turnpike Levittown,\u00a0NY,\u00a011756","phone":"(516) 735-2801","latitude":-73.5112481,"longitude":40.7266461},{"name":"Children's Place - Sunrise Mall","address":"349 Sunrise Mall Massapequa,\u00a0NY,\u00a011758","phone":"(516) 795-2916","latitude":-73.4339305,"longitude":40.6794849},{"name":"Children's Place - Galleria at Crystal","address":"1 N Galleria Drive Middletown,\u00a0NY,\u00a010941","phone":"(845) 692-5830","latitude":-74.3692367,"longitude":41.4532801},{"name":"Children's Place - Sangertown Square","address":"Route 5 & 5a New Hartford,\u00a0NY,\u00a013413","phone":"(315) 732-8684","latitude":-75.324857,"longitude":43.0824755},{"name":"Children's Place - Lake Success","address":"Lake Success Shopping Cnt New Hyde Park,\u00a0NY,\u00a011040","phone":"(516) 775-2404","latitude":-73.6916675,"longitude":40.753706},{"name":"Children's Place - 126 Delancey Street","address":"126 Delancey Street New York,\u00a0NY,\u00a010002","phone":"(212) 982-8401","latitude":-73.9875519,"longitude":40.718715},{"name":"Children's Place - 86th Street & 3rd Ave.","address":"173 East 86th & 3rd. Ave. New York,\u00a0NY,\u00a010028","phone":"(212) 831-5100","latitude":-73.9539643,"longitude":40.7788161},{"name":"Children's Place - Dyckman Street","address":"132 Dyckman Street New York,\u00a0NY,\u00a010040","phone":"(212) 544-0140","latitude":-73.9255644,"longitude":40.8625001},{"name":"Children's Place - Gotham Plaza","address":"153 East 125th Street New York,\u00a0NY,\u00a010035","phone":"(212) 348-3607","latitude":-73.9367274,"longitude":40.8043969},{"name":"Children's Place - Union Square","address":"36 Union Sq. East New York,\u00a0NY,\u00a010003","phone":"(212) 529-2201","latitude":-73.98914599999999,"longitude":40.7360343},{"name":"Children's Place - W 125th Street","address":"248 West 125th Street New York,\u00a0NY,\u00a010027","phone":"(212) 866-9616","latitude":-73.94992479999999,"longitude":40.8093322},{"name":"Children's Place - Washington Heights","address":"600 West 181 St New York,\u00a0NY,\u00a010033","phone":"(212) 923-7244","latitude":-73.9341244,"longitude":40.8493435},{"name":"Children's Place - Newburgh Mall","address":"1401 Route 300 Newburgh,\u00a0NY,\u00a012550","phone":"(845) 564-2179","latitude":-74.0686889,"longitude":41.51791860000001},{"name":"Children's Place - Fashion Outlet of Niagara Fall","address":"1922 Military Road Niagara Falls,\u00a0NY,\u00a014304","phone":"(716) 297-4230","latitude":-78.9755435,"longitude":43.0978356},{"name":"Children's Place - Sands Shopping Center","address":"3519 Long Beach Road Oceanside,\u00a0NY,\u00a011572","phone":"(516) 678-3921","latitude":-73.63797559999999,"longitude":40.6242411},{"name":"Children's Place - Quaker Crossing","address":"3467 Amelia Drive Orchard Park,\u00a0NY,\u00a014127","phone":"(716) 828-9801","latitude":-78.7821719,"longitude":42.7909443},{"name":"Children's Place - Champlain Centre","address":"60 Smithfield Boulevard Plattsburgh,\u00a0NY,\u00a012901","phone":"(518) 561-1716","latitude":-73.49164499999999,"longitude":44.702243},{"name":"Children's Place - Poughkeepsie Galleria","address":"2001 South Road Poughkeepsie,\u00a0NY,\u00a012601","phone":"(845) 298-0247","latitude":-73.92066679999999,"longitude":41.6262842},{"name":"Children's Place - Bay Terrace Shopping Center","address":"2358a Bell Blvd. Queens,\u00a0NY,\u00a011360","phone":"(718) 281-1028","latitude":-73.7756234,"longitude":40.7800192},{"name":"Children's Place - Myrtle Avenue","address":"57-37 Myrtle Ave. Queens,\u00a0NY,\u00a011385","phone":"(718) 381-4205","latitude":-73.90234439999999,"longitude":40.7004729},{"name":"Children's Place - the Shops at Skyview Center","address":"40-24 College Point Blvd Queens,\u00a0NY,\u00a011354","phone":"(718) 460-2358","latitude":-73.8349365,"longitude":40.7578232},{"name":"Children's Place - Riverhead Tanger Outlet Center","address":"1770 West Main Riverhead,\u00a0NY,\u00a011901","phone":"(631) 727-7447","latitude":-72.70947029999999,"longitude":40.916986},{"name":"Children's Place - Mall at Greece Ridge Center","address":"414 Greece Ridge Center D Rochester,\u00a0NY,\u00a014626","phone":"(585) 225-7950","latitude":-77.6959028,"longitude":43.2047936},{"name":"Children's Place - the Market Place","address":"190 Miracle Mile Drive Rochester,\u00a0NY,\u00a014623","phone":"(585) 424-6670","latitude":-77.63331199999999,"longitude":43.0807368},{"name":"Children's Place - Wilton Mall at Saratoga","address":"3065 Route 50 Saratoga Springs,\u00a0NY,\u00a012866","phone":"(518) 583-6614","latitude":-73.7391628,"longitude":43.1015614},{"name":"Children's Place - Vernon Hills Shopping Center","address":"680 White Plains Road Scarsdale,\u00a0NY,\u00a010583","phone":"(914) 722-6249","latitude":-73.80654350000002,"longitude":40.969411},{"name":"Children's Place - Southport Plaza","address":"999 Montauk Road Shirley,\u00a0NY,\u00a011967","phone":"(631) 281-6999","latitude":-72.86027949999999,"longitude":40.8036284},{"name":"Children's Place - Hylan Shopping Ctr","address":"2600 Hylan Blvd Staten Island,\u00a0NY,\u00a010306","phone":"(718) 667-7031","latitude":-74.1120595,"longitude":40.5678878},{"name":"Children's Place - Staten Island Mall","address":"2655 Richmond Avenue Staten Island,\u00a0NY,\u00a010314","phone":"(718) 494-7480","latitude":-74.1659155,"longitude":40.582418},{"name":"Children's Place - Destiny Usa","address":"9593 Carousel Center Syracuse,\u00a0NY,\u00a013290","phone":"(315) 466-3703","latitude":-76.170701,"longitude":43.0670368},{"name":"Children's Place - Green Acres Mall","address":"2010 Green Acres Mall Valley Stream,\u00a0NY,\u00a011581","phone":"(516) 825-3733","latitude":-73.7193614,"longitude":40.66267690000001},{"name":"Children's Place - East View","address":"7979 Victor Pittsford Rd Victor,\u00a0NY,\u00a014564","phone":"(585) 425-9630","latitude":-77.44368659999999,"longitude":43.0277091},{"name":"Children's Place - Waterloo Premium Outlets","address":"655 Route 318 76 Waterloo,\u00a0NY,\u00a013165","phone":"(315) 539-8770","latitude":-76.9230484,"longitude":42.9549633},{"name":"Children's Place - Salmon Run Mall","address":"21182 Salmon Run Loop Wst Watertown,\u00a0NY,\u00a013601","phone":"(315) 779-8250","latitude":-75.951402,"longitude":43.97692},{"name":"Children's Place - Great South Bay Shopping Cnt.","address":"1021 Montauk Highway West Babylon,\u00a0NY,\u00a011704","phone":"(631) 422-6015","latitude":-73.3511959,"longitude":40.6844693},{"name":"Children's Place - Palisades Center","address":"3751 Palisades Center Dr West Nyack,\u00a0NY,\u00a010994","phone":"(845) 353-6555","latitude":-73.9533038,"longitude":41.098251},{"name":"Children's Place - the Galleria at White Plains","address":"358 the Galleria White Plains,\u00a0NY,\u00a010601","phone":"(914) 997-8133","latitude":-73.770425,"longitude":41.031594},{"name":"Children's Place - Five Towns","address":"253-01 Rockaway Blvd. Woodmere,\u00a0NY,\u00a011598","phone":"(516) 569-9275","latitude":-73.7383941,"longitude":40.6370201},{"name":"Children's Place - Cross County Center","address":"6k Mall Walk Yonkers,\u00a0NY,\u00a010704","phone":"(914) 377-2308","latitude":-73.8565507,"longitude":40.9282985},{"name":"Children's Place - Ridge Hill","address":"1 Ridge Hill Road Yonkers,\u00a0NY,\u00a010710","phone":"(914) 963-8346","latitude":-73.865229,"longitude":40.956545},{"name":"Children's Place - Yonkers Gateway Plaza","address":"2500 Central Park Ave. Yonkers,\u00a0NY,\u00a010702","phone":"(914) 771-5942","latitude":-73.8265533,"longitude":40.98260440000001},{"name":"Children's Place - Jefferson Valley Mall","address":"650 Lee Blvd. Yorktown Heights,\u00a0NY,\u00a010598","phone":"(914) 245-8818","latitude":-73.807682,"longitude":41.3285755},{"name":"Children's Place - Chapel Hill Mall","address":"2000 Brittain Rd Akron,\u00a0OH,\u00a044310","phone":"(330) 633-1753","latitude":-81.4688118,"longitude":41.113892},{"name":"Children's Place - Summit Mall","address":"3265 West Market Street Akron,\u00a0OH,\u00a044333","phone":"(330) 864-0440","latitude":-81.6176897,"longitude":41.1341338},{"name":"Children's Place - Aurora Premium Outlets","address":"549 S Chillicothe Road Aurora,\u00a0OH,\u00a044202","phone":"(330) 562-2796","latitude":-81.3419387,"longitude":41.3019039},{"name":"Children's Place - Beachwood Place","address":"26300 Cedar Road Beachwood,\u00a0OH,\u00a044122","phone":"(216) 595-2430","latitude":-81.49405999999999,"longitude":41.4984265},{"name":"Children's Place - Mall @ Fairfield Commmons","address":"2727 Fairfield Commons Beavercreek,\u00a0OH,\u00a045431","phone":"(937) 427-4052","latitude":-84.0537745,"longitude":39.7640266},{"name":"Children's Place - Ohio Station Outlets","address":"9911 Avon Lake Road Burbank,\u00a0OH,\u00a044214","phone":"(330) 948-0214","latitude":-81.99570760000002,"longitude":41.0022708},{"name":"Children's Place - Belden Village Mall","address":"4230 Belden Village Mall Canton,\u00a0OH,\u00a044718","phone":"(330) 305-0882","latitude":-81.427747,"longitude":40.857092},{"name":"Children's Place - Eastgate Mall","address":"4601 Eastgate Blvd. Cincinnati,\u00a0OH,\u00a045245","phone":"(513) 943-7024","latitude":-84.2717165,"longitude":39.1031558},{"name":"Children's Place - Northgate Mall","address":"9635 Colerain Avenue Cincinnati,\u00a0OH,\u00a045251","phone":"(513) 245-9437","latitude":-84.59556549999999,"longitude":39.2451698},{"name":"Children's Place - Tri-County Mall","address":"11700 Princeton Pike Cincinnati,\u00a0OH,\u00a045246","phone":"(513) 671-3711","latitude":-84.4634811,"longitude":39.2889965},{"name":"Children's Place - Easton Town Center","address":"4016 Fenlon Street Space 816 Columbus,\u00a0OH,\u00a043219","phone":"(614) 473-9813","latitude":-82.9147437,"longitude":40.0519798},{"name":"Children's Place - the Mall @ Polaris","address":"1500 Polaris Pky Columbus,\u00a0OH,\u00a043240","phone":"(614) 846-2550","latitude":-82.97738749999999,"longitude":40.1415928},{"name":"Children's Place - Dayton Mall","address":"2700 Miamisburg-Ctrvil Rd Dayton,\u00a0OH,\u00a045459","phone":"(937) 436-5877","latitude":-84.2202472,"longitude":39.63466409999999},{"name":"Children's Place - Tuttle Crossing","address":"5043 Tuttle Crossing Blvd Dublin,\u00a0OH,\u00a043017","phone":"(614) 336-0540","latitude":-83.1307937,"longitude":40.0727857},{"name":"Children's Place - Midway Mall","address":"3258 Midway Mall Elyria,\u00a0OH,\u00a044035","phone":"(440) 324-0035","latitude":-82.1076504,"longitude":41.3950172},{"name":"Children's Place - Parkway Center North","address":"1594 Stringtown Road Grove City,\u00a0OH,\u00a043123","phone":"(614) 801-9066","latitude":-83.0383834,"longitude":39.8783919},{"name":"Children's Place - Northpark Center","address":"8271 Old Troy Pike Huber Heights,\u00a0OH,\u00a045424","phone":"(937) 237-8588","latitude":-84.1374992,"longitude":39.8719312},{"name":"Children's Place - Tanger Outlets Jeffersonville","address":"8745 Factory Shops Blvd. Jeffersonville,\u00a0OH,\u00a043128","phone":"(740) 948-2662","latitude":-83.60007499999999,"longitude":39.621176},{"name":"Children's Place - Liberty Center","address":"7100 Foundry Row Liberty Township,\u00a0OH,\u00a045069","phone":"(513) 777-1445","latitude":-84.369891,"longitude":39.3715513},{"name":"Children's Place - Lima Mall","address":"2400 Eilda Road Lima,\u00a0OH,\u00a045805","phone":"(419) 222-5900","latitude":-84.15055149999999,"longitude":40.7650037},{"name":"Children's Place - Richland Mall","address":"695 Richland Mall Mansfield,\u00a0OH,\u00a044906","phone":"(419) 528-0066","latitude":-82.5939855,"longitude":40.7707994},{"name":"Children's Place - the Shops @ Fallen Timbers","address":"3100 Main Street Maumee,\u00a0OH,\u00a043537","phone":"(419) 878-2974","latitude":-83.70451179999999,"longitude":41.5469266},{"name":"Children's Place - Great Lakes Mall","address":"7850 Mentor Ave. Mentor,\u00a0OH,\u00a044060","phone":"(440) 205-0890","latitude":-81.3613228,"longitude":41.6572311},{"name":"Children's Place - Cincinnati Premium Outlets","address":"943 Premium Outlet Drive Monroe,\u00a0OH,\u00a045050","phone":"(513) 539-9480","latitude":-84.336426,"longitude":39.4351007},{"name":"Children's Place - Eastwood Mall","address":"5555 Youngstown Warren Rd Niles,\u00a0OH,\u00a044446","phone":"(330) 505-9070","latitude":-80.75033309999999,"longitude":41.2116429},{"name":"Children's Place - Great Northern Mall","address":"192 Great Northern Mall North Olmsted,\u00a0OH,\u00a044070","phone":"(440) 716-1414","latitude":-81.905896,"longitude":41.41704},{"name":"Children's Place - Ohio Valley Mall","address":"67800 Mall Ring Road Saint Clairsville,\u00a0OH,\u00a043950","phone":"(740) 695-3138","latitude":-80.867986,"longitude":40.0686498},{"name":"Children's Place - Upper Valley Mall","address":"1475 Upper Valley Pike Springfield,\u00a0OH,\u00a045504","phone":"(937) 324-4055","latitude":-83.8539839,"longitude":39.9489207},{"name":"Children's Place - South Park Center","address":"500 South Park Center Strongsville,\u00a0OH,\u00a044136","phone":"(440) 878-9295","latitude":-81.8239928,"longitude":41.31267099999999},{"name":"Children's Place - Tanger Outlets at Columbus","address":"400 South Wilson Road Sunbury,\u00a0OH,\u00a043074","phone":"(740) 965-4027","latitude":-82.9241344,"longitude":40.25995640000001},{"name":"Children's Place - Franklin Park","address":"5001 Monroe St. Toledo,\u00a0OH,\u00a043623","phone":"(419) 475-3929","latitude":-83.6407737,"longitude":41.6944462},{"name":"Children's Place - Southern Park Mall","address":"7401 Market Street Youngstown,\u00a0OH,\u00a044512","phone":"(330) 965-8356","latitude":-80.6587878,"longitude":41.02119709999999},{"name":"Children's Place - Colony Square Mall","address":"3575 Maple Avenue Zanesville,\u00a0OH,\u00a043701","phone":"(740) 452-4303","latitude":-82.0270863,"longitude":39.98762},{"name":"Children's Place - Ardmore Commons","address":"2401 12th Avenue Nw Ardmore,\u00a0OK,\u00a073401","phone":"(580) 226-4699","latitude":-97.15838470000001,"longitude":34.1886662},{"name":"Children's Place - Central Mall","address":"200 Southwest C Avenue Lawton,\u00a0OK,\u00a073501","phone":"(580) 353-1146","latitude":-98.3921539,"longitude":34.603923},{"name":"Children's Place - Town Center Plaza","address":"7179 Southeast 29th St Midwest City,\u00a0OK,\u00a073110","phone":"(405) 732-0256","latitude":-97.4011599,"longitude":35.4373915},{"name":"Children's Place - Sooner Mall","address":"3357 West Main St Norman,\u00a0OK,\u00a073072","phone":"(405) 321-2469","latitude":-97.49165169999999,"longitude":35.2184603},{"name":"Children's Place - Oklahoma Factory Shoppes","address":"7624 W. Reno Avenue Oklahoma City,\u00a0OK,\u00a073127","phone":"(405) 789-0003","latitude":-97.6482635,"longitude":35.4623923},{"name":"Children's Place - Quail Springs Mall","address":"2501 W Memorial Road Oklahoma City,\u00a0OK,\u00a073134","phone":"(405) 302-5001","latitude":-97.55971819999999,"longitude":35.6102886},{"name":"Children's Place - Smith Farm Marketplace","address":"9002 North 121 East Ave Owasso,\u00a0OK,\u00a074055","phone":"(918) 376-2404","latitude":-95.846177,"longitude":36.288061},{"name":"Children's Place - Woodland Hills Mall","address":"7021 S Memorial Dr Tulsa,\u00a0OK,\u00a074133","phone":"(918) 294-0850","latitude":-95.8862805,"longitude":36.0619114},{"name":"Children's Place - Valley River Center","address":"269 Valley River Center Eugene,\u00a0OR,\u00a097401","phone":"(541) 343-4169","latitude":-123.108119,"longitude":44.0693893},{"name":"Children's Place - Clackamas Town Center","address":"12000 Se 82 Ave. Happy Valley,\u00a0OR,\u00a097086","phone":"(503) 353-9337","latitude":-122.5723596,"longitude":45.4342512},{"name":"Children's Place - Rogue Valley Mall","address":"1600 N Riverside Medford,\u00a0OR,\u00a097501","phone":"(541) 245-2701","latitude":-122.8776151,"longitude":42.3442821},{"name":"Children's Place - Ontario Marketplace","address":"215 East Lane North Ontario,\u00a0OR,\u00a097914","phone":"(541) 823-1158","latitude":-116.9414308,"longitude":44.0256017},{"name":"Children's Place - Lloyd Center","address":"1010 Lloyd Center Portland,\u00a0OR,\u00a097232","phone":"(503) 282-4997","latitude":-122.6545955,"longitude":45.5314993},{"name":"Children's Place - Lancaster Mall","address":"831 Lancaster Drive Ne Salem,\u00a0OR,\u00a097301","phone":"(503) 362-7733","latitude":-122.9837476,"longitude":44.94019},{"name":"Children's Place - Woodburn Premium Outlets","address":"1001 N. Arney Road Woodburn,\u00a0OR,\u00a097071","phone":"(503) 981-3149","latitude":-122.8782898,"longitude":45.1562098},{"name":"Children's Place - Logan Valley Mall","address":"Route 220 and Goods Lane Altoona,\u00a0PA,\u00a016602","phone":"(814) 942-0789","latitude":-78.414226,"longitude":40.469316},{"name":"Children's Place - Neshaminy Mall","address":"218 Neshaminy Mall Bensalem,\u00a0PA,\u00a019020","phone":"(215) 322-6440","latitude":-74.9577037,"longitude":40.1386527},{"name":"Children's Place - Capital City Mall","address":"3578 Capital City Mall Dr Camp Hill,\u00a0PA,\u00a017011","phone":"(717) 763-9791","latitude":-76.9310678,"longitude":40.22320939999999},{"name":"Children's Place - the Shops @ Saucon Valley","address":"3060 Center Valley Pkwy Center Valley,\u00a0PA,\u00a018034","phone":"(610) 791-4891","latitude":-75.4122217,"longitude":40.5581727},{"name":"Children's Place - the Streets @ Cranberry","address":"20418 Route 19 Cranberry Township,\u00a0PA,\u00a016066","phone":"(724) 776-7970","latitude":-80.1044016,"longitude":40.6945608},{"name":"Children's Place - Palmer Park Mall","address":"137 Palmer Park Mall Easton,\u00a0PA,\u00a018045","phone":"(610) 923-0773","latitude":-75.25999519999999,"longitude":40.6965854},{"name":"Children's Place - Mill Creek Mall","address":"634 Mill Creek Mall Space 265 Erie,\u00a0PA,\u00a016565","phone":"(814) 866-7022","latitude":-80.0986284,"longitude":42.0688827},{"name":"Children's Place - Exton Square","address":"224 Exton Square Mall Exton,\u00a0PA,\u00a019341","phone":"(610) 594-9195","latitude":-75.6262285,"longitude":40.0329837},{"name":"Children's Place - Grove City Premium Outlets","address":"1911 Leesburg-Grove City Grove City,\u00a0PA,\u00a016127","phone":"(724) 748-3334","latitude":-80.1574505,"longitude":41.140693},{"name":"Children's Place - Outlets at Hershey","address":"134 Outlet Square Hershey,\u00a0PA,\u00a017033","phone":"(717) 520-5260","latitude":-76.646095,"longitude":40.29617700000001},{"name":"Children's Place - Town Center @ Waterfront","address":"223 w.bridge St Homestead,\u00a0PA,\u00a015120","phone":"(412) 462-9582","latitude":-79.91761439999999,"longitude":40.407944},{"name":"Children's Place - the Galleria","address":"500 Galleria Drive Johnstown,\u00a0PA,\u00a015904","phone":"(814) 266-4234","latitude":-78.8338163,"longitude":40.2947724},{"name":"Children's Place - Park City Center","address":"660 Park City Center Lancaster,\u00a0PA,\u00a017601","phone":"(717) 295-7474","latitude":-76.335473,"longitude":40.0682368},{"name":"Children's Place - Rockvale Sq Outlets","address":"35 South Willowdale Dr Lancaster,\u00a0PA,\u00a017602","phone":"(717) 391-6861","latitude":-76.1980634,"longitude":40.0209563},{"name":"Children's Place - Oxford Valley Mall","address":"2300 E Lincoln Highway Langhorne,\u00a0PA,\u00a019047","phone":"(215) 891-9525","latitude":-74.8818898,"longitude":40.1827095},{"name":"Children's Place - Philadelphia Premium","address":"18 Lightcap Road Limerick,\u00a0PA,\u00a019468","phone":"(610) 705-4890","latitude":-75.571449,"longitude":40.2369254},{"name":"Children's Place - Beaver Valley Mall","address":"532 Beaver Valley Blvd. Monaca,\u00a0PA,\u00a015061","phone":"(724) 728-6638","latitude":-80.3145979,"longitude":40.6716355},{"name":"Children's Place - Monroeville Mall","address":"1 Monroeville Mall Monroeville,\u00a0PA,\u00a015146","phone":"(412) 380-8009","latitude":-79.78785789999999,"longitude":40.4282299},{"name":"Children's Place - the Shoppes @ Montage","address":"2241 Shoppes Blvd Moosic,\u00a0PA,\u00a018507","phone":"(570) 969-9188","latitude":-75.6761214,"longitude":41.3633864},{"name":"Children's Place - Lycoming Mall","address":"300 B Lycoming Mall Crcle Muncy,\u00a0PA,\u00a017756","phone":"(570) 546-1074","latitude":-76.82654730000002,"longitude":41.2402875},{"name":"Children's Place - 1535 Chestnut Street","address":"1535 Chestnut Street Philadelphia,\u00a0PA,\u00a019102","phone":"(215) 988-9104","latitude":-75.16690439999999,"longitude":39.951417},{"name":"Children's Place - Philadelphia Mills","address":"1575 Franklin Mills Crc. Philadelphia,\u00a0PA,\u00a019154","phone":"(215) 637-2355"},{"name":"Children's Place - Quartermaster Plaza","address":"2200 Oregon Avenue Philadelphia,\u00a0PA,\u00a019145","phone":"(215) 465-2492","latitude":-75.1857875,"longitude":39.9158285},{"name":"Children's Place - Roosevelt Mall","address":"2349 Cottman Avenue Philadelphia,\u00a0PA,\u00a019149","phone":"(215) 708-5051","latitude":-75.059341,"longitude":40.0473905},{"name":"Children's Place - Mall @ Robinson","address":"100 Robinson Dr Pittsburgh,\u00a0PA,\u00a015205","phone":"(412) 788-1296","latitude":-80.1573664,"longitude":40.4546823},{"name":"Children's Place - South Hill Village","address":"447 South Hills Village Pittsburgh,\u00a0PA,\u00a015241","phone":"(412) 851-0808","latitude":-80.054548,"longitude":40.3397406},{"name":"Children's Place - Waterworks Mall","address":"938 Freeport Road Pittsburgh,\u00a0PA,\u00a015238","phone":"(412) 782-6667","latitude":-79.892788,"longitude":40.48919069999999},{"name":"Children's Place - Plymouth Meeting Mall","address":"2105 Plymouth Meeting Mal Plymouth Meeting,\u00a0PA,\u00a019462","phone":"(610) 825-1480","latitude":-75.2846526,"longitude":40.1177417},{"name":"Children's Place - Susquehanna Valley Mall","address":"One Susquehanna Vy Mal Dr Selinsgrove,\u00a0PA,\u00a017870","phone":"(570) 372-0820","latitude":-76.8484536,"longitude":40.8249765},{"name":"Children's Place - Springfield Mall","address":"33 Springfield Mall Springfield,\u00a0PA,\u00a019064","phone":"(610) 543-3390","latitude":-75.329798,"longitude":39.9343695},{"name":"Children's Place - the Crossings","address":"1000 Premium Outlets Dr Tannersville,\u00a0PA,\u00a018372","phone":"(570) 629-6686","latitude":-75.312804,"longitude":41.048399},{"name":"Children's Place - Pittsburg Mills","address":"507 Pittsburgh Mills Crcl Tarentum,\u00a0PA,\u00a015084","phone":"(724) 274-9105","latitude":-79.7992238,"longitude":40.5712939},{"name":"Children's Place - 69th Street","address":"82-84 S 69th Street Upper Darby,\u00a0PA,\u00a019082","phone":"(610) 352-6425","latitude":-75.2588375,"longitude":39.9593845},{"name":"Children's Place - Tanger Outlet Pittsburgh","address":"2200 Tanger Blvd Washington,\u00a0PA,\u00a015301","phone":"(724) 225-1695","latitude":-80.212716,"longitude":40.2151538},{"name":"Children's Place - Lehigh Valley Mall","address":"209 Lehigh Valley Mall Whitehall,\u00a0PA,\u00a018052","phone":"(610) 266-3972","latitude":-75.48433899999999,"longitude":40.6296062},{"name":"Children's Place - Wyoming Valley Mall","address":"Business Rt 309 Wilkes-Barre,\u00a0PA,\u00a018702","phone":"(570) 824-6885","latitude":-75.8624846,"longitude":41.243785},{"name":"Children's Place - Willow Grove Park","address":"2500 Moreland Road Willow Grove,\u00a0PA,\u00a019090","phone":"(215) 657-8220","latitude":-75.1201341,"longitude":40.1431285},{"name":"Children's Place - the Shoppes @ Wyomissing","address":"780 Woodland Road Wyomissing,\u00a0PA,\u00a019610","phone":"(610) 372-0391","latitude":-75.9643329,"longitude":40.34949},{"name":"Children's Place - York Galleria","address":"Whiteford Rd & mt.zion Rd York,\u00a0PA,\u00a017402","phone":"(717) 755-5122","latitude":-76.6688022,"longitude":39.9880371},{"name":"Children's Place - Puerto Rico Premium Outlets","address":"1 Prime Outlets Boulevard Barceloneta,\u00a0PR,\u00a000617","phone":"(787) 846-3389","latitude":-66.5408782,"longitude":18.4386764},{"name":"Children's Place - Rexville Town Center","address":"Pr167 & Avenida Ls Cumbre Bayamon,\u00a0PR,\u00a000957","phone":"(787) 279-4303","latitude":-66.1885206,"longitude":18.364649},{"name":"Children's Place - Las Catalinas","address":"Road 52 of Betances St. Caguas,\u00a0PR,\u00a000727","phone":"(787) 745-2200","latitude":-66.0414227,"longitude":18.2364259},{"name":"Children's Place - the Outlet Mall 66","address":"18400 State Road 3 Canovanas,\u00a0PR,\u00a000729","phone":"(787) 256-3032","latitude":-66.82552319999999,"longitude":18.4862869},{"name":"Children's Place - Plaza Carolina Shopping Center","address":"Fragoso Ave\/65th Infantry Carolina,\u00a0PR,\u00a000983","phone":"(787) 768-6680"},{"name":"Children's Place - San Patricio Plaza","address":"San Patricio Pl St E15 Guaynabo,\u00a0PR,\u00a000968","phone":"(787) 707-1905","latitude":-66.1054899,"longitude":18.4090438},{"name":"Children's Place - Plaza Del Norte","address":"506 Calle Truncado Hatillo,\u00a0PR,\u00a000659","phone":"(787) 817-1100","latitude":-66.8260777,"longitude":18.4863519},{"name":"Children's Place - Mayaguez Mall","address":"975 Hostos Avenue Mayaguez,\u00a0PR,\u00a000680","phone":"(787) 806-0404","latitude":-67.141864,"longitude":18.1557052},{"name":"Children's Place - Plaza Del Caribe","address":"2050 Ponce By-Pass Ponce,\u00a0PR,\u00a000717","phone":"(787) 812-1215","latitude":-66.6116218,"longitude":17.9924462},{"name":"Children's Place - Plaza Las Americas","address":"525 Fdr Avenue San Juan,\u00a0PR,\u00a000918","phone":"(787) 282-1029","latitude":-66.0361996,"longitude":18.4090106},{"name":"Children's Place - Trujillo Alto Plaza","address":"200 Carr 181 Trujillo Alto,\u00a0PR,\u00a000976","phone":"(787) 748-5550","latitude":-66.00508920000001,"longitude":18.3526724},{"name":"Children's Place - Garden City Center","address":"72 Hillside Road Cranston,\u00a0RI,\u00a002920","phone":"(401) 275-0234","latitude":-71.4578564,"longitude":41.7626529},{"name":"Children's Place - Providence Place","address":"34 Provident Place Providence,\u00a0RI,\u00a002903","phone":"(401) 243-0230","latitude":-71.416293,"longitude":41.826692},{"name":"Children's Place - Hitchcock Plaza","address":"445 Fabian Drive Aiken,\u00a0SC,\u00a029803","phone":"(803) 642-5805","latitude":-81.7231832,"longitude":33.520776},{"name":"Children's Place - Hilton Head Outlet Center","address":"1256 Fording Island Road Bluffton,\u00a0SC,\u00a029910","phone":"(843) 757-3391","latitude":-80.8326494,"longitude":32.2476801},{"name":"Children's Place - Columbiana Centre","address":"100 Columbiana Circle Columbia,\u00a0SC,\u00a029212","phone":"(803) 749-9624","latitude":-81.1586677,"longitude":34.0783578},{"name":"Children's Place - Village @ Sandhill","address":"471-3 Town Ctr Plce Columbia,\u00a0SC,\u00a029229","phone":"(803) 736-1540","latitude":-80.8789415,"longitude":34.1300606},{"name":"Children's Place - Magnolia Mall","address":"2701 David Mcleod Blvd Florence,\u00a0SC,\u00a029501","phone":"(843) 662-0400","latitude":-79.8294872,"longitude":34.1906045},{"name":"Children's Place - Gaffney Premium Outlets","address":"Factory Shops Blvd Gaffney,\u00a0SC,\u00a029341","phone":"(864) 488-9110","latitude":-81.7119103,"longitude":35.0809094},{"name":"Children's Place - Haywood Mall","address":"700 Haywood Road Greenville,\u00a0SC,\u00a029607","phone":"(864) 284-6733","latitude":-82.3335876,"longitude":34.8499171},{"name":"Children's Place - Greenwood Mall","address":"420-39a State Highway 72 Greenwood,\u00a0SC,\u00a029649","phone":"(864) 223-0558","latitude":-82.1840005,"longitude":34.2088039},{"name":"Children's Place - Coastal Grand","address":"2000 Coastal Grand Circle Myrtle Beach,\u00a0SC,\u00a029577","phone":"(843) 839-3125","latitude":-78.92345329999999,"longitude":33.7036255},{"name":"Children's Place - Myrtle Beach Factory Stores","address":"4618 Factory Store Blvd Myrtle Beach,\u00a0SC,\u00a029579","phone":"(843) 903-3742","latitude":-78.955638,"longitude":33.752336},{"name":"Children's Place - Tanger Outlets at Myrtle","address":"10835 Kings Road Myrtle Beach,\u00a0SC,\u00a029572","phone":"(843) 449-5982","latitude":-78.77451529999999,"longitude":33.7847782},{"name":"Children's Place - Northwoods Mall","address":"2150 Northwoods Blvd. North Charleston,\u00a0SC,\u00a029406","phone":"(843) 818-2140","latitude":-80.0444721,"longitude":32.9441659},{"name":"Children's Place - Tanger Outlets Charleston","address":"4840 Tanger Outlet Blvd North Charleston,\u00a0SC,\u00a029418","phone":"(843) 744-3152","latitude":-80.0193224,"longitude":32.8736953},{"name":"Children's Place - Westgate Mall","address":"205 W Blackstock Road Spartanburg,\u00a0SC,\u00a029301","phone":"(864) 587-2882","latitude":-81.994847,"longitude":34.9405919},{"name":"Children's Place - Sumter Mall","address":"1057 Broad Street Sumter,\u00a0SC,\u00a029150","phone":"(803) 775-1657","latitude":-80.3727057,"longitude":33.9497812},{"name":"Children's Place - the Empire","address":"4001 W 41st Street Sioux Falls,\u00a0SD,\u00a057106","phone":"(605) 362-5734","latitude":-96.7745923,"longitude":43.5118966},{"name":"Children's Place - Hamilton Place","address":"2100 Hamilton Place Blvd Chattanooga,\u00a0TN,\u00a037421","phone":"(423) 855-4327","latitude":-85.1582859,"longitude":35.0352025},{"name":"Children's Place - Northgate Mall","address":"316 Northgate Mall Chattanooga,\u00a0TN,\u00a037415","phone":"(423) 877-9057","latitude":-85.24029399999999,"longitude":35.129223},{"name":"Children's Place - Governors Square","address":"2801 Wilma Rudolf Blvd Clarksville,\u00a0TN,\u00a037040","phone":"(931) 920-0441","latitude":-87.2876594,"longitude":36.5882288},{"name":"Children's Place - Bradley Square Mall","address":"200 Paul Huff Parkway Nw Cleveland,\u00a0TN,\u00a037312","phone":"(423) 614-6260","latitude":-84.84752569999999,"longitude":35.2062744},{"name":"Children's Place - Carriage Crossing","address":"4670 Merchants Park Cir Collierville,\u00a0TN,\u00a038017","phone":"(901) 861-3473","latitude":-89.7182425,"longitude":35.0242858},{"name":"Children's Place - Jackson Plaza","address":"377 West Jackson Street Cookeville,\u00a0TN,\u00a038501","phone":"(931) 372-1369","latitude":-85.51784500000001,"longitude":36.1573148},{"name":"Children's Place - Cool Springs Galleria","address":"1800 Galleria Blvd. Franklin,\u00a0TN,\u00a037067","phone":"(615) 771-6059","latitude":-86.8135382,"longitude":35.957118},{"name":"Children's Place - Rivergate Mall","address":"1000 Rivergate Parkway Goodlettsville,\u00a0TN,\u00a037072","phone":"(615) 851-7471","latitude":-86.699942,"longitude":36.302848},{"name":"Children's Place - the Streets @ Indian Lake","address":"300 Indian Lake Blvd Hendersonville,\u00a0TN,\u00a037075","phone":"(615) 264-5630","latitude":-86.5918057,"longitude":36.3300419},{"name":"Children's Place - Old Hickory Mall","address":"2021 N Highlan Ave. Jackson,\u00a0TN,\u00a038305","phone":"(731) 660-1667","latitude":-88.8307469,"longitude":35.6566672},{"name":"Children's Place - Mall at Johnson City","address":"2011 n.roan Street Johnson City,\u00a0TN,\u00a037601","phone":"(423) 262-0144","latitude":-82.37762409999999,"longitude":36.3382979},{"name":"Children's Place - Kingsport Town Center","address":"2101 Fort Henry Drive Kingsport,\u00a0TN,\u00a037664","phone":"(423) 230-0010","latitude":-82.5203731,"longitude":36.5290528},{"name":"Children's Place - West Town Mall","address":"7600 Kingston Pike Knoxville,\u00a0TN,\u00a037919","phone":"(865) 693-7494","latitude":-84.0412353,"longitude":35.9230111},{"name":"Children's Place - Lebanon Premium Outlets","address":"475 Outlet Village Blvd Lebanon,\u00a0TN,\u00a037090","phone":"(615) 443-2820","latitude":-86.3037488,"longitude":36.1784536},{"name":"Children's Place - Oak Court Mall","address":"4465 Poplar Ave. Memphis,\u00a0TN,\u00a038117","phone":"(901) 683-1333","latitude":-89.9133493,"longitude":35.1172361},{"name":"Children's Place - Wolfchase Galleria","address":"2760 North Germantown Rd Memphis,\u00a0TN,\u00a038133","phone":"(901) 384-8200","latitude":-89.7931468,"longitude":35.20067},{"name":"Children's Place - College Square Mall","address":"2550 E. Morris Blvd. Morristown,\u00a0TN,\u00a037813","phone":"(423) 318-7869","latitude":-83.260751,"longitude":36.22035},{"name":"Children's Place - Avenue @ Murfreesboro","address":"2615 Medical Center Hway Murfreesboro,\u00a0TN,\u00a037129","phone":"(615) 494-1655","latitude":-86.4444134,"longitude":35.8614808},{"name":"Children's Place - Opry Mills Mall","address":"397 Opry Mills Drive Nashville,\u00a0TN,\u00a037214","phone":"(615) 823-4951","latitude":-86.6941899,"longitude":36.2016643},{"name":"Children's Place - Five Oaks Tanger Outlet Center","address":"1645 Parkway Sevierville,\u00a0TN,\u00a037862","phone":"(865) 428-7411","latitude":-83.5721085,"longitude":35.8333532},{"name":"Children's Place - Shoppes at Abilene","address":"3769 & 3773 Catclaw Abilene,\u00a0TX,\u00a079602","phone":"(325) 690-1368","latitude":-99.77399919999999,"longitude":32.4072498},{"name":"Children's Place - Allen Premium Outlets","address":"820 West Stacy Road Allen,\u00a0TX,\u00a075013","phone":"(972) 678-1290","latitude":-96.66068609999999,"longitude":33.131195},{"name":"Children's Place - Westgate Mall","address":"7701 West I 40 Amarillo,\u00a0TX,\u00a079121","phone":"(806) 359-6544","latitude":-101.7551027,"longitude":35.1936579},{"name":"Children's Place - Lincoln Square","address":"1500 North Collins St Arlington,\u00a0TX,\u00a076011","phone":"(817) 460-2192","latitude":-97.0971493,"longitude":32.7574128},{"name":"Children's Place - the Parks at Arlington","address":"3811 South Cooper Street Arlington,\u00a0TX,\u00a076015","phone":"(817) 472-1120","latitude":-97.1290691,"longitude":32.6801298},{"name":"Children's Place - Barton Creek","address":"2901 Capital of Texas Hwy Austin,\u00a0TX,\u00a078746","phone":"(512) 330-1750","latitude":-97.8110542,"longitude":30.3274751},{"name":"Children's Place - Mueller Town Center","address":"1201 Barbara Jordan Blvd Austin,\u00a0TX,\u00a078723","phone":"(512) 322-0812","latitude":-97.70957600000001,"longitude":30.3045572},{"name":"Children's Place - South Park Meadows","address":"9500 South Ih-35 Austin,\u00a0TX,\u00a078748","phone":"(512) 292-3025","latitude":-97.7941776,"longitude":30.1582073},{"name":"Children's Place - Riceland Pavillion","address":"4665 Garth Road Baytown,\u00a0TX,\u00a077521","phone":"(832) 556-0978","latitude":-94.98002439999999,"longitude":29.7751712},{"name":"Children's Place - Parkdale Mall","address":"6155 Eastex Freeway Beaumont,\u00a0TX,\u00a077706","phone":"(409) 898-0916","latitude":-94.161675,"longitude":30.12544459999999},{"name":"Children's Place - Sunrise Mall","address":"2370 N Expressway Brownsville,\u00a0TX,\u00a078526","phone":"(956) 554-0018","latitude":-97.4870306,"longitude":25.9842716},{"name":"Children's Place - Gateway Station Ii Burleson","address":"1185 N. Burleson Burleson,\u00a0TX,\u00a076028","phone":"(817) 295-3176","latitude":-97.3206123,"longitude":32.569066},{"name":"Children's Place - Sun Valley Factory Shops","address":"7051 South Desert Blvd Canutillo,\u00a0TX,\u00a079835","phone":"(915) 877-2530","latitude":-106.5860305,"longitude":31.9134611},{"name":"Children's Place - Hillside Village","address":"305 West Fm 1382 Cedar Hill,\u00a0TX,\u00a075104","phone":"(972) 291-8665","latitude":-96.94213359999999,"longitude":32.6025671},{"name":"Children's Place - Lakeline Mall","address":"11200 Lakeline Mall Drive Cedar Park,\u00a0TX,\u00a078613","phone":"(512) 996-8880","latitude":-97.8016801,"longitude":30.4719924},{"name":"Children's Place - Conroe Market Place","address":"2912 I-45 North Fm 3083 Conroe,\u00a0TX,\u00a077303","phone":"(936) 756-3372","latitude":-95.463556,"longitude":30.35051619999999},{"name":"Children's Place - La Palmera","address":"5488 South Padre Island Corpus Christi,\u00a0TX,\u00a078411","phone":"(361) 992-9899","latitude":-97.3700334,"longitude":27.7115365},{"name":"Children's Place - Galleria Dallas","address":"13350 Dallas Parkway Dallas,\u00a0TX,\u00a075240","phone":"(972) 980-7618","latitude":-96.8198347,"longitude":32.9299455},{"name":"Children's Place - Park Lane Place","address":"8180 Park Lane Dallas,\u00a0TX,\u00a075231","phone":"(214) 987-0152","latitude":-96.7684464,"longitude":32.8688035},{"name":"Children's Place - Torre Vista Shopping Center","address":"10325 Lake June Road Dallas,\u00a0TX,\u00a075217","phone":"(972) 329-0003","latitude":-96.6466227,"longitude":32.7353277},{"name":"Children's Place - Wheatland Village Shoppng Cntr","address":"2409 Wheatland Road Dallas,\u00a0TX,\u00a075248","phone":"(972) 572-2024","latitude":-96.8579799,"longitude":32.6477641},{"name":"Children's Place - Plaza Del Sol","address":"2205 Veterans Blvd Del Rio,\u00a0TX,\u00a078840","phone":"(830) 774-2703","latitude":-100.9029965,"longitude":29.3906785},{"name":"Children's Place - Mall De Las Aguilas","address":"455 South Bibb Ave Eagle Pass,\u00a0TX,\u00a078852","phone":"(830) 752-1991","latitude":-100.484097,"longitude":28.7034208},{"name":"Children's Place - the Shops @ Rio Grande Valley","address":"423 Trenton Road Edinburg,\u00a0TX,\u00a078539","phone":"(956) 381-0688","latitude":-98.1715704,"longitude":26.261824},{"name":"Children's Place - Cielo Vista Mall","address":"8401 Gateway West El Paso,\u00a0TX,\u00a079925","phone":"(915) 771-8371","latitude":-106.3793949,"longitude":31.7754938},{"name":"Children's Place - El Paseo Market Place","address":"1842 C Joe Battle Blvd El Paso,\u00a0TX,\u00a079936","phone":"(915) 855-3926","latitude":-106.2650785,"longitude":31.7565251},{"name":"Children's Place - Alliance Town Center","address":"9409 Sage Meadow Trail Fort Worth,\u00a0TX,\u00a076177","phone":"(817) 750-0324","latitude":-97.3148458,"longitude":32.9099772},{"name":"Children's Place - Hulen Mall","address":"4800 South Hulen St Fort Worth,\u00a0TX,\u00a076132","phone":"(817) 294-2290","latitude":-97.3984298,"longitude":32.6783274},{"name":"Children's Place - La Gran Plaza","address":"4200 South Freeway Fort Worth,\u00a0TX,\u00a076115","phone":"(817) 921-0782","latitude":-97.3220762,"longitude":32.6850278},{"name":"Children's Place - Ridgmar Mall","address":"1936 Green Oaks Road Fort Worth,\u00a0TX,\u00a076116","phone":"(817) 989-0915","latitude":-97.433816,"longitude":32.7401919},{"name":"Children's Place - Baybrook Mall","address":"145 & Bay Area Blvd Friendswood,\u00a0TX,\u00a077546","phone":"(281) 480-7018","latitude":-95.16340679999999,"longitude":29.5202178},{"name":"Children's Place - Stonebriar Centre","address":"2601 Preston Rd Ste 1248 Frisco,\u00a0TX,\u00a075034","phone":"(972) 731-9813","latitude":-96.80593499999999,"longitude":33.0982299},{"name":"Children's Place - Firewheel Town Center","address":"640 Beebalm Lane Garland,\u00a0TX,\u00a075040","phone":"(972) 530-7234","latitude":-96.61097819999999,"longitude":32.9537005},{"name":"Children's Place - Grand Prairie Premium Outlets","address":"I-20 & 360 Grand Prairie,\u00a0TX,\u00a075052","phone":"(972) 352-2090","latitude":-97.0630334,"longitude":32.6718796},{"name":"Children's Place - Grapevine Mills","address":"3000 Grapevine Mills Pkwy Grapevine,\u00a0TX,\u00a076051","phone":"(972) 355-0069","latitude":-97.0372579,"longitude":32.9687994},{"name":"Children's Place - Market Heights","address":"201 Est Cntrl Texas Expwy Harker Heights,\u00a0TX,\u00a076548","phone":"(254) 699-1266","latitude":-97.6627628,"longitude":31.0725752},{"name":"Children's Place - Harlingen Corners","address":"2819 W. Expressway Harlingen,\u00a0TX,\u00a078550","phone":"(956) 425-0049","latitude":-97.72588499999999,"longitude":26.184792},{"name":"Children's Place - Copperwood Village","address":"6751 Highway 6 North Houston,\u00a0TX,\u00a077084","phone":"(281) 859-7000","latitude":-95.6469151,"longitude":29.8740286},{"name":"Children's Place - Gulfgate Center","address":"950 Gulfgate Center Houston,\u00a0TX,\u00a077087","phone":"(713) 649-1004","latitude":-95.2990315,"longitude":29.6975778},{"name":"Children's Place - Memorial City Mall","address":"303 Memorial City Houston,\u00a0TX,\u00a077024","phone":"(713) 932-6419","latitude":-95.53973040000001,"longitude":29.7810332},{"name":"Children's Place - Meyerland Plaza Shopping Cnt","address":"565 Meyerland Plaza Houston,\u00a0TX,\u00a077096","phone":"(713) 668-5933","latitude":-95.45992400000002,"longitude":29.687968},{"name":"Children's Place - Northline Commons","address":"4400 North Freeway Houston,\u00a0TX,\u00a077022","phone":"(713) 692-1407","latitude":-95.38056569999999,"longitude":29.8313473},{"name":"Children's Place - Sawyer Heights","address":"1911 Taylor St. Houston,\u00a0TX,\u00a077007","phone":"(713) 868-4462","latitude":-95.38261899999999,"longitude":29.7748706},{"name":"Children's Place - Willowbrook Mall-Tx","address":"7925 Fm 1960 West Houston,\u00a0TX,\u00a077070","phone":"(281) 890-0589","latitude":-95.54593849999999,"longitude":29.9619953},{"name":"Children's Place - the Shops at North East Mall","address":"847 Northeast Mall Hurst,\u00a0TX,\u00a076053","phone":"(817) 284-0352","latitude":-97.2027583,"longitude":32.8255907},{"name":"Children's Place - Irving Mall","address":"3725 Irving Mall Irving,\u00a0TX,\u00a075062","phone":"(972) 252-8175","latitude":-96.9943945,"longitude":32.8410616},{"name":"Children's Place - Katy Mills","address":"5000 Katy Mills Circle Katy,\u00a0TX,\u00a077494","phone":"(281) 644-2388","latitude":-95.80933580000001,"longitude":29.7758308},{"name":"Children's Place - Kingwood Commons","address":"756 Kingwood Drive Kingwood,\u00a0TX,\u00a077339","phone":"(281) 358-6898","latitude":-95.24419759999999,"longitude":30.0509353},{"name":"Children's Place - Brazos Mall","address":"100 West Highway 332 Lake Jackson,\u00a0TX,\u00a077566","phone":"(979) 297-6120","latitude":-95.4587275,"longitude":29.0510059},{"name":"Children's Place - Mall Del Norte","address":"5300 San Dario Laredo,\u00a0TX,\u00a078041","phone":"(956) 796-1418","latitude":-99.49952979999999,"longitude":27.5512367},{"name":"Children's Place - Outlet Shoppes at Laredo","address":"1600 Water Street Laredo,\u00a0TX,\u00a078040","phone":"(956) 898-3521","latitude":-99.512563,"longitude":27.502148},{"name":"Children's Place - Longview Town Crossing","address":"3098 North Eastman Road Longview,\u00a0TX,\u00a075605","phone":"(903) 663-8592","latitude":-94.72601309999999,"longitude":32.5514063},{"name":"Children's Place - South Plains Mall","address":"6002 Slide Road Lubbock,\u00a0TX,\u00a079414","phone":"(806) 799-3371","latitude":-101.9224805,"longitude":33.5396522},{"name":"Children's Place - Lufkin Mall","address":"4600 South Medford Drive Lufkin,\u00a0TX,\u00a075901","phone":"(936) 632-9000","latitude":-94.7248237,"longitude":31.3127974},{"name":"Children's Place - Mansfield Towne Crossing","address":"120 West Debbie Lane Mansfield,\u00a0TX,\u00a076063","phone":"(817) 453-6451","latitude":-97.1460421,"longitude":32.5912786},{"name":"Children's Place - La Plaza Mall","address":"2200 South 10th Street Mcallen,\u00a0TX,\u00a078503","phone":"(956) 686-7211","latitude":-98.2362856,"longitude":26.1852376},{"name":"Children's Place - Rio Grand Valley Premium","address":"5001 East Expressway 83 Mercedes,\u00a0TX,\u00a078570","phone":"(956) 565-9817","latitude":-97.8888406,"longitude":26.1604278},{"name":"Children's Place - Town East Mall","address":"1056 Town East Mall Mesquite,\u00a0TX,\u00a075150","phone":"(972) 698-0171","latitude":-96.62690219999999,"longitude":32.8089211},{"name":"Children's Place - Midland Park Mall","address":"4511 North Midkiff Road Midland,\u00a0TX,\u00a079705","phone":"(432) 689-0063","latitude":-102.1318793,"longitude":32.0299816},{"name":"Children's Place - Music City Mall","address":"4201 East 42nd Street Odessa,\u00a0TX,\u00a079762","phone":"(432) 362-0669","latitude":-102.3391442,"longitude":31.8924031},{"name":"Children's Place - Fairway Plaza","address":"5622 Fairmont Parkway Pasadena,\u00a0TX,\u00a077505","phone":"(281) 487-0370","latitude":-95.154679,"longitude":29.6496974},{"name":"Children's Place - Pearland Town Center","address":"11200 Broadway Pearland,\u00a0TX,\u00a077584","phone":"(713) 436-1654","latitude":-95.39350580000001,"longitude":29.5546145},{"name":"Children's Place - Stone Hill Town Center","address":"19000 Limestone Commercial Dri Pflugerville,\u00a0TX,\u00a078660","phone":"(512) 990-0273","latitude":-97.5967878,"longitude":30.47254},{"name":"Children's Place - Central Mall","address":"3100 Highway 365 Port Arthur,\u00a0TX,\u00a077642","phone":"(409) 729-9157","latitude":-93.9884573,"longitude":29.94883519999999},{"name":"Children's Place - Shops at Bella Terra","address":"5564 W. Grand Parkway S Richmond,\u00a0TX,\u00a077469","phone":"(281) 232-0770","latitude":-95.68083209999999,"longitude":29.5740076},{"name":"Children's Place - the Plaza at Rockwall","address":"1019 East 1-30 Bldg 26 Rockwall,\u00a0TX,\u00a075087","phone":"(972) 772-0013","latitude":-96.405135,"longitude":32.9242367},{"name":"Children's Place - Brazos Town Center","address":"23871 Brazos Town Crssing Rosenberg,\u00a0TX,\u00a077471","phone":"(281) 239-2377","latitude":-95.7481231,"longitude":29.54288709999999},{"name":"Children's Place - Round Rock Premium Outlets","address":"4401 North Ih35 Round Rock,\u00a0TX,\u00a078664","phone":"(512) 864-3586","latitude":-97.6903305,"longitude":30.5655981},{"name":"Children's Place - Sunset Mall","address":"4001 Sunset Drive San Angelo,\u00a0TX,\u00a076904","phone":"(325) 949-7684","latitude":-100.4979218,"longitude":31.4277851},{"name":"Children's Place - Alamo Ranch","address":"5511 West Loop 1604 North San Antonio,\u00a0TX,\u00a078253","phone":"(210) 521-0207","latitude":-98.7090027,"longitude":29.490835},{"name":"Children's Place - Ingram Park Mall","address":"6301 Nw Loop 410 San Antonio,\u00a0TX,\u00a078238","phone":"(210) 682-7710","latitude":-98.6211278,"longitude":29.4690915},{"name":"Children's Place - Mccreless Market","address":"4224 S New Braunfels Blvd San Antonio,\u00a0TX,\u00a078223","phone":"(210) 534-4102","latitude":-98.45901719999999,"longitude":29.3768837},{"name":"Children's Place - North Star Mall","address":"7400 San Pedro Road San Antonio,\u00a0TX,\u00a078216","phone":"(210) 384-0618","latitude":-98.4982007,"longitude":29.5174091},{"name":"Children's Place - Southpark Mall","address":"2310 Sw Military Drive San Antonio,\u00a0TX,\u00a078224","phone":"(210) 932-4760","latitude":-98.53138129999999,"longitude":29.35277929999999},{"name":"Children's Place - San Marcos Ii Tanger Outlet","address":"4015 Interstate 35 South San Marcos,\u00a0TX,\u00a078666","phone":"(512) 396-2181","latitude":-97.9845466,"longitude":29.8249513},{"name":"Children's Place - Forum at Olympia","address":"8332 Agora Parkway Selma,\u00a0TX,\u00a078154","phone":"(210) 658-0146","latitude":-98.3225969,"longitude":29.57172289999999},{"name":"Children's Place - Cypresswood Court","address":"19507 North Freeway Spring,\u00a0TX,\u00a077388","phone":"(281) 528-2188","latitude":-95.43477419999999,"longitude":30.049946},{"name":"Children's Place - the Fountains","address":"12638 Fountain Lakes Crcl Stafford,\u00a0TX,\u00a077477","phone":"(281) 313-3365","latitude":-95.5873405,"longitude":29.6386075},{"name":"Children's Place - First Colony Mall","address":"16535 South West Freeway Sugar Land,\u00a0TX,\u00a077479","phone":"(281) 313-4224","latitude":-95.6230478,"longitude":29.5929163},{"name":"Children's Place - Central Mall","address":"123 Central Mall Texarkana,\u00a0TX,\u00a075503","phone":"(903) 838-3743","latitude":-94.08047839999999,"longitude":33.4554689},{"name":"Children's Place - Tanger Outlets Houston","address":"5885 Gulf Freeway Texas City,\u00a0TX,\u00a077591","phone":"(281) 534-2502","latitude":-95.05901999999999,"longitude":29.4249681},{"name":"Children's Place - Woodlands Mall","address":"1201 Lake Woodlands Rd the Woodlands,\u00a0TX,\u00a077380","phone":"(832) 585-0655","latitude":-95.45537,"longitude":30.1639591},{"name":"Children's Place - Tomball Marketplace","address":"14333 Fm 2920 Tomball,\u00a0TX,\u00a077377","phone":"(281) 516-9471","latitude":-95.63937419999999,"longitude":30.0862357},{"name":"Children's Place - Broadway Square","address":"4601 South Broadway Tyler,\u00a0TX,\u00a075703","phone":"(903) 561-9192","latitude":-95.3028928,"longitude":32.2992813},{"name":"Children's Place - Victoria Mall","address":"7800 North Navarro St Victoria,\u00a0TX,\u00a077904","phone":"(361) 576-9208","latitude":-96.99433239999999,"longitude":28.8676683},{"name":"Children's Place - Central Texas Marketplace","address":"2500 West Loop 340 Waco,\u00a0TX,\u00a076711","phone":"(254) 662-1511","latitude":-97.1572018,"longitude":31.4988199},{"name":"Children's Place - Weatherford Ridge Shoppng Cntr","address":"225 Adams Street Weatherford,\u00a0TX,\u00a076086","phone":"(817) 594-3885","latitude":-97.7877046,"longitude":32.7334325},{"name":"Children's Place - Sikes Center Mall","address":"3111 Midwestern Parkway Wichita Falls,\u00a0TX,\u00a076308","phone":"(940) 692-4442","latitude":-98.5326274,"longitude":33.8690098},{"name":"Children's Place - Layton Hills Mall","address":"1201 North Hill Field Rd Layton,\u00a0UT,\u00a084041","phone":"(801) 498-7695","latitude":-111.9775455,"longitude":41.0784332},{"name":"Children's Place - Outlets at Traverse Mountain","address":"3700 North Cabelas Boulevard Lehi,\u00a0UT,\u00a084043","phone":"(801) 901-1286","latitude":-111.8846041,"longitude":40.43503140000001},{"name":"Children's Place - Cache Valley Mall","address":"1300 North Main Logan,\u00a0UT,\u00a084341","phone":"(435) 752-2116","latitude":-111.8311287,"longitude":41.7558821},{"name":"Children's Place - Fashion Place","address":"6191 South State Murray,\u00a0UT,\u00a084107","phone":"(801) 265-3663","latitude":-111.8888049,"longitude":40.63816629999999},{"name":"Children's Place - University Mall","address":"575 E University Pkwy Orem,\u00a0UT,\u00a084097","phone":"(801) 426-8478","latitude":-111.6813505,"longitude":40.2751154},{"name":"Children's Place - Factory Stores@ Park City","address":"6699 North Landmark Drive Park City,\u00a0UT,\u00a084098","phone":"(435) 940-1808","latitude":-111.5518159,"longitude":40.7291402},{"name":"Children's Place - Riverdale Mall","address":"4095 Riverdale Road Riverdale,\u00a0UT,\u00a084405","phone":"(801) 621-2589","latitude":-111.9841872,"longitude":41.1903498},{"name":"Children's Place - Zion Factory Stores","address":"250 North Red Cliff Dr Saint George,\u00a0UT,\u00a084790","phone":"(435) 634-1006","latitude":-113.5533427,"longitude":37.1135369},{"name":"Children's Place - South Towne Center","address":"10450 South State Street Sandy,\u00a0UT,\u00a084070","phone":"(801) 816-9670","latitude":-111.8950485,"longitude":40.5620565},{"name":"Children's Place - Jordan Landing","address":"3768 West Center Park Dr West Jordan,\u00a0UT,\u00a084084","phone":"(801) 280-3588","latitude":-111.9837121,"longitude":40.6200788},{"name":"Children's Place - Valley Fair Mall","address":"3639 South 2700 West West Valley City,\u00a0UT,\u00a084119","phone":"(801) 967-2900","latitude":-111.9567976,"longitude":40.6933027},{"name":"Children's Place - Fashion Centre @ Pentagon City","address":"1100 S. Hayes St. Arlington,\u00a0VA,\u00a022202","phone":"(703) 413-4875","latitude":-77.0601179,"longitude":38.8639404},{"name":"Children's Place - Chesapeake Square","address":"4200 Portsmouth Blvd. Chesapeake,\u00a0VA,\u00a023321","phone":"(757) 465-4305","latitude":-76.41561999999999,"longitude":36.825569},{"name":"Children's Place - Crossways Shopping Center","address":"1412 Greenbrier Parkway Chesapeake,\u00a0VA,\u00a023320","phone":"(757) 420-1502","latitude":-76.23502069999999,"longitude":36.7776777},{"name":"Children's Place - New River Valley","address":"782 New River Road Christiansburg,\u00a0VA,\u00a024073","phone":"(540) 381-2060"},{"name":"Children's Place - Southpark Mall","address":"348 Southpark Circle Colonial Heights,\u00a0VA,\u00a023834","phone":"(804) 520-9575"},{"name":"Children's Place - Dulles Town Center","address":"21100 Dulles Town Circle Dulles,\u00a0VA,\u00a020166","phone":"(703) 421-3430"},{"name":"Children's Place - Fair Oaks Shopping Center","address":"Space M249 Fairfax,\u00a0VA,\u00a022033","phone":"(571) 432-0201"},{"name":"Children's Place - Spotsylvania Mall","address":"310 Spotsylvania Mall Fredericksburg,\u00a0VA,\u00a022407","phone":"(540) 548-2298"},{"name":"Children's Place - Wards Crossing","address":"475 D Simons Run Lynchburg,\u00a0VA,\u00a024502","phone":"(434) 239-0152"},{"name":"Children's Place - Manassas Mall","address":"8300 Sudley Road Manassas,\u00a0VA,\u00a020109","phone":"(703) 361-1086"},{"name":"Children's Place - Patrick Henry Mall","address":"12300 Jefferson Ave. Newport News,\u00a0VA,\u00a023602","phone":"(757) 930-3136"},{"name":"Children's Place - Mac Arthur Center","address":"300 Monticello Avenue Norfolk,\u00a0VA,\u00a023510","phone":"(757) 314-1790"},{"name":"Children's Place - Chesterfield Town Center","address":"11500 Midlothian Tpke Richmond,\u00a0VA,\u00a023235","phone":"(804) 594-3870"},{"name":"Children's Place - Short Pump","address":"11800 West Broad Street Richmond,\u00a0VA,\u00a023233","phone":"(804) 360-2602"},{"name":"Children's Place - White Oak Village","address":"4500 South Laburnum Ave Richmond,\u00a0VA,\u00a023231","phone":"(804) 236-5841"},{"name":"Children's Place - Valley View Mall","address":"4802 Valley View Blvd Nw Roanoke,\u00a0VA,\u00a024012","phone":"(540) 362-4888"},{"name":"Children's Place - Springfield Town Center","address":"6500 Springfield Mall Springfield,\u00a0VA,\u00a022150","phone":"(703) 719-5605"},{"name":"Children's Place - Landstown Commons","address":"3300 Princess Anne Road Virginia Beach,\u00a0VA,\u00a023456","phone":"(757) 368-0793"},{"name":"Children's Place - Pembroke Mall","address":"4554 Virginia Beach Boulevard Virginia Beach,\u00a0VA,\u00a023462","phone":"(757) 490-7381"},{"name":"Children's Place - Williamsburg Premium Outlets","address":"5715-64\/65 Richmond Road Williamsburg,\u00a0VA,\u00a023188","phone":"(757) 220-5790"},{"name":"Children's Place - Apple Blossom Mall","address":"1850 Apple Blossom Drive Winchester,\u00a0VA,\u00a022601","phone":"(540) 665-0786"},{"name":"Children's Place - Potomac Mills","address":"2700 Potomac Mills Circle Woodbridge,\u00a0VA,\u00a022192","phone":"(703) 497-0001"},{"name":"Children's Place - University Mall","address":"155 Doreeset Street South Burlington,\u00a0VT,\u00a005403","phone":"(802) 863-3878"},{"name":"Children's Place - Centralia Factory Outlets","address":"1311 Lum Road Centralia,\u00a0WA,\u00a098531","phone":"(360) 736-0131"},{"name":"Children's Place - Wenatchee Valley Mall","address":"511 Valley Mall Parkway East Wenatchee,\u00a0WA,\u00a098802","phone":"(509) 886-5058"},{"name":"Children's Place - Columbia Center","address":"1321 N Columbia Ctr Blvd Kennewick,\u00a0WA,\u00a099336","phone":"(509) 736-9518"},{"name":"Children's Place - North Bend Factory Stores","address":"561 S. Fork Avenue s.w. North Bend,\u00a0WA,\u00a098045","phone":"(425) 831-0454"},{"name":"Children's Place - Capital Mall","address":"625 Black Lake Blvd. Olympia,\u00a0WA,\u00a098502","phone":"(360) 709-9738"},{"name":"Children's Place - South Hill Mall","address":"3500 South Meridian Puyallup,\u00a0WA,\u00a098373","phone":"(253) 770-4603"},{"name":"Children's Place - Northgate Mall","address":"401 Ne Northgate Way Seattle,\u00a0WA,\u00a098125","phone":"(206) 363-0662"},{"name":"Children's Place - North Town Mall","address":"4750 N. Division Spokane,\u00a0WA,\u00a099207","phone":"(509) 487-1452"},{"name":"Children's Place - Spokane Valley Mall","address":"14700 E Indiana Ave Spokane,\u00a0WA,\u00a099216","phone":"(509) 892-9589"},{"name":"Children's Place - Southcenter","address":"1081 Southcenter Mall Tukwila,\u00a0WA,\u00a098188","phone":"(206) 246-2295"},{"name":"Children's Place - Valley Mall","address":"2529 Main Street Union Gap,\u00a0WA,\u00a098903","phone":"(509) 453-0116"},{"name":"Children's Place - Vancouver Mall","address":"8700 Ne Vancouver Mall Dr Vancouver,\u00a0WA,\u00a098662","phone":"(360) 891-0069"},{"name":"Children's Place - Fox River Mall","address":"4301 W Wisconsin Ave Appleton,\u00a0WI,\u00a054913","phone":"(920) 733-1019"},{"name":"Children's Place - Wisconsin Dells Outlet","address":"210 Gasser Road Baraboo,\u00a0WI,\u00a053913","phone":"(608) 253-3151"},{"name":"Children's Place - Brookfield Square","address":"95 N Moorland Road Brookfield,\u00a0WI,\u00a053005","phone":"(262) 796-8760"},{"name":"Children's Place - Oakwood Mall","address":"4800 Golf Road Eau Claire,\u00a0WI,\u00a054701","phone":"(715) 835-3766"},{"name":"Children's Place - Bay Park","address":"920 Bay Park Square Green Bay,\u00a0WI,\u00a054304","phone":"(920) 498-0646"},{"name":"Children's Place - Southridge Mall","address":"5300 South 76th Street Greendale,\u00a0WI,\u00a053129","phone":"(414) 421-7016"},{"name":"Children's Place - Outlets @ Johnson Creek","address":"575 West Linmar Lane Johnson Creek,\u00a0WI,\u00a053038","phone":"(920) 699-3247"},{"name":"Children's Place - Valley View Mall","address":"3800 State Road 16 La Crosse,\u00a0WI,\u00a054601","phone":"(608) 779-0006"},{"name":"Children's Place - the Outlet Shoppes at Oshkosh","address":"3001 South Washburn St Oshkosh,\u00a0WI,\u00a054904","phone":"(920) 303-0688"},{"name":"Children's Place - Regency Mall","address":"5676 Durand Ave Racine,\u00a0WI,\u00a053406","phone":"(262) 554-1055"},{"name":"Children's Place - Wausau Center","address":"D456 Wausau Center Wausau,\u00a0WI,\u00a054403","phone":"(715) 849-1001"},{"name":"Children's Place - Huntington Mall","address":"500 Mall Road Barboursville,\u00a0WV,\u00a025504","phone":"(304) 736-2182"},{"name":"Children's Place - Meadowbrook Mall","address":"2399 Meadowbrook Mall Bridgeport,\u00a0WV,\u00a026330","phone":"(304) 842-7052"},{"name":"Children's Place - Charleston Town Center Mall","address":"2075 Charleston Town Ctr Charleston,\u00a0WV,\u00a025389","phone":"(304) 345-8402"},{"name":"Children's Place - Morgantown Mall","address":"9911 Mall Road Morgantown,\u00a0WV,\u00a026501","phone":"(304) 983-2755"},{"name":"Children's Place - Crossroads Mall","address":"2 Crossroads Mall Mount Hope,\u00a0WV,\u00a025880","phone":"(304) 252-9784"},{"name":"Children's Place - Grand Central Mall","address":"100 Grand Central Mall Vienna,\u00a0WV,\u00a026105","phone":"(304) 422-8980"},{"name":"Children's Place - Eastridge Mall","address":"601 Se Wyoming Blvd Casper,\u00a0WY,\u00a082609","phone":"(307) 234-9498"},{"name":"Children's Place - Beacon Hillcentre","address":"11842 Sarcee Trail Nw Calgary,\u00a0AB,\u00a0T3R0A1","phone":"(403) 275-2483"},{"name":"Children's Place - Calgary Market Mall","address":"3625 Shaganappi Trail Nw Calgary,\u00a0AB,\u00a0T3A0E2","phone":"(403) 247-3927"},{"name":"Children's Place - Chinook Centre","address":"6455 Macleod Trail Sw Calgary,\u00a0AB,\u00a0T2H0K9","phone":"(403) 255-3620"},{"name":"Children's Place - Southcentre Mall","address":"100 Anderson Road Se Calgary,\u00a0AB,\u00a0T2J3V1","phone":"(403) 271-4133"},{"name":"Children's Place - Sunridge Mall","address":"2525 36th Street Ne Calgary,\u00a0AB,\u00a0T1Y5T4","phone":"(403) 293-1410"},{"name":"Children's Place - Kingsway Garden","address":"109th Street and Princess Edmonton,\u00a0AB,\u00a0T5G3A6","phone":"(780) 477-3660"},{"name":"Children's Place - South Edmonton Commons","address":"9739 19th Avenue Edmonton,\u00a0AB,\u00a0T6N1N5","phone":"(780) 440-3075"},{"name":"Children's Place - West Edmonton Mall","address":"8882 170th Street Edmonton,\u00a0AB,\u00a0T5T4M2","phone":"(780) 481-3984"},{"name":"Children's Place - Peter Pond Mall","address":"9713 Hardin Street Fort Mcmurray,\u00a0AB,\u00a0T9H1L2","phone":"(780) 791-3407"},{"name":"Children's Place - Prairie Mall Shopping Centre","address":"11801 100 Street Grande Prairie,\u00a0AB,\u00a0T8V3Y2","phone":"(780) 402-8325"},{"name":"Children's Place - Park Place - Lethbridge","address":"501 1 Avenue South Lethbridge,\u00a0AB,\u00a0T1J4L9","phone":"(403) 327-1955"},{"name":"Children's Place - Lloydminster Power Centre","address":"7703 44 Street Lloydminster,\u00a0AB,\u00a0T9V0X9","phone":"(780) 871-5979"},{"name":"Children's Place - Medicine Hat Mall","address":"3292 Dunmore Road s.e. Medicine Hat,\u00a0AB,\u00a0T1B2R4","phone":"(403) 526-2361"},{"name":"Children's Place - Southbank Centre","address":"353 105 Southbank Blvd. Okotoks,\u00a0AB,\u00a0T1S0G1","phone":"(403) 938-9272"},{"name":"Children's Place - Bower Place","address":"4900 Molly Bannister Driv Red Deer,\u00a0AB,\u00a0T4R1N9","phone":"(403) 340-3201"},{"name":"Children's Place - Cross Iron Mills","address":"261055 Cross Iron Blvd Rocky View County,\u00a0AB,\u00a0T4A0G3","phone":"(403) 274-2455"},{"name":"Children's Place - Sherwood Park","address":"2020 Sherwood Drive Sherwood Park,\u00a0AB,\u00a0T8A3H9","phone":"(780) 449-5207"},{"name":"Children's Place - Century Crossing","address":"151 Century Crossing Spruce Grove,\u00a0AB,\u00a0T7X0C8","phone":"(780) 960-3881"},{"name":"Children's Place - St. Albert Centre","address":"375 St. Albert Road St. Albert,\u00a0AB,\u00a0T8N3K8","phone":"(780) 458-2352"},{"name":"Children's Place - Seven Oaks Mall","address":"32900 South Fraser Way Abbotsford,\u00a0BC,\u00a0V2S5A1","phone":"(604) 851-9305"},{"name":"Children's Place - Brentwood Mall","address":"17 4567 Lougheed Hwy Burnaby,\u00a0BC,\u00a0V5C3Z6","phone":"(604) 205-7504"},{"name":"Children's Place - Lougheed Mall","address":"9855 Austin Ave Burnaby,\u00a0BC,\u00a0V3J1N4","phone":"(604) 420-5026"},{"name":"Children's Place - Metropolis at Metrotown","address":"Cru 1211 Burnaby,\u00a0BC,\u00a0V5H4M1","phone":"(604) 430-6030"},{"name":"Children's Place - Coquitlam Centre","address":"2929 Barnet Highway Coquitlam,\u00a0BC,\u00a0V3B5R5","phone":"(604) 552-9006"},{"name":"Children's Place - Driftwood Mall","address":"2751 Cliffe Avenue Courtenay,\u00a0BC,\u00a0V9N2L8","phone":"(250) 331-0799"},{"name":"Children's Place - Aberdeen","address":"1320 Trans Canada Hwy Wst Kamloops,\u00a0BC,\u00a0V1S1J2","phone":"(250) 372-8983"},{"name":"Children's Place - Orchard Park Mall","address":"2271 Harvey Avenue Kelowna,\u00a0BC,\u00a0V1Y6H2","phone":"(250) 862-8575"},{"name":"Children's Place - Willowbrook Shopping Centre","address":"19705 Fraser Highway Langley,\u00a0BC,\u00a0V3A7E9","phone":"(604) 534-1203"},{"name":"Children's Place - Woodgrove Centre","address":"Unit 79 6631 Island Hwy N Nanaimo,\u00a0BC,\u00a0V9T4T7","phone":"(250) 390-4506"},{"name":"Children's Place - Queensborough Landing","address":"805 Boyd Street New Westminster,\u00a0BC,\u00a0V3M5X2","phone":"(604) 524-0932"},{"name":"Children's Place - Pine Centre","address":"3055 Massey Drive Prince George,\u00a0BC,\u00a0V2N2S9","phone":"(250) 561-2777"},{"name":"Children's Place - Richmond Centre","address":"6551 3 Road Richmond,\u00a0BC,\u00a0V6Y2B6","phone":"(604) 207-1774"},{"name":"Children's Place - Grandview Corners","address":"2428 160th Street Surrey,\u00a0BC,\u00a0V3Z0C8","phone":"(604) 531-5349"},{"name":"Children's Place - Guildford Town Center","address":"10355 152nd Street Surrey,\u00a0BC,\u00a0V3R7C1","phone":"(604) 582-0440"},{"name":"Children's Place - Tsawwassen Mills","address":"5000 Canoe Pass Way Tsawwassen,\u00a0BC,\u00a0V4M0B3","phone":"(604) 948-2301"},{"name":"Children's Place - Uptown Mall (Victoria)","address":"3531 Uptown Blvd Victoria,\u00a0BC,\u00a0V8Z0B9","phone":"(250) 380-6879"},{"name":"Children's Place - Brandon Shoppers Mall","address":"1570 18th St & Richmond Brandon,\u00a0MB,\u00a0R7A5C5","phone":"(204) 729-9203"},{"name":"Children's Place - Kildonan Place","address":"1555 Regent Street West Winnipeg,\u00a0MB,\u00a0R2C4J2","phone":"(204) 669-8978"},{"name":"Children's Place - Polo Park Shopping Centre","address":"Unit 0208a-1485 Winnipeg,\u00a0MB,\u00a0R3G0W4","phone":"(204) 775-4719"},{"name":"Children's Place - St Vital Centre","address":"1225 St Marys Road Winnipeg,\u00a0MB,\u00a0R2M5E5","phone":"(204) 255-8903"},{"name":"Children's Place - Champlain Place","address":"477 Paul Street Dieppe,\u00a0NB,\u00a0E1A4X5","phone":"(506) 382-2054"},{"name":"Children's Place - Regent Shopping Mall","address":"1381 Regent Street Fredericton,\u00a0NB,\u00a0E3C1A2","phone":"(506) 457-4558"},{"name":"Children's Place - Mcallister Pl","address":"519 Westmorland Rd Saint John,\u00a0NB,\u00a0E2J3W9","phone":"(506) 634-3800"},{"name":"Children's Place - Avalon Mall Annex","address":"56 Kenmount Round St. John's,\u00a0NL,\u00a0A1B1W3","phone":"(709) 754-0821"},{"name":"Children's Place - Mic Mac Mall","address":"21 Mic Mac Boulevard Dartmouth,\u00a0NS,\u00a0B3A4K7","phone":"(902) 461-7771"},{"name":"Children's Place - Halifax Shopping Center","address":"7001 Mumford Road Halifax,\u00a0NS,\u00a0B3L4N9","phone":"(902) 454-4418"},{"name":"Children's Place - Grand Lakes Crossing","address":"Sydney Bypass&grnd Lke Rd Sydney,\u00a0NS,\u00a0B1P6S9","phone":"(902) 564-2100"},{"name":"Children's Place - Truro Mall","address":"245 Robie Street Truro,\u00a0NS,\u00a0B2N5N6","phone":"(902) 897-4064"},{"name":"Children's Place - Quinte Mall","address":"390 North Front Street Belleville,\u00a0ON,\u00a0K8P3E1","phone":"(613) 967-3711"},{"name":"Children's Place - Bramalea City Centre","address":"25 Peel Centre Drive Brampton,\u00a0ON,\u00a0L6T3R5","phone":"(905) 799-8626"},{"name":"Children's Place - Lynden Park Mall","address":"84 Lynden Road Brantford,\u00a0ON,\u00a0N3R6B8","phone":"(519) 756-3836"},{"name":"Children's Place - Burlington Mall","address":"777 Guelph Line Burlington,\u00a0ON,\u00a0L7R3N2","phone":"(905) 637-6084"},{"name":"Children's Place - Cambridge Centre","address":"355 Hespeler Road Cambridge,\u00a0ON,\u00a0N1R6B3","phone":"(519) 620-8859"},{"name":"Children's Place - Vaughan Mills","address":"1 Bass Pro Mills Drive Concord,\u00a0ON,\u00a0L4K5W4","phone":"(905) 738-1435"},{"name":"Children's Place - Tanger Outlets Cookstown","address":"3311 Simcoe Road 89 Cookstown,\u00a0ON,\u00a0L0L1L0","phone":"(705) 458-0054"},{"name":"Children's Place - Cornwall Square","address":"1 Water Street East Cornwall,\u00a0ON,\u00a0K6H6M2","phone":"(613) 932-1642"},{"name":"Children's Place - Shoppers World Danforth","address":"3003 Danforth Avenue East York,\u00a0ON,\u00a0M4C1M9","phone":"(416) 698-6356"},{"name":"Children's Place - Sherway Gardens","address":"25 the West Mall Etobicoke,\u00a0ON,\u00a0M9C1B8","phone":"(416) 695-2034"},{"name":"Children's Place - Woodbine Centre","address":"500 Rexdale Blvd Etobicoke,\u00a0ON,\u00a0M9W6K5","phone":"(416) 798-3683"},{"name":"Children's Place - Toronto Premium Outlets","address":"13850 Steeles Ave West Georgetown,\u00a0ON,\u00a0L7G0J1","phone":"(905) 876-1533"},{"name":"Children's Place - Eastgate Square","address":"75 Centennial Parkway North Hamilton,\u00a0ON,\u00a0L8E2P2","phone":"(905) 573-3808"},{"name":"Children's Place - Lime Ridge","address":"999 Upper Wentworth St Hamilton,\u00a0ON,\u00a0L9A4X5","phone":"(905) 318-3709"},{"name":"Children's Place - Kanata Entertainment Centrum","address":"570 Kanata Avenue Kanata,\u00a0ON,\u00a0K2T1K5","phone":"(613) 271-4437"},{"name":"Children's Place - Cataraqui Town Centre","address":"945 Gardiners Road Kingston,\u00a0ON,\u00a0K7M7H4","phone":"(613) 634-2567"},{"name":"Children's Place - Fairview Park Mall","address":"2960 Kingsway Drive Kitchener,\u00a0ON,\u00a0N2C1X1","phone":"(519) 894-2287"},{"name":"Children's Place - White Oaks Mall","address":"1105 Wellinton Road London,\u00a0ON,\u00a0N6E1V4","phone":"(519) 680-1132"},{"name":"Children's Place - Markville Shopping Center","address":"500 Highway 7 East Markham,\u00a0ON,\u00a0L3R4M9","phone":"(905) 940-6476"},{"name":"Children's Place - Erin Mills Town Center","address":"5100 Erin Mills Parkway Mississauga,\u00a0ON,\u00a0L5M4Z5","phone":"(905) 820-4698"},{"name":"Children's Place - Heartland Town Center","address":"6075 Mavis Road Mississauga,\u00a0ON,\u00a0L5R4G6","phone":"(905) 568-0876"},{"name":"Children's Place - Square One Shopping Centre","address":"100 City Centre Drive Mississauga,\u00a0ON,\u00a0L5B2C9","phone":"(905) 615-1269"},{"name":"Children's Place - Bayshore Mall","address":"100 Bayshore Drive Nepean,\u00a0ON,\u00a0K2B8C1","phone":"(613) 596-9762"},{"name":"Children's Place - Upper Canada Mall","address":"17600 Yonge Street Newmarket,\u00a0ON,\u00a0L3Y4Z1","phone":"(905) 953-9260"},{"name":"Children's Place - Smart Centres Niagara Falls","address":"Mcleod Road & Oakwood Dr. Niagara Falls,\u00a0ON,\u00a0L2E0A1","phone":"(905) 358-8745"},{"name":"Children's Place - Outlet Collection at Niagara","address":"300 Taylor Road Niagara on the Lake,\u00a0ON,\u00a0L0S1J0","phone":"(905) 684-9506"},{"name":"Children's Place - Fairview Mall","address":"1800 Sheppard Ave East North York,\u00a0ON,\u00a0M2J5A7","phone":"(416) 490-9119"},{"name":"Children's Place - Yorkdale Shopping Centre","address":"3401 Dufferin Street North York,\u00a0ON,\u00a0M6A2T9","phone":"(416) 787-9530"},{"name":"Children's Place - Oakville Place","address":"240 Leighland Drive Oakville,\u00a0ON,\u00a0L6H3H6","phone":"(905) 845-9145"},{"name":"Children's Place - Riocan Burloak Centre","address":"3527 Wyecroft Road Oakville,\u00a0ON,\u00a0L6L0B6","phone":"(905) 469-7461"},{"name":"Children's Place - Place D Orleans","address":"110 Place D Orleans Dr Orleans,\u00a0ON,\u00a0K1C2L9","phone":"(613) 841-3304"},{"name":"Children's Place - Oshawa North","address":"991 Taunton Road E Oshawa,\u00a0ON,\u00a0L1H7K5","phone":"(905) 443-0545"},{"name":"Children's Place - Carlingwood Shopping Centre","address":"2121 Carling Avenue Ottawa,\u00a0ON,\u00a0K2A1H2","phone":"(613) 798-9339"},{"name":"Children's Place - South Keys","address":"2214 Bank Street Ottawa,\u00a0ON,\u00a0K1V1J6","phone":"(613) 733-0891"},{"name":"Children's Place - St Laurent Shopping Centre","address":"1200 St Laurent Bi U 535 Ottawa,\u00a0ON,\u00a0K1K3B8","phone":"(613) 741-4547"},{"name":"Children's Place - Heritage Place","address":"1350 16th Street East Owen Sound,\u00a0ON,\u00a0N4K6N7","phone":"(519) 376-4222"},{"name":"Children's Place - Lansdowne Place","address":"645 Lansdowne Street W Peterborough,\u00a0ON,\u00a0K9J7Y5","phone":"(705) 748-5840"},{"name":"Children's Place - Pickering Town Centre","address":"1355 Kingston Road Pickering,\u00a0ON,\u00a0L1V1B8","phone":"(905) 420-5624"},{"name":"Children's Place - Hillcrest Mall","address":"9350 Yonge Street Richmond Hill,\u00a0ON,\u00a0L4C5G2","phone":"(905) 884-4991"},{"name":"Children's Place - Lambton Mall","address":"1380 London Road Sarnia,\u00a0ON,\u00a0N7S1P8","phone":"(519) 541-0354"},{"name":"Children's Place - Cambrian Mall","address":"44 Great Northern Road Sault Ste Marie,\u00a0ON,\u00a0P6A5K8","phone":"(705) 949-1048"},{"name":"Children's Place - Scarborough Town Centre","address":"300 Borough Drive Scarborough,\u00a0ON,\u00a0M1P4P5","phone":"(416) 296-9344"},{"name":"Children's Place - Smartcentres Scarborough","address":"1900 Eglinton Ave East Scarborough,\u00a0ON,\u00a0M1L2L9","phone":"(416) 646-1615"},{"name":"Children's Place - the Pen Centre","address":"221 Glendale Avenue St Catharines,\u00a0ON,\u00a0L2T2K9","phone":"(905) 641-1099"},{"name":"Children's Place - New Sudbury Centre","address":"1349 Bld Lasalle Sudbury,\u00a0ON,\u00a0P3A1Z2","phone":"(705) 524-9645"},{"name":"Children's Place - the Promenade","address":"1 Promenade Circle Thornhill,\u00a0ON,\u00a0L4J4P8","phone":"(905) 731-6259"},{"name":"Children's Place - Intercity Shopping Center","address":"1000 Fort William Road Thunder Bay,\u00a0ON,\u00a0P7B6B9","phone":"(807) 623-1340"},{"name":"Children's Place - Dufferin Mall","address":"900 Dufferin Street Toronto,\u00a0ON,\u00a0M6H4B1","phone":"(416) 535-8935"},{"name":"Children's Place - the Stockyards","address":"1980 St. Clair Avenue West Toronto,\u00a0ON,\u00a0M6N0A3","phone":"(416) 762-0553"},{"name":"Children's Place - Toronto Dominion","address":"66 Wellington Street West Toronto,\u00a0ON,\u00a0M5K1H1","phone":"(416) 363-2112"},{"name":"Children's Place - Conestoga","address":"550 King Street North Waterloo,\u00a0ON,\u00a0N2L5W6","phone":"(519) 747-1566"},{"name":"Children's Place - Devonshire Mall","address":"3100 Howard Ave U L4 Windsor,\u00a0ON,\u00a0N8X3Y8","phone":"(519) 967-1296"},{"name":"Children's Place - Windsor Crossing","address":"1555 Talbot Road Windsor,\u00a0ON,\u00a0N9H2N2","phone":"(519) 972-8601"},{"name":"Children's Place - Smart Centres Charlottetown","address":"181 Buchanan Drive Charlottetown,\u00a0PE,\u00a0C1E1E3","phone":"(902) 892-8015"},{"name":"Children's Place - Les Galeries D Anjou","address":"7999 Boul Les Galeries Anjou,\u00a0QC,\u00a0H1M1W6","phone":"(514) 351-9109"},{"name":"Children's Place - Les Quartiers Dix","address":"9305 Boul Leduc Suite 10 Brossard,\u00a0QC,\u00a0J4Y0A5","phone":"(450) 676-1720"},{"name":"Children's Place - Mall Champlain","address":"2151 Boul Lapiniere Brossard,\u00a0QC,\u00a0J4W2T5","phone":"(450) 466-3131"},{"name":"Children's Place - Place Du Royaume","address":"1401 Boul Talbot Chicoutimi,\u00a0QC,\u00a0G7H5N6","phone":"(418) 549-3351"},{"name":"Children's Place - Riocan Centre La Gappe","address":"79 Boul De La Gappe Gatineau,\u00a0QC,\u00a0J8T0B5","phone":"(819) 246-7598"},{"name":"Children's Place - Les Galeries Des Granby","address":"40 Rue Evangeline Granby,\u00a0QC,\u00a0J2G8K1","phone":"(450) 361-8185"},{"name":"Children's Place - Carrefour Angrignon","address":"7077 Boul Newman Ville Lasalle,\u00a0QC,\u00a0H8N1X1","phone":"(514) 595-4613"},{"name":"Children's Place - Carrefour Laval","address":"3035 Boul Carrefour D-13 Laval,\u00a0QC,\u00a0H7T1C8","phone":"(450) 973-5208"},{"name":"Children's Place - Smart Centres Laval East","address":"5365 Robert Bourassa Boul Laval,\u00a0QC,\u00a0H7E0A6","phone":"(450) 665-3626"},{"name":"Children's Place - Smart Centres Mascouche North","address":"2930 De L Esplanade Mascouche,\u00a0QC,\u00a0J7K0K9","phone":"(450) 474-5200"},{"name":"Children's Place - Rockland Mall","address":"2305 Chemin Rockland Mont-Royal,\u00a0QC,\u00a0H3P3E9","phone":"(514) 341-3125"},{"name":"Children's Place - Place Versailles","address":"7275 Rue Sherbrooke E Montreal,\u00a0QC,\u00a0H1N1E9","phone":"(514) 352-2069"},{"name":"Children's Place - Fairview Pointe-Claire","address":"6815 Trans-Canada Hway Pointe-Claire,\u00a0QC,\u00a0H9R5J2","phone":"(514) 697-4445"},{"name":"Children's Place - Les Galeries De La Capitale","address":"5401 Boul Des Galeries Quebec,\u00a0QC,\u00a0G2K1N4","phone":"(418) 626-6792"},{"name":"Children's Place - Place Fleur De Lys","address":"550 Boul Wilfrid Hamel Quebec,\u00a0QC,\u00a0G1M2S5","phone":"(418) 522-3423"},{"name":"Children's Place - Place Laurier #1","address":"2700 Sir Willfrid Laurier Quebec,\u00a0QC,\u00a0G1V2L8","phone":"(418) 652-3589"},{"name":"Children's Place - Galeries Rive- Nord","address":"100 Boul Brein Repentigny,\u00a0QC,\u00a0J6A5N4","phone":"(450) 582-4108"},{"name":"Children's Place - Place Rosemere","address":"401 Boul Labelle Rosemere,\u00a0QC,\u00a0J7A3T2","phone":"(450) 437-9277"},{"name":"Children's Place - Les Promenades St-Bruno","address":"168 Boul Des Promenades Saint-Bruno,\u00a0QC,\u00a0J3V5K1","phone":"(450) 653-0581"},{"name":"Children's Place - Smart Centres St Jean Newbld","address":"130 Boul Omer-Marcil Saint-Jean-Sur-Richelieu,\u00a0QC,\u00a0J2W2X2","phone":"(450) 348-5232"},{"name":"Children's Place - Place Vertu","address":"3131 De La Cote-Vertu Boul Saint-Laurent,\u00a0QC,\u00a0H4R1Y8","phone":"(514) 333-8708"},{"name":"Children's Place - Carrefour De L Estrie","address":"3050 Portland Boul Sherbrooke,\u00a0QC,\u00a0J1L1K1","phone":"(819) 348-0543"},{"name":"Children's Place - Les Rivieres","address":"4225 Des Forges Boul Trois-Rivieres,\u00a0QC,\u00a0G8Y1W2","phone":"(819) 378-4258"},{"name":"Children's Place - Mega Centre Vaudreuil","address":"3120 Boul De La Gare Vaudreuil-Dorion,\u00a0QC,\u00a0J7V8W5","phone":"(450) 455-7208"},{"name":"Children's Place - Cornwall Centre","address":"2101 11th Avenue Regina,\u00a0SK,\u00a0S4P3Y6","phone":"(306) 775-2990"},{"name":"Children's Place - Center at Circle & Eighth","address":"3310 8th Street East Saskatoon,\u00a0SK,\u00a0S7H0W6","phone":"(306) 956-0272"},{"name":"Children's Place - Midtown Plaza","address":"201 1st Avenue South Saskatoon,\u00a0SK,\u00a0S7K1J5","phone":"(306) 955-8035"}]