[{"name":"Victoria's Secret - Bel Air","address":"3436 Bel Air Mall<br>Mobile, AL 36606<br>(251) 450-4393","latitude":-88.1230054,"longitude":30.6710311},{"name":"Victoria's Secret - Bridge Street","address":"330 The Bridge Street<br>Huntsville, AL 35806<br>(256) 327-8330","latitude":-86.6729232,"longitude":34.715457},{"name":"Victoria's Secret - Brookwood Village","address":"623 Brookwood Village<br>Birmingham, AL 35209<br>(205) 871-0403","latitude":-86.77113419999999,"longitude":33.4701445},{"name":"Victoria's Secret - Colonial Mall Auburn","address":"1627 Opelika Road<br>Auburn, AL 36830<br>(334) 501-0396","latitude":-85.44735539999999,"longitude":32.6269799},{"name":"Victoria's Secret - Decatur","address":"1801 Beltline Road SW<br>Decatur, AL 35601<br>(256) 580-3002","latitude":-87.0174483,"longitude":34.5724011},{"name":"Victoria's Secret - Eastchase","address":"6850 Eastchase Parkway<br>Montgomery, AL 36117<br>(334) 356-4400","latitude":-86.1669799,"longitude":32.3576594},{"name":"Victoria's Secret - Eastdale","address":"1067 Eastdale Mall<br>Montgomery, AL 36117<br>(334) 244-4120","latitude":-86.2031375,"longitude":32.3863714},{"name":"Victoria's Secret - Eastern Shore Centre","address":"30500 Highway 181<br>Spanish Fort, AL 36527<br>(251) 625-1881","latitude":-87.85163,"longitude":30.6706675},{"name":"Victoria's Secret - Gadsden","address":"1001 Rainbow Drive<br>Gadsden, AL 35901<br>(256) 543-9512","latitude":-86.00710289999999,"longitude":33.9958772},{"name":"Victoria's Secret - Parkway Place","address":"2801 Memorial Parkway<br>Huntsville, AL 35801<br>(256) 535-4412","latitude":-86.5872708,"longitude":34.7072886},{"name":"Victoria's Secret - Quintard","address":"700 Quintard Drive<br>Oxford, AL 36203<br>(256) 835-8880","latitude":-85.8229695,"longitude":33.6123077},{"name":"Victoria's Secret - Regency Square","address":"301 Cox Creek Parkway<br>Florence, AL 35630<br>(256) 764-7799","latitude":-87.63592299999999,"longitude":34.83711020000001},{"name":"Victoria's Secret - Riverchase Galleria","address":"2000 Riverchase Galleria<br>Hoover, AL 35244<br>(205) 444-0474","latitude":-86.80901,"longitude":33.37699780000001},{"name":"Victoria's Secret - The Summit","address":"209 Summit Boulevard<br>Birmingham, AL 35243<br>(205) 298-0233","latitude":-86.72861720000002,"longitude":33.4467448},{"name":"Victoria's Secret - University","address":"1701 Mcfarland Boulevard<br>Tuscaloosa, AL 35404<br>(205) 554-7788","latitude":-87.5227053,"longitude":33.1947362},{"name":"Victoria's Secret - Wiregrass Commons","address":"900 Commons Drive<br>Dothan, AL 36303<br>(334) 671-8835","latitude":-85.423227,"longitude":31.254711},{"name":"Victoria's Secret - Anchorage 5th Avenue Mall","address":"320 W 5th Avenue<br>Anchorage, AK 99501<br>(907) 277-8487","latitude":-149.8885111,"longitude":61.21708100000001},{"name":"Victoria's Secret - Arizona Mills","address":"5000 Arizona Mills Circle<br>Tempe, AZ 85282<br>(480) 839-4050","latitude":-111.964485,"longitude":33.383123},{"name":"Victoria's Secret - Arrowhead Towne","address":"7700-1064 Arrowhead Towne<br>Glendale, AZ 85308<br>(623) 979-7488","latitude":-112.2254067,"longitude":33.6420894},{"name":"Victoria's Secret - Chandler Fashion","address":"3111 W Chandler Boulevard<br>Chandler, AZ 85226<br>(480) 224-6935","latitude":-111.8984042,"longitude":33.30525000000001},{"name":"Victoria's Secret - Desert Sky Mall","address":"7611 W Thomas Road<br>Phoenix, AZ 85033<br>(623) 849-1227","latitude":-112.2256247,"longitude":33.4780654},{"name":"Victoria's Secret - Flagstaff","address":"4650 N Highway 89<br>Flagstaff, AZ 86001<br>(928) 714-1735","latitude":-111.6710823,"longitude":35.1663518},{"name":"Victoria's Secret - Kierland Commons","address":"15054 N. Scottsdale Road<br>Scottsdale, AZ 85254<br>(480) 948-1911","latitude":-111.9263943,"longitude":33.6240175},{"name":"Victoria's Secret - La Encantada","address":"2905 East Skyline Drive<br>Tucson, AZ 85718<br>(520) 529-3484","latitude":-110.9301132,"longitude":32.3247418},{"name":"Victoria's Secret - Metro Center","address":"9802A Metro Parkway E<br>Phoenix, AZ 85051<br>(602) 944-0826","latitude":-112.1185087,"longitude":33.5754158},{"name":"Victoria's Secret - Paradise Valley","address":"4550-336 East Cactus Road<br>Phoenix, AZ 85032<br>(602) 996-2890","latitude":-111.9836094,"longitude":33.6021872},{"name":"Victoria's Secret - Park Place","address":"5870 E Broadway<br>Tucson, AZ 85711<br>(520) 512-8732","latitude":-110.8656379,"longitude":32.2213411},{"name":"Victoria's Secret - Parke West","address":"9828 West Northern Avenue<br>Peoria, AZ 85345<br>(623) 877-9840","latitude":-112.2707916,"longitude":33.5534623},{"name":"Victoria's Secret - Prescott Gateway","address":"3306 Gateway Boulevard<br>Prescott, AZ 86303<br>(928) 541-0456","latitude":-112.4108015,"longitude":34.5464014},{"name":"Victoria's Secret - San Tan Village","address":"2218 E Williams Field Road<br>Gilbert, AZ 85295<br>(480) 821-4425","latitude":-111.7426997,"longitude":33.3088069},{"name":"Victoria's Secret - Scottsdale Fashion Square","address":"7014 East Camelback Road<br>Scottsdale, AZ 85251<br>(480) 990-7551","latitude":-111.9294497,"longitude":33.5033888},{"name":"Victoria's Secret - Superstition Springs","address":"6555 E Southern Avenue<br>Mesa, AZ 85206<br>(480) 325-2219","latitude":-111.6903269,"longitude":33.390567},{"name":"Victoria's Secret - Tempe Marketplace","address":"2000 East Rio Salado Parkway<br>Tempe, AZ 85281<br>(480) 968-2131","latitude":-111.9027306,"longitude":33.4331023},{"name":"Victoria's Secret - The Mall at Sierra Vista","address":"2200 El Mercado Loop<br>Sierra Vista, AZ 85635<br>(520) 439-5404","latitude":-110.2598487,"longitude":31.5291849},{"name":"Victoria's Secret - The Promenade at Casa Grande","address":"1075 N Promenade Parkway<br>Casa Grande, AZ 85194<br>(520) 421-1372","latitude":-111.6852727,"longitude":32.8831994},{"name":"Victoria's Secret - The Shops at Norterra","address":"2460 W Happy Valley Road<br>Phoenix, AZ 85085<br>(623) 582-1849","latitude":-112.1135958,"longitude":33.7153897},{"name":"Victoria's Secret - Tucson","address":"4500 N Oracle Road<br>Tucson, AZ 85705<br>(520) 887-0506","latitude":-110.9781248,"longitude":32.2881793},{"name":"Victoria's Secret - Central","address":"5111 Rogers Avenue<br>Fort Smith, AR 72903<br>(479) 484-9600","latitude":-94.37511599999999,"longitude":35.366924},{"name":"Victoria's Secret - Hot Springs","address":"4501 Central Avenue<br>Hot Springs, AR 71913<br>(501) 525-0384","latitude":-93.07938349999999,"longitude":34.448474},{"name":"Victoria's Secret - Mall at Turtle Creek","address":"3000 E Highland Drive<br>Jonesboro, AR 72401<br>(870) 932-4505","latitude":-90.6640754,"longitude":35.8232295},{"name":"Victoria's Secret - Mccain","address":"3929 McCain Boulevard<br>N Little Rock, AR 72116<br>(501) 753-5098","latitude":-92.2254684,"longitude":34.7918992},{"name":"Victoria's Secret - Northwest Arkansas","address":"4201 N Shiloh Drive<br>Fayetteville, AR 72703<br>(479) 582-1404","latitude":-94.1486386,"longitude":36.127968},{"name":"Victoria's Secret - Park Plaza","address":"6000 W. Markham Street<br>Little Rock, AR 72205<br>(501) 660-4008","latitude":-92.3430972,"longitude":34.7535922},{"name":"Victoria's Secret - Park Plaza","address":"6000 W Markham<br>Little Rock, AR 72205<br>(501) 265-0327","latitude":-92.3430972,"longitude":34.7535922},{"name":"Victoria's Secret - Pinnacle Hills Promenade","address":"3951 Perry Road<br>Rogers, AR 72758<br>(479) 986-8810","latitude":-94.1715285,"longitude":36.3019632},{"name":"Victoria's Secret - The Promanade at Chenal","address":"17711 Chenal Pkwy, I-114<br>Little Rock, AR 72223<br>(501) 482-3372","latitude":-92.4589331,"longitude":34.7662944},{"name":"Victoria's Secret - Antelope Valley","address":"1233 W Rancho Vista Boulevard<br>Palmdale, CA 93551<br>(661) 947-0621","latitude":-118.1500464,"longitude":34.6042429},{"name":"Victoria's Secret - Arden Fair","address":"1689 Arden Way<br>Sacramento, CA 95815<br>(916) 923-9348","latitude":-121.4278631,"longitude":38.601511},{"name":"Victoria's Secret - Arden Fair","address":"1689 Arden Way<br>Sacramento, CA 95815<br>(916) 925-3345","latitude":-121.4278631,"longitude":38.601511},{"name":"Victoria's Secret - Baldwin Hills Crenshaw","address":"3650 W. Martin Luther King Blvd<br>Los Angeles, CA 90008<br>(323) 294-4518","latitude":-118.3393691,"longitude":34.0103811},{"name":"Victoria's Secret - Bay Street","address":"5672 Bay Street<br>Emeryville, CA 94608<br>(510) 595-6914","latitude":-122.2923717,"longitude":37.8365373},{"name":"Victoria's Secret - Bayshore Mall","address":"3300 Broadway<br>Eureka, CA 95501<br>(707) 268-8315","latitude":-124.189737,"longitude":40.779956},{"name":"Victoria's Secret - Beverly Center","address":"8500 Beverly Boulevard<br>Los Angeles, CA 90048<br>(310) 657-2958","latitude":-118.3774933,"longitude":34.0753309},{"name":"Victoria's Secret - Brea","address":"1065 Brea Mall<br>Brea, CA 92821<br>(714) 256-1144","latitude":-117.8866922,"longitude":33.9148897},{"name":"Victoria's Secret - Broadway Plaza","address":"1281 Broadway Plaza<br>Walnut Creek, CA 94596<br>(925) 939-3042","latitude":-122.058197,"longitude":37.8956019},{"name":"Victoria's Secret - Burbank Town Center","address":"201 East Magnolia Boulevard<br>Burbank, CA 91501<br>(818) 842-8081","latitude":-118.3121235,"longitude":34.1834036},{"name":"Victoria's Secret - Capitola","address":"1855 41St Avenue<br>Capitola, CA 95010<br>(831) 462-2441","latitude":-121.9677388,"longitude":36.9758354},{"name":"Victoria's Secret - Chico Mall","address":"1905 E 20Th Street<br>Chico, CA 95928<br>(530) 894-6015","latitude":-121.8063359,"longitude":39.7271834},{"name":"Victoria's Secret - Chino Hills","address":"13925 Center Drive<br>Chino Hills, CA 91709<br>(909) 464-8089","latitude":-117.7295703,"longitude":34.0005043},{"name":"Victoria's Secret - Chula Vista","address":"555 Broadway Avenue<br>Chula Vista, CA 91910<br>(619) 425-4599","latitude":-117.0873905,"longitude":32.630241},{"name":"Victoria's Secret - Culver City","address":"6000 Sepulveda Boulevard<br>Culver City, CA 90230<br>(310) 390-3896","latitude":-118.395087,"longitude":33.9854088},{"name":"Victoria's Secret - Del Amo Fashion","address":"21880 Hawthorne Boulevard<br>Torrance, CA 90503<br>(310) 214-3122","latitude":-118.3496097,"longitude":33.828623},{"name":"Victoria's Secret - Del Amo Fashion","address":"21540 Hawthorne Blvd<br>Torrance, CA 90503<br>(310) 371-3687","latitude":-118.3507255,"longitude":33.8328248},{"name":"Victoria's Secret - Del Monte Center","address":"1410 Delmonte Center<br>Monterey, CA 93940<br>(831) 644-0596","latitude":-121.8965408,"longitude":36.583927},{"name":"Victoria's Secret - Dos Lagos","address":"2790 Cabot Drive<br>Corona, CA 92883<br>(951) 277-4327","latitude":-117.506617,"longitude":33.8114592},{"name":"Victoria's Secret - Eastridge","address":"2200 Eastridge Loop<br>San Jose, CA 95122<br>(408) 270-3261","latitude":-121.8138869,"longitude":37.3256131},{"name":"Victoria's Secret - Fashion Fair","address":"615 E Shaw Avenue<br>Fresno, CA 93710<br>(559) 243-9602","latitude":-119.7768114,"longitude":36.8084899},{"name":"Victoria's Secret - Fashion Island","address":"1103 Newport Center Drive<br>Newport Beach, CA 92660<br>(949) 760-0151","latitude":-117.8762959,"longitude":33.6147017},{"name":"Victoria's Secret - Fashion Island","address":"1103 Newport Center Drive<br>Newport Beach, CA 92660<br>(949)721-9606","latitude":-117.8762959,"longitude":33.6147017},{"name":"Victoria's Secret - Fashion Square Sherman Oaks","address":"14006 Riverside Drive<br>Sherman Oaks, CA 91423<br>(818) 386-9815","latitude":-118.4369927,"longitude":34.1565639},{"name":"Victoria's Secret - Fashion Square Sherman Oaks","address":"14006 Riverside Drive<br>Sherman Oaks, CA 91423<br>(818)501-2729","latitude":-118.4369927,"longitude":34.1565639},{"name":"Victoria's Secret - Fashion Valley","address":"7007 Friar's Road<br>San Diego, CA 92108<br>(619) 291-1213","latitude":-117.1698284,"longitude":32.7681421},{"name":"Victoria's Secret - Fashion Valley","address":"7007 Friars Road<br>San Diego, CA 92108<br>(619) 297-0252","latitude":-117.1698284,"longitude":32.7681421},{"name":"Victoria's Secret - Fig at 7th","address":"735 S. Figueroa Street<br>Los Angeles, CA 90017<br>(213) 622-0689","latitude":-118.2617532,"longitude":34.0492459},{"name":"Victoria's Secret - Galleria at Roseville","address":"1151 Galleria Boulevard<br>Roseville, CA 95678<br>(916)773-7755","latitude":-121.2692829,"longitude":38.7734416},{"name":"Victoria's Secret - Galleria at South Bay","address":"1815 Hawthorne Boulevard<br>Redondo Beach, CA 90278<br>(310) 370-4446","latitude":-118.3547081,"longitude":33.8714439},{"name":"Victoria's Secret - Galleria at Tyler","address":"2077 Galleria At Tyler Avenue<br>Riverside, CA 92503<br>(951) 785-0127","latitude":-117.4575593,"longitude":33.9107504},{"name":"Victoria's Secret - Glendale Galleria","address":"2148 Glendale Galleria<br>Glendale, CA 91210<br>(818) 409-8901","latitude":-118.2583141,"longitude":34.1437646},{"name":"Victoria's Secret - Great Mall","address":"447 Great Mall Drive<br>Milpitas, CA 95035<br>(408) 942-7598","latitude":-121.8975733,"longitude":37.4158559},{"name":"Victoria's Secret - Higuera Street","address":"898 Higura Street<br>San Luis Obispo, CA 93401<br>(805) 544-6055","latitude":-120.6619868,"longitude":35.2806666},{"name":"Victoria's Secret - Hillsdale Shopping Center","address":"60 31st Avenue<br>San Mateo, CA 94403<br>(650) 571-7623","latitude":-122.2992805,"longitude":37.5377022},{"name":"Victoria's Secret - Hollywood and Highland","address":"6801 Hollywood Boulevard<br>Hollywood, CA 90028<br>(323) 461-1687","latitude":-118.3403645,"longitude":34.1021467},{"name":"Victoria's Secret - Hollywood and Highland","address":"6834 Hollywood Blvd<br>Hollywood, CA 90028<br>(323) 960-8543","latitude":-118.339741,"longitude":34.101323},{"name":"Victoria's Secret - Horton Plaza","address":"324 Horton Plaza<br>San Diego, CA 92101<br>(619) 236-0816","latitude":-117.1624403,"longitude":32.7141629},{"name":"Victoria's Secret - Imperial Valley Mall","address":"3451 S DOGWOOD AVENUE<br>EL CENTRO, CA 92243<br>(760) 353-8966","latitude":-115.5303615,"longitude":32.762862},{"name":"Victoria's Secret - Inland","address":"500 Inland Center Drive<br>San Bernardino, CA 92408<br>(909) 889-2620","latitude":-117.2976014,"longitude":34.08512900000001},{"name":"Victoria's Secret - Lakewood Center","address":"54 Lakewood Center Mall<br>Lakewood, CA 90712<br>(562) 408-4794","latitude":-118.1386077,"longitude":33.8504115},{"name":"Victoria's Secret - Los Cerritos","address":"343 Los Cerritos Center<br>Cerritos, CA 90703<br>(562) 860-0204","latitude":-118.093092,"longitude":33.862018},{"name":"Victoria's Secret - Los Cerritos","address":"342 Los Cerritos Center<br>Cerritos, CA 90701<br>(562) 860-1245","latitude":-118.0929735,"longitude":33.8618501},{"name":"Victoria's Secret - MainPlace","address":"2800 N Main Street<br>Santa Ana, CA 92705<br>(714) 560-0570","latitude":-117.8674186,"longitude":33.7737648},{"name":"Victoria's Secret - Mainplace","address":"2800 N Main Street<br>Santa Ana, CA 92705<br>(714) 664-0138","latitude":-117.8674186,"longitude":33.7737648},{"name":"Victoria's Secret - Manhattan Village","address":"3200 N Sepulveda Blvd<br>Manhattan Beach, CA 90266<br>(310) 796-1398","latitude":-118.3942198,"longitude":33.8952639},{"name":"Victoria's Secret - Mission Valley","address":"1640 Camino Del Rio North<br>San Diego, CA 92108<br>(619) 298-6360","latitude":-117.1557736,"longitude":32.7659127},{"name":"Victoria's Secret - Mission Viejo","address":"555 The Shops at Mission Veijo<br>Mission Viejo, CA 92691<br>(949)347-0236","latitude":-117.6684315,"longitude":33.5588349},{"name":"Victoria's Secret - Montclair","address":"2015 Montclair Plaza Lane<br>Montclair, CA 91763<br>(909) 624-4499","latitude":-117.6947244,"longitude":34.086436},{"name":"Victoria's Secret - Montebello Town","address":"1827 Montebello Boulevard<br>Montebello, CA 90640<br>(323) 721-3861","latitude":-118.0961986,"longitude":34.0323241},{"name":"Victoria's Secret - Moreno Valley Mall at Towngate","address":"22500 Town Circle<br>Moreno Valley, CA 92557<br>(951) 653-4553","latitude":-117.2713013,"longitude":33.9387359},{"name":"Victoria's Secret - Mt. Shasta Mall","address":"900 Dana Drive<br>Redding, CA 96003<br>(530) 722-0672","latitude":-122.3555321,"longitude":40.5879323},{"name":"Victoria's Secret - Newpark","address":"2086 New Park Mall<br>Newark, CA 94560<br>(510) 790-9033","latitude":-122.0012751,"longitude":37.5264691},{"name":"Victoria's Secret - North County Fair","address":"200 East Via Rancho Parkway<br>Escondido, CA 92025<br>(760) 745-0459","latitude":-117.0649122,"longitude":33.070471},{"name":"Victoria's Secret - Northgate Mall","address":"5800 Northgate Drive<br>San Rafael, CA 94903<br>(415) 472-1043","latitude":-122.544202,"longitude":38.0042166},{"name":"Victoria's Secret - Northridge","address":"796 Northridge Mall<br>Salinas, CA 93906<br>(831) 442-3910","latitude":-121.658187,"longitude":36.7169},{"name":"Victoria's Secret - Northridge Fashion","address":"9301 Tampa Avenue<br>Northridge, CA 91324<br>(818) 341-3795","latitude":-118.5562362,"longitude":34.2385732},{"name":"Victoria's Secret - Northridge Fashion","address":"9301 Tampa Avenue<br>Northridge, CA 91324<br>(818) 341-3083","latitude":-118.5562362,"longitude":34.2385732},{"name":"Victoria's Secret - Oakridge","address":"925 Blossom Hill Road<br>San Jose, CA 95123<br>(408) 360-9847","latitude":-121.8624492,"longitude":37.2515431},{"name":"Victoria's Secret - Oakridge Mall","address":"925 Blossom Hill Road<br>San Jose, CA 95123<br>(408) 227-1061","latitude":-121.8624492,"longitude":37.2515431},{"name":"Victoria's Secret - Ontario Mills","address":"One Ontario Mills Circle<br>Ontario, CA 91764<br>(909) 980-0189","latitude":-117.5517081,"longitude":34.0730062},{"name":"Victoria's Secret - Ontario Mills","address":"One Mills Circle<br>Ontario, CA 91764<br>(909) 980-0507","latitude":-117.5517081,"longitude":34.0730062},{"name":"Victoria's Secret - Otay Ranch Town Center","address":"2015 Birch Road<br>Chula Vista, CA 91915<br>(619) 216-7410","latitude":-116.9654569,"longitude":32.623489},{"name":"Victoria's Secret - Pacific View Ventura","address":"3301 E Main Street<br>Ventura, CA 93003<br>(805) 658-8147","latitude":-119.2487706,"longitude":34.2687176},{"name":"Victoria's Secret - Palladio at Broadstone","address":"250 Palladio Parkway<br>Folsom, CA 95630<br>(916) 983-7051","latitude":-121.1210092,"longitude":38.6486008},{"name":"Victoria's Secret - Palm Desert Town","address":"72-840 Hwy 111<br>Palm Desert, CA 92260<br>(760) 568-2346","latitude":-116.3941443,"longitude":33.7237417},{"name":"Victoria's Secret - Palm Desert Town","address":"72840 Highway 111<br>Palm Desert, CA 92260<br>(760) 779-5154","latitude":-116.3934827,"longitude":33.7236951},{"name":"Victoria's Secret - Parkway","address":"425 Parkway Plaza<br>El Cajon, CA 92020<br>(619) 579-8829","latitude":-116.9665419,"longitude":32.8045334},{"name":"Victoria's Secret - Paseo Colorado","address":"280 East Colorado Boulevard<br>Pasadena, CA 91101<br>626-660-0433","latitude":-118.1450372,"longitude":34.1451803},{"name":"Victoria's Secret - Paseo Nuevo","address":"320 Paseo Nuevo<br>Santa Barbara, CA 93101<br>(805) 962-1023","latitude":-116.278122,"longitude":33.7241012},{"name":"Victoria's Secret - Plaza Bonita","address":"3030 Plaza Bonita<br>National City, CA 91950<br>(619) 472-9665","latitude":-117.0662836,"longitude":32.6568985},{"name":"Victoria's Secret - Plaza Bonita","address":"3030 Plaza Bonita Road<br>National City, CA 91950<br>(619) 479-0128","latitude":-117.0658469,"longitude":32.6564878},{"name":"Victoria's Secret - Powell Street","address":"335 Powell Street<br>San Francisco, CA 94102<br>(415) 433-9671","latitude":-122.4087315,"longitude":37.7878279},{"name":"Victoria's Secret - Puente Hills","address":"1600 Azusa Avenue<br>City Of Industry, CA 91748<br>(626) 912-9565","latitude":-117.9272572,"longitude":33.9939594},{"name":"Victoria's Secret - San Francisco Shopping Centre","address":"865 Market St<br>San Francisco, CA 94103<br>(415) 974-1760","latitude":-122.4064352,"longitude":37.784118},{"name":"Victoria's Secret - Santa Anita Fashion Park","address":"400 S Baldwin Avenue<br>Arcadia, CA 91007<br>(626) 445-2734","latitude":-118.0509968,"longitude":34.1349204},{"name":"Victoria's Secret - Santa Rosa","address":"235 Santa Rosa Plaza<br>Santa Rosa, CA 95401<br>(707) 527-0249","latitude":-122.7123885,"longitude":38.4364199},{"name":"Victoria's Secret - Santa Rosa","address":"235 Santa Rosa Plaza<br>Santa Rosa, CA 95401<br>(707) 527-0642","latitude":-122.7123885,"longitude":38.4364199},{"name":"Victoria's Secret - Serramonte","address":"121 Serramonte Center<br>Daly City, CA 94015<br>(650) 757-1428","latitude":-122.4689912,"longitude":37.6695611},{"name":"Victoria's Secret - Sherwood","address":"5308 Pacific Avenue<br>Stockton, CA 95207<br>(209) 478-5763","latitude":-121.3154562,"longitude":37.9992402},{"name":"Victoria's Secret - Shops at River Park","address":"7807 N Via Del Rio<br>Fresno, CA 93720<br>(559) 436-1478","latitude":-119.7894304,"longitude":36.8495412},{"name":"Victoria's Secret - Sierra Vista","address":"1050 Shaw Avenue<br>Clovis, CA 93612<br>(559) 322-4049","latitude":-119.6953947,"longitude":36.806191},{"name":"Victoria's Secret - Simi Valley Town Center","address":"1555 Simi Valley Town Center<br>Simi Valley, CA 93063<br>(805) 527-8467","latitude":-118.7701348,"longitude":34.2840068},{"name":"Victoria's Secret - Solano","address":"1350 Travis Boulevard<br>Fairfield, CA 94533<br>(707) 425-3479","latitude":-122.054641,"longitude":38.2603841},{"name":"Victoria's Secret - Solano","address":"1350 Travis Boulevard<br>Fairfield, CA 94533<br>(707) 425-4024","latitude":-122.054641,"longitude":38.2603841},{"name":"Victoria's Secret - Sommersville Town Center","address":"2556 Somersville Road<br>Antioch, CA 94509<br>(925) 778-4806","latitude":-121.8429091,"longitude":38.0019535},{"name":"Victoria's Secret - South Coast Plaza","address":"3333 Bear Street<br>Costa Mesa, CA 92626<br>(714) 662-1870","latitude":-117.8928998,"longitude":33.6920547},{"name":"Victoria's Secret - South Coast Plaza","address":"3333 Bristol Street<br>Costa Mesa, CA 92626<br>(714)545-6750","latitude":-117.887914,"longitude":33.6908608},{"name":"Victoria's Secret - Southland","address":"1 Southland Mall Drive<br>Hayward, CA 94545<br>(510) 782-5005","latitude":-122.101725,"longitude":37.6505266},{"name":"Victoria's Secret - Stanford Shopping Center","address":"660 Stanford Shopping Center<br>Palo Alto, CA 94304<br>(650) 328-0574","latitude":-122.171446,"longitude":37.4430322},{"name":"Victoria's Secret - Stoneridge","address":"2345 Stoneridge Mall Drive<br>Pleasanton, CA 94588<br>(925) 460-0440","latitude":-121.9253678,"longitude":37.6956866},{"name":"Victoria's Secret - Stoneridge","address":"2325 Stoneridge Mall Drive<br>Pleasanton, CA 94588<br>(925) 463-0687","latitude":-121.9287913,"longitude":37.69535990000001},{"name":"Victoria's Secret - Stonestown Galleria","address":"3251 20th Avenue<br>San Francisco, CA 94132<br>(415) 664-4127","latitude":-122.4770819,"longitude":37.7278702},{"name":"Victoria's Secret - Stonewood","address":"362 Stonewood Street<br>Downey, CA 90241<br>(562) 923-3512","latitude":-118.1212824,"longitude":33.9379772},{"name":"Victoria's Secret - Stonewood","address":"208 Stonewood Street<br>Downey, CA 90241<br>(562) 861-7434","latitude":-118.1216352,"longitude":33.9375005},{"name":"Victoria's Secret - Sunrise","address":"6041 Sunrise Boulevard<br>Citrus Heights, CA 95610<br>(916) 962-1968","latitude":-121.2688998,"longitude":38.676903},{"name":"Victoria's Secret - Sunvalley","address":"One Sun Valley Mall<br>Concord, CA 94523<br>(925) 609-9307","latitude":-122.0606591,"longitude":37.9675707},{"name":"Victoria's Secret - Sunvalley","address":"1 Sunvalley Mall<br>Concord, CA 94520<br>(925) 691-5194","latitude":-122.0606591,"longitude":37.9675707},{"name":"Victoria's Secret - Tanforan Park","address":"1140 El Camino Real<br>San Bruno, CA 94066<br>(650) 952-6025","latitude":-122.4189679,"longitude":37.6360119},{"name":"Victoria's Secret - The Collection at Riverpark","address":"601 Town Center Drive<br>Oxnard, CA 93036<br>(805) 288-8471","latitude":-119.1780689,"longitude":34.2401788},{"name":"Victoria's Secret - The Forum at Carlsbad","address":"1923 Calle Barcelone<br>Carlsbad, CA 92009<br>(760) 635-0618","latitude":-117.2650856,"longitude":33.0715929},{"name":"Victoria's Secret - The Oaks","address":"248 West Hillcrest Drive<br>Thousand Oaks, CA 91360<br>(805) 496-1524","latitude":-118.8845132,"longitude":34.1833535},{"name":"Victoria's Secret - The Outlets at Orange","address":"20 City Boulevard West<br>Orange, CA 92868<br>(714) 940-0308","latitude":-117.8922272,"longitude":33.7828653},{"name":"Victoria's Secret - The Plaza at West Covina","address":"286 Plaza Drive<br>West Covina, CA 91790<br>(626) 338-2834","latitude":-117.9348115,"longitude":34.0718445},{"name":"Victoria's Secret - The Promenade at Temecula","address":"40820 Winchester Road<br>Temecula, CA 92591<br>(951) 296-0880","latitude":-117.1541815,"longitude":33.5248311},{"name":"Victoria's Secret - The Shoppes at Carlsbad","address":"2525 El Camino Real<br>Carlsbad, CA 92008<br>(760) 730-9433","latitude":-117.3323419,"longitude":33.1783241},{"name":"Victoria's Secret - The Shops at Mission Viejo","address":"555 The Shops at Mission Viejo<br>Mission Viejo, CA 92691<br>(949)347-0006","latitude":-117.6684315,"longitude":33.5588349},{"name":"Victoria's Secret - The Streets of Brentwood","address":"2485 Sand Creek Road<br>Brentwood, CA 94513<br>(925) 516-5796","latitude":-121.7383898,"longitude":37.945328},{"name":"Victoria's Secret - Third Street Promenade","address":"1311 3rd Street Promenade<br>Santa Monica, CA 90401<br>(310) 451-4570","latitude":-118.4972189,"longitude":34.0168664},{"name":"Victoria's Secret - Topanga","address":"6600 Topanga Canyon Boulevard<br>Canoga Park, CA 91303<br>(818) 704-1475","latitude":-118.6045941,"longitude":34.1854111},{"name":"Victoria's Secret - Topanga","address":"6600 Topanga Canyon Boulevard<br>Canoga Park, CA 91303<br>(818) 887-7195","latitude":-118.6045941,"longitude":34.1854111},{"name":"Victoria's Secret - University Towne Center","address":"4545 La Jolla Village Drive<br>San Diego, CA 92122<br>(858) 452-7089","latitude":-117.2097355,"longitude":32.8712569},{"name":"Victoria's Secret - Valencia Town","address":"24140 Magic Mountain Parkway<br>Valencia, CA 91355<br>(661) 287-9313","latitude":-118.5572996,"longitude":34.4151509},{"name":"Victoria's Secret - Valencia Town","address":"24201 W Valencia Boulevard<br>Valencia, CA 91355<br>(661) 222-9904","latitude":-118.5572612,"longitude":34.4156215},{"name":"Victoria's Secret - Valley Fair","address":"2855 Stevens Creek Boulevard<br>Santa Clara, CA 95050<br>(408)249-7353","latitude":-121.9456152,"longitude":37.325845},{"name":"Victoria's Secret - Valley Plaza","address":"2701 Ming Avenue<br>Bakersfield, CA 93304<br>(661)398-6216","latitude":-119.0343967,"longitude":35.3381784},{"name":"Victoria's Secret - Valley Plaza","address":"2701 Ming Avenue<br>Bakersfield, CA 93304<br>(661) 836-1494","latitude":-119.0343967,"longitude":35.3381784},{"name":"Victoria's Secret - Victor Valley Town","address":"14400 Bear Valley Road<br>Victorville, CA 92392<br>(760) 955-8162","latitude":-117.3474669,"longitude":34.4733829},{"name":"Victoria's Secret - Victoria Gardens","address":"12510 S Main St<br>Rancho Cucamonga, CA 91730<br>(909) 646-8560","latitude":-117.6198566,"longitude":34.09315309999999},{"name":"Victoria's Secret - Vintage Faire","address":"3401 Dale Road<br>Modesto, CA 95356<br>(209) 527-8558","latitude":-121.0498496,"longitude":37.6872578},{"name":"Victoria's Secret - Vintage Faire","address":"3401 Dale Road<br>Modesto, CA 95356<br>(209) 577-1817","latitude":-121.0498496,"longitude":37.6872578},{"name":"Victoria's Secret - Visalia Mall","address":"2031 South Mooney Boulevard<br>Visalia, CA 93277<br>(559) 735-9877","latitude":-119.3147092,"longitude":36.31139539999999},{"name":"Victoria's Secret - Weberstown","address":"4950 Pacific Avenue<br>Stockton, CA 95207<br>(209) 476-1963","latitude":-121.3120424,"longitude":37.9933909},{"name":"Victoria's Secret - West Valley Mall","address":"320 Naglee Road<br>Tracy, CA 95304<br>(209) 834-0650","latitude":-121.462292,"longitude":37.7677687},{"name":"Victoria's Secret - Westfield Culver City","address":"6000 Sepulveda Boulevard<br>Culver City, CA 90230<br>(310) 391-1985","latitude":-118.395087,"longitude":33.9854088},{"name":"Victoria's Secret - Westminster Mall","address":"1015 Westminster Mall<br>Westminster, CA 92683<br>(714)901-8451","latitude":-118.0123298,"longitude":33.7473115},{"name":"Victoria's Secret - Westminster Mall","address":"1015 Westminster Mall<br>Westminster, CA 92683<br>(714)892-9071","latitude":-118.0123298,"longitude":33.7473115},{"name":"Victoria's Secret - Westside Pavilion","address":"10800 W Pico Boulevard<br>Los Angeles, CA 90064<br>(310) 474-3484","latitude":-118.4274689,"longitude":34.0401391},{"name":"Victoria's Secret - Westwood Boulevard","address":"1046 Westwood Boulevard<br>Los Angeles, CA 90024<br>(310) 209-0882","latitude":-118.4450208,"longitude":34.0616368},{"name":"Victoria's Secret - Aurora","address":"14200 E Alameda Avenue<br>Aurora, CO 80012<br>(303) 344-8977","latitude":-104.8236271,"longitude":39.7107351},{"name":"Victoria's Secret - Belmar","address":"390 South Teller Street<br>Lakewood, CO 80226<br>(303) 934-2637","latitude":-105.0767324,"longitude":39.7094439},{"name":"Victoria's Secret - Briargate","address":"1845 Briargate Parkway<br>Colorado Springs, CO 80920<br>(719) 264-1122","latitude":-104.7942916,"longitude":38.9625618},{"name":"Victoria's Secret - Chapel Hills","address":"1710 Briargate Boulevard<br>Colorado Springs, CO 80920<br>(719) 533-1226","latitude":-104.794477,"longitude":38.9476978},{"name":"Victoria's Secret - Cherry Creek","address":"3000 East First Avenue<br>Denver, CO 80206<br>(303) 321-1021","latitude":-104.952671,"longitude":39.7175014},{"name":"Victoria's Secret - Cherry Creek","address":"3000 E First Avenue<br>Denver, CO 80206<br>(303) 320-0129","latitude":-104.952671,"longitude":39.7175014},{"name":"Victoria's Secret - Denver Pavilions","address":"500 16th Street<br>Denver, CO 80202<br>(303) 825-2505","latitude":-104.9908942,"longitude":39.7435013},{"name":"Victoria's Secret - Flatiron Crossing","address":"One Flatiron Circle<br>Broomfield, CO 80021<br>(303) 469-4888","latitude":-105.1354,"longitude":39.930585},{"name":"Victoria's Secret - Flatiron Crossing","address":"1 W Flatiron Crossing<br>Broomfield, CO 80021<br>(303) 465-6125","latitude":-105.1314025,"longitude":39.9321113},{"name":"Victoria's Secret - Foothills Fashion","address":"215 East Foothills Parkway<br>Fort Collins, CO 80525<br>(970) 225-3746","latitude":-105.0724138,"longitude":40.5428004},{"name":"Victoria's Secret - Greeley","address":"2050 Greeley Mall<br>Greeley, CO 80631<br>(970) 392-0390","latitude":-104.7127254,"longitude":40.3904496},{"name":"Victoria's Secret - Mesa Mall","address":"2424 US Highway 6 And 50<br>Grand Junction, CO 81505<br>(970) 241-3389","latitude":-108.6034802,"longitude":39.0951733},{"name":"Victoria's Secret - Northfield at Stapleton","address":"8370 East 49Th Avenue<br>Denver, CO 80238<br>(303) 574-3055","latitude":-104.8911186,"longitude":39.7857799},{"name":"Victoria's Secret - Orchard Town Center","address":"14584 Orchard Parkway<br>Westminster, CO 80023<br>(303) 280-7116","latitude":-104.9935095,"longitude":39.9610949},{"name":"Victoria's Secret - Park Meadows","address":"8505 Park Meadows Ctr Drive<br>Littleton, CO 80124<br>(303) 792-5737","latitude":-104.8806931,"longitude":39.5590745},{"name":"Victoria's Secret - Pueblo Mall","address":"3439 Dillon Drive<br>Pueblo, CO 81008<br>(719) 543-0133","latitude":-104.6067558,"longitude":38.3056518},{"name":"Victoria's Secret - Southlands","address":"6200 South Main Street<br>Aurora, CO 80016<br>(303) 400-4590","latitude":-104.7084448,"longitude":39.604389},{"name":"Victoria's Secret - Southwest Plaza Regional","address":"8501 W Bowles Avenue<br>Littleton, CO 80123<br>(303) 973-6225","latitude":-105.093282,"longitude":39.6098077},{"name":"Victoria's Secret - The Citadel","address":"750 Citadel Drive E<br>Colorado Springs, CO 80909<br>(719) 597-7475","latitude":-104.7629537,"longitude":38.8433755},{"name":"Victoria's Secret - The Shops at Centerra","address":"5879 Sky Pond Drive<br>Loveland, CO 80538<br>(970) 278-9470","latitude":-104.9901092,"longitude":40.4161548},{"name":"Victoria's Secret - The Streets at Southglenn","address":"6911 S University Boulevard<br>Centennial, CO 80122<br>(303) 797-9529","latitude":-104.9603055,"longitude":39.5913209},{"name":"Victoria's Secret - Twenty Ninth Street","address":"1850 Twenty Ninth Street<br>Boulder, CO 80301<br>(720) 565-9443","latitude":-105.2554524,"longitude":40.0190365},{"name":"Victoria's Secret - Avon Marketplace","address":"380 W Main Street<br>Avon, CT 06001<br>(860) 674-8159","latitude":-72.8622826,"longitude":41.8164535},{"name":"Victoria's Secret - Brass Mill Center and Commons","address":"451 Union Street<br>Waterbury, CT 06706<br>(203) 573-9548","latitude":-73.02715649999999,"longitude":41.5489778},{"name":"Victoria's Secret - Connecticut Post","address":"1201 Boston Post Road<br>Milford, CT 06460<br>(203) 878-9243","latitude":-73.0362329,"longitude":41.236614},{"name":"Victoria's Secret - Crystal Mall","address":"850 Hartford Turnpike<br>Waterford, CT 06385<br>(860) 439-0334","latitude":-72.13983089999999,"longitude":41.3733618},{"name":"Victoria's Secret - Danbury Fair","address":"7 Backus Avenue<br>Danbury, CT 06810<br>(203) 790-8959","latitude":-73.4817327,"longitude":41.3800517},{"name":"Victoria's Secret - Enfield Square","address":"90 Elm Street<br>Enfield, CT 06082<br>(860) 745-3360","latitude":-72.582268,"longitude":41.9962958},{"name":"Victoria's Secret - Fairfield Center","address":"1499 Boston Post Road<br>Fairfield, CT 06824<br>(203) 319-0777","latitude":-73.4787699,"longitude":41.0673949},{"name":"Victoria's Secret - Meriden Square","address":"470 Lewis Avenue<br>Meriden, CT 06451<br>(203) 238-2301","latitude":-72.80785759999999,"longitude":41.55088980000001},{"name":"Victoria's Secret - Somerset Square","address":"140 Glastonbury Boulevard<br>Glastonbury, CT 06033<br>(860) 657-3792","latitude":-72.6212357,"longitude":41.72051219999999},{"name":"Victoria's Secret - Southbury Green","address":"775 S Main Street<br>Southbury, CT 06488<br>(203) 264-6767","latitude":-73.2312585,"longitude":41.4622272},{"name":"Victoria's Secret - Stamford Town","address":"100 Greyrock Place<br>Stamford, CT 06901<br>(203) 357-0181","latitude":-73.5371438,"longitude":41.0530773},{"name":"Victoria's Secret - The Shoppes at Buckland Hills","address":"194 Buckland Hills Drive<br>Manchester, CT 06042<br>(860) 648-0613","latitude":-72.5459,"longitude":41.80687},{"name":"Victoria's Secret - The Shops at Mohegan Sun","address":"1 Mohegan Sun Boulevard<br>Uncasville, CT 06382<br>(860) 319-8062","latitude":-72.0909173,"longitude":41.4917338},{"name":"Victoria's Secret - Trumbull Shopping Park","address":"5065 Main Street<br>Trumbull, CT 06611<br>(203) 374-5998","latitude":-73.226474,"longitude":41.2293532},{"name":"Victoria's Secret - Westfarms","address":"500 Westfarms Mall<br>Farmington, CT 06032<br>(860) 561-1180","latitude":-72.76347679999999,"longitude":41.7219021},{"name":"Victoria's Secret - Westfarms","address":"500 Westfarms Mall<br>Farmington, CT 06032<br>(860) 521-0019","latitude":-72.76347679999999,"longitude":41.7219021},{"name":"Victoria's Secret - Christiana","address":"425 Christiana Mall<br>Newark, DE 19702<br>(302) 366-8972","latitude":-75.6592187,"longitude":39.6775467},{"name":"Victoria's Secret - Christiana","address":"315 Christiana Mall Road<br>Newark, DE 19702<br>(302) 738-3651","latitude":-75.6529912,"longitude":39.6784572},{"name":"Victoria's Secret - Concord","address":"4737 Concord Pike<br>Wilmington, DE 19803<br>(302) 478-8050","latitude":-75.5439358,"longitude":39.8228644},{"name":"Victoria's Secret - Dover","address":"1355 North Dupont Highway<br>Dover, DE 19901<br>(302) 734-1743","latitude":-75.5423438,"longitude":39.1906152},{"name":"Victoria's Secret - Tanger Outlets Rehoboth","address":"35000 Midway Outlet Drive<br>Rehoboth Beach, DE 19971<br>(302) 644-1035","latitude":-75.1416416,"longitude":38.73379850000001},{"name":"Victoria's Secret - Connecticut Avenue","address":"1050 Connecticut Avenue NW<br>Washington, DC 20036<br>(202) 293-7530","latitude":-77.0406496,"longitude":38.9034081},{"name":"Victoria's Secret - Union Station","address":"40 Massachusetts Avenue NE<br>Washington, DC 20002<br>(202) 682-0686","latitude":-77.0067291,"longitude":38.8980328},{"name":"Victoria's Secret - Altamonte Mall","address":"451 E Altamonte Drive<br>Altamonte Springs, FL 32701<br>(407) 767-8547","latitude":-81.377079,"longitude":28.663915},{"name":"Victoria's Secret - Aventura","address":"19501 Biscayne Boulevard<br>Aventura, FL 33180<br>(305) 933-2701","latitude":-80.1468335,"longitude":25.9581542},{"name":"Victoria's Secret - Aventura","address":"19575 Biscayne Boulevard<br>Aventura, FL 33180<br>(305) 792-5604","latitude":-80.1430982,"longitude":25.9569187},{"name":"Victoria's Secret - Bayside Marketplace","address":"401 Biscayne Blvd<br>Miami, FL 33132<br>(305) 381-6903","latitude":-80.1866565,"longitude":25.7790092},{"name":"Victoria's Secret - Bell Tower Shops","address":"13499 US 41 SE<br>Fort Myers, FL 33907<br>(239) 768-0329","latitude":-81.8721199,"longitude":26.5522427},{"name":"Victoria's Secret - Boynton Beach","address":"801 N Congress Avenue<br>Boynton Beach, FL 33426<br>(561) 736-2203","latitude":-80.0959762,"longitude":26.5354303},{"name":"Victoria's Secret - Brandon Town Center","address":"459 Brandon Town Center<br>Brandon, FL 33511<br>(813) 651-2961","latitude":-82.325879,"longitude":27.9312118},{"name":"Victoria's Secret - Brickell City Centre","address":"701 S Miami Avenue<br>Miami, FL 33131<br>(786) 662-6477","latitude":-80.1930873,"longitude":25.7671674},{"name":"Victoria's Secret - Broward Mall","address":"8000 W Broward Boulevard<br>Plantation, FL 33388<br>(954)476-0702","latitude":-80.2548521,"longitude":26.1195218},{"name":"Victoria's Secret - Citrus Park","address":"8059 Citrus Park Town Mall<br>Tampa, FL 33625<br>(813)926-6339","latitude":-82.5772514,"longitude":28.0688386},{"name":"Victoria's Secret - City Place","address":"700 Rosemary Avenue<br>West Palm Beach, FL 33401<br>(561) 833-4248","latitude":-80.0565882,"longitude":26.707458},{"name":"Victoria's Secret - Coastland","address":"1770 Tamiami Trail<br>Naples, FL 34103<br>(239) 403-0145","latitude":-81.7964963,"longitude":26.1696293},{"name":"Victoria's Secret - Coastland","address":"1770 Tamiami Trail North<br>Naples, FL 34102<br>(239) 263-0646","latitude":-81.7964963,"longitude":26.1696293},{"name":"Victoria's Secret - Coconut Point","address":"23151 Fashion Drive<br>Estero, FL 33928<br>(239) 949-2418","latitude":-81.80652599999999,"longitude":26.402173},{"name":"Victoria's Secret - Coconut Point","address":"23131 Fashion Drive<br>Estero, FL 33928<br>(239) 949-3102","latitude":-81.80674979999999,"longitude":26.403255},{"name":"Victoria's Secret - Cocowalk","address":"3015 Grand Avenue<br>Coconut Grove, FL 33133<br>(305) 443-2365","latitude":-80.2422598,"longitude":25.7288415},{"name":"Victoria's Secret - Collins Avenue","address":"745 Collins Avenue<br>Miami Beach, FL 33139<br>(305) 538-2107","latitude":-80.1320215,"longitude":25.7776811},{"name":"Victoria's Secret - Coral Square","address":"9469 W Atlantic Boulevard<br>Coral Springs, FL 33071<br>(954) 344-1555","latitude":-80.24955179999999,"longitude":26.2414572},{"name":"Victoria's Secret - Coral Square","address":"9469 W Atlantic Boulevard<br>Coral Springs, FL 33071<br>(954)796-9028","latitude":-80.24955179999999,"longitude":26.2414572},{"name":"Victoria's Secret - Cordova","address":"5100 N 9Th Avenue<br>Pensacola, FL 32504<br>(850) 479-8655","latitude":-87.207522,"longitude":30.475326},{"name":"Victoria's Secret - Countryside","address":"27001 US 19 N<br>Clearwater, FL 33761<br>(727) 796-1089","latitude":-82.738787,"longitude":28.0342784},{"name":"Victoria's Secret - Dadeland Mall","address":"7535 North Kendall Drive<br>Miami, FL 33156<br>(305) 665-0269","latitude":-80.3132992,"longitude":25.6901911},{"name":"Victoria's Secret - Desoto Square","address":"303 And 301 Boulevard West<br>Bradenton, FL 34205<br>(941) 746-1075","latitude":-82.5665945,"longitude":27.4654738},{"name":"Victoria's Secret - Destin Commons","address":"4225 Legendary Drive<br>Destin, FL 32541<br>(850) 650-7390","latitude":-86.42617489999999,"longitude":30.3912257},{"name":"Victoria's Secret - Eagle Ridge","address":"706 Eagle Ridge Drive<br>Lake Wales, FL 33853<br>(863) 676-4931","latitude":-81.6155089,"longitude":27.9544975},{"name":"Victoria's Secret - Edison","address":"4125 Cleveland Avenue<br>Fort Myers, FL 33901<br>(239) 939-5450","latitude":-81.869709,"longitude":26.600845},{"name":"Victoria's Secret - Florida Mall","address":"8001 S Orange Blossom Trail<br>Orlando, FL 32809<br>(407) 825-9050","latitude":-81.398841,"longitude":28.4554186},{"name":"Victoria's Secret - Florida Mall","address":"8001 S Orange Blossom Trail<br>Orlando, FL 32809<br>(407) 855-4424","latitude":-81.398841,"longitude":28.4554186},{"name":"Victoria's Secret - Governor's Square","address":"1500 Apalachee Parkway<br>Tallahassee, FL 32301<br>(850) 878-1024","latitude":-84.2535477,"longitude":30.4373197},{"name":"Victoria's Secret - Governor's Square","address":"1500 Apalachee Parkway<br>Tallahassee, FL 32301<br>(850) 878-8542","latitude":-84.2535477,"longitude":30.4373197},{"name":"Victoria's Secret - Gulf View Square","address":"9409 Highway 19<br>Port Richey, FL 34668<br>(727) 842-2488","latitude":-82.7138578,"longitude":28.2918159},{"name":"Victoria's Secret - Indian River","address":"6200 20Th Street<br>Vero Beach, FL 32966<br>(772) 778-3360","latitude":-80.456471,"longitude":27.642465},{"name":"Victoria's Secret - International Plaza","address":"2223 N West Shore Boulevard<br>Tampa, FL 33607<br>(813) 877-8159","latitude":-82.52112079999999,"longitude":27.9656125},{"name":"Victoria's Secret - International Plaza","address":"2223 N Westshore Boulevard<br>Tampa, FL 33607<br>(813) 801-1397","latitude":-82.52112079999999,"longitude":27.9656125},{"name":"Victoria's Secret - Lakeland Square","address":"3800 US Highway 98 N<br>Lakeland, FL 33809<br>(863) 858-7586","latitude":-81.9781309,"longitude":28.0914616},{"name":"Victoria's Secret - Lakeside Village","address":"1440 Town Center Drive<br>Lakeland, FL 33803<br>(863) 683-4017","latitude":-81.97849599999999,"longitude":28.0004164},{"name":"Victoria's Secret - Lincoln Road","address":"901 Lincoln Road<br>Miami Beach, FL 33139<br>(305) 695-1814","latitude":-80.13793199999999,"longitude":25.790868},{"name":"Victoria's Secret - Mall at University Town Center","address":"140 University Town Center Drive<br>Sarasota, FL 34240<br>(941) 893-3935","latitude":-82.45318809999999,"longitude":27.384433},{"name":"Victoria's Secret - Marketplace at Oviedo","address":"1650 Oviedo Marketplace Blvd<br>Oviedo, FL 32765<br>(407) 365-9040","latitude":-81.2348647,"longitude":28.6629402},{"name":"Victoria's Secret - Melbourne Square","address":"1700 W New Haven Avenue<br>Melbourne, FL 32904<br>(321) 725-4765","latitude":-80.6494748,"longitude":28.0815917},{"name":"Victoria's Secret - Merritt Square","address":"777 E Merritt Island CSWY E-7<br>Merritt Island, FL 32952<br>(321) 456-9902","latitude":-80.6868351,"longitude":28.3543313},{"name":"Victoria's Secret - Miami International","address":"1455 NW 107Th Avenue<br>Doral, FL 33172<br>(305) 477-7022","latitude":-80.3686474,"longitude":25.7871835},{"name":"Victoria's Secret - Miami International","address":"1455 NW 107th Avenue<br>Miami, FL 33172<br>(305) 591-2411","latitude":-80.36494139999999,"longitude":25.786656},{"name":"Victoria's Secret - Miami Lakes","address":"6800 Main Street<br>Miami Lakes, FL 33014<br>(305)823-0900","latitude":-80.31110989999999,"longitude":25.912878},{"name":"Victoria's Secret - Oaks","address":"6419 Newberry<br>Gainesville, FL 32607<br>(352) 332-4720","latitude":-82.41159669999999,"longitude":29.6569356},{"name":"Victoria's Secret - Orange Park","address":"1910 Wells Road<br>Orange Park, FL 32073<br>(904) 264-0132","latitude":-81.73565289999999,"longitude":30.1847281},{"name":"Victoria's Secret - Orlando Premium Outlets","address":"4959 International Drive<br>Orlando, FL 32819<br>(407) 355-9890","latitude":-81.4525024,"longitude":28.473096},{"name":"Victoria's Secret - Paddock","address":"3100 SW College Road<br>Ocala, FL 34474<br>(352) 861-0331","latitude":-82.1732255,"longitude":29.1586112},{"name":"Victoria's Secret - Panama City Mall","address":"2150 Martin Luther King Blvd<br>Panama City, FL 32405<br>(850) 784-2060","latitude":-85.6478522,"longitude":30.1871167},{"name":"Victoria's Secret - Pembroke Lakes","address":"11401 Pines Boulevard<br>Pembroke Pines, FL 33026<br>(954)442-9523","latitude":-80.30461369999999,"longitude":26.0105739},{"name":"Victoria's Secret - Pier Park","address":"15600 Starfish Street<br>Panama City Beach, FL 32413<br>(850) 636-3533","latitude":-85.8701248,"longitude":30.22082259999999},{"name":"Victoria's Secret - Pointe Orlando","address":"9101 International Drive<br>Orlando, FL 32819<br>(407) 354-0046","latitude":-81.47116059999999,"longitude":28.4327848},{"name":"Victoria's Secret - Port Charlotte Town Center","address":"1441 Tamiami Trail<br>Port Charlotte, FL 33948<br>(941) 627-0223","latitude":-82.1424503,"longitude":27.0110773},{"name":"Victoria's Secret - Regency Square","address":"9501 Arlington Expressway<br>Jacksonville, FL 32225<br>(904) 721-2161","latitude":-81.5525881,"longitude":30.3241619},{"name":"Victoria's Secret - Santa Rosa","address":"300 Mary Esther Boulevard<br>Mary Esther, FL 32569<br>(850) 581-0161","latitude":-86.65720689999999,"longitude":30.417409},{"name":"Victoria's Secret - Sarasota Square","address":"8201 S Tamiami Trail<br>Sarasota, FL 34238<br>(941) 923-6406","latitude":-82.49307440000001,"longitude":27.2346654},{"name":"Victoria's Secret - Sawgrass Mills at The Oasis","address":"12801 West Sunrise Boulevard<br>Sunrise, FL 33323<br>(954) 838-8958","latitude":-80.3210421,"longitude":26.1515952},{"name":"Victoria's Secret - Seminole Towne","address":"159 Towne Center Circle<br>Sanford, FL 32771<br>(407) 324-0666","latitude":-81.33884789999999,"longitude":28.8053637},{"name":"Victoria's Secret - Shops at Merrick Park","address":"360-38 Avenue San Lorenzo<br>Coral Gables, FL 33146<br>(305) 567-1466","latitude":-80.2614625,"longitude":25.7318754},{"name":"Victoria's Secret - Shops at Sunset Place","address":"5701 Sunset Drive<br>South Miami, FL 33143<br>(305) 665-6268","latitude":-80.2865296,"longitude":25.7058107},{"name":"Victoria's Secret - Southgate","address":"114 S Gate Plaza<br>Sarasota, FL 34239<br>(941) 365-1437","latitude":-82.51380370000001,"longitude":27.305816},{"name":"Victoria's Secret - Southland","address":"20505 S Dixie Highway<br>Miami, FL 33189<br>(305) 234-1129","latitude":-80.3689995,"longitude":25.5746699},{"name":"Victoria's Secret - St Johns Town Center","address":"4790 River City Drive<br>Jacksonville, FL 32246<br>(904) 642-6159","latitude":-81.5256139,"longitude":30.2546478},{"name":"Victoria's Secret - St. Johns Town Center","address":"4742 River City Drive<br>Jacksonville, FL 32246<br>(904) 997-8488","latitude":-81.5257281,"longitude":30.2562989},{"name":"Victoria's Secret - Tallahassee","address":"2415 N Monroe Street<br>Tallahassee, FL 32303<br>(850) 422-1744","latitude":-84.29007709999999,"longitude":30.4752566},{"name":"Victoria's Secret - The Avenues","address":"10300 Southside Boulevard<br>Jacksonville, FL 32256<br>(904) 519-7741","latitude":-81.5537492,"longitude":30.1860323},{"name":"Victoria's Secret - The Dolphin Mall","address":"11401 NW 12th Street<br>Miami, FL 33172<br>(305)591-4453","latitude":-80.3799092,"longitude":25.7827881},{"name":"Victoria's Secret - The Dolphin Mall","address":"11401 NW 12Th Street<br>Miami, FL 33172<br>(305) 591-8249","latitude":-80.3799092,"longitude":25.7827881},{"name":"Victoria's Secret - The Falls","address":"8888 SW 136Th Street<br>Miami, FL 33176<br>(305) 232-3180","latitude":-80.3394789,"longitude":25.6443825},{"name":"Victoria's Secret - The Galleria at Fort Lauderdale","address":"2570 East Sunrise Boulevard<br>Ft Lauderdale, FL 33304<br>(954) 564-6404","latitude":-80.11195790000001,"longitude":26.1369827},{"name":"Victoria's Secret - The Gardens","address":"3101 PGA Boulevard<br>Palm Beach Gardens, FL 33410<br>(561) 355-8039","latitude":-80.0853836,"longitude":26.8473981},{"name":"Victoria's Secret - The Mall at Millenia","address":"4200 Conroy Road<br>Orlando, FL 32839<br>(407) 370-7101","latitude":-81.43154969999999,"longitude":28.485565},{"name":"Victoria's Secret - The Mall at Millenia","address":"4200 Conroy Road<br>Orlando, FL 32839<br>(407)264-0708","latitude":-81.43154969999999,"longitude":28.485565},{"name":"Victoria's Secret - The Mall at Wellington Green","address":"10300 W Forest Hills Boulevard<br>Wellington, FL 33414<br>(561) 798-5596","latitude":-80.2084654,"longitude":26.646333},{"name":"Victoria's Secret - The Oaks Mall","address":"6415 Newberry Road<br>Gainesville, FL 32605<br>(352) 332-5932","latitude":-82.4113251,"longitude":29.6595614},{"name":"Victoria's Secret - The Shops at Pembroke Gardens","address":"401 SW 145Th Terrace<br>Pembroke Pines, FL 33027<br>(954) 430-6123","latitude":-80.3366609,"longitude":26.004922},{"name":"Victoria's Secret - Town Center at Boca Raton","address":"289 Towne Center<br>Boca Raton, FL 33431<br>(561) 391-8113","latitude":-80.1344561,"longitude":26.3686902},{"name":"Victoria's Secret - Town Center at Boca Raton","address":"6000 Glades Road<br>Boca Raton, FL 33431<br>(561) 237-0539","latitude":-80.1343467,"longitude":26.3659017},{"name":"Victoria's Secret - Treasure Coast Square","address":"3174 NW Federal Highway<br>Jensen Beach, FL 34957<br>(772) 692-4554","latitude":-80.2718158,"longitude":27.243962},{"name":"Victoria's Secret - Treasure Coast Square","address":"3174 NW Federal Highway<br>Jensen Beach, FL 34957<br>(772) 692-0233","latitude":-80.2718158,"longitude":27.243962},{"name":"Victoria's Secret - Tyrone Square","address":"6901 22nd Avenue N<br>St Petersburg, FL 33710<br>(727) 347-7190","latitude":-82.7333945,"longitude":27.7936617},{"name":"Victoria's Secret - University Mall","address":"2200 East Fowler Avenue<br>Tampa, FL 33612<br>(813) 972-5982","latitude":-82.4345146,"longitude":28.0575941},{"name":"Victoria's Secret - Volusia","address":"1700 Volusia Avenue<br>Daytona Beach, FL 32114<br>(386) 257-3007","latitude":-81.0634814,"longitude":29.1970127},{"name":"Victoria's Secret - Waterford Lakes Town Center","address":"509 North Alfaya Trail<br>Orlando, FL 32828<br>(407) 482-0672","latitude":-81.2057211,"longitude":28.5537253},{"name":"Victoria's Secret - West Oaks","address":"9401 West Colonial Drive<br>Ocoee, FL 34761<br>(407) 522-2800","latitude":-81.5154902,"longitude":28.5574055},{"name":"Victoria's Secret - West Shore","address":"308 West Shore Plaza<br>Tampa, FL 33609<br>(813) 282-0310","latitude":-82.52721400000001,"longitude":27.9454878},{"name":"Victoria's Secret - Westland","address":"1675 W 49Th Street<br>Hialeah, FL 33012<br>(305) 819-2577","latitude":-80.3190492,"longitude":25.8676503},{"name":"Victoria's Secret - Winter Garden Village","address":"3251 Daniels Rd 110<br>Winter Garden, FL 34777<br>(407) 654-8014","latitude":-81.58436189999999,"longitude":28.5238726},{"name":"Victoria's Secret - Wiregrass Ranch","address":"28249 Paseo Drive<br>Wesley Chapel, FL 33543<br>(813) 994-5550","latitude":-82.3488663,"longitude":28.1890809},{"name":"Victoria's Secret - Albany Mall","address":"2601 Dawson Road<br>Albany, GA 31707<br>(229) 436-0087","latitude":-84.21674449999999,"longitude":31.6180573},{"name":"Victoria's Secret - Arbor Place","address":"6700 Douglass Boulevard<br>Douglasville, GA 30135<br>(770) 489-1531","latitude":-84.74588829999999,"longitude":33.7277306},{"name":"Victoria's Secret - Atlantic Station","address":"230 18Th Street<br>Atlanta, GA 30363<br>(404) 541-9341","latitude":-84.3956151,"longitude":33.7921239},{"name":"Victoria's Secret - Augusta Mall","address":"3450 Wrightsboro Road<br>Augusta, GA 30909<br>(706) 733-6276","latitude":-82.0788358,"longitude":33.4635508},{"name":"Victoria's Secret - Avenue at East Cobb","address":"4493 Roswell Road<br>Marietta, GA 30062<br>(770) 321-4934","latitude":-84.42123869999999,"longitude":33.9867443},{"name":"Victoria's Secret - Avenue at Forsyth","address":"410 Peachtree Parkway<br>Cumming, GA 30041<br>(770) 886-5887","latitude":-84.17658999999999,"longitude":34.154432},{"name":"Victoria's Secret - Avenue at Peachtree City","address":"Ga Highway 54 At Ga Highway 74<br>Peachtree City, GA 30269<br>(770) 632-6664","latitude":-84.590966,"longitude":33.3974029},{"name":"Victoria's Secret - Avenue at Webb Gin","address":"1350 Scenic Highway<br>Snellville, GA 30078<br>(770) 736-2885","latitude":-84.00442199999999,"longitude":33.8994825},{"name":"Victoria's Secret - Avenue at West Cobb","address":"3625 Dallas Highway<br>Marietta, GA 30064<br>(678) 331-1219","latitude":-84.6558324,"longitude":33.9523613},{"name":"Victoria's Secret - Broughton St","address":"109 W Broughton Street<br>Savannah, GA 31401<br>912-235-6745","latitude":-81.0935907,"longitude":32.07913080000001},{"name":"Victoria's Secret - Cumberland","address":"2860 Cumberland Mall<br>Atlanta, GA 30339<br>(770) 319-0344","latitude":-84.468664,"longitude":33.880363},{"name":"Victoria's Secret - Forum on Peachtree Parkway","address":"5145 Peachtree Parkway<br>Norcross, GA 30092<br>(770) 242-7848","latitude":-84.2164277,"longitude":33.9815796},{"name":"Victoria's Secret - Galleria at Centerville","address":"2922 Watson Boulevard<br>Centerville, GA 31028<br>(478) 971-1158","latitude":-83.68721219999999,"longitude":32.6204905},{"name":"Victoria's Secret - Georgia Square","address":"3700 Atlanta Highway<br>Athens, GA 30606<br>(706) 613-2802","latitude":-83.4675771,"longitude":33.9439705},{"name":"Victoria's Secret - Gwinnett Place","address":"2100 Pleasant Hill Road<br>Duluth, GA 30096<br>(770) 497-0755","latitude":-84.1258539,"longitude":33.9608155},{"name":"Victoria's Secret - Lakeshore","address":"150 Pearl Nix Parkway<br>Gainesville, GA 30501<br>(770) 534-9890","latitude":-83.8449461,"longitude":34.2937345},{"name":"Victoria's Secret - Lenox Square","address":"3393 Peachtree Road NE<br>Atlanta, GA 30326<br>(404)365-8860","latitude":-84.3619696,"longitude":33.8475546},{"name":"Victoria's Secret - Mall at Stonecrest","address":"8000 Mall Pkway<br>Lithonia, GA 30038<br>(678) 526-2534","latitude":-84.0916678,"longitude":33.69228870000001},{"name":"Victoria's Secret - Mall of Georgia","address":"3333 Buford Drive<br>Buford, GA 30519<br>(770) 945-0118","latitude":-83.982806,"longitude":34.0642698},{"name":"Victoria's Secret - Mall of Georgia","address":"3333 Buford Drive<br>Buford, GA 30519<br>(770)614-2955","latitude":-83.982806,"longitude":34.0642698},{"name":"Victoria's Secret - Mount Berry Square","address":"2770 Martha Berry Highway<br>Rome, GA 30161<br>(706) 238-9664","latitude":-85.2050359,"longitude":34.1828309},{"name":"Victoria's Secret - North Point","address":"11350 Haynes Bridge Road<br>Alpharetta, GA 30022<br>(770) 667-5537","latitude":-84.2931559,"longitude":34.0488808},{"name":"Victoria's Secret - Northlake","address":"1400 Northlake Mall<br>Atlanta, GA 30345<br>(770) 939-3031","latitude":-84.2519482,"longitude":33.8489051},{"name":"Victoria's Secret - Oglethorpe","address":"7804 Abercorn Street<br>Savannah, GA 31406<br>(912) 692-1588","latitude":-81.11703050000001,"longitude":32.0026394},{"name":"Victoria's Secret - Peachtree","address":"3117 Peachtree Mall<br>Columbus, GA 31909<br>(706) 596-0947","latitude":-84.9422979,"longitude":32.5092189},{"name":"Victoria's Secret - Perimeter Mall","address":"4400 Ashford Dunwoody Road<br>Atlanta, GA 30346<br>(678) 443-0576","latitude":-84.34002919999999,"longitude":33.9232565},{"name":"Victoria's Secret - Savannah Mall","address":"14045 Abercorn Street<br>Savannah, GA 31419<br>(912) 920-1485","latitude":-81.17138140000002,"longitude":31.98396779999999},{"name":"Victoria's Secret - Southlake Mall","address":"2421 Southlake Mall<br>Morrow, GA 30260<br>(770) 961-6622","latitude":-84.35325979999999,"longitude":33.5751672},{"name":"Victoria's Secret - The Shoppes at River Crossing","address":"5080 Riverside Drive<br>Macon, GA 31210<br>(478) 474-3434","latitude":-83.71510549999999,"longitude":32.9250006},{"name":"Victoria's Secret - Town Center at Cobb","address":"400 Barrett Parkway<br>Kennesaw, GA 30144<br>(770) 420-7033","latitude":-84.5642654,"longitude":34.018009},{"name":"Victoria's Secret - Town Center at Cobb","address":"400 Ernest Barrett Parkway<br>Kennesaw, GA 30144<br>(678) 797-9720","latitude":-84.5642654,"longitude":34.018009},{"name":"Victoria's Secret - Valdosta","address":"1700 Norman Drive<br>Valdosta, GA 31601<br>(229) 245-0111","latitude":-83.3206399,"longitude":30.8436225},{"name":"Victoria's Secret - Ala Moana Center","address":"1450 Ala Moana Boulevard<br>Honolulu, HI 96814<br>(808) 951-8901","latitude":-157.8434701,"longitude":21.2895657},{"name":"Victoria's Secret - Ka Makana Ali'l","address":"91-5431 Kapolei Parkway<br>Kapolei, HI 96707<br>(808) 664-4308","latitude":-158.0520462,"longitude":21.3363089},{"name":"Victoria's Secret - Kalakaua Avenue","address":"2230 Kalakaua Avenue<br>Honolulu, HI 96815<br>(808) 922-6565","latitude":-157.8287752,"longitude":21.2793285},{"name":"Victoria's Secret - Pearlridge","address":"98-1005 Moanalua Road<br>Aiea, HI 96701<br>(808)488-6690","latitude":-157.9413169,"longitude":21.3859177},{"name":"Victoria's Secret - Queen Ka'Ahumanu","address":"275 Ka'ahumanu Ave<br>Kahului, HI 96732<br>808-214-1047","latitude":-156.4751848,"longitude":20.8872152},{"name":"Victoria's Secret - Windward","address":"46-056 Kamehameha Highway<br>Kaneohe, HI 96744<br>(808) 377-6762","latitude":-157.8058583,"longitude":21.4205431},{"name":"Victoria's Secret - Boise Towne Square","address":"350 N Milwaukee<br>Boise, ID 83704<br>(208) 375-2912","latitude":-116.2794185,"longitude":43.6085179},{"name":"Victoria's Secret - Grand Teton","address":"2300 E 17Th Street<br>Idaho Falls, ID 83404<br>(208) 522-1000","latitude":-111.987959,"longitude":43.4798084},{"name":"Victoria's Secret - Magic Valley","address":"1485 Poleline Road E<br>Twin Falls, ID 83301<br>(208) 735-0274","latitude":-114.4573906,"longitude":42.59257119999999},{"name":"Victoria's Secret - The Village at Meridian","address":"3597 E Monarch Sky Lane<br>Meridian, ID 83646<br>(208) 488-6080","latitude":-116.349168,"longitude":43.62079000000001},{"name":"Victoria's Secret - Algonquin Commons","address":"1964 South Randall Rd.<br>Algonquin, IL 60102<br>(847) 658-1682","latitude":-88.3358327,"longitude":42.1482085},{"name":"Victoria's Secret - Arboretum of South Barrington","address":"100 W Higgins Road<br>South Barrington, IL 60010<br>(847) 428-3391","latitude":-88.1847872,"longitude":42.0748421},{"name":"Victoria's Secret - Burr Ridge Village Center","address":"570 Village Center Drive<br>Burr Ridge, IL 60527<br>(630) 321-0052","latitude":-87.9118927,"longitude":41.752429},{"name":"Victoria's Secret - Century Shopping Centre","address":"2828 N Clark Street<br>Chicago, IL 60657<br>(773) 549-7405","latitude":-87.6459995,"longitude":41.9336019},{"name":"Victoria's Secret - Cherryvale","address":"7200 Harrison Avenue<br>Rockford, IL 61112<br>(815) 332-7525","latitude":-88.9756194,"longitude":42.2460425},{"name":"Victoria's Secret - Chicago Premium Outlets","address":"1650 Premium Outlets Blvd<br>Aurora, IL 60502<br>(331) 321-2066","latitude":-88.2739699,"longitude":41.800478},{"name":"Victoria's Secret - Chicago Ridge","address":"321 Chicago Ridge Mall<br>Chicago Ridge, IL 60415<br>(708)424-0739","latitude":-87.7823537,"longitude":41.716038},{"name":"Victoria's Secret - Deer Park Town Center","address":"20530 N Rand Road<br>Deer Park, IL 60010<br>(847) 438-8656","latitude":-88.0562941,"longitude":42.161279},{"name":"Victoria's Secret - Eastland","address":"1615 E Empire Street<br>Bloomington, IL 61701<br>(309) 663-0030","latitude":-88.9561306,"longitude":40.4859493},{"name":"Victoria's Secret - Ford City","address":"7601 S Cicero Avenue<br>Chicago, IL 60652<br>(773) 582-3505","latitude":-87.7333881,"longitude":41.7535595},{"name":"Victoria's Secret - Fox Valley","address":"1228 Fox Valley Center<br>Aurora, IL 60504<br>(630) 820-5323","latitude":-88.2130289,"longitude":41.7582375},{"name":"Victoria's Secret - Geneva Commons","address":"318 Commons Drive<br>Geneva, IL 60134<br>(630) 262-0664","latitude":-88.343871,"longitude":41.8926694},{"name":"Victoria's Secret - Geneva Commons","address":"222 Commons Drive<br>Geneva, IL 60134<br>(630) 208-0704","latitude":-88.3438644,"longitude":41.89165879999999},{"name":"Victoria's Secret - Golf Mill","address":"261 Golf Mill Shop Court<br>Niles, IL 60714<br>(847) 296-4125","latitude":-87.8373319,"longitude":42.04976569999999},{"name":"Victoria's Secret - Gurnee Mills","address":"61700 West Grand Avenue<br>Gurnee, IL 60031<br>(847) 856-6182","latitude":-87.9660394,"longitude":42.3851614},{"name":"Victoria's Secret - Gurnee Mills","address":"61700 W Grand Avenue<br>Gurnee, IL 60031<br>(847) 855-2001","latitude":-87.9660394,"longitude":42.3851614},{"name":"Victoria's Secret - Harlem Irving","address":"4132-E N Harlem Avenue<br>Norridge, IL 60706<br>(708) 452-0511","latitude":-87.8073341,"longitude":41.95448589999999},{"name":"Victoria's Secret - Hawthorn","address":"410\/411 Hawthorne Center<br>Vernon Hills, IL 60061<br>(847) 816-1152","latitude":-87.9460908,"longitude":42.2416271},{"name":"Victoria's Secret - Lincolnwood Town","address":"3333 W Touhy Avenue<br>Lincolnwood, IL 60646<br>(847) 673-0465","latitude":-87.71398649999999,"longitude":42.00996},{"name":"Victoria's Secret - Louis Joliet","address":"3340 Mall Loop Drive<br>Joliet, IL 60435<br>(815)254-9381","latitude":-88.1655663,"longitude":41.5762899},{"name":"Victoria's Secret - Louis Joliet","address":"3340 Mall Loop Rd<br>Joliet, IL 60431<br>(815) 267-3012","latitude":-88.1655663,"longitude":41.5762899},{"name":"Victoria's Secret - Market Place","address":"2000 N Neil Street<br>Champaign, IL 61820<br>(217) 355-6171","latitude":-88.24293039999999,"longitude":40.14233189999999},{"name":"Victoria's Secret - Market Place","address":"2000 N Neil Street<br>Champaign, IL 61821<br>(217) 355-0350","latitude":-88.24293039999999,"longitude":40.14233189999999},{"name":"Victoria's Secret - N Michigan Avenue","address":"734 N Michigan Avenue<br>Chicago, IL 60611<br>(312) 280-1050","latitude":-87.6246633,"longitude":41.8960912},{"name":"Victoria's Secret - North Avenue","address":"913-949 West North Avenue<br>Chicago, IL 60622<br>(312) 640-0815","latitude":-87.6521327,"longitude":41.9106582},{"name":"Victoria's Secret - North Riverside Park","address":"7501 W Cermak Road<br>North Riverside, IL 60546<br>(708)447-9507","latitude":-87.80951,"longitude":41.846098},{"name":"Victoria's Secret - North Riverside Park","address":"7501 W Cermak Road<br>North Riverside, IL 60546<br>(708) 883-9418","latitude":-87.80951,"longitude":41.846098},{"name":"Victoria's Secret - Northbrook Court","address":"1218 Northbrook Court<br>Northbrook, IL 60062<br>(847) 272-5210","latitude":-87.8170583,"longitude":42.1518443},{"name":"Victoria's Secret - Northfield Square","address":"1600 N State Road 50<br>Bourbonnais, IL 60914<br>(815) 935-1974","latitude":-87.8473394,"longitude":41.1743439},{"name":"Victoria's Secret - Northwoods","address":"2200 W War Memorial Drive<br>Peoria, IL 61613<br>(309)681-4634","latitude":-89.62852079999999,"longitude":40.7399472},{"name":"Victoria's Secret - Northwoods","address":"2200 War Memorial Drive<br>Peoria, IL 61613<br>(309) 681-8469","latitude":-89.62852079999999,"longitude":40.7399472},{"name":"Victoria's Secret - Oakbrook","address":"52 Oakbrook Center<br>Oak Brook, IL 60521<br>(630) 954-1830","latitude":-87.9513498,"longitude":41.8476381},{"name":"Victoria's Secret - Old Orchard","address":"153 Old Orchard Center<br>Skokie, IL 60077<br>(847) 673-2842","latitude":-87.7498938,"longitude":42.0574431},{"name":"Victoria's Secret - Orland Square","address":"328Orland Square Dr<br>Orland Park, IL 60462<br>(708) 403-1446","latitude":-87.84826369999999,"longitude":41.6199558},{"name":"Victoria's Secret - Orland Square","address":"228 Orland Square Drive<br>Orland Park, IL 60462<br>(708) 460-3583","latitude":-87.84757259999999,"longitude":41.6195426},{"name":"Victoria's Secret - Peru Mall","address":"3940 Route 251<br>Peru, IL 61354<br>(815) 223-1665","latitude":-89.1280752,"longitude":41.3554608},{"name":"Victoria's Secret - Promenade at Bolingbrook","address":"641 East Boughton Road<br>Bolingbrook, IL 60440<br>(630) 783-1671","latitude":-88.04169189999999,"longitude":41.7198177},{"name":"Victoria's Secret - Quincy","address":"Broadway &amp; 33Rd Street<br>Quincy, IL 62301<br>(217) 228-2015","latitude":-91.3630175,"longitude":39.93522189999999},{"name":"Victoria's Secret - River Oaks","address":"159Th Street &amp; Torrence Avenue<br>Calumet City, IL 60409<br>(708) 868-3739","latitude":-87.55891869999999,"longitude":41.6009356},{"name":"Victoria's Secret - Roosevelt Collection","address":"1138 S Delano Ct. W<br>Chicago, IL 60605<br>(312) 583-0488","latitude":-87.6330572,"longitude":41.8679269},{"name":"Victoria's Secret - Shoppes at Grand Praire","address":"5201 West War Memorial Drive<br>Peoria, IL 61615<br>309-643-6061","latitude":-89.673712,"longitude":40.7787369},{"name":"Victoria's Secret - Southpark","address":"4500 16Th Street<br>Moline, IL 61265<br>(309) 762-7305","latitude":-90.5036538,"longitude":41.466283},{"name":"Victoria's Secret - Spring Hill","address":"1072 Spring Hill Road<br>West Dundee, IL 60118<br>(847) 426-1020","latitude":-88.2947563,"longitude":42.1028067},{"name":"Victoria's Secret - St. Clair Square","address":"134 St Clair Square<br>Fairview Heights, IL 62208<br>(618) 624-5211","latitude":-89.980232,"longitude":38.596053},{"name":"Victoria's Secret - St. Clair Square","address":"134 St Clair Square<br>Fairview Heights, IL 62208<br>(618) 622-9065","latitude":-89.980232,"longitude":38.596053},{"name":"Victoria's Secret - Stratford Square","address":"219 Stratford Square<br>Bloomingdale, IL 60108<br>(630) 351-6455","latitude":-88.1155485,"longitude":41.948595},{"name":"Victoria's Secret - University","address":"1237 E Main Street<br>Carbondale, IL 62901<br>(618) 549-3129","latitude":-89.19166659999999,"longitude":37.729709},{"name":"Victoria's Secret - Water Tower Place","address":"835 N Michigan Avenue<br>Chicago, IL 60611<br>(312) 649-0035","latitude":-87.62355939999999,"longitude":41.8979675},{"name":"Victoria's Secret - Water Tower Place","address":"845 N Michigan Avenue<br>Chicago, IL 60611<br>(312)274-0451","latitude":-87.62323549999999,"longitude":41.8980056},{"name":"Victoria's Secret - Wheaton Town Square","address":"151 East Loop Drive<br>Wheaton, IL 60187<br>(630) 668-3136","latitude":-88.09829099999999,"longitude":41.8328099},{"name":"Victoria's Secret - White Oaks","address":"2501 W Wabash Avenue<br>Springfield, IL 62704<br>(217) 546-3753","latitude":-89.7037216,"longitude":39.765743},{"name":"Victoria's Secret - Woodfield","address":"5 Woodfield Mall<br>Schaumburg, IL 60173<br>(847) 969-0243","latitude":-88.0368575,"longitude":42.0454357},{"name":"Victoria's Secret - Woodfield","address":"5 Woodfield Shopping Center<br>Schaumburg, IL 60173<br>(847) 995-0263","latitude":-88.03712519999999,"longitude":42.0464163},{"name":"Victoria's Secret - Yorktown Center","address":"157 E Yorktown<br>Lombard, IL 60148<br>(630)627-0301","latitude":-88.00610379999999,"longitude":41.8395957},{"name":"Victoria's Secret - Castleton Square","address":"6020 E 82Nd Street<br>Indianapolis, IN 46250<br>(317) 842-0499","latitude":-86.0648858,"longitude":39.9089326},{"name":"Victoria's Secret - Circle Centre","address":"49 W Maryland Street<br>Indianapolis, IN 46204<br>(317) 267-9452","latitude":-86.15915969999999,"longitude":39.765012},{"name":"Victoria's Secret - Clay Terrace","address":"14360 Clay Terrace Boulevard<br>Carmel, IN 46033<br>(317) 844-1882","latitude":-86.1302012,"longitude":39.9970997},{"name":"Victoria's Secret - College Mall","address":"3010 E Third Street<br>Bloomington, IN 47401<br>(812)333-1908","latitude":-86.4943042,"longitude":39.1641923},{"name":"Victoria's Secret - Eastland","address":"800 N Green River Road<br>Evansville, IN 47715<br>(812) 477-2004","latitude":-87.4960356,"longitude":37.9839977},{"name":"Victoria's Secret - Fashion Mall at Keystone","address":"8701 Keystone Crossing<br>Indianapolis, IN 46240<br>(317) 574-9608","latitude":-86.1079073,"longitude":39.91375559999999},{"name":"Victoria's Secret - Glenbrook Square","address":"4201 Coldwater Road<br>Fort Wayne, IN 46805<br>(260) 484-5404","latitude":-85.1392108,"longitude":41.1152068},{"name":"Victoria's Secret - Green Tree","address":"717 E Highway 131<br>Clarksville, IN 47129<br>(812) 288-9157","latitude":-85.7640612,"longitude":38.315402},{"name":"Victoria's Secret - Greenwood Park","address":"1251 US 31<br>Greenwood, IN 46142<br>(317) 887-3125","latitude":-86.12320199999999,"longitude":39.6329714},{"name":"Victoria's Secret - Greenwood Park","address":"1251 US Highway 31 N<br>Greenwood, IN 46142<br>(317) 881-3498","latitude":-86.12320199999999,"longitude":39.6329714},{"name":"Victoria's Secret - Hamilton Town Center","address":"13170 Harrell Parkway<br>Noblesville, IN 46060<br>(317) 776-2896","latitude":-85.93108819999999,"longitude":39.9930033},{"name":"Victoria's Secret - Honey Creek","address":"3401 US Highway 41 S<br>Terre Haute, IN 47802<br>(812) 234-4998","latitude":-87.4162448,"longitude":39.4245507},{"name":"Victoria's Secret - Jefferson Pointe","address":"4210 W Jefferson Boulevard<br>Fort Wayne, IN 46804<br>(260) 435-1841","latitude":-85.1974135,"longitude":41.0713814},{"name":"Victoria's Secret - Markland","address":"1114 17Th Street<br>Kokomo, IN 46902<br>(765) 452-1139","latitude":-86.1094523,"longitude":40.4736719},{"name":"Victoria's Secret - Muncie","address":"3501 N Granville Avenue<br>Muncie, IN 47303<br>(765) 741-8444","latitude":-85.37834749999999,"longitude":40.2194167},{"name":"Victoria's Secret - Richmond Square","address":"3801 National Road East<br>Richmond, IN 47374<br>(765) 939-4155","latitude":-84.84512959999999,"longitude":39.8298741},{"name":"Victoria's Secret - Southlake","address":"1930 Southlake Mall<br>Merrillville, IN 46410<br>(219) 791-0546","latitude":-87.31064769999999,"longitude":41.4664511},{"name":"Victoria's Secret - The Shops at Perry Crossing","address":"351 Metropolis<br>Plainfield, IN 46168<br>(317) 839-8471","latitude":-86.358836,"longitude":39.712292},{"name":"Victoria's Secret - Tippecanoe","address":"2415 Sagamore Parkway S<br>Lafayette, IN 47905<br>(765) 447-7073","latitude":-86.84997580000001,"longitude":40.3916997},{"name":"Victoria's Secret - University Park","address":"6501 N Grape Road<br>Mishawaka, IN 46545<br>(574) 247-4493","latitude":-86.19101239999999,"longitude":41.71949},{"name":"Victoria's Secret - Washington Square","address":"10202 E Washington Street<br>Indianapolis, IN 46229<br>(317) 895-9276","latitude":-85.9867909,"longitude":39.7755679},{"name":"Victoria's Secret - College Square","address":"6301 University Avenue<br>Cedar Falls, IA 50613<br>(319) 277-2223","latitude":-92.43469429999999,"longitude":42.5113631},{"name":"Victoria's Secret - Coral Ridge","address":"1451 Coral Ridge Avenue<br>Coralville, IA 52241<br>(319) 499-4047","latitude":-91.6052831,"longitude":41.690327},{"name":"Victoria's Secret - Crossroads","address":"124 Cross Roads Center<br>Waterloo, IA 50702<br>(319) 234-4945","latitude":-92.32191399999999,"longitude":42.462275},{"name":"Victoria's Secret - Jordan Creek Town Center","address":"101 74Th Parkway(101 Jordan Creek P<br>West Des Moines, IA 50266<br>(515) 221-2298","latitude":-93.805886,"longitude":41.569858},{"name":"Victoria's Secret - Kennedy","address":"555 JFK Road<br>Dubuque, IA 52002<br>(563) 582-2660","latitude":-90.720936,"longitude":42.4940345},{"name":"Victoria's Secret - Lindale","address":"4444 First Avenue NE<br>Cedar Rapids, IA 52402<br>(319) 393-2061","latitude":-91.6272126,"longitude":42.0255179},{"name":"Victoria's Secret - Mall of the Bluffs","address":"1751 Madison Avenue<br>Council Bluffs, IA 51503<br>(712) 388-9808","latitude":-95.8266178,"longitude":41.245025},{"name":"Victoria's Secret - Merle Hay","address":"3850 Merle Hay Road<br>Des Moines, IA 50310<br>(515) 276-1068","latitude":-93.70116829999999,"longitude":41.6318609},{"name":"Victoria's Secret - North Grand","address":"2801 Grand Avenue<br>Ames, IA 50010<br>(515) 233-0003","latitude":-93.6225905,"longitude":42.049311},{"name":"Victoria's Secret - Northpark","address":"320 W Kimberly Road<br>Davenport, IA 52806<br>(563) 391-4338","latitude":-90.57560529999999,"longitude":41.5633732},{"name":"Victoria's Secret - Southbridge","address":"100 S Federal Avenue<br>Mason City, IA 50401<br>(641) 424-6004","latitude":-93.201082,"longitude":43.1504815},{"name":"Victoria's Secret - Southern Hills","address":"4400 Sergeant Road<br>Sioux City, IA 51106<br>(712) 276-0623","latitude":-96.353217,"longitude":42.4463702},{"name":"Victoria's Secret - Valley West","address":"1551 Valley West Drive<br>West Des Moines, IA 50266<br>(515) 222-1951","latitude":-93.74897659999999,"longitude":41.5995333},{"name":"Victoria's Secret - Bradley Fair","address":"2000 North Rock Road<br>Wichita, KS 67206<br>(316) 636-9594","latitude":-97.2427623,"longitude":37.7172776},{"name":"Victoria's Secret - Central","address":"2259 S 9Th Street<br>Salina, KS 67401<br>(785) 823-1434","latitude":-97.6090497,"longitude":38.8012788},{"name":"Victoria's Secret - Legends Outlets","address":"1847 Village West Parkway<br>Kansas City, KS 66111<br>(913) 249-3765","latitude":-94.8276836,"longitude":39.1260224},{"name":"Victoria's Secret - Manhattan Town","address":"115 Manhattan Town Center<br>Manhattan, KS 66502<br>(785) 776-3338","latitude":-96.5763863,"longitude":39.1787162},{"name":"Victoria's Secret - Oak Park","address":"11149 W 95Th Street<br>Overland Park, KS 66214<br>(913) 492-4614","latitude":-94.7187726,"longitude":38.9537193},{"name":"Victoria's Secret - Town Center","address":"5024 W 119Th Street<br>Leawood, KS 66209<br>(913) 451-6115","latitude":-94.643385,"longitude":38.9130276},{"name":"Victoria's Secret - Towne East Square","address":"7700 E Kellogg Drive<br>Wichita, KS 67207<br>(316) 681-8045","latitude":-97.24709949999999,"longitude":37.6834039},{"name":"Victoria's Secret - Towne West Square","address":"4600 W Kellogg Drive<br>Wichita, KS 67209<br>(316) 944-8747","latitude":-97.398623,"longitude":37.6778143},{"name":"Victoria's Secret - West Ridge","address":"1801 SW Wanamaker Road<br>Topeka, KS 66604<br>(785) 272-9535","latitude":-95.76202649999999,"longitude":39.034512},{"name":"Victoria's Secret - Ashland Town","address":"500 Winchester Avenue<br>Ashland, KY 41101<br>(606) 325-6434","latitude":-82.6534111,"longitude":38.48383700000001},{"name":"Victoria's Secret - Crestview Hills","address":"2857 Town Center Boulevard<br>Crestview Hills, KY 41017<br>(859) 331-3703","latitude":-84.5791555,"longitude":39.0252585},{"name":"Victoria's Secret - Fayette","address":"3401 Nicholasville Road<br>Lexington, KY 40503<br>(859) 255-0244","latitude":-84.524191,"longitude":37.99027},{"name":"Victoria's Secret - Fayette","address":"3401 Nicholasville Road<br>Lexington, KY 40503<br>(859) 271-0474","latitude":-84.524191,"longitude":37.99027},{"name":"Victoria's Secret - Florence","address":"2106 Florence Mall<br>Florence, KY 41042<br>(859) 282-9365","latitude":-84.65039349999999,"longitude":38.9950378},{"name":"Victoria's Secret - Greenwood","address":"2625 Scottsville Road<br>Bowling Green, KY 42104<br>(270) 782-1920","latitude":-86.4303846,"longitude":36.9507578},{"name":"Victoria's Secret - Hamburg Pavilion","address":"2308 Sir Barton Drive<br>Lexington, KY 40509<br>(859) 259-0331","latitude":-84.421444,"longitude":38.0239438},{"name":"Victoria's Secret - Jefferson","address":"4801 Outer Loop<br>Louisville, KY 40219<br>(502) 964-3055","latitude":-85.6706973,"longitude":38.1418503},{"name":"Victoria's Secret - Kentucky Oaks","address":"5101 Hinkleville Road<br>Paducah, KY 42001<br>(270) 575-9117","latitude":-88.6886306,"longitude":37.0791231},{"name":"Victoria's Secret - Mall St. Matthews","address":"5000 Shelbyville Road<br>Louisville, KY 40207<br>(502) 259-9133","latitude":-85.62420000000002,"longitude":38.250196},{"name":"Victoria's Secret - Oxmoor Center","address":"7900 Shelbyville Road<br>Louisville, KY 40222<br>(502) 425-6343","latitude":-85.61036349999999,"longitude":38.2465422},{"name":"Victoria's Secret - The Summit at Louisville","address":"4230 Summit Plaza Drive<br>Louisville, KY 40241<br>(502) 394-0477","latitude":-85.5790887,"longitude":38.3085204},{"name":"Victoria's Secret - Towne","address":"1704 N Dixie Highway<br>Elizabethtown, KY 42701<br>(270) 360-9317","latitude":-85.88864439999999,"longitude":37.731735},{"name":"Victoria's Secret - Acadiana Mall","address":"5725 Johnston Street<br>Lafayette, LA 70503<br>(337) 981-3390","latitude":-92.0758348,"longitude":30.1712085},{"name":"Victoria's Secret - Alexandria","address":"3437 Masonic Drive<br>Alexandria, LA 71301<br>(318) 445-4886","latitude":-92.4639882,"longitude":31.277346},{"name":"Victoria's Secret - Cortana","address":"9787 Cortana Place<br>Baton Rouge, LA 70815<br>(225) 928-9342","latitude":-91.0925625,"longitude":30.458144},{"name":"Victoria's Secret - Fremaux Town Center","address":"790 Town Center Parkway<br>Slidell, LA 70458<br>(985) 645-0006","latitude":-89.7615307,"longitude":30.2686755},{"name":"Victoria's Secret - Lakeside","address":"3301 Veterans Memorial Blvd<br>Metairie, LA 70002<br>(504) 838-0506","latitude":-90.1573105,"longitude":30.0062985},{"name":"Victoria's Secret - Mall St. Vincent","address":"1133 St Vincent Avenue<br>Shreveport, LA 71104<br>(318) 221-2281","latitude":-93.7530522,"longitude":32.4773159},{"name":"Victoria's Secret - Mall of Louisiana","address":"6401 Bluebonnet Boulevard<br>Baton Rouge, LA 70836<br>(225) 767-1011","latitude":-91.08854339999999,"longitude":30.3889748},{"name":"Victoria's Secret - North Shore Square","address":"150 N Shore Boulevard<br>Slidell, LA 70460<br>(985) 643-0142","latitude":-89.8248543,"longitude":30.3100308},{"name":"Victoria's Secret - Oakwood","address":"197 West Bank Expressway<br>Gretna, LA 70056<br>(504) 363-4262","latitude":-90.04175540000001,"longitude":29.9212694},{"name":"Victoria's Secret - Pecanland Mall","address":"4700 Millhaven Road<br>Monroe, LA 71203<br>(318) 387-5062","latitude":-92.06460229999999,"longitude":32.4999495},{"name":"Victoria's Secret - Pierre Bossier","address":"2950 E Texas Street<br>Bossier City, LA 71111<br>(318) 752-3288","latitude":-93.7092308,"longitude":32.5280364},{"name":"Victoria's Secret - Premier Center","address":"3414 Highway 190<br>Mandeville, LA 70471<br>(985) 626-6194","latitude":-90.08428339999999,"longitude":30.389974},{"name":"Victoria's Secret - Prien Lake","address":"496 W Prien Lake Road<br>Lake Charles, LA 70601<br>(337) 477-3320","latitude":-93.23008689999999,"longitude":30.1987005},{"name":"Victoria's Secret - Southland","address":"5953 West Park Avenue<br>Houma, LA 70364<br>(985) 580-3008","latitude":-90.75588289999999,"longitude":29.6347256},{"name":"Victoria's Secret - The Esplanade","address":"1401 W Esplanade Avenue<br>Kenner, LA 70065<br>(504) 468-2045","latitude":-90.2473985,"longitude":30.0201943},{"name":"Victoria's Secret - Bangor","address":"663 Stillwater Avenue<br>Bangor, ME 04401<br>(207) 262-3272","latitude":-68.7492035,"longitude":44.8306219},{"name":"Victoria's Secret - Maine","address":"364 Maine Mall Rd<br>South Portland, ME 04106<br>(207) 761-7904","latitude":-70.33678789999999,"longitude":43.6342134},{"name":"Victoria's Secret - Maine Mall","address":"364 Maine Mall Road<br>S Portland, ME 04106<br>(207) 253-1646","latitude":-70.33678789999999,"longitude":43.6342134},{"name":"Victoria's Secret - Annapolis","address":"30 Annapolis Mall<br>Annapolis, MD 21401<br>(410) 224-0994","latitude":-76.502,"longitude":38.9899329},{"name":"Victoria's Secret - Arundel Mills","address":"7000 Arundel Mills Circle<br>Hanover, MD 21076<br>(410) 379-6292","latitude":-76.7252493,"longitude":39.1573631},{"name":"Victoria's Secret - Arundel Mills","address":"7000 Arundel Mills Circle<br>Hanover, MD 21076<br>(410) 379-5016","latitude":-76.7252493,"longitude":39.1573631},{"name":"Victoria's Secret - Bowie Town","address":"15501 Emerald Way<br>Bowie, MD 20716<br>(301) 805-5725","latitude":-76.7339715,"longitude":38.943996},{"name":"Victoria's Secret - Centre at Salisbury","address":"2300 N Salisbury Boulevard<br>Salisbury, MD 21801<br>(410) 749-3370","latitude":-75.5662773,"longitude":38.3988567},{"name":"Victoria's Secret - Columbia","address":"10300 Little Patuxen Parkway<br>Columbia, MD 21044<br>(443) 367-5923","latitude":-76.86121589999999,"longitude":39.2153109},{"name":"Victoria's Secret - Francis Scott Key","address":"5500 Buckeystown Pike<br>Frederick, MD 21701<br>(301) 846-7765","latitude":-77.4060411,"longitude":39.3827373},{"name":"Victoria's Secret - Harborplace and The Gallery","address":"200 E Pratt Street<br>Baltimore, MD 21202<br>(410) 528-1745","latitude":-76.61144399999999,"longitude":39.2870429},{"name":"Victoria's Secret - Harford","address":"696A Bel Air Road<br>Bel Air, MD 21014<br>(410) 638-5684","latitude":-76.35721790000001,"longitude":39.52550979999999},{"name":"Victoria's Secret - Lakeforest","address":"701 Russell Avenue<br>Gaithersburg, MD 20877<br>(301) 670-0722","latitude":-77.2042115,"longitude":39.1538607},{"name":"Victoria's Secret - Marley Station","address":"7900 Governor Ritchie Highway<br>Glen Burnie, MD 21061<br>(410) 761-7872","latitude":-76.6058583,"longitude":39.1387394},{"name":"Victoria's Secret - Montgomery","address":"7101 Democracry Boulevard<br>Bethesda, MD 20817<br>(301) 767-0239","latitude":-77.1475762,"longitude":39.0257717},{"name":"Victoria's Secret - Prince Georges","address":"3500 E West Highway<br>Hyattsville, MD 20782<br>(301) 853-1747","latitude":-76.9575033,"longitude":38.9686274},{"name":"Victoria's Secret - St. Charles Town Center","address":"11110 Mall Circle<br>Waldorf, MD 20603<br>(301) 632-6063","latitude":-76.9257502,"longitude":38.6173496},{"name":"Victoria's Secret - The Mall in Columbia","address":"10300 Little Patuxent Parkway<br>Columbia, MD 21044<br>(410) 772-3983","latitude":-76.86121589999999,"longitude":39.2153109},{"name":"Victoria's Secret - Towson Town","address":"825 Dulaney Valley Road<br>Towson, MD 21204<br>(410) 321-8714","latitude":-76.5987395,"longitude":39.4038642},{"name":"Victoria's Secret - Valley Mall","address":"17301 Valley Mall Road<br>Hagerstown, MD 21740<br>(301) 582-5801","latitude":-77.7703228,"longitude":39.6240248},{"name":"Victoria's Secret - Wheaton","address":"11160 Veirs Mill Road<br>Wheaton, MD 20902<br>(301) 929-8542","latitude":-77.0519941,"longitude":39.0353219},{"name":"Victoria's Secret - White Marsh","address":"8200 Perry Hall Boulevard<br>Baltimore, MD 21236<br>(410) 931-8217","latitude":-76.4688291,"longitude":39.3752198},{"name":"Victoria's Secret - White Marsh","address":"8200 Perry Hall Boulevard<br>Baltimore, MD 21236<br>(410) 933-3110","latitude":-76.4688291,"longitude":39.3752198},{"name":"Victoria's Secret - Auburn","address":"385 Southbridge Street<br>Auburn, MA 01501<br>(508) 721-8970","latitude":-71.8354025,"longitude":42.2026297},{"name":"Victoria's Secret - Berkshire Mall","address":"Old State Road &amp; Route 8<br>Lanesborough, MA 01237<br>(413) 442-2630","latitude":-73.2017712,"longitude":42.4936729},{"name":"Victoria's Secret - Burlington","address":"75 Middlesex Turnpike<br>Burlington, MA 01803<br>(781) 272-1675","latitude":-71.216752,"longitude":42.481127},{"name":"Victoria's Secret - Cambridgeside Galleria","address":"100 Cambridgeside Place<br>Cambridge, MA 02141<br>(617) 374-6191","latitude":-71.0763644,"longitude":42.3681321},{"name":"Victoria's Secret - Cape Cod","address":"769 Lyannough Road<br>Hyannis, MA 02601<br>(508) 790-0233","latitude":-70.2969628,"longitude":41.6669857},{"name":"Victoria's Secret - Chestnut Hill","address":"199 Boylston Street<br>Chestnut Hill, MA 02467<br>(617) 965-7780","latitude":-71.175966,"longitude":42.3213853},{"name":"Victoria's Secret - Copley Place","address":"100 Huntington Avenue<br>Boston, MA 02116<br>(617) 266-7505","latitude":-71.0788745,"longitude":42.347334},{"name":"Victoria's Secret - Derby Street Shoppes","address":"94 Derby Street<br>Hingham, MA 02043<br>(781) 749-8902","latitude":-70.90877449999999,"longitude":42.17746},{"name":"Victoria's Secret - Emerald Square","address":"999 S Washington Street<br>N Attleboro, MA 02760<br>(508) 695-2834","latitude":-71.34741439999999,"longitude":41.94548169999999},{"name":"Victoria's Secret - Faneuil Hall Marketplace","address":"4 Faneuil Market Place<br>Boston, MA 02109<br>(617) 248-9761","latitude":-71.0547765,"longitude":42.36021969999999},{"name":"Victoria's Secret - Hanover","address":"1775 Washington Street<br>Hanover, MA 02339<br>(781) 826-9388","latitude":-70.8416163,"longitude":42.1462724},{"name":"Victoria's Secret - Holyoke Mall at Ingleside","address":"50 Holyoke Street<br>Holyoke, MA 01040<br>(413) 533-3765","latitude":-72.64132699999999,"longitude":42.167247},{"name":"Victoria's Secret - KINGSTON COLLECTION","address":"1001 Independence Mall Way<br>Kingston, MA 02364<br>(781) 582-2230","latitude":-70.71153939999999,"longitude":41.9744196},{"name":"Victoria's Secret - Legacy Place","address":"950 Providence Highway<br>Dedham, MA 02027<br>(781) 329-0928","latitude":-71.17594629999999,"longitude":42.2304285},{"name":"Victoria's Secret - Marketstreet at Lynnfield","address":"710 Market Street<br>Lynnfield, MA 01940<br>(781) 334-4160","latitude":-71.0355007,"longitude":42.5155549},{"name":"Victoria's Secret - Natick Collection","address":"1245 Worcester Street<br>Natick, MA 01760<br>(508) 653-1293","latitude":-71.3843794,"longitude":42.3019258},{"name":"Victoria's Secret - Newbury Street","address":"82 Newbury Street<br>Boston, MA 02116<br>(617) 424-7290","latitude":-71.0746095,"longitude":42.35152280000001},{"name":"Victoria's Secret - North Dartmouth","address":"111 N Dartmouth Mall<br>Dartmouth, MA 02747<br>(508) 991-7636","latitude":-70.99311089999999,"longitude":41.6430754},{"name":"Victoria's Secret - Northshore","address":"210 Andover Street<br>Peabody, MA 01960<br>(978) 532-6135","latitude":-70.9408048,"longitude":42.5411972},{"name":"Victoria's Secret - Northshore","address":"210 Andover Street<br>Peabody, MA 01960<br>(978) 977-4805","latitude":-70.9408048,"longitude":42.5411972},{"name":"Victoria's Secret - Patriot Place","address":"One Patriot Place<br>Foxboro, MA 02035<br>(508) 549-0979","latitude":-71.26688899999999,"longitude":42.091188},{"name":"Victoria's Secret - Silver City Galleria","address":"Route 24 &amp; 140<br>Taunton, MA 02780<br>(508) 880-5195","latitude":-71.05457969999999,"longitude":41.8703066},{"name":"Victoria's Secret - Solomon Pond","address":"580 Donald Lynch Boulevard<br>Marlborough, MA 01752<br>(508) 485-7470","latitude":-71.6128974,"longitude":42.3554622},{"name":"Victoria's Secret - South Shore","address":"250 Granite St.<br>Braintree, MA 02184<br>(781) 356-9156","latitude":-71.02266170000001,"longitude":42.2200925},{"name":"Victoria's Secret - South Shore","address":"250 Granite Street<br>Braintree, MA 02184<br>(781) 843-0794","latitude":-71.02266170000001,"longitude":42.2200925},{"name":"Victoria's Secret - Square One","address":"1277 Broadway<br>Saugus, MA 01906<br>(781) 231-0517","latitude":-71.024852,"longitude":42.4629199},{"name":"Victoria's Secret - Square One","address":"1201 Broadway<br>Saugus, MA 01906<br>(781) 231-1550","latitude":-71.0274927,"longitude":42.461084},{"name":"Victoria's Secret - Swansea","address":"262 Swansea Mall Drive<br>Swansea, MA 02777<br>(508) 674-3400","latitude":-71.21825299999999,"longitude":41.7559101},{"name":"Victoria's Secret - Westgate Mall","address":"200 Westgate Drive<br>Brockton, MA 02301<br>(508) 580-0743","latitude":-71.0543629,"longitude":42.093099},{"name":"Victoria's Secret - Whitney field","address":"100 Commercial Road<br>Leominster, MA 01453<br>(978) 534-9213","latitude":-71.7416015,"longitude":42.5290978},{"name":"Victoria's Secret - Birchwood","address":"4350 24Th Avenue<br>Fort Gratiot, MI 48059<br>(810) 385-5951","latitude":-82.453615,"longitude":43.0361169},{"name":"Victoria's Secret - Briarwood","address":"430 Briarwood Circle<br>Ann Arbor, MI 48108<br>(734) 913-2627","latitude":-83.7461338,"longitude":42.2415121},{"name":"Victoria's Secret - Crossroads","address":"6650 South Westnedge Avenue<br>Portage, MI 49024<br>(269)327-0736","latitude":-85.5894567,"longitude":42.2206293},{"name":"Victoria's Secret - Eastwood Towne Center","address":"3029 Preyde Road<br>Lansing, MI 48912<br>(517) 316-9174","latitude":-84.5133864,"longitude":42.7639062},{"name":"Victoria's Secret - Fairlane Town Center","address":"18900 Michigan Avenue<br>Dearborn, MI 48126<br>(313) 982-6317","latitude":-83.22306209999999,"longitude":42.3165242},{"name":"Victoria's Secret - Fashion Square","address":"4787 Fashion Square Mall<br>Saginaw, MI 48604<br>(989) 790-9021","latitude":-83.97449089999999,"longitude":43.4793449},{"name":"Victoria's Secret - Genesee Valley","address":"3311 S Linden Road<br>Flint, MI 48507<br>(810) 732-6354","latitude":-83.77210850000002,"longitude":42.98014269999999},{"name":"Victoria's Secret - Grand Traverse","address":"3200 S Airport Road W<br>Traverse City, MI 49684<br>(231) 941-0080","latitude":-85.6399074,"longitude":44.7250709},{"name":"Victoria's Secret - Great Lakes Crossing","address":"4756 Baldwin Road<br>Auburn Hills, MI 48326<br>(248) 322-9731","latitude":-83.3068691,"longitude":42.7069914},{"name":"Victoria's Secret - Green Oak Village Place","address":"Green Oak Village Place<br>Brighton, MI 48116<br>(810) 229-6096","latitude":-83.7548785,"longitude":42.5052193},{"name":"Victoria's Secret - Lakeside","address":"14000 Lakeside Circle<br>Sterling Heights, MI 48313<br>(586) 566-0096","latitude":-82.9860661,"longitude":42.622102},{"name":"Victoria's Secret - Lakeview Square","address":"5775 Beckley Road<br>Battle Creek, MI 49015<br>(269) 979-1921","latitude":-85.1844502,"longitude":42.2632616},{"name":"Victoria's Secret - Lansing","address":"5330 W Saginaw Highway<br>Lansing, MI 48917<br>(517) 323-2913","latitude":-84.6290083,"longitude":42.7433301},{"name":"Victoria's Secret - Laurel Park Place","address":"37700 W Six Mile Road<br>Livonia, MI 48152<br>(734) 953-1099","latitude":-83.4153,"longitude":42.4139095},{"name":"Victoria's Secret - Macomb Mall","address":"32233 Gratiot Avenue<br>Roseville, MI 48066<br>(586) 294-0041","latitude":-82.916136,"longitude":42.53536099999999},{"name":"Victoria's Secret - Meridian","address":"1982 E Grand River Avenue<br>Okemos, MI 48864<br>(517) 349-1122","latitude":-84.45597649999999,"longitude":42.7276955},{"name":"Victoria's Secret - Midland","address":"6800 Eastman Avenue<br>Midland, MI 48642<br>(989) 837-6724","latitude":-84.24288709999999,"longitude":43.6589096},{"name":"Victoria's Secret - Oakland","address":"412 W 14 Mile Road<br>Troy, MI 48084<br>(248) 588-1343","latitude":-83.1129181,"longitude":42.5346886},{"name":"Victoria's Secret - Partridge Creek","address":"17420 Hall Road<br>Clinton Township, MI 48038<br>(586) 226-2749","latitude":-82.9459695,"longitude":42.6255431},{"name":"Victoria's Secret - Rivertown Crossing","address":"4700 Wilson Avenue<br>Grandville, MI 49418<br>(616) 530-2838","latitude":-85.7624759,"longitude":42.8775112},{"name":"Victoria's Secret - Somerset Collection","address":"2800 W Big Beaver Road<br>Troy, MI 48084<br>(248) 816-1683","latitude":-83.18404149999999,"longitude":42.5627151},{"name":"Victoria's Secret - Southland","address":"23000 Eureka Road<br>Taylor, MI 48180<br>(734) 287-1867","latitude":-83.254713,"longitude":42.200604},{"name":"Victoria's Secret - Southland","address":"23000 Eureka Road<br>Taylor, MI 48180<br>(734) 287-1830","latitude":-83.254713,"longitude":42.200604},{"name":"Victoria's Secret - The Lakes","address":"5600 Harvey Street<br>Muskegon, MI 49444<br>(231) 798-6087","latitude":-86.202111,"longitude":43.150459},{"name":"Victoria's Secret - Twelve Oaks Mall","address":"27506 Novi Road<br>Novi, MI 48375<br>(248) 347-0393","latitude":-83.4759009,"longitude":42.4899334},{"name":"Victoria's Secret - Village of Rochester Hills","address":"280 N Adams Road<br>Rochester Hills, MI 48309<br>(248) 375-3065","latitude":-83.19237580000001,"longitude":42.6840639},{"name":"Victoria's Secret - Westland","address":"35000 W Warren Road<br>Westland, MI 48185<br>(734) 427-0073","latitude":-83.3894354,"longitude":42.341046},{"name":"Victoria's Secret - Westwood","address":"1850 W Michigan Avenue<br>Jackson, MI 49202<br>(517) 782-6001","latitude":-84.436145,"longitude":42.249932},{"name":"Victoria's Secret - Woodland Mall","address":"3161 28Th Street SE<br>Grand Rapids, MI 49512<br>(616) 942-2356","latitude":-85.5890165,"longitude":42.9125079},{"name":"Victoria's Secret - Apache Mall","address":"333 Apache Mall<br>Rochester, MN 55902<br>(507) 281-5066","latitude":-92.4808276,"longitude":44.0036405},{"name":"Victoria's Secret - Arbor Lakes Lifestyle Center","address":"12241 Elm Creek Boulevard<br>Maple Grove, MN 55369<br>(763) 416-4978","latitude":-93.43620659999999,"longitude":45.092142},{"name":"Victoria's Secret - Burnsville Center","address":"1036 Burnsville Center<br>Burnsville, MN 55337<br>(952)435-8570","latitude":-93.2894345,"longitude":44.7422086},{"name":"Victoria's Secret - Cross Roads","address":"4101 W Division Street<br>Saint Cloud, MN 56301<br>(320) 251-1622","latitude":-94.21011829999999,"longitude":45.5560306},{"name":"Victoria's Secret - Crossroads","address":"4101 W Division Street<br>Saint Cloud, MN 56303<br>(320) 251-1407","latitude":-94.21011829999999,"longitude":45.5560306},{"name":"Victoria's Secret - Eden Prairie Center","address":"125 Eden Prairie Center<br>Eden Prairie, MN 55344<br>(952) 942-4919","latitude":-93.418741,"longitude":44.8645677},{"name":"Victoria's Secret - Hennepin Avenue","address":"3000 Hennepin Avenue South<br>Minneapolis, MN 55408<br>(612) 824-4800","latitude":-93.2982942,"longitude":44.9482056},{"name":"Victoria's Secret - Mall of America","address":"220 West Market<br>Bloomington, MN 55425<br>(952) 854-5614","latitude":-93.24470509999999,"longitude":44.8540055},{"name":"Victoria's Secret - Mall of America","address":"120 North Garden<br>Bloomington, MN 55425<br>(952) 854-1615","latitude":-93.241756,"longitude":44.855096},{"name":"Victoria's Secret - Mall of America","address":"60 E Broadway<br>Bloomington, MN 55425<br>(952) 814-9289","latitude":-93.2401046,"longitude":44.8544766},{"name":"Victoria's Secret - Maplewood","address":"3000 White Bear Avenue<br>Maplewood, MN 55109<br>(651) 770-7769","latitude":-93.0156258,"longitude":45.0323947},{"name":"Victoria's Secret - Miller Hill","address":"1600 Miller Trunk Highway<br>Duluth, MN 55811<br>(218) 279-3720","latitude":-92.15972339999999,"longitude":46.80325800000001},{"name":"Victoria's Secret - Miller Hill","address":"1600 Miller Truck Highway<br>Duluth, MN 55811<br>(218) 727-1923","latitude":-92.15972339999999,"longitude":46.80325800000001},{"name":"Victoria's Secret - Northtown Mall","address":"University Avenue N &amp; Hwy 10<br>Blaine, MN 55434<br>(763) 784-1825","latitude":-93.26388070000002,"longitude":45.13135219999999},{"name":"Victoria's Secret - Ridgedale Shopping Center","address":"12401 Wayzata Boulevard<br>Minnetonka, MN 55305<br>(952) 540-8466","latitude":-93.4376107,"longitude":44.9683286},{"name":"Victoria's Secret - River Hills","address":"1850 Adams Street<br>Mankato, MN 56001<br>(507) 387-6772","latitude":-93.95357659999999,"longitude":44.1729626},{"name":"Victoria's Secret - Rosedale","address":"138 Rosedale Center<br>Roseville, MN 55113<br>(651) 636-1180","latitude":-93.1736572,"longitude":45.0147383},{"name":"Victoria's Secret - Southdale","address":"6601 France Avenue<br>Edina, MN 55435<br>(952) 922-8193","latitude":-93.3263183,"longitude":44.8808575},{"name":"Victoria's Secret - Woodbury Lakes","address":"9120 Hudson Road<br>Woodbury, MN 55125<br>(651) 730-2049","latitude":-92.92432939999999,"longitude":44.9473571},{"name":"Victoria's Secret - Bonita Lakes","address":"1000 Bonita Lakes Circle<br>Meridian, MS 39301<br>(601) 483-3600","latitude":-88.675021,"longitude":32.3570893},{"name":"Victoria's Secret - Dogwood Festival","address":"113 Dogwood Boulevard<br>Flowood, MS 39232<br>(601) 919-2655","latitude":-90.059725,"longitude":32.3402361},{"name":"Victoria's Secret - Edgewater","address":"2600 Beach Boulevard<br>Biloxi, MS 39531<br>(228) 385-2174","latitude":-88.9898269,"longitude":30.3922533},{"name":"Victoria's Secret - Northpark","address":"1200 E County Line Road<br>Ridgeland, MS 39157<br>(601) 206-1898","latitude":-90.1290921,"longitude":32.4029852},{"name":"Victoria's Secret - The Mall at Barnes Crossing","address":"1001 Barnes Crossing Road<br>Tupelo, MS 38804<br>(662) 844-9442","latitude":-88.7016646,"longitude":34.3085524},{"name":"Victoria's Secret - Turtlecreek","address":"1000 Turtle Creek Drive<br>Hattiesburg, MS 39402<br>(601) 261-5970","latitude":-89.3754895,"longitude":31.325476},{"name":"Victoria's Secret - Battlefield","address":"2825 South Glenstone Avenue<br>Springfield, MO 65804<br>(417) 887-6663","latitude":-93.26447999999999,"longitude":37.1622079},{"name":"Victoria's Secret - Battlefield","address":"2825 South Glenstone Avenue<br>Springfield, MO 65804<br>(417) 887-6495","latitude":-93.26447999999999,"longitude":37.1622079},{"name":"Victoria's Secret - Branson Landing","address":"225 Branson Landing Blvd<br>Branson, MO 65616<br>(417) 334-6584","latitude":-93.2149146,"longitude":36.64523399999999},{"name":"Victoria's Secret - Capital","address":"3600 Country Club Drive<br>Jefferson City, MO 65109<br>(573) 556-8550","latitude":-92.25362299999999,"longitude":38.5853309},{"name":"Victoria's Secret - Chesterfield","address":"291 Chesterfield Mall<br>Chesterfield, MO 63017<br>(636) 537-0150","latitude":-90.56480289999999,"longitude":38.6528061},{"name":"Victoria's Secret - Columbia","address":"2300 Bernadette Drive<br>Columbia, MO 65203<br>(573) 445-8486","latitude":-92.3755181,"longitude":38.9638391},{"name":"Victoria's Secret - Country Club","address":"455 Nichols Road<br>Kansas City, MO 64112<br>(816) 531-2650","latitude":-94.5933434,"longitude":39.0411411},{"name":"Victoria's Secret - East Hills","address":"3702 Fredrick Avenue<br>Saint Joseph, MO 64506<br>(816) 279-2164","latitude":-94.8003708,"longitude":39.774753},{"name":"Victoria's Secret - Independence","address":"18813 E. 39th Street S.<br>Independence, MO 64057<br>(816) 795-1847","latitude":-94.358041,"longitude":39.0458558},{"name":"Victoria's Secret - Independence","address":"2035 Independence Center Drive<br>Independence, MO 64057<br>(816) 795-1398","latitude":-94.35827979999999,"longitude":39.0459624},{"name":"Victoria's Secret - Mid Rivers","address":"2400 Mid Rivers Mall<br>Saint Peters, MO 63376<br>(636) 278-1224","latitude":-90.6158094,"longitude":38.7970481},{"name":"Victoria's Secret - Northpark","address":"101 N Rangeline Road<br>Joplin, MO 64801<br>(417) 781-0970","latitude":-94.47429960000001,"longitude":37.0908261},{"name":"Victoria's Secret - Saint Louis Galleria","address":"2454 St Louis Galleria<br>Saint Louis, MO 63117<br>(314) 721-3007","latitude":-90.3485287,"longitude":38.6327539},{"name":"Victoria's Secret - Saint Louis Galleria","address":"2158 Saint Louis Galleria<br>Saint Louis, MO 63117<br>(314) 862-9068","latitude":-90.34850589999999,"longitude":38.6327466},{"name":"Victoria's Secret - South County","address":"63 South County Center Way<br>Saint Louis, MO 63129<br>(314) 845-1867","latitude":-90.3293712,"longitude":38.5052775},{"name":"Victoria's Secret - South County","address":"307 South County Centerway<br>Saint Louis, MO 63129<br>(314) 845-1815","latitude":-90.33116799999999,"longitude":38.5065775},{"name":"Victoria's Secret - Summit Fair","address":"860 N.W. Blue Parkway<br>Lees Summit, MO 64086<br>(816) 246-5700","latitude":-94.40204879999999,"longitude":38.9302003},{"name":"Victoria's Secret - The Meadows","address":"20 Meadows Circle Drive<br>Lake Saint Louis, MO 63367<br>(636) 625-1554","latitude":-90.78762540000001,"longitude":38.781415},{"name":"Victoria's Secret - West County","address":"44 W County Road<br>Des Peres, MO 63131<br>(314) 965-5727","latitude":-90.4480324,"longitude":38.6023729},{"name":"Victoria's Secret - West Park","address":"134 West Park Mall<br>Cape Girardeau, MO 63703<br>(573) 332-8424","latitude":-89.5738877,"longitude":37.2989885},{"name":"Victoria's Secret - Zona Rosa","address":"7301 NW 86Th Terrace<br>Kansas City, MO 64152<br>(816) 587-0598","latitude":-94.6649518,"longitude":39.2510221},{"name":"Victoria's Secret - Zona Rosa","address":"7111 NW 86th Terrace<br>Kansas City, MO 64153<br>(816) 587-0531","latitude":-94.66282079999999,"longitude":39.2507977},{"name":"Victoria's Secret - Gallatin Valley Mall","address":"2825 W Main Street<br>Bozeman, MT 59718<br>(406) 582-8090","latitude":-111.0773777,"longitude":45.674028},{"name":"Victoria's Secret - Holiday Village","address":"1200 10Th Avenue S<br>Great Falls, MT 59405<br>(406) 454-9161","latitude":-111.2888617,"longitude":47.4926281},{"name":"Victoria's Secret - Rimrock","address":"300 S 24th Street W<br>Billings, MT 59102<br>(406) 652-7816","latitude":-108.5800058,"longitude":45.7663944},{"name":"Victoria's Secret - Southgate Mall","address":"2901 Brooks Street<br>Missoula, MT 59801<br>(406) 721-1811","latitude":-114.0281016,"longitude":46.8460527},{"name":"Victoria's Secret - Conestoga","address":"3404 W 13Th Street<br>Grand Island, NE 68803<br>(308) 384-1201","latitude":-98.3808952,"longitude":40.9343494},{"name":"Victoria's Secret - Gateway","address":"6100 O Street<br>Lincoln, NE 68505<br>(402) 328-0289","latitude":-96.6369929,"longitude":40.8147373},{"name":"Victoria's Secret - Oak View","address":"3001 South 144Th Street<br>Omaha, NE 68144<br>(402) 333-3264","latitude":-96.13801509999999,"longitude":41.2296974},{"name":"Victoria's Secret - Shadow Lake Towne Center","address":"7640 Towne Center Parkway<br>Papillion, NE 68046<br>(402) 339-1951","latitude":-96.02874,"longitude":41.1347},{"name":"Victoria's Secret - South Pointe Pavilions","address":"Pine Lake Road &amp; 27Th Street<br>Lincoln, NE 68516<br>(402) 423-5090","latitude":-96.6824391,"longitude":40.739509},{"name":"Victoria's Secret - Village Pointe","address":"17110 Davenport Street<br>Omaha, NE 68118<br>(402) 289-2955","latitude":-96.18243969999999,"longitude":41.2612551},{"name":"Victoria's Secret - West Roads","address":"1000 California Street<br>Omaha, NE 68114<br>(402) 397-5621","latitude":-96.05580309999999,"longitude":41.2646771},{"name":"Victoria's Secret - Fashion Show","address":"3200 Las Vegas Boulevard S<br>Las Vegas, NV 89109<br>(702) 650-0273","latitude":-115.1715512,"longitude":36.1272241},{"name":"Victoria's Secret - Galleria at Sunset","address":"1300 W Sunset Road<br>Henderson, NV 89014<br>(702) 456-0057","latitude":-115.0403896,"longitude":36.0638052},{"name":"Victoria's Secret - Meadowood","address":"5000 Meadowood Mall Circle<br>Reno, NV 89502<br>(775) 828-2785","latitude":-119.7826386,"longitude":39.4742678},{"name":"Victoria's Secret - Meadowood","address":"5000 1 Meadowood Mall Circle<br>Reno, NV 89502<br>(775) 823-9146","latitude":-119.7829886,"longitude":39.47342810000001},{"name":"Victoria's Secret - Meadows","address":"4300 Meadows Lane<br>Las Vegas, NV 89107<br>(702) 258-3659","latitude":-115.1963237,"longitude":36.172259},{"name":"Victoria's Secret - Miracle Mile Shops","address":"3667 Las Vegas Boulevard<br>Las Vegas, NV 89109<br>(702)866-0653","latitude":-115.1701624,"longitude":36.1096948},{"name":"Victoria's Secret - Shoppes at the Palazzo","address":"3327 Las Vegas Boulevard South<br>Las Vegas, NV 89109<br>(702) 696-0110","latitude":-115.167872,"longitude":36.1240615},{"name":"Victoria's Secret - Shops at Summerlin Centre","address":"2025 Festival Plaza<br>Las Vegas, NV 89145<br>(702) 228-1418","latitude":-115.3337106,"longitude":36.1490025},{"name":"Victoria's Secret - The Boulevard Mall","address":"3680 Maryland Parkway<br>Las Vegas, NV 89109<br>(702) 732-1767","latitude":-115.1372677,"longitude":36.1225264},{"name":"Victoria's Secret - The District at Green Valley Ranch","address":"2255 Village Walk Dr<br>Henderson, NV 89052<br>(702) 854-5046","latitude":-115.0867652,"longitude":36.0210121},{"name":"Victoria's Secret - The Forum Shops at Caesars","address":"3500 Las Vegas Boulevard S<br>Las Vegas, NV 89109<br>(702) 696-7101","latitude":-115.1763623,"longitude":36.1173432},{"name":"Victoria's Secret - The Summit Sierra","address":"13945 South Virginia Street<br>Reno, NV 89511<br>(775) 853-9516","latitude":-119.7519223,"longitude":39.401693},{"name":"Victoria's Secret - Town Square","address":"6543 Las Vegas Boulevard South<br>Las Vegas, NV 89119<br>(702) 270-3132","latitude":-115.1760712,"longitude":36.0685565},{"name":"Victoria's Secret - Fox Run Mall","address":"50 Fox Run Road<br>Newington, NH 03801<br>(603) 431-1691","latitude":-70.8046785,"longitude":43.0967995},{"name":"Victoria's Secret - Pheasant Lane","address":"310 Daniel Webster Highway<br>Nashua, NH 03063<br>(603)888-5561","latitude":-71.4367899,"longitude":42.7016049},{"name":"Victoria's Secret - Steeplegate","address":"270 Loudon Road<br>Concord, NH 03301<br>(603) 225-7947","latitude":-71.4864947,"longitude":43.22290080000001},{"name":"Victoria's Secret - The Mall at Rockingham Park","address":"99 Rockingham Park Boulevard<br>Salem, NH 03079<br>(603) 896-6160","latitude":-71.2303197,"longitude":42.7661196},{"name":"Victoria's Secret - The Mall at Rockingham Park","address":"99 Rockingham Park Boulevard<br>Salem, NH 03079<br>(603) 890-5777","latitude":-71.2303197,"longitude":42.7661196},{"name":"Victoria's Secret - The Mall of New Hampshire","address":"1500 S Willow Street<br>Manchester, NH 03103<br>(603) 622-6137","latitude":-71.4327448,"longitude":42.9553882},{"name":"Victoria's Secret - Bridgewater Commons","address":"400 Commons Way<br>Bridgewater, NJ 08807<br>(908) 927-0079","latitude":-74.6194948,"longitude":40.5858409},{"name":"Victoria's Secret - Bridgewater Commons","address":"400 Commons Way<br>Bridgewater, NJ 08807<br>(908) 218-1009","latitude":-74.6194948,"longitude":40.5858409},{"name":"Victoria's Secret - Brook 35","address":"2150 State Hgwy 35<br>Sea Girt, NJ 08750<br>(732) 974-8834","latitude":-74.0616843,"longitude":40.1381573},{"name":"Victoria's Secret - Brunswick Square","address":"755 State Route 18<br>East Brunswick, NJ 08816<br>(732) 238-4479","latitude":-74.3810359,"longitude":40.4230198},{"name":"Victoria's Secret - Cherry Hill","address":"2000 Route 38<br>Cherry Hill, NJ 08002<br>(856) 488-2414","latitude":-75.025193,"longitude":39.9423869},{"name":"Victoria's Secret - Cumberland","address":"100 Cumberland Mall<br>Vineland, NJ 08360<br>(856) 293-9001","latitude":-74.9249649,"longitude":39.4962289},{"name":"Victoria's Secret - Deptford","address":"Clements Bridge Road<br>Deptford, NJ 08096<br>(856) 848-1526","latitude":-75.1000722,"longitude":39.8335655},{"name":"Victoria's Secret - Deptford","address":"1750 Deptford Crt Road<br>Deptford, NJ 08096<br>(856) 853-2861","latitude":-75.09831679999999,"longitude":39.8315312},{"name":"Victoria's Secret - Freehold Raceway","address":"3710 Route 9<br>Freehold, NJ 07728<br>(732) 431-4224","latitude":-74.3002346,"longitude":40.2532995},{"name":"Victoria's Secret - GARDEN STATE","address":"One Garden State Plaza<br>Paramus, NJ 07652<br>(201) 845-4635","latitude":-74.075323,"longitude":40.914763},{"name":"Victoria's Secret - Garden State Plaza","address":"355 State Highway 17 South<br>Paramus, NJ 07652<br>(201) 368-0456","latitude":-74.0771299,"longitude":40.9192813},{"name":"Victoria's Secret - Hamilton","address":"4403 Black Horse Pike<br>Mays Landing, NJ 08330<br>(609) 569-0450","latitude":-74.64701420000002,"longitude":39.4529831},{"name":"Victoria's Secret - Jersey Gardens","address":"651 Kaplowski Drive<br>Elizabeth, NJ 07202<br>(908) 820-8613","latitude":-74.1715571,"longitude":40.6600434},{"name":"Victoria's Secret - Livingston","address":"112 Eisenhower Parkway<br>Livingston, NJ 07039<br>(973) 992-1650","latitude":-74.35600649999999,"longitude":40.7777281},{"name":"Victoria's Secret - Livingston","address":"112 Eisenhower Parkway<br>Livingston, NJ 07039<br>(973) 533-0676","latitude":-74.35600649999999,"longitude":40.7777281},{"name":"Victoria's Secret - Marlton Square","address":"300 Route 73<br>Marlton, NJ 08053<br>(856) 988-6386","latitude":-74.9240228,"longitude":39.8903276},{"name":"Victoria's Secret - Menlo Park","address":"432 Menlo Park<br>Edison, NJ 08837<br>(732) 906-5619","latitude":-74.3374276,"longitude":40.5478051},{"name":"Victoria's Secret - Monmouth","address":"Route 35 &amp; 36<br>Eatontown, NJ 07724<br>(732) 542-2380","latitude":-74.0517819,"longitude":40.2907698},{"name":"Victoria's Secret - Moorestown","address":"400 Route 38<br>Moorestown, NJ 08057<br>(856) 231-9135","latitude":-74.9591866,"longitude":39.9443947},{"name":"Victoria's Secret - Newport Centre","address":"30 Mall West Drive<br>Jersey City, NJ 07310<br>(201) 792-0749","latitude":-74.0384239,"longitude":40.72705879999999},{"name":"Victoria's Secret - Newport Centre","address":"30 Mall Drive W<br>Jersey City, NJ 07302<br>(201) 386-3283","latitude":-74.0384239,"longitude":40.72705879999999},{"name":"Victoria's Secret - Ocean County","address":"1201 Hooper Avenue<br>Toms River, NJ 08753<br>(732) 240-0112","latitude":-74.1788028,"longitude":39.9795364},{"name":"Victoria's Secret - Ocean County","address":"1201 Hooper Avenue<br>Toms River, NJ 08753<br>(732) 244-2960","latitude":-74.1788028,"longitude":39.9795364},{"name":"Victoria's Secret - Paramus Park","address":"218 Paramus Park<br>Paramus, NJ 07652<br>(201) 261-2956","latitude":-74.091763,"longitude":40.940577},{"name":"Victoria's Secret - Phillipsburg","address":"1200 Highway 22 E<br>Phillipsburg, NJ 08865<br>(908) 454-8989","latitude":-75.151388,"longitude":40.685659},{"name":"Victoria's Secret - Promenade at Edgewater","address":"54 The Promenade<br>Edgewater, NJ 07020<br>(201) 840-6770","latitude":-73.9886259,"longitude":40.8063115},{"name":"Victoria's Secret - Quaker Bridge","address":"150 Quakerbridge Mall<br>Lawrenceville, NJ 08648<br>(609) 799-2515","latitude":-74.6816314,"longitude":40.29086119999999},{"name":"Victoria's Secret - Riverside Square","address":"1 Riverside Square<br>Hackensack, NJ 07601<br>(201) 996-0424","latitude":-74.0305368,"longitude":40.90631279999999},{"name":"Victoria's Secret - Rockaway Townsquare","address":"Route 80 And Mount Hope Avenue<br>Rockaway, NJ 07866<br>(973) 361-0391","latitude":-74.5548685,"longitude":40.908745},{"name":"Victoria's Secret - The Grove at Shrewsbury","address":"577 Route 35<br>Shrewsbury, NJ 07702<br>(732) 530-3595","latitude":-74.0610421,"longitude":40.3327172},{"name":"Victoria's Secret - The Mall at Short Hills","address":"1200 Morris Turnpike<br>Short Hills, NJ 07078<br>(973) 379-2937","latitude":-74.3656369,"longitude":40.7396366},{"name":"Victoria's Secret - The Pier Shops at Caesars","address":"1 Atlantic Ocean Avenue<br>Atlantic City, NJ 08401<br>(609) 347-6015","latitude":-74.4345665,"longitude":39.3539323},{"name":"Victoria's Secret - Tice's Corner","address":"415 Chestnut Ridge Road<br>Woodcliff Lake, NJ 07677<br>(201) 782-1703","latitude":-74.0739449,"longitude":41.0406475},{"name":"Victoria's Secret - Voorhees Town Center","address":"2395 Echelon Mall<br>Voorhees, NJ 08043<br>(856) 770-5154","latitude":-75.0021825,"longitude":39.8486739},{"name":"Victoria's Secret - Westfield Retail District","address":"233 E Broad Street<br>Westfield, NJ 07090<br>(908) 518-0859","latitude":-74.3478791,"longitude":40.652482},{"name":"Victoria's Secret - Willowbrook","address":"1467 Willowbrook Mall<br>Wayne, NJ 07470<br>(973) 256-5635","latitude":-74.2608624,"longitude":40.8905587},{"name":"Victoria's Secret - Willowbrook","address":"1400 Willowbrook Mall<br>Wayne, NJ 07470<br>(973) 890-2601","latitude":-74.2615039,"longitude":40.8900807},{"name":"Victoria's Secret - Woodbridge","address":"250 Woodbridge Center Dr.<br>Woodbridge, NJ 07095<br>(732) 362-0173","latitude":-74.2997508,"longitude":40.5562081},{"name":"Victoria's Secret - Woodbridge","address":"250 Woodbridge Centre<br>Woodbridge, NJ 07095<br>(732) 855-8810","latitude":-74.2991531,"longitude":40.5566728},{"name":"Victoria's Secret - Coronado","address":"6600 Menaul NE<br>Albuquerque, NM 87110<br>(505) 872-0322","latitude":-106.572767,"longitude":35.1071069},{"name":"Victoria's Secret - Cottonwood","address":"10000 Coors Boulevard Bypass<br>Albuquerque, NM 87114<br>(505) 897-6500","latitude":-106.6565309,"longitude":35.1972063},{"name":"Victoria's Secret - Mesilla Valley","address":"700 S Telshor Boulevard<br>Las Cruces, NM 88011<br>(575) 521-3364","latitude":-106.7434387,"longitude":32.3106212},{"name":"Victoria's Secret - Santa Fe Place","address":"4250 Cerrillos Road<br>Santa Fe, NM 87505<br>(505) 424-0712","latitude":-106.0163673,"longitude":35.6378635},{"name":"Victoria's Secret - 34th Street Herald Square","address":"1328 Broadway<br>New York, NY 10001<br>(212) 356-8380","latitude":-73.9871959,"longitude":40.7499648},{"name":"Victoria's Secret - 86th Street Upper East Side","address":"165 E 86th Street<br>New York, NY 10028<br>(646)672-9183","latitude":-73.954498,"longitude":40.7793415},{"name":"Victoria's Secret - Arnot","address":"3300 Chambers Road S<br>Horseheads, NY 14845<br>(607) 796-5535","latitude":-76.8728016,"longitude":42.1599548},{"name":"Victoria's Secret - Atlantic Terminal","address":"139 Flatbush Avenue<br>Brooklyn, NY 11217<br>(718) 789-4939","latitude":-73.9768194,"longitude":40.6846975},{"name":"Victoria's Secret - Austin Street","address":"71-26 &amp; 71-36 Austin Street<br>Forest Hills, NY 11375<br>(718) 261-9512","latitude":-73.8436333,"longitude":40.7194999},{"name":"Victoria's Secret - Aviation","address":"578 Aviation Mall<br>Queensbury, NY 12804<br>(518) 792-4207","latitude":-73.6776276,"longitude":43.3267317},{"name":"Victoria's Secret - Bay Ridge\/ 86th Street","address":"447 86th street<br>Brooklyn, NY 11209<br>(718) 745-1034","latitude":-74.0270085,"longitude":40.6222745},{"name":"Victoria's Secret - Bay Terrace","address":"213-25 - 26Th Avenue<br>Bayside, NY 11360<br>(718) 281-2481","latitude":-73.7764405,"longitude":40.77855479999999},{"name":"Victoria's Secret - Boulevard","address":"1227 Niagara Falls Boulevard<br>Amherst, NY 14226<br>(716) 833-0385","latitude":-78.82257299999999,"longitude":42.9879691},{"name":"Victoria's Secret - Boulevard","address":"730 Alberta Dr<br>Amherst, NY 14226<br>(716) 834-1516","latitude":-78.8172635,"longitude":42.9881846},{"name":"Victoria's Secret - Bridgehampton Commons","address":"Montauk &amp; Snake<br>Bridgehampton, NY 11932<br>(631) 537-3373","latitude":-72.3123805,"longitude":40.9334598},{"name":"Victoria's Secret - Broadway  Upper West Side","address":"2333 Broadway<br>New York, NY 10024<br>(212) 595-7861","latitude":-73.977599,"longitude":40.78763},{"name":"Victoria's Secret - Broadway Mall","address":"358 N Broadway Mall<br>Hicksville, NY 11801<br>(516) 933-9836","latitude":-73.5295087,"longitude":40.7732181},{"name":"Victoria's Secret - Broadway Soho","address":"565 Broadway<br>New York, NY 10012<br>(212) 219-9812","latitude":-73.9981481,"longitude":40.7242588},{"name":"Victoria's Secret - Broadway Soho","address":"591-593 Broadway<br>New York, NY 10012<br>(212) 219-3643","latitude":-73.9974671,"longitude":40.7251412},{"name":"Victoria's Secret - Champlain Centers","address":"60 Smithfield Boulevard<br>Plattsburgh, NY 12901<br>(518) 561-7394","latitude":-73.49164499999999,"longitude":44.702243},{"name":"Victoria's Secret - Chautauqua","address":"318 E Fairmount Avenue<br>Lakewood, NY 14750<br>(716) 763-1270","latitude":-79.30416989999999,"longitude":42.0975058},{"name":"Victoria's Secret - Colonie","address":"156 Colonie Center<br>Albany, NY 12205<br>(518) 459-5881","latitude":-73.8184194,"longitude":42.7099619},{"name":"Victoria's Secret - Cross County","address":"2040 Mall Walk<br>Yonkers, NY 10704<br>(914) 968-0578","latitude":-73.8563881,"longitude":40.927889},{"name":"Victoria's Secret - Crossgates","address":"1 Crossgates Mall Road<br>Albany, NY 12203<br>(518) 464-5070","latitude":-73.845376,"longitude":42.688374},{"name":"Victoria's Secret - Crossgates Mall","address":"1 Crossgates Mall<br>Albany, NY 12203<br>(518) 452-4393","latitude":-73.8518548,"longitude":42.6900666},{"name":"Victoria's Secret - Destiny USA","address":"9683 Destiny USA Drive<br>Syracuse, NY 13204<br>(315) 422-1056","latitude":-76.17117379999999,"longitude":43.0717962},{"name":"Victoria's Secret - Destiny USA","address":"9090 Destiny USA Drive<br>Syracuse, NY 13204<br>(315) 422-2692","latitude":-76.1725548,"longitude":43.0699146},{"name":"Victoria's Secret - Eastern Hills","address":"4545 Transit Road<br>Williamsville, NY 14221<br>(716) 633-6160","latitude":-78.6931906,"longitude":42.9719318},{"name":"Victoria's Secret - Eastview","address":"219 Eastview Mall<br>Victor, NY 14564<br>(585) 223-1720","latitude":-77.4415527,"longitude":43.0304093},{"name":"Victoria's Secret - Eastview","address":"764 Eastview Mall<br>Victor, NY 14564<br>(585) 398-2601","latitude":-77.444954,"longitude":43.029796},{"name":"Victoria's Secret - Fashion Outlets at Niagara Falls","address":"1900 Military Road<br>Niagara Falls, NY 14304<br>(716) 205-3814","latitude":-78.977842,"longitude":43.0990214},{"name":"Victoria's Secret - Fifth Ave\/Mid-Town","address":"640 FIFTH AVENUE<br>NEW YORK, NY 10019<br>(646) 495-2867","latitude":-73.9769875,"longitude":40.7595315},{"name":"Victoria's Secret - Flatiron","address":"115 5Th Avenue<br>New York, NY 10003<br>(212)477-4118","latitude":-73.9911127,"longitude":40.7387343},{"name":"Victoria's Secret - Galleria of White Plains","address":"100 Main Street<br>White Plains, NY 10601<br>(914) 949-5037","latitude":-73.7699178,"longitude":41.0316866},{"name":"Victoria's Secret - Great Northern","address":"4081 Route 31<br>Clay, NY 13041<br>(315) 622-0093","latitude":-76.2259579,"longitude":43.1882885},{"name":"Victoria's Secret - Green Acres","address":"2034 Green Acres Mall<br>Valley Stream, NY 11581<br>(516) 593-0276","latitude":-73.7192917,"longitude":40.6624591},{"name":"Victoria's Secret - Green Acres","address":"1020 Green Acres Mall<br>Valley Stream, NY 11581<br>(516) 887-2127","latitude":-73.720252,"longitude":40.6627559},{"name":"Victoria's Secret - Hudson Valley","address":"1300 Ulster Avenue<br>Kingston, NY 12401<br>(845) 336-0402","latitude":-73.98822849999999,"longitude":41.9689695},{"name":"Victoria's Secret - Jefferson Valley","address":"650 Lee Boulevard<br>Yorktown Heights, NY 10598<br>(914) 243-0954","latitude":-73.807682,"longitude":41.3285755},{"name":"Victoria's Secret - Kings Plaza Shopping Center","address":"5373 Kings Plaza<br>Brooklyn, NY 11234<br>(718) 252-2409","latitude":-73.9208354,"longitude":40.6413468},{"name":"Victoria's Secret - Kings Plaza Shopping Center","address":"5100 Kings Plaza<br>Brooklyn, NY 11234<br>(718) 338-4912","latitude":-73.92004969999999,"longitude":40.6100471},{"name":"Victoria's Secret - Lake Success","address":"1450 Union Turnpike<br>New Hyde Park, NY 11040<br>(516) 437-1358","latitude":-73.6941928,"longitude":40.7532436},{"name":"Victoria's Secret - Lexington Avenue","address":"722 Lexington Avenue<br>New York, NY 10022<br>(212) 230-1647","latitude":-73.9687392,"longitude":40.7618551},{"name":"Victoria's Secret - Mall at Greece Ridge","address":"250 Greeceridge Center Drive<br>Rochester, NY 14626<br>(585) 723-5770","latitude":-77.6910991,"longitude":43.2076167},{"name":"Victoria's Secret - Market Place","address":"541 Miracle Mile Drive<br>Rochester, NY 14623<br>(585) 427-2557","latitude":-77.63062889999999,"longitude":43.0841059},{"name":"Victoria's Secret - Mckinley","address":"3701 Mckinley Parkway<br>Buffalo, NY 14219<br>(716) 823-0065","latitude":-78.80687019999999,"longitude":42.7844135},{"name":"Victoria's Secret - Oakdale","address":"223 Reynolds Road<br>Johnson City, NY 13790<br>(607) 729-4525","latitude":-75.9732028,"longitude":42.1274837},{"name":"Victoria's Secret - Palisades","address":"1482 Palisades Center Drive<br>West Nyack, NY 10994<br>(845) 358-1369","latitude":-73.955725,"longitude":41.0992373},{"name":"Victoria's Secret - Poughkeepsie Galleria","address":"2001 South Road<br>Poughkeepsie, NY 12601<br>(845) 297-0102","latitude":-73.92066679999999,"longitude":41.6262842},{"name":"Victoria's Secret - Queens Center Mall","address":"90-15 Queens Boulevard<br>Elmhurst, NY 11373<br>(718) 592-1244","latitude":-73.87049710000001,"longitude":40.7344589},{"name":"Victoria's Secret - Queens Center Mall","address":"90-15 Queens Boulevard<br>Elmhurst, NY 11373<br>(718) 699-0252","latitude":-73.87049710000001,"longitude":40.7344589},{"name":"Victoria's Secret - Ridge Hill Village","address":"1 Ridge Hill Boulevard<br>Yonkers, NY 10710<br>(914) 423-5789","latitude":-73.8555749,"longitude":40.9634934},{"name":"Victoria's Secret - Roosevelt Field","address":"630 Old Country Road<br>Garden City, NY 11530<br>(516) 741-1065","latitude":-73.61357579999999,"longitude":40.7399709},{"name":"Victoria's Secret - Roosevelt Field","address":"630 Old Country Road<br>Garden City, NY 11530<br>(516) 741-2018","latitude":-73.61357579999999,"longitude":40.7399709},{"name":"Victoria's Secret - Rotterdam Square","address":"353 Rotterdam Square<br>Schenectady, NY 12306<br>(518) 374-0755","latitude":-73.9885583,"longitude":42.80863360000001},{"name":"Victoria's Secret - Salmon Run","address":"21182 Salmon Run Mall Loop W<br>Watertown, NY 13601<br>(315) 782-7025","latitude":-75.951402,"longitude":43.97692},{"name":"Victoria's Secret - Sangertown Square","address":"Route 5 &amp; Route 5A<br>New Hartford, NY 13413<br>(315) 793-0838","latitude":-75.324857,"longitude":43.0824755},{"name":"Victoria's Secret - Shoppingtown","address":"3649 Erie Boulevard E<br>Dewitt, NY 13214<br>(315) 449-0430","latitude":-76.0644832,"longitude":43.0406997},{"name":"Victoria's Secret - Smith Haven Mall","address":"313 Smith Haven Mall<br>Lake Grove, NY 11755<br>(631) 979-2468","latitude":-73.1299238,"longitude":40.8636861},{"name":"Victoria's Secret - South Shore","address":"1701 Sunrise Highway<br>Bay Shore, NY 11706<br>(631) 665-8205","latitude":-73.2464897,"longitude":40.7401179},{"name":"Victoria's Secret - Staten Island","address":"2655 Richmond Avenue<br>Staten Island, NY 10314<br>(718) 761-1470","latitude":-74.1659155,"longitude":40.582418},{"name":"Victoria's Secret - Staten Island","address":"2655 Richmond Avenue<br>Staten Island, NY 10314<br>(718) 982-1080","latitude":-74.1659155,"longitude":40.582418},{"name":"Victoria's Secret - Steinway Street","address":"31-35 Steinway Street<br>Astoria, NY 11103<br>(718)932-7842","latitude":-73.9178463,"longitude":40.7603882},{"name":"Victoria's Secret - Sunrise","address":"357 Sunrise Mall<br>Massapequa, NY 11758<br>(516) 795-8868","latitude":-73.43391249999999,"longitude":40.6794914},{"name":"Victoria's Secret - Tanger Outlet at Riverhead","address":"Tanger Drive<br>Riverhead, NY 11901<br>(631) 727-6123","latitude":-72.7144462,"longitude":40.919896},{"name":"Victoria's Secret - The Galleria at Crystal Run","address":"One Galleria Drive<br>Middletown, NY 10941<br>(845) 692-6667","latitude":-74.3673239,"longitude":41.4528342},{"name":"Victoria's Secret - The Mall at Bay Plaza","address":"200 Baychester Avenue<br>Bronx, NY 10475<br>(718) 862-3270","latitude":-73.8274021,"longitude":40.8636318},{"name":"Victoria's Secret - The Sands Shopping Center","address":"3527 N Long Beach Road<br>Oceanside, NY 11572<br>(516) 536-2439","latitude":-73.6395579,"longitude":40.6246724},{"name":"Victoria's Secret - The Shops at Ithaca Mall","address":"40 Catherwood Road<br>Ithaca, NY 14850<br>(607) 257-7637","latitude":-76.490933,"longitude":42.483327},{"name":"Victoria's Secret - The Shops at Nanuet","address":"8105 Fashion Drive<br>Nanuet, NY 10954<br>(845) 624-2139","latitude":-74.016204,"longitude":41.0961766},{"name":"Victoria's Secret - The Westchester","address":"125 Westchester Avenue<br>White Plains, NY 10601<br>(914) 644-8643","latitude":-73.7585505,"longitude":41.0315151},{"name":"Victoria's Secret - Walden Galleria","address":"1 Walden Galleria<br>Buffalo, NY 14225<br>(716) 685-3201","latitude":-78.7634399,"longitude":42.9120261},{"name":"Victoria's Secret - Walden Galleria","address":"One Galleria Way<br>Buffalo, NY 14225<br>(716) 681-3424","latitude":-78.7622466,"longitude":42.9132876},{"name":"Victoria's Secret - Walt Whitman","address":"220-10 Route 110<br>Huntington Station, NY 11746<br>(631) 424-5605","latitude":-73.4122003,"longitude":40.8217983},{"name":"Victoria's Secret - Wilton Mall at Saratoga","address":"3065 Route 50<br>Saratoga Springs, NY 12866<br>(518) 584-8275","latitude":-73.7391628,"longitude":43.1015614},{"name":"Victoria's Secret - Woodbury Plaza","address":"409 South Oyster Bay Road<br>Plainview, NY 11803<br>(516) 937-9383","latitude":-73.50316409999999,"longitude":40.7839746},{"name":"Victoria's Secret - World Trade Center","address":"185 Greenwich Street (4 World Trade<br>New York, NY 10007<br>(646) 677-4524","latitude":-74.0114251,"longitude":40.7115712},{"name":"Victoria's Secret - Alamance Crossing","address":"3166 Waltham Boulevard<br>Burlington, NC 27215<br>(336) 584-8250","latitude":-79.50891109999999,"longitude":36.0693703},{"name":"Victoria's Secret - Asheville","address":"3 South Tunnel Road<br>Asheville, NC 28805<br>(828) 298-0760","latitude":-82.527793,"longitude":35.5796433},{"name":"Victoria's Secret - Birkdale Village","address":"16805 Birkdale Commons Parkway<br>Huntersville, NC 28078<br>(704) 987-9313","latitude":-80.8782178,"longitude":35.4450458},{"name":"Victoria's Secret - Carolina","address":"1480 US Highway 29 N<br>Concord, NC 28025<br>(704) 786-1810","latitude":-80.6057687,"longitude":35.4389365},{"name":"Victoria's Secret - Carolina Place","address":"11025 Carolina Place Parkway<br>Pineville, NC 28134<br>(704) 541-8764","latitude":-80.876336,"longitude":35.082188},{"name":"Victoria's Secret - Cary Towne","address":"1105 Walnut Street<br>Cary, NC 27511<br>(919) 467-2373","latitude":-78.76041219999999,"longitude":35.7720009},{"name":"Victoria's Secret - Concord Mills","address":"8111 Concord Mills Boulevard<br>Concord, NC 28027<br>(704) 979-1468","latitude":-80.7222273,"longitude":35.3689981},{"name":"Victoria's Secret - Crabtree Valley","address":"4325 Glenwood Avenue<br>Raleigh, NC 27612<br>(919) 786-6716","latitude":-78.67589439999999,"longitude":35.8377024},{"name":"Victoria's Secret - Cross Creek","address":"441 Cross Creek Mall<br>Fayetteville, NC 28303<br>(910) 867-6633","latitude":-78.9208591,"longitude":35.0707372},{"name":"Victoria's Secret - Cross Creek","address":"417 Cross Creek Road<br>Fayetteville, NC 28303<br>(910) 487-0083","latitude":-78.9209248,"longitude":35.0706318},{"name":"Victoria's Secret - Eastridge","address":"246 North New Hope Road<br>Gastonia, NC 28054<br>(704) 868-7106","latitude":-81.1481879,"longitude":35.2646413},{"name":"Victoria's Secret - Four Seasons Town Centre","address":"215 Four Seasons Boulevard<br>Greensboro, NC 27415<br>(336) 854-0183","latitude":-79.83142930000001,"longitude":36.0335633},{"name":"Victoria's Secret - Friendly Center","address":"800-A Friendly Road<br>Greensboro, NC 27408<br>(336) 297-0512","latitude":-79.8293892,"longitude":36.0864111},{"name":"Victoria's Secret - Golden East Crossing","address":"1100 N Wesleyan Boulevard<br>Rocky Mount, NC 27804<br>(252) 446-4998","latitude":-77.80656429999999,"longitude":35.9741386},{"name":"Victoria's Secret - Greenville Mall","address":"714 E Greenville Boulevard<br>Greenville, NC 27858<br>(252) 321-1001","latitude":-77.36801559999999,"longitude":35.5863014},{"name":"Victoria's Secret - Hanes Mall","address":"3320 Silas Creek Parkway<br>Winston-Salem, NC 27103<br>(336) 760-2640","latitude":-80.2993359,"longitude":36.0718123},{"name":"Victoria's Secret - Independence","address":"3500 Oleander Drive<br>Wilmington, NC 28403<br>(910) 799-6583","latitude":-77.9057715,"longitude":34.2130425},{"name":"Victoria's Secret - Jacksonville","address":"375 JACKSONVILLE MALL<br>Jacksonville, NC 28546<br>(910) 353-3838","latitude":-77.3810673,"longitude":34.7653549},{"name":"Victoria's Secret - Mayfaire Towne Center","address":"6808 Main Street<br>Wilmington, NC 28405<br>(910) 256-0614","latitude":-77.8318212,"longitude":34.2423801},{"name":"Victoria's Secret - Northgate","address":"1058 W Club Boulevard<br>Durham, NC 27701<br>(919) 286-2998","latitude":-78.9102149,"longitude":36.018111},{"name":"Victoria's Secret - Northlake","address":"6801 Northlake Mall Drive<br>Charlotte, NC 28216<br>(704) 494-2161","latitude":-80.851181,"longitude":35.352549},{"name":"Victoria's Secret - Shops at Blakeney","address":"9812 Rea Road<br>Charlotte, NC 28277<br>(704) 341-5483","latitude":-80.8068107,"longitude":35.0354209},{"name":"Victoria's Secret - Southpark","address":"4400 Sharon Road<br>Charlotte, NC 28211<br>(704) 499-3017","latitude":-80.8321253,"longitude":35.1523852},{"name":"Victoria's Secret - Southpark","address":"4400 Sharon Road<br>Charlotte, NC 28211<br>(704) 365-2403","latitude":-80.8321253,"longitude":35.1523852},{"name":"Victoria's Secret - Streets at Southpoint","address":"6910 Fayetteville Road<br>Durham, NC 27713<br>(919) 293-0098","latitude":-78.941906,"longitude":35.903599},{"name":"Victoria's Secret - Triangle Towne","address":"5959 Triangle Town Boulevard<br>Raleigh, NC 27616<br>(984) 777-4315","latitude":-78.57407189999999,"longitude":35.8668232},{"name":"Victoria's Secret - Valley Hills","address":"1960 Highway 70 SE<br>Hickory, NC 28602<br>(828) 328-5364","latitude":-81.30512259999999,"longitude":35.7037364},{"name":"Victoria's Secret - Columbia","address":"2800 Columbia Road<br>Grand Forks, ND 58201<br>(701) 772-0294","latitude":-97.07115329999999,"longitude":47.8929865},{"name":"Victoria's Secret - Dakota Square","address":"2400 10Th Street SW<br>Minot, ND 58701<br>(701) 839-7528","latitude":-101.3118286,"longitude":48.206362},{"name":"Victoria's Secret - Kirkwood","address":"600 S 5Th Street<br>Bismarck, ND 58504<br>(701) 223-3650","latitude":-100.7847638,"longitude":46.8004464},{"name":"Victoria's Secret - West Acres","address":"136 West Acres Shopping Center<br>Fargo, ND 58103<br>(701) 282-4821","latitude":-96.84671739999999,"longitude":46.8592456},{"name":"Victoria's Secret - West Acres","address":"3902 13th Avenue South<br>Fargo, ND 58103<br>(701) 277-3667","latitude":-96.8465205,"longitude":46.8591805},{"name":"Victoria's Secret - Beachwood Place","address":"26300 Cedar Road<br>Cleveland, OH 44122<br>(216) 591-9361","latitude":-81.4942281,"longitude":41.4981065},{"name":"Victoria's Secret - Beachwood Place","address":"26300 Cedar Road<br>Beachwood, OH 44122<br>(216) 378-1475","latitude":-81.49405999999999,"longitude":41.4984265},{"name":"Victoria's Secret - Belden Village","address":"4370 Everhard Road<br>Canton, OH 44718<br>(234) 714-2169","latitude":-81.42960269999999,"longitude":40.8590908},{"name":"Victoria's Secret - Belden Village","address":"4373 Belden Village Street NW<br>Canton, OH 44718<br>(330) 497-0444","latitude":-81.4290158,"longitude":40.85720490000001},{"name":"Victoria's Secret - Chapel Hill","address":"2000 Brittain Road<br>Akron, OH 44310<br>(330) 633-1780","latitude":-81.4688118,"longitude":41.113892},{"name":"Victoria's Secret - Colony Square","address":"3575 N Maple Avenue<br>Zanesville, OH 43701<br>(740) 588-0128","latitude":-82.0270863,"longitude":39.98762},{"name":"Victoria's Secret - Crocker Park","address":"117 Main Street<br>Westlake, OH 44145<br>(440) 250-9165","latitude":-81.9518358,"longitude":41.4588992},{"name":"Victoria's Secret - Dayton Mall","address":"2700 Miamisburg-Centerville<br>Dayton, OH 45459<br>(937) 436-7428","latitude":-84.22057219999999,"longitude":39.6339777},{"name":"Victoria's Secret - Eastgate","address":"4601\/200 Eastgate Boulevard<br>Cincinnati, OH 45245<br>(513) 943-7383","latitude":-84.273274,"longitude":39.1030443},{"name":"Victoria's Secret - Eastland Mall","address":"2747 Eastland Mall<br>Columbus, OH 43232<br>(614) 501-8261","latitude":-82.88367629999999,"longitude":39.9188639},{"name":"Victoria's Secret - Easton Town Center","address":"4070 The Strand East<br>Columbus, OH 43219<br>(614) 337-1824","latitude":-82.9147215,"longitude":40.0527177},{"name":"Victoria's Secret - Easton Town Center","address":"4115 The Strand West<br>Columbus, OH 43219<br>(614) 418-7001","latitude":-82.91549599999999,"longitude":40.0527421},{"name":"Victoria's Secret - Eastwood","address":"5555 Youngstown-Warren Road<br>Niles, OH 44446<br>(330) 349-9381","latitude":-80.75033309999999,"longitude":41.2116429},{"name":"Victoria's Secret - Findlay Village","address":"1800 Tiffin Avenue<br>Findlay, OH 45840<br>(419) 425-9638","latitude":-83.6136691,"longitude":41.0551807},{"name":"Victoria's Secret - Franklin Park","address":"5001 Monroe Street<br>Toledo, OH 43623<br>(419) 474-3853","latitude":-83.6407737,"longitude":41.6944462},{"name":"Victoria's Secret - Franklin Park","address":"5001 Monroe Street<br>Toledo, OH 43623<br>(419) 475-2517","latitude":-83.6407737,"longitude":41.6944462},{"name":"Victoria's Secret - Great Lakes","address":"7850 Mentor Avenue<br>Mentor, OH 44060<br>(440) 266-0210","latitude":-81.3613228,"longitude":41.6572311},{"name":"Victoria's Secret - Great Northern","address":"5472 Great Northern Mall<br>North Olmsted, OH 44070<br>(440) 716-6037","latitude":-81.902225,"longitude":41.40889370000001},{"name":"Victoria's Secret - Great Northern","address":"4954 Great Northern<br>North Olmsted, OH 44070<br>(440) 779-7460","latitude":-81.9018415,"longitude":41.4185084},{"name":"Victoria's Secret - Indian Mound","address":"771 S 30Th Street<br>Heath, OH 43056<br>(740) 522-3371","latitude":-82.4477673,"longitude":40.0312567},{"name":"Victoria's Secret - Kenwood Towne Centre","address":"7875 Montgomery Road<br>Cincinnati, OH 45236<br>(513) 891-0147","latitude":-84.3770223,"longitude":39.2025027},{"name":"Victoria's Secret - Kenwood Towne Centre","address":"7875 Montgomery Road<br>Cincinnati, OH 45236<br>(513)745-9765","latitude":-84.3770223,"longitude":39.2025027},{"name":"Victoria's Secret - Liberty Town Square","address":"7576 Bales Street<br>West Chester, OH 45069<br>(513) 712-1310","latitude":-84.37283889999999,"longitude":39.3719733},{"name":"Victoria's Secret - Lima","address":"2400 Elida Road &amp; US 30 S<br>Lima, OH 45805<br>(419) 221-1589","latitude":-84.1497749,"longitude":40.765441},{"name":"Victoria's Secret - Mall at Tuttle Crossing","address":"5043 Tuttle Crossing Boulevard<br>Dublin, OH 43016<br>(614) 718-2854","latitude":-83.1323201,"longitude":40.0732776},{"name":"Victoria's Secret - Midway Mall","address":"4417 Midway Mall<br>Elyria, OH 44035<br>(440) 324-9440","latitude":-82.1080511,"longitude":41.3950573},{"name":"Victoria's Secret - Northgate","address":"9525 Colerain Avenue<br>Cincinnati, OH 45251<br>(513) 245-2175","latitude":-84.59530749999999,"longitude":39.2444543},{"name":"Victoria's Secret - Ohio Valley","address":"Ohio Valley Mall<br>St Clairsville, OH 43950<br>(740) 695-0005","latitude":-80.8668426,"longitude":40.0694857},{"name":"Victoria's Secret - Polaris Fashion Place","address":"1500 Polaris Parkway<br>Columbus, OH 43240<br>(614) 781-0806","latitude":-82.97738749999999,"longitude":40.1415928},{"name":"Victoria's Secret - Richland","address":"708 Richland Mall<br>Mansfield, OH 44906<br>(419) 529-8664","latitude":-82.5914217,"longitude":40.7713609},{"name":"Victoria's Secret - Richmond Town Square","address":"691 Richmond Road<br>Richmond Heights, OH 44143<br>(440) 461-5185","latitude":-81.4931165,"longitude":41.5417162},{"name":"Victoria's Secret - River Valley","address":"1635 River Valley Circle<br>Lancaster, OH 43130<br>(740) 654-4591","latitude":-82.628202,"longitude":39.73213},{"name":"Victoria's Secret - Rookwood Commons","address":"2655 Edmondson Road<br>Cincinnati, OH 45209<br>(513) 351-0727","latitude":-84.4462416,"longitude":39.147073},{"name":"Victoria's Secret - Sandusky","address":"4314 Milan Road<br>Sandusky, OH 44870<br>(419) 621-5520","latitude":-82.6673575,"longitude":41.4212768},{"name":"Victoria's Secret - Southern Park","address":"7401 Market Street<br>Youngstown, OH 44512<br>(330) 629-2010","latitude":-80.6587878,"longitude":41.02119709999999},{"name":"Victoria's Secret - Southern Park","address":"7401 Market Street<br>Youngstown, OH 44512<br>(330) 629-2010","latitude":-80.6587878,"longitude":41.02119709999999},{"name":"Victoria's Secret - Southpark","address":"128 Southpark Center<br>Strongsville, OH 44136<br>(440) 238-3649","latitude":-81.8169643,"longitude":41.3102075},{"name":"Victoria's Secret - Southpark","address":"500 Southpark Center<br>Strongsville, OH 44136<br>(440) 846-1339","latitude":-81.8239928,"longitude":41.31267099999999},{"name":"Victoria's Secret - Summit","address":"3265 W Market Street<br>Fairlawn, OH 44333<br>(330) 836-0724","latitude":-81.6176897,"longitude":41.1341338},{"name":"Victoria's Secret - Summit","address":"3265 W Market Street<br>Akron, OH 44333<br>(330) 835-1554","latitude":-81.6176897,"longitude":41.1341338},{"name":"Victoria's Secret - Tanger Outlet at Columbus","address":"400 S Wilson Road I-71 and SR 36\/37<br>Sunbury, OH 43074<br>(740) 936-6189","latitude":-82.9241344,"longitude":40.25995640000001},{"name":"Victoria's Secret - The Greene","address":"4443 Glengarry Drive<br>Beavercreek, OH 45440<br>(937) 320-9271","latitude":-84.1028687,"longitude":39.6935061},{"name":"Victoria's Secret - The Mall at Fairfield Commons","address":"2727 Fairfield Commons<br>Beavercreek, OH 45431<br>(937) 320-2266","latitude":-84.0537745,"longitude":39.7640266},{"name":"Victoria's Secret - The Shops at Fallen Timbers","address":"3100 Main Street<br>Maumee, OH 43537<br>(419) 878-2872","latitude":-83.70451179999999,"longitude":41.5469266},{"name":"Victoria's Secret - Tower City","address":"230 W Huron Road<br>Cleveland, OH 44115<br>(216) 861-4821","latitude":-81.69351809999999,"longitude":41.49792710000001},{"name":"Victoria's Secret - Tri-County","address":"11700 Princeton Pike<br>Cincinnati, OH 45246<br>(513) 671-0927","latitude":-84.4634811,"longitude":39.2889965},{"name":"Victoria's Secret - Upper Valley","address":"1475 Upper Valley Pike<br>Springfield, OH 45504<br>(937) 325-0202","latitude":-83.8539839,"longitude":39.9489207},{"name":"Victoria's Secret - Central","address":"125 Central Mall<br>Lawton, OK 73501<br>(580) 351-6994","latitude":-98.3915693,"longitude":34.60329},{"name":"Victoria's Secret - Crossroads","address":"7000 Cross Roads Boulevard<br>Oklahoma City, OK 73149<br>(405) 634-5823","latitude":-97.48958449999999,"longitude":35.3963182},{"name":"Victoria's Secret - Penn Square","address":"1901 Northwest Expressway<br>Oklahoma City, OK 73118<br>(405) 767-9403","latitude":-97.5440106,"longitude":35.5246909},{"name":"Victoria's Secret - Penn Square Mall","address":"1900 NW Expressway<br>Oklahoma City, OK 73118<br>(405) 879-3401","latitude":-97.54575969999999,"longitude":35.5219627},{"name":"Victoria's Secret - Quail Springs","address":"2501 W. Memorial Road<br>Oklahoma City, OK 73134<br>(405) 749-4529","latitude":-97.55971819999999,"longitude":35.6102886},{"name":"Victoria's Secret - Quail Springs","address":"2501 W Memorial Road<br>Oklahoma City, OK 73134<br>(405) 752-4376","latitude":-97.55971819999999,"longitude":35.6102886},{"name":"Victoria's Secret - Shawnee, OK","address":"4901 N Kickapoo Street<br>Shawnee, OK 74804<br>(405) 214-2060","latitude":-96.9259405,"longitude":35.38700499999999},{"name":"Victoria's Secret - Sooner Fashion","address":"3441 West Main Street<br>Norman, OK 73072<br>(405) 360-8795","latitude":-97.4921655,"longitude":35.2184582},{"name":"Victoria's Secret - Tulsa Promenade","address":"4107 S Yale Avenue<br>Tulsa, OK 74135<br>(918) 664-0868","latitude":-95.91910469999999,"longitude":36.103698},{"name":"Victoria's Secret - Woodland Hills","address":"7021 S Memorial Drive<br>Tulsa, OK 74133<br>(918) 294-0507","latitude":-95.8862805,"longitude":36.0619114},{"name":"Victoria's Secret - Clackamas Town","address":"12000 SE 82nd Avenue<br>Happy Valley, OR 97086<br>(503) 353-9966","latitude":-122.5723596,"longitude":45.4342512},{"name":"Victoria's Secret - Clackamas Town Center","address":"12000 SE 82nd Avenue<br>Portland, OR 97086<br>(503) 652-1752","latitude":-122.5723596,"longitude":45.4342512},{"name":"Victoria's Secret - Lancaster","address":"831 Lancaster Drive NE<br>Salem, OR 97301<br>(503) 316-8009","latitude":-122.9837476,"longitude":44.94019},{"name":"Victoria's Secret - Lloyd Center","address":"970 Lloyd Center<br>Portland, OR 97232<br>(503) 281-0494","latitude":-122.6542941,"longitude":45.5322189},{"name":"Victoria's Secret - Old Mill District","address":"520 SW Powerhouse Drive<br>Bend, OR 97702<br>(541) 312-4209","latitude":-121.3150105,"longitude":44.0449771},{"name":"Victoria's Secret - Pioneer Place","address":"700 SW Fifth Avenue<br>Portland, OR 97204<br>(503) 220-8818","latitude":-122.6772626,"longitude":45.5183362},{"name":"Victoria's Secret - Rogue Valley","address":"1600 N Riverside Avenue<br>Medford, OR 97501<br>(541) 245-2711","latitude":-122.8776151,"longitude":42.3442821},{"name":"Victoria's Secret - Salem Center","address":"401 Center Street NE<br>Salem, OR 97301<br>(503) 370-8288","latitude":-123.0362215,"longitude":44.94370379999999},{"name":"Victoria's Secret - The Shops at Tanasbourne","address":"2155 NW Allie Avenue<br>Hillsboro, OR 97124<br>(503) 690-4275","latitude":-122.8778642,"longitude":45.5372146},{"name":"Victoria's Secret - Valley River","address":"293 Valley River Center<br>Eugene, OR 97401<br>(541) 687-3266","latitude":-123.1050017,"longitude":44.0685914},{"name":"Victoria's Secret - Washington SQ, OR","address":"9585 SW Washington Square<br>Portland, OR 97223<br>(503) 403-1071","latitude":-122.7822679,"longitude":45.4481546},{"name":"Victoria's Secret - Washington Square","address":"9591 Washington Square<br>Portland, OR 97223<br>(503)968-2517","latitude":-122.7835617,"longitude":45.4500697},{"name":"Victoria's Secret - Beaver Valley","address":"380 Beavenuer Valley Mall<br>Monaca, PA 15061<br>(724) 775-9332","latitude":-80.31282920000001,"longitude":40.6742626},{"name":"Victoria's Secret - Berkshire","address":"1665 Bern Road<br>Wyomissing, PA 19610<br>(610) 372-9230","latitude":-75.960149,"longitude":40.3351346},{"name":"Victoria's Secret - Capital City","address":"3506 Capital Mall Drive<br>Camp Hill, PA 17011<br>(717) 975-9918","latitude":-76.9323148,"longitude":40.2224268},{"name":"Victoria's Secret - Century Ill","address":"3075 Clairton Road<br>West Mifflin, PA 15123<br>(412) 653-4474","latitude":-79.9421588,"longitude":40.3383907},{"name":"Victoria's Secret - Chambersburg","address":"926 Chambersburg Mall<br>Chambersburg, PA 17202<br>(717) 261-1277","latitude":-77.5772721,"longitude":39.957854},{"name":"Victoria's Secret - Colonial Park","address":"Route 22 &amp; Colonial Road<br>Harrisburg, PA 17109<br>(717) 652-7361","latitude":-76.8209464,"longitude":40.2989219},{"name":"Victoria's Secret - Columbia","address":"225 Columbia Mall Drive<br>Bloomsburg, PA 17815<br>(570) 387-6798","latitude":-76.48659669999999,"longitude":41.0174423},{"name":"Victoria's Secret - Coventry Mall","address":"Route 100 &amp; 724 Bypass<br>Pottstown, PA 19465<br>(610) 970-2700","latitude":-75.6597635,"longitude":40.23285569999999},{"name":"Victoria's Secret - Exton Square","address":"100 Exton Square<br>Exton, PA 19341<br>(610) 524-7971","latitude":-75.623059,"longitude":40.0306731},{"name":"Victoria's Secret - Harrisburg East","address":"3601 Harrisburg East Mall<br>Harrisburg, PA 17111<br>(717) 564-6077","latitude":-76.8297278,"longitude":40.2521327},{"name":"Victoria's Secret - Johnstown Galleria","address":"500 Galleria Drive<br>Johnstown, PA 15904<br>(814) 269-3457","latitude":-78.8338163,"longitude":40.2947724},{"name":"Victoria's Secret - King of Prussia","address":"160 N Gulph Road<br>King of Prussia, PA 19406<br>(610) 783-6010","latitude":-75.3897629,"longitude":40.0879055},{"name":"Victoria's Secret - King of Prussia Plaza","address":"160 N Gulph Road<br>King Of Prussia, PA 19406<br>(610) 337-4829","latitude":-75.3897629,"longitude":40.0879055},{"name":"Victoria's Secret - Lebanon Valley","address":"2231 Lebanon Valley Rte 422 W<br>Lebanon, PA 17042<br>(717) 272-2984","latitude":-76.45198599999999,"longitude":40.3404081},{"name":"Victoria's Secret - Lehigh Valley","address":"250 Lehigh Valley Mall<br>Whitehall, PA 18052<br>(610) 266-0919","latitude":-75.4799733,"longitude":40.6307581},{"name":"Victoria's Secret - Lehigh Valley","address":"Route 22-Mcarthur Road No<br>Whitehall, PA 18052<br>(610) 266-8561","latitude":-75.4793019,"longitude":40.6307329},{"name":"Victoria's Secret - Logan Valley","address":"Route 220 &amp; Goods Lane<br>Altoona, PA 16602<br>(814) 944-5213","latitude":-78.414226,"longitude":40.469316},{"name":"Victoria's Secret - Lycoming","address":"Junction Route 220 &amp; I-180<br>Muncy, PA 17756<br>(570) 546-4815","latitude":-76.8143884,"longitude":41.2400954},{"name":"Victoria's Secret - Millcreek","address":"1 Millcreek Mall<br>Erie, PA 16565<br>(814) 868-7590","latitude":-80.0947193,"longitude":42.0711531},{"name":"Victoria's Secret - Monroeville","address":"214 Monroeville Mall<br>Monroeville, PA 15146<br>(412) 373-1260","latitude":-79.7950101,"longitude":40.4267495},{"name":"Victoria's Secret - Montgomery","address":"230 Montgomery Mall<br>North Wales, PA 19454<br>(215) 368-8415","latitude":-75.24430790000001,"longitude":40.23439680000001},{"name":"Victoria's Secret - Neshaminy","address":"707 Neshaminy Mall<br>Bensalem, PA 19020<br>(215) 354-9236","latitude":-74.954622,"longitude":40.1388512},{"name":"Victoria's Secret - Nittany Mall","address":"2901 E College Avenue<br>State College, PA 16801<br>(814) 238-7412","latitude":-77.8004596,"longitude":40.8325292},{"name":"Victoria's Secret - Oxford Valley","address":"2300 E Lincoln Hwy<br>Langhorne, PA 19047<br>(215) 752-4996","latitude":-74.879678,"longitude":40.179074},{"name":"Victoria's Secret - Palmer Park","address":"123 Palmer Park Mall<br>Easton, PA 18045<br>(610) 923-6413","latitude":-75.2578872,"longitude":40.6968782},{"name":"Victoria's Secret - Park City","address":"327 Park City Center<br>Lancaster, PA 17601<br>(717) 397-5923","latitude":-76.33670520000001,"longitude":40.0652707},{"name":"Victoria's Secret - Philadelphia Mills","address":"1455 Franklin Mills Circle<br>Philadelphia, PA 19154<br>(215) 637-6790","latitude":-74.9610288,"longitude":40.0876473},{"name":"Victoria's Secret - Pittsburgh Mills","address":"176 Pittsburgh Mills Circle<br>Tarentum, PA 15084<br>(724) 274-0845","latitude":-79.7992238,"longitude":40.5712939},{"name":"Victoria's Secret - Plymouth Meeting Mall","address":"500 W. Germantown Pike<br>Plymouth Meeting, PA 19462<br>(610) 834-8144","latitude":-75.2820725,"longitude":40.1158261},{"name":"Victoria's Secret - Ross Park","address":"1000 Ross Park Drive<br>Pittsburgh, PA 15237<br>(412) 366-1188","latitude":-80.0087394,"longitude":40.5445585},{"name":"Victoria's Secret - Ross Park","address":"1000 Ross Park Mall<br>Pittsburgh, PA 15237<br>(412) 366-1483","latitude":-80.0080526,"longitude":40.5434421},{"name":"Victoria's Secret - Schuylkill","address":"830 Schuylkill Mall<br>Frackville, PA 17931<br>(570) 874-4647","latitude":-76.2253794,"longitude":40.7680848},{"name":"Victoria's Secret - South Hills Village","address":"301 South Hills Village<br>Upper St Clair, PA 15241<br>(412)835-3830","latitude":-80.0561688,"longitude":40.3426231},{"name":"Victoria's Secret - South Mall","address":"3300 Lehigh Street<br>Allentown, PA 18103<br>(610) 798-7846","latitude":-75.4928789,"longitude":40.5552348},{"name":"Victoria's Secret - Springfield","address":"1250 Baltimore Pike<br>Springfield, PA 19064<br>(610)328-4312","latitude":-75.3519958,"longitude":39.9150986},{"name":"Victoria's Secret - Stroud Mall","address":"344 Stroud Mall Road<br>Stroudsburg, PA 18360<br>(570) 424-9662","latitude":-75.2237557,"longitude":40.9896533},{"name":"Victoria's Secret - Susquehanna Valley","address":"Route 11 &amp; 15<br>Selinsgrove, PA 17870<br>(570) 374-3888","latitude":-76.85323489999999,"longitude":40.8181369},{"name":"Victoria's Secret - The Mall at Robinson","address":"3000 Robinson Centre Drive<br>Pittsburgh, PA 15205<br>(412) 787-9830","latitude":-80.15803340000001,"longitude":40.4562148},{"name":"Victoria's Secret - The Shoppes at Brinton Lake","address":"933 Baltimore Pike<br>Glen Mills, PA 19342<br>(610) 361-8460","latitude":-75.5328478,"longitude":39.8859443},{"name":"Victoria's Secret - The Shoppes at Montage","address":"1011-1151 Shoppes Boulevard<br>Moosic, PA 18507<br>(570) 344-1059","latitude":-75.6795729,"longitude":41.3638922},{"name":"Victoria's Secret - The Shops at Liberty Place","address":"1625 Chesnut Street<br>Philadelphia, PA 19103<br>(215) 564-1142","latitude":-75.16821209999999,"longitude":39.9516498},{"name":"Victoria's Secret - The Waterfront","address":"229 West Bridge Street<br>Homestead, PA 15120<br>(412) 462-9412","latitude":-79.9177191,"longitude":40.4078303},{"name":"Victoria's Secret - Valley Square","address":"1585 Main Street<br>Warrington, PA 18976<br>(215) 343-5104","latitude":-75.1352173,"longitude":40.23313900000001},{"name":"Victoria's Secret - Viewmont Mall","address":"100 Viewmont Mall<br>Scranton, PA 18508<br>(570) 344-4183","latitude":-75.65436129999999,"longitude":41.4592097},{"name":"Victoria's Secret - Washington Crown Center","address":"1500 W Chestnut Street<br>Washington, PA 15301<br>(724) 223-9539","latitude":-80.2769977,"longitude":40.1609815},{"name":"Victoria's Secret - Westmoreland","address":"5256 US Route 30<br>Greensburg, PA 15601<br>(724) 832-9572","latitude":-79.5098397,"longitude":40.3009843},{"name":"Victoria's Secret - Willow Grove Park Mall","address":"2500 Moreland Road<br>Willow Grove, PA 19090<br>(215) 657-0100","latitude":-75.1201341,"longitude":40.1431285},{"name":"Victoria's Secret - Wyoming Valley","address":"20 Wyoming Valley Mall<br>Wilkes Barre, PA 18702<br>(570) 822-3215","latitude":-75.84255160000001,"longitude":41.2500586},{"name":"Victoria's Secret - York Galleria","address":"2899 Whiteford Road<br>York, PA 17402<br>(717) 757-7057","latitude":-76.67569170000002,"longitude":39.9892722},{"name":"Victoria's Secret - Mall of San Juan","address":"1000 Mall of San Juan Blvd<br>San Juan, PR 00924<br>(787) 759-2610","latitude":-66.02621309999999,"longitude":18.4124049},{"name":"Victoria's Secret - Plaza Carolina","address":"Avenida Jesus M. Fragoso<br>Carolina, PR 00983<br>(787) 769-6969","latitude":-65.975995,"longitude":18.3953014},{"name":"Victoria's Secret - Plaza Del Caribe","address":"2050 Ponce By-Pass<br>Ponce, PR 00717<br>(787) 844-6325","latitude":-66.6116218,"longitude":17.9924462},{"name":"Victoria's Secret - Plaza Del Sol","address":"725 W Main Avenue<br>Bayamon, PR 00961<br>(787) 269-8010","latitude":-66.163187,"longitude":18.4065515},{"name":"Victoria's Secret - Plaza Las Americas","address":"525 Avenue F.D.Roosevelt<br>San Juan, PR 00918<br>(787) 756-0110","latitude":-66.0743737,"longitude":18.4221567},{"name":"Victoria's Secret - Garden City","address":"35 Hillside Road<br>Cranston, RI 02920<br>(401) 946-3069","latitude":-71.45877469999999,"longitude":41.7638868},{"name":"Victoria's Secret - Providence Place","address":"100 Francis Street<br>Providence, RI 02903<br>(401) 270-7027","latitude":-71.415882,"longitude":41.8260966},{"name":"Victoria's Secret - Warwick","address":"400 Bald Hill Road<br>Warwick, RI 02886<br>(401) 739-3280","latitude":-71.47923639999999,"longitude":41.72688429999999},{"name":"Victoria's Secret - Warwick","address":"400 Bald Hill Road<br>Warwick, RI 02886<br>(401) 738-1380","latitude":-71.47923639999999,"longitude":41.72688429999999},{"name":"Victoria's Secret - Anderson","address":"3101 N Main Street<br>Anderson, SC 29621<br>(864) 261-9924","latitude":-82.6700192,"longitude":34.5387306},{"name":"Victoria's Secret - Briarcliffe","address":"10177 N Kings Highway<br>Myrtle Beach, SC 29572<br>(843) 272-8368","latitude":-78.7666505,"longitude":33.7922845},{"name":"Victoria's Secret - Broadway at the Beach","address":"1206 Celebrity Circle<br>Myrtle Beach, SC 29577<br>(843) 626-7333","latitude":-78.8852335,"longitude":33.7152479},{"name":"Victoria's Secret - Citadel","address":"2070 Sam Rittenberg Boulevard<br>Charleston, SC 29407<br>(843) 763-3906","latitude":-80.03135999999999,"longitude":32.797726},{"name":"Victoria's Secret - Coastal Grand","address":"2000 Coastal Grand Circle<br>Myrtle Beach, SC 29577<br>(843) 839-3227","latitude":-78.92345329999999,"longitude":33.7036255},{"name":"Victoria's Secret - Columbia Mall","address":"7201 Two Notch Road<br>Columbia, SC 29223<br>(803) 736-0907","latitude":-80.96202009999999,"longitude":34.0628449},{"name":"Victoria's Secret - Columbiana Centre","address":"100 Columbiana Circle<br>Columbia, SC 29212<br>(803) 732-4676","latitude":-81.1586677,"longitude":34.0783578},{"name":"Victoria's Secret - Haywood","address":"700 Haywood Road<br>Greenville, SC 29607<br>(864) 288-5657","latitude":-82.3335876,"longitude":34.8499171},{"name":"Victoria's Secret - King Street","address":"254 King Street<br>Charleston, SC 29401<br>(843)937-9107","latitude":-79.9333252,"longitude":32.7819201},{"name":"Victoria's Secret - Magnolia","address":"2701 David H Mcleod Boulevard<br>Florence, SC 29501<br>(843) 669-0668","latitude":-79.8294872,"longitude":34.1906045},{"name":"Victoria's Secret - Market Common Myrtle Beach","address":"3068 Howard Avenue<br>Myrtle Beach, SC 29577<br>(843) 828-4020","latitude":-78.9392477,"longitude":33.66926060000001},{"name":"Victoria's Secret - Mount Pleasant Towne","address":"1728 Towne Centre Way<br>Mt Pleasant, SC 29464<br>(843) 216-8620","latitude":-79.8297481,"longitude":32.8296769},{"name":"Victoria's Secret - Northwoods","address":"2150 Northwoods Boulevard<br>North Charleston, SC 29406<br>(843) 572-1334","latitude":-80.0444721,"longitude":32.9441659},{"name":"Victoria's Secret - Rock Hill Galleria","address":"2301 N Davenue Lyle Boulevard<br>Rock Hill, SC 29730<br>(803) 327-4004","latitude":-80.965279,"longitude":34.9434946},{"name":"Victoria's Secret - Sumter Mall","address":"1057 Broad Street<br>Sumter, SC 29150<br>(803) 938-8242","latitude":-80.3727057,"longitude":33.9497812},{"name":"Victoria's Secret - The Village at Sandhill","address":"481 Town Center Place<br>Columbia, SC 29229<br>(803) 419-3076","latitude":-80.87807939999999,"longitude":34.1292813},{"name":"Victoria's Secret - Westgate Mall","address":"205 West Blackstock Road<br>Spartanburg, SC 29301<br>(864) 587-2651","latitude":-81.994847,"longitude":34.9405919},{"name":"Victoria's Secret - Empire","address":"730 Empire Mall<br>Sioux Falls, SD 57106<br>(605) 323-1473","latitude":-96.77537799999999,"longitude":43.511467},{"name":"Victoria's Secret - Empire","address":"630 W Empire Mall<br>Sioux Falls, SD 57106<br>(605) 323-0650","latitude":-96.77661239999999,"longitude":43.5130586},{"name":"Victoria's Secret - Rushmore","address":"2200 N Maple<br>Rapid City, SD 57701<br>(605) 343-6323","latitude":-103.2112312,"longitude":44.1075101},{"name":"Victoria's Secret - Avenue at Murfreesboro","address":"2615 Medical Center Parkway<br>Murfreesboro, TN 37129<br>(615) 848-3252","latitude":-86.44641999999999,"longitude":35.8627977},{"name":"Victoria's Secret - Carriage Crossing","address":"4600 S Houston Levee Road<br>Collierville, TN 38017<br>(901) 850-8031","latitude":-89.7229413,"longitude":35.02352},{"name":"Victoria's Secret - Cool Springs Galleria","address":"1800 Galleria Boulevard<br>Franklin, TN 37067<br>(615) 771-7213","latitude":-86.8135382,"longitude":35.957118},{"name":"Victoria's Secret - Fort Henry","address":"2101 Fort Henry Drive<br>Kingsport, TN 37664<br>(423) 246-0940","latitude":-82.5203731,"longitude":36.5290528},{"name":"Victoria's Secret - Governor's Square Mall","address":"2801 Wilma Rudolph Boulevard<br>Clarksville, TN 37040<br>(931) 906-2195","latitude":-87.2876594,"longitude":36.5882288},{"name":"Victoria's Secret - Hamilton Place","address":"2100 Hamilton Place<br>Chattanooga, TN 37421<br>(423) 553-1172","latitude":-85.1589831,"longitude":35.0345084},{"name":"Victoria's Secret - Hamilton Place","address":"2100 Hamilton Place Boulevard<br>Chattanooga, TN 37421<br>(423) 893-3429","latitude":-85.1582859,"longitude":35.0352025},{"name":"Victoria's Secret - Knoxville Center","address":"3001 Knoxville Center Drive<br>Knoxville, TN 37924<br>(865) 673-8931","latitude":-83.8762273,"longitude":36.034038},{"name":"Victoria's Secret - Mall at Johnson City","address":"2011 N Roan Street<br>Johnson City, TN 37601<br>(423) 282-6780","latitude":-82.37762409999999,"longitude":36.3382979},{"name":"Victoria's Secret - Northgate","address":"271 Northgate Mall<br>Chattanooga, TN 37415<br>(423) 870-4064","latitude":-85.240031,"longitude":35.12952},{"name":"Victoria's Secret - Oak Court","address":"4465 Poplar Avenue<br>Memphis, TN 38117<br>(901) 682-1015","latitude":-89.9133493,"longitude":35.1172361},{"name":"Victoria's Secret - Old Hickory","address":"2021 N Highland Avenue<br>Jackson, TN 38305<br>(731) 660-3040","latitude":-88.8307469,"longitude":35.6566672},{"name":"Victoria's Secret - Opry Mills","address":"433 Opry Mills Drive<br>Nashville, TN 37214<br>(615) 678-0319","latitude":-86.6928228,"longitude":36.2031513},{"name":"Victoria's Secret - Pavilion at Turkey Creek","address":"11281 Parkside Drive<br>Knoxville, TN 37934<br>(865) 675-2646","latitude":-84.1579117,"longitude":35.9019748},{"name":"Victoria's Secret - Rivergate","address":"1000 Rivergate Parkway<br>Goodlettsville, TN 37072<br>(615) 859-6690","latitude":-86.699942,"longitude":36.302848},{"name":"Victoria's Secret - Saddle Creek","address":"7615 W Farmington Blvd<br>Germantown, TN 38138<br>(901) 712-0272","latitude":-89.8089353,"longitude":35.0944195},{"name":"Victoria's Secret - Stones River","address":"1720 Old Fort Parkway<br>Murfreesboro, TN 37133<br>(615) 849-3585","latitude":-86.4204592,"longitude":35.8481695},{"name":"Victoria's Secret - The Mall at Green Hills","address":"2126 Abbott Martin Road<br>Nashville, TN 37215<br>(615) 269-6785","latitude":-86.81334319999999,"longitude":36.1085772},{"name":"Victoria's Secret - The Streets of Indian Lake","address":"300 Indian Lakes Boulevard<br>Hendersonville, TN 37075<br>(615) 822-7700","latitude":-86.5918057,"longitude":36.3300419},{"name":"Victoria's Secret - West Town","address":"7600 Kingston Pike<br>Knoxville, TN 37919<br>(865) 470-0172","latitude":-84.0412353,"longitude":35.9230111},{"name":"Victoria's Secret - Wolfchase Galleria","address":"2760 N Germantown Parkway<br>Memphis, TN 38133<br>(901) 266-1136","latitude":-89.7931468,"longitude":35.20067},{"name":"Victoria's Secret - Alamo Quarry Market","address":"255 E Basse Road<br>San Antonio, TX 78209<br>(210) 824-0625","latitude":-98.4812173,"longitude":29.4955927},{"name":"Victoria's Secret - Barton Creek Square","address":"2901 S Capital Of Texas Hwy<br>Austin, TX 78746<br>(512) 306-0749","latitude":-97.8071884,"longitude":30.2573391},{"name":"Victoria's Secret - Bassett Place","address":"6101 Gateway Boulevard W<br>El Paso, TX 79925<br>(915) 774-9667","latitude":-106.4093144,"longitude":31.7822304},{"name":"Victoria's Secret - Baybrook","address":"500 Baybrook Mall<br>Friendswood, TX 77546<br>(281) 486-0149","latitude":-95.1481783,"longitude":29.54191299999999},{"name":"Victoria's Secret - Brazos","address":"100 W Highway 332<br>Lake Jackson, TX 77566<br>(979) 292-0216","latitude":-95.4587275,"longitude":29.0510059},{"name":"Victoria's Secret - Broadway Square Mall","address":"4601 S Broadway<br>Tyler, TX 75703<br>(903) 939-0061","latitude":-95.3028928,"longitude":32.2992813},{"name":"Victoria's Secret - Central","address":"29 Central Mall<br>Texarkana, TX 75501<br>(903) 832-4741","latitude":-94.0806028,"longitude":33.4556451},{"name":"Victoria's Secret - Champions Forest Plaza","address":"5400 Fm 1960 West<br>Houston, TX 77069<br>(281) 587-1612","latitude":-95.5122959,"longitude":29.9817169},{"name":"Victoria's Secret - Cielo Vista","address":"8401 Gateway West<br>El Paso, TX 79925<br>(915) 771-7684","latitude":-106.3793949,"longitude":31.7754938},{"name":"Victoria's Secret - Collin Creek","address":"811 Centeral Expressway<br>Plano, TX 75075<br>(972) 423-6299","latitude":-96.7085912,"longitude":33.0114971},{"name":"Victoria's Secret - Dallas Galleria","address":"13350 Dallas Parkway<br>Dallas, TX 75240<br>(972) 385-5414","latitude":-96.8198347,"longitude":32.9299455},{"name":"Victoria's Secret - Deerbrook","address":"20131 Highway 59<br>Humble, TX 77338<br>(281) 540-1941","latitude":-95.2711075,"longitude":30.0069355},{"name":"Victoria's Secret - Firewheel Town Center","address":"235 Cedar Sage Drive<br>Garland, TX 75040<br>(972) 495-0749","latitude":-96.61253939999999,"longitude":32.95393600000001},{"name":"Victoria's Secret - Firewheel Town Center","address":"335 Cedar Sage Drive<br>Garland, TX 75040<br>(972) 675-0967","latitude":-96.611272,"longitude":32.9532016},{"name":"Victoria's Secret - First Colony","address":"16535 Southwest Freeway<br>Sugar Land, TX 77479<br>(281) 565-4020","latitude":-95.6230478,"longitude":29.5929163},{"name":"Victoria's Secret - Golden Triangle","address":"2201 I-35 East<br>Denton, TX 76205<br>(940) 382-4405","latitude":-97.1080135,"longitude":33.1904558},{"name":"Victoria's Secret - Grapevine Mills","address":"3000 Grapevine Mills Parkway<br>Grapevine, TX 76051<br>(972)355-0649","latitude":-97.0372579,"longitude":32.9687994},{"name":"Victoria's Secret - Highland Village","address":"3942 Westheimer Road<br>Houston, TX 77027<br>(713)960-0626","latitude":-95.4445696,"longitude":29.7424184},{"name":"Victoria's Secret - Hill Country Galleria","address":"12800 Highway 71<br>Bee Cave, TX 78738<br>(512) 263-7912","latitude":-97.9437567,"longitude":30.308156},{"name":"Victoria's Secret - Houston Galleria","address":"5085 Westheimer Road<br>Houston, TX 77056<br>(713) 622-8007","latitude":-95.4645046,"longitude":29.7382947},{"name":"Victoria's Secret - Huebner Oaks","address":"11745 Interstate Highway 10 W<br>San Antonio, TX 78230<br>(210) 558-6858","latitude":-98.5826013,"longitude":29.5494791},{"name":"Victoria's Secret - Hulen","address":"4800 S Hulen Street<br>Fort Worth, TX 76132<br>(817) 292-2045","latitude":-97.3984298,"longitude":32.6783274},{"name":"Victoria's Secret - Ingram Park","address":"6301 NW Loop 410<br>San Antonio, TX 78238<br>(210) 680-0108","latitude":-98.6211278,"longitude":29.4690915},{"name":"Victoria's Secret - Irving","address":"3652 Irving Mall<br>Irving, TX 75062<br>(972) 252-4371","latitude":-96.9943706,"longitude":32.8410554},{"name":"Victoria's Secret - Katy Mills","address":"5000 Katy Mills Circle<br>Katy, TX 77494<br>(281) 574-2500","latitude":-95.80933580000001,"longitude":29.7758308},{"name":"Victoria's Secret - Killeen","address":"2100 South W S Young Drive<br>Killeen, TX 76543<br>(254) 680-3266","latitude":-97.72062199999999,"longitude":31.0953059},{"name":"Victoria's Secret - La Cantera","address":"15900 La Cantra Parkway<br>San Antonio, TX 78256<br>(210) 877-9059","latitude":-98.6159169,"longitude":29.592376},{"name":"Victoria's Secret - La Palmera","address":"5488 South Padre Island Drive<br>Corpus Christi, TX 78411<br>(361) 991-2328","latitude":-97.3700334,"longitude":27.7115365},{"name":"Victoria's Secret - La Plaza","address":"2200S 10Th Street<br>Mcallen, TX 78503<br>(956)686-4601","latitude":-98.2362856,"longitude":26.1852376},{"name":"Victoria's Secret - Lakeline","address":"11200 Lakeline Mall Dr<br>Cedar Park, TX 78613<br>(512) 335-4060","latitude":-97.8016801,"longitude":30.4719924},{"name":"Victoria's Secret - Longview","address":"3500 McCann Road<br>Longview, TX 75605<br>(903) 757-4140","latitude":-94.7514131,"longitude":32.5393385},{"name":"Victoria's Secret - Lufkin","address":"4600 S Medford Drive<br>Lufkin, TX 75901<br>(936) 634-1144","latitude":-94.7248237,"longitude":31.3127974},{"name":"Victoria's Secret - Mall Del Norte","address":"5300 San Dario Road<br>Laredo, TX 78041<br>(956) 753-5041","latitude":-99.49952979999999,"longitude":27.5512367},{"name":"Victoria's Secret - Mall of Abilene","address":"4310 Buffalo Gap Road<br>Abilene, TX 79606<br>(325) 698-3936","latitude":-99.7619005,"longitude":32.4008496},{"name":"Victoria's Secret - Memorial City","address":"858 Memorial City Mall<br>Houston, TX 77024<br>(713)465-1856","latitude":-95.53890539999999,"longitude":29.7818967},{"name":"Victoria's Secret - Midland Park","address":"4511 N Midkiff Road<br>Midland, TX 79705<br>(432) 689-5492","latitude":-102.1318793,"longitude":32.0299816},{"name":"Victoria's Secret - Midland Park","address":"4511 N Midkiff Road<br>Midland, TX 79703<br>(000) 000-0000","latitude":-102.1318793,"longitude":32.0299816},{"name":"Victoria's Secret - Midway Mall","address":"4800 N Texoma Parkway<br>Sherman, TX 75090<br>(903) 891-0057","latitude":-96.5850772,"longitude":33.6876559},{"name":"Victoria's Secret - Mockingbird Station","address":"5331 E Mockingbird Lane<br>Dallas, TX 75206<br>(214) 824-9263","latitude":-96.77639699999999,"longitude":32.8373077},{"name":"Victoria's Secret - North East Mall","address":"1101 Melbourne Road<br>Hurst, TX 76053<br>(817) 284-0671","latitude":-97.2001828,"longitude":32.8300238},{"name":"Victoria's Secret - North Star","address":"7400 San Pedro<br>San Antonio, TX 78216<br>(210) 348-8395","latitude":-98.4982007,"longitude":29.5174091},{"name":"Victoria's Secret - North Star Mall","address":"7400 San Pedro<br>San Antonio, TX 78216<br>(210) 344-9831","latitude":-98.4982007,"longitude":29.5174091},{"name":"Victoria's Secret - Northpark","address":"1010 Northpark Center<br>Dallas, TX 75225<br>(469) 232-9852","latitude":-96.77111330000001,"longitude":32.8682035},{"name":"Victoria's Secret - Parkdale Mall","address":"6155 Eastex Freeway, STE 200<br>Beaumont, TX 77706<br>(409) 892-1033","latitude":-94.161675,"longitude":30.12544459999999},{"name":"Victoria's Secret - Pearland Town Center","address":"11200 Broadway<br>Pearland, TX 77584<br>(713) 436-1256","latitude":-95.39350580000001,"longitude":29.5546145},{"name":"Victoria's Secret - Post Oak Mall","address":"1500 Harvey Road<br>College Station, TX 77840<br>(979) 693-0342","latitude":-96.303395,"longitude":30.624183},{"name":"Victoria's Secret - Prime Outlets at San Marcos","address":"3939 Interstate Highway - 35 S<br>San Marcos, TX 78666<br>(512) 392-1327","latitude":-97.98039229999999,"longitude":29.8291331},{"name":"Victoria's Secret - Richland","address":"6001 W Waco Drive<br>Waco, TX 76710<br>(254) 772-6804","latitude":-97.1887873,"longitude":31.5163228},{"name":"Victoria's Secret - Ridgmar","address":"1966 Green Oaks Road<br>Fort Worth, TX 76116<br>(817) 732-7576","latitude":-97.4339208,"longitude":32.7385923},{"name":"Victoria's Secret - River Center","address":"849 E Commerce St<br>San Antonio, TX 78205<br>(210) 224-7072","latitude":-98.48468249999999,"longitude":29.4230561},{"name":"Victoria's Secret - Rolling Oaks","address":"6909 N Loop 1604 E<br>San Antonio, TX 78247<br>(210) 651-4632","latitude":-98.350765,"longitude":29.597689},{"name":"Victoria's Secret - Sikes Senter","address":"3111 Midwestern Parkway<br>Wichita Falls, TX 76308<br>(940) 691-3097","latitude":-98.5326274,"longitude":33.8690098},{"name":"Victoria's Secret - South Park","address":"2310 SW Military Drive<br>San Antonio, TX 78224<br>(210) 922-0241","latitude":-98.53138129999999,"longitude":29.35277929999999},{"name":"Victoria's Secret - South Plains","address":"6002 Slide Road<br>Lubbock, TX 79414<br>(806) 785-1181","latitude":-101.9224805,"longitude":33.5396522},{"name":"Victoria's Secret - South Plains","address":"6002 Slide Rd<br>Lubbock, TX 79414<br>(806) 788-1478","latitude":-101.9224805,"longitude":33.5396522},{"name":"Victoria's Secret - Southlake Town Square","address":"129 Grand Avenue<br>Southlake, TX 76092<br>(817) 416-5550","latitude":-97.1303707,"longitude":32.9413369},{"name":"Victoria's Secret - Stonebriar Centre","address":"2601 Preston Road<br>Frisco, TX 75034<br>(469) 633-0329","latitude":-96.80593499999999,"longitude":33.0982299},{"name":"Victoria's Secret - Stonebriar Centre","address":"2601 Preston Road<br>Frisco, TX 75034<br>(214) 872-2702","latitude":-96.80593499999999,"longitude":33.0982299},{"name":"Victoria's Secret - Sunland Park","address":"750 Sunland Park Drive<br>El Paso, TX 79912<br>(915) 833-9247","latitude":-106.5444562,"longitude":31.8149873},{"name":"Victoria's Secret - Sunrise","address":"2370 North Expressway<br>Brownsville, TX 78520<br>(956) 574-0760","latitude":-97.5027775,"longitude":25.9547638},{"name":"Victoria's Secret - Sunset","address":"4001 Southwest Boulevard<br>San Angelo, TX 76904<br>(325) 224-4882","latitude":-100.4945074,"longitude":31.42798879999999},{"name":"Victoria's Secret - Temple","address":"3111 S 31 Street<br>Temple, TX 76502<br>(254) 791-2793","latitude":-97.366157,"longitude":31.0701715},{"name":"Victoria's Secret - The Domain","address":"11410 Century Oaks Terrace<br>Austin, TX 78758<br>(737) 203-3899","latitude":-97.7267811,"longitude":30.40159379999999},{"name":"Victoria's Secret - The Domain","address":"11410 Century Oaks Terrace<br>Austin, TX 78758<br>(512) 719-3509","latitude":-97.7267811,"longitude":30.40159379999999},{"name":"Victoria's Secret - The Parks at Arlington","address":"3811 S Cooper Street<br>Arlington, TX 76015<br>(817) 468-3520","latitude":-97.1290691,"longitude":32.6801298},{"name":"Victoria's Secret - The Shops at Highland Village","address":"4081 Waller Creek Road<br>Highland Village, TX 75077<br>(972) 317-3814","latitude":-97.08519849999999,"longitude":33.0729685},{"name":"Victoria's Secret - The Shops at Willowbend","address":"6121 West Park Boulevard<br>Plano, TX 75093<br>(972) 202-5612","latitude":-96.83173509999999,"longitude":33.0304543},{"name":"Victoria's Secret - The Woodlands Mall","address":"1201 Lake Woodlands Drive<br>The Woodlands, TX 77380<br>(281) 364-0686","latitude":-95.45537,"longitude":30.1639591},{"name":"Victoria's Secret - The Woodlands Mall","address":"1201 Lake Woodlands Drive<br>The Woodlands, TX 77380<br>(281) 292-1084","latitude":-95.45537,"longitude":30.1639591},{"name":"Victoria's Secret - Town East Mall","address":"2063 Town East Mall<br>Mesquite, TX 75150<br>(972)682-4302","latitude":-96.6231621,"longitude":32.8086238},{"name":"Victoria's Secret - University Park Village","address":"1620 S University Drive<br>Fort Worth, TX 76107<br>(817) 877-1294","latitude":-97.36168880000001,"longitude":32.7274302},{"name":"Victoria's Secret - Uptown Village at Cedar Hill","address":"305 West Farm To Market 1382<br>Cedar Hill, TX 75104<br>(972) 291-6152","latitude":-96.9424976,"longitude":32.6023238},{"name":"Victoria's Secret - Valle Vista","address":"2000 S Expressway 83<br>Harlingen, TX 78552<br>(956) 412-0580","latitude":-97.7150489,"longitude":26.1811669},{"name":"Victoria's Secret - Victoria Mall","address":"7800 N Navarro Street<br>Victoria, TX 77904<br>(361) 580-3952","latitude":-96.99433239999999,"longitude":28.8676683},{"name":"Victoria's Secret - Village Arcade","address":"2414 University Boulevard<br>Houston, TX 77005<br>(713) 526-1054","latitude":-95.41626339999999,"longitude":29.7156188},{"name":"Victoria's Secret - Village at Stone Oak","address":"22714 YS Highway 281 N<br>San Antonio, TX 78259<br>(210) 481-0137","latitude":-98.44907359999999,"longitude":29.6526714},{"name":"Victoria's Secret - Vista Ridge","address":"2401 S Stemmons Freeway<br>Lewisville, TX 75067<br>(972) 315-3445","latitude":-96.97183550000001,"longitude":33.0026243},{"name":"Victoria's Secret - Watters Creek","address":"895 Market Street<br>Allen, TX 75013<br>(972) 908-2596","latitude":-96.6833623,"longitude":33.0880863},{"name":"Victoria's Secret - West Oaks","address":"1000 West Oaks Mall<br>Houston, TX 77082<br>(281) 589-2287","latitude":-95.648291,"longitude":29.7321381},{"name":"Victoria's Secret - Westgate Mall","address":"7701 W I-40<br>Amarillo, TX 79121<br>(806) 356-0346","latitude":-101.7551027,"longitude":35.1936579},{"name":"Victoria's Secret - Willowbrook","address":"1042 Willowbrook Mall<br>Houston, TX 77070<br>(281) 955-5319","latitude":-95.539001,"longitude":29.959662},{"name":"Victoria's Secret - Cache Valley","address":"1300 North Main Street<br>Logan, UT 84341<br>(435) 754-3030","latitude":-111.8311287,"longitude":41.7558821},{"name":"Victoria's Secret - Fashion Place","address":"6191 S State Street<br>Murray, UT 84107<br>(801) 262-0141","latitude":-111.8888049,"longitude":40.63816629999999},{"name":"Victoria's Secret - Fashion Place","address":"6191 South State Street<br>Murray, UT 84107<br>(385) 347-3767","latitude":-111.8888049,"longitude":40.63816629999999},{"name":"Victoria's Secret - Layton Hills","address":"1072 North Hills Fields Road<br>Layton, UT 84041<br>(801) 444-2264","latitude":-111.9769506,"longitude":41.07833110000001},{"name":"Victoria's Secret - Newgate","address":"3651 Wall Avenue<br>Ogden, UT 84405<br>(801) 334-7388","latitude":-111.9820242,"longitude":41.1952878},{"name":"Victoria's Secret - Provo Towne Centre","address":"1200 Towne Centre Boulevard<br>Provo, UT 84603<br>(801) 852-8008","latitude":-111.6628419,"longitude":40.2168622},{"name":"Victoria's Secret - Red Cliffs","address":"1770 East Red Cliffs Dr.<br>St George, UT 84790<br>(435) 627-8401","latitude":-113.5450164,"longitude":37.1159862},{"name":"Victoria's Secret - Shops at Riverwoods","address":"4801 N University Avenue<br>Provo, UT 84604<br>(801) 226-5583","latitude":-111.6590244,"longitude":40.2991433},{"name":"Victoria's Secret - South Towne","address":"10450 S State Street<br>Sandy, UT 84070<br>(801) 523-5828","latitude":-111.8950485,"longitude":40.5620565},{"name":"Victoria's Secret - South Towne","address":"10450 S. State Street<br>Sandy, UT 84070<br>(801) 571-6846","latitude":-111.8950485,"longitude":40.5620565},{"name":"Victoria's Secret - Station Park","address":"42 N. 650 West<br>Farmington, UT 84025<br>(801) 451-7114","latitude":-111.9005246,"longitude":40.9812703},{"name":"Victoria's Secret - The Gateway","address":"78 South Rio Grande<br>Salt Lake City, UT 84101<br>(801) 456-0130","latitude":-111.9043383,"longitude":40.767758},{"name":"Victoria's Secret - University Mall","address":"575 East University Parkway<br>Orem, UT 84097<br>(801)802-0614","latitude":-111.6813505,"longitude":40.2751154},{"name":"Victoria's Secret - Burlington Town Center","address":"49 Church Street<br>Burlington, VT 05401<br>(802) 863-1124","latitude":-73.21443579999999,"longitude":44.4787492},{"name":"Victoria's Secret - Diamond Run","address":"1 Route 7 South<br>Rutland, VT 05701<br>(802) 775-2583","latitude":-72.9637209,"longitude":43.5799866},{"name":"Victoria's Secret - University","address":"155 Dorset Street<br>South Burlington, VT 05403<br>(802) 660-9977","latitude":-73.18417,"longitude":44.4649431},{"name":"Victoria's Secret - Apple Blossom","address":"1850 Apple Blossom Drive<br>Winchester, VA 22601<br>(540) 722-6213","latitude":-78.1633116,"longitude":39.1598785},{"name":"Victoria's Secret - Charlottesville Fashion Square","address":"1600 E Rio Road<br>Charlottesville, VA 22901<br>(434) 978-3771","latitude":-78.47450359999999,"longitude":38.0777655},{"name":"Victoria's Secret - Chesapeake Square","address":"4200 Portsmouth Boulevard<br>Chesapeake, VA 23321<br>(757) 488-2490","latitude":-76.41561999999999,"longitude":36.825569},{"name":"Victoria's Secret - Chesterfield Towne","address":"11500 Midlothian Turnpike<br>Richmond, VA 23235<br>(804) 379-0769","latitude":-77.6090864,"longitude":37.5084707},{"name":"Victoria's Secret - Dulles Town Center","address":"21100 Dulles Town Circle<br>Dulles, VA 20166<br>(703) 421-6287","latitude":-77.4236818,"longitude":39.0325202},{"name":"Victoria's Secret - Dulles Town Center","address":"21100 Dulles Town Circle<br>Dulles, VA 20166<br>(703) 444-9690","latitude":-77.4236818,"longitude":39.0325202},{"name":"Victoria's Secret - Fair Oaks Mall","address":"11823 Fair Oaks Mall<br>Fairfax, VA 22033<br>(703) 385-4890","latitude":-77.3573724,"longitude":38.8608547},{"name":"Victoria's Secret - Fashion at Pentagon City","address":"1100 S Hayes Street<br>Arlington, VA 22202<br>(703) 413-0916","latitude":-77.0601179,"longitude":38.8639404},{"name":"Victoria's Secret - Greenbrier","address":"1401 Greenbrier Parkway S<br>Chesapeake, VA 23320<br>(757) 578-4591","latitude":-76.227374,"longitude":36.7796122},{"name":"Victoria's Secret - Lynnhaven","address":"701 Lynnhaven Parkway<br>Virginia Beach, VA 23452<br>(757) 463-9923","latitude":-76.0708276,"longitude":36.8165135},{"name":"Victoria's Secret - Macarthur","address":"300 Monticello Avenue<br>Norfolk, VA 23510<br>(757) 625-1351","latitude":-76.28795029999999,"longitude":36.8489027},{"name":"Victoria's Secret - Main Street","address":"5124 Main Street<br>Williamsburg, VA 23188<br>(757) 221-0356","latitude":-76.73999669999999,"longitude":37.2772879},{"name":"Victoria's Secret - Manassas","address":"8300 Sudly Road<br>Manassas, VA 20109<br>(703) 335-9082","latitude":-77.5030956,"longitude":38.7751346},{"name":"Victoria's Secret - Military Circle","address":"880 N Military Highway<br>Norfolk, VA 23502<br>(757) 466-0619","latitude":-76.2056261,"longitude":36.85159549999999},{"name":"Victoria's Secret - New River Valley","address":"782 New River Road<br>Christiansburg, VA 24073<br>(540) 381-3305","latitude":-80.42726950000001,"longitude":37.1653865},{"name":"Victoria's Secret - Patrick Henry","address":"12300 Jefferson Avenue<br>Newport News, VA 23602<br>(757) 249-4034","latitude":-76.4951502,"longitude":37.1124286},{"name":"Victoria's Secret - Peninsula Town Center","address":"2371 H-101 Building H<br>Hampton, VA 23666<br>(757) 224-2703","latitude":-76.3929132,"longitude":37.04460600000001},{"name":"Victoria's Secret - Piedmont","address":"325 Piedmont Drive<br>Danville, VA 24540<br>(434) 792-1296","latitude":-79.42224499999999,"longitude":36.59587399999999},{"name":"Victoria's Secret - Potomac Mills","address":"2700 Potomac Mills Circle<br>Prince William, VA 22192<br>(703) 490-8081","latitude":-77.2995247,"longitude":38.645183},{"name":"Victoria's Secret - Regency Square","address":"1420 Parham Road<br>Richmond, VA 23229<br>(804) 740-4152","latitude":-77.56693469999999,"longitude":37.60142099999999},{"name":"Victoria's Secret - Reston Town","address":"11929 Market Street<br>Reston, VA 20190<br>(703) 707-0424","latitude":-77.3573914,"longitude":38.9587132},{"name":"Victoria's Secret - River Ridge","address":"3405 Candlers Mountain Road<br>Lynchburg, VA 24502<br>(434) 237-7824","latitude":-79.1685133,"longitude":37.3617141},{"name":"Victoria's Secret - Short Pump Town Center","address":"11800 W Broad Street<br>Richmond, VA 23223<br>(804) 364-6895","latitude":-77.6194616,"longitude":37.6562009},{"name":"Victoria's Secret - Southpark","address":"230 Southpark Circle<br>Colonial Heights, VA 23834<br>(804) 526-8250","latitude":-77.3935703,"longitude":37.2534672},{"name":"Victoria's Secret - Spotsylvania","address":"810 Spotsylvania Mall<br>Fredericksburg, VA 22407<br>(540) 548-4211","latitude":-77.51487019999999,"longitude":38.2939942},{"name":"Victoria's Secret - Springfield Town Center","address":"6500 Springfield Mall<br>Springfield, VA 22150<br>(703) 921-3146","latitude":-77.17519639999999,"longitude":38.7741895},{"name":"Victoria's Secret - Stony Point","address":"9200 Stony Point Parkway<br>Richmond, VA 23235<br>(804) 320-9305","latitude":-77.57165069999999,"longitude":37.54977969999999},{"name":"Victoria's Secret - Tysons Corner","address":"1961 Chain Bridge Road<br>Mc Lean, VA 22102<br>(703) 883-9013","latitude":-77.2222369,"longitude":38.9176225},{"name":"Victoria's Secret - Valley Mall","address":"1925 E Market Street<br>Harrisonburg, VA 22801<br>(540) 434-2730","latitude":-78.8428225,"longitude":38.42748419999999},{"name":"Victoria's Secret - Valley View","address":"4802 Valley View Boulevard<br>Roanoke, VA 24012<br>(540) 362-4520","latitude":-79.96428100000001,"longitude":37.30403},{"name":"Victoria's Secret - Valley View, VA","address":"4802 Valley View Boulevard NW<br>Roanoke, VA 24012<br>(540) 563-0010","latitude":-79.96428100000001,"longitude":37.30403},{"name":"Victoria's Secret - Virginia Center Commons","address":"10101 Brook Road<br>Glen Allen, VA 23060<br>(804) 261-5732","latitude":-77.45966,"longitude":37.674202},{"name":"Victoria's Secret - Alderwood","address":"3000 184th Street<br>Lynnwood, WA 98037<br>(425) 673-0179","latitude":-122.2723568,"longitude":47.8307906},{"name":"Victoria's Secret - Alderwood","address":"3000 184 Th Street SW<br>Lynnwood, WA 98037<br>(425) 673-1268","latitude":-122.2725709,"longitude":47.8299542},{"name":"Victoria's Secret - Bellevue Square","address":"263 Bellevue Square<br>Bellevue, WA 98004<br>(425) 454-6415","latitude":-122.2020726,"longitude":47.6151619},{"name":"Victoria's Secret - Bellis Fair","address":"One Bellis Fair<br>Bellingham, WA 98226<br>(360) 676-6614","latitude":-122.490534,"longitude":48.785745},{"name":"Victoria's Secret - Capital Shopping Mall","address":"625 Black Lake Boulevard SW<br>Olympia, WA 98502<br>(360)943-1966","latitude":-122.9347004,"longitude":47.0419403},{"name":"Victoria's Secret - Cascade Mall","address":"201 Cascade Mall Drive<br>Burlington, WA 98233<br>(360) 757-3190","latitude":-122.338276,"longitude":48.4631672},{"name":"Victoria's Secret - Columbia","address":"1321 N Columbia Center Boulevard<br>Kennewick, WA 99336<br>(509) 736-3917","latitude":-119.22508,"longitude":46.224573},{"name":"Victoria's Secret - Everett","address":"East Everett Mall Way<br>Everett, WA 98208<br>(425) 290-9565","latitude":-122.21668,"longitude":47.91134719999999},{"name":"Victoria's Secret - Kitsap","address":"10315 Silverdale Way NW<br>Silverdale, WA 98383<br>(360) 692-7566","latitude":-122.6901406,"longitude":47.6574452},{"name":"Victoria's Secret - Northgate","address":"401 NE Northgate Way<br>Seattle, WA 98125<br>(206) 367-3357","latitude":-122.326708,"longitude":47.7075171},{"name":"Victoria's Secret - Northtown Mall","address":"North 4750 Division<br>Spokane, WA 99207<br>(509) 482-3010","latitude":-117.4092619,"longitude":47.70265209999999},{"name":"Victoria's Secret - Pacific Place","address":"600 Pine Street<br>Seattle, WA 98101<br>(206)467-1834","latitude":-122.3354092,"longitude":47.6125141},{"name":"Victoria's Secret - Redmond Town Center","address":"16495 NE 74Th<br>Redmond, WA 98052<br>(425) 497-9834","latitude":-122.1208577,"longitude":47.670378},{"name":"Victoria's Secret - South Hill","address":"3500 S Meridian<br>Puyallup, WA 98373<br>(253) 445-4840","latitude":-122.2978175,"longitude":47.158287},{"name":"Victoria's Secret - Southcenter","address":"303 Southcenter Mall<br>Seattle, WA 98188<br>(206) 241-1823","latitude":-122.2602614,"longitude":47.4593473},{"name":"Victoria's Secret - Southcenter","address":"633 Southcenter<br>Seattle, WA 98188<br>(206) 246-0903","latitude":-122.2607358,"longitude":47.4587254},{"name":"Victoria's Secret - Spokane Valley","address":"14700 E Indiana Avenue<br>Spokane, WA 99216<br>(509) 228-0696","latitude":-117.2063935,"longitude":47.673976},{"name":"Victoria's Secret - Tacoma","address":"4502 S Steele Street<br>Tacoma, WA 98409<br>(253) 471-9935","latitude":-122.4678568,"longitude":47.21641650000001},{"name":"Victoria's Secret - Tacoma","address":"4502 S Steele Street<br>Tacoma, WA 98409<br>(253) 475-6006","latitude":-122.4678568,"longitude":47.21641650000001},{"name":"Victoria's Secret - The Commons at Federal Way","address":"1919 S Commons<br>Federal Way, WA 98003<br>(253) 941-4230","latitude":-122.307762,"longitude":47.314},{"name":"Victoria's Secret - The Outlet Collection","address":"1101 Outlet Way<br>Auburn, WA 98001<br>(253) 804-0105","latitude":-122.2460898,"longitude":47.2990413},{"name":"Victoria's Secret - University Village","address":"2695 NE University Village Street<br>Seattle, WA 98105<br>(206) 527-0477","latitude":-122.2983443,"longitude":47.6633449},{"name":"Victoria's Secret - Valley Mall","address":"2529 Main Street<br>Union Gap, WA 98903<br>(509) 367-8375","latitude":-120.480261,"longitude":46.5699067},{"name":"Victoria's Secret - Vancouver","address":"8700 NE Vancouver Mall Drive<br>Vancouver, WA 98662<br>(360) 253-1671","latitude":-122.5837385,"longitude":45.6581804},{"name":"Victoria's Secret - Charleston Town Center","address":"3000 Charleston Town Center<br>Charleston, WV 25389<br>(304) 340-0274","latitude":-81.6378934,"longitude":38.353762},{"name":"Victoria's Secret - Crossroads","address":"2 Cross Roads Mall<br>Mount Hope, WV 25880<br>(304) 252-3296","latitude":-81.198067,"longitude":37.847362},{"name":"Victoria's Secret - Grand Central","address":"100 Grand Central Mall<br>Parkersburg, WV 26101<br>(304) 485-5070","latitude":-81.55263699999999,"longitude":39.29981},{"name":"Victoria's Secret - Huntington","address":"1 Huntington Mall<br>Barboursville, WV 25504<br>(304) 736-9660","latitude":-82.26642210000001,"longitude":38.4223468},{"name":"Victoria's Secret - Meadowbrook","address":"2390 Meadowbrook Mall<br>Bridgeport, WV 26330<br>(304) 842-9793","latitude":-80.2726321,"longitude":39.3126635},{"name":"Victoria's Secret - Morgantown","address":"9500 Mall Road<br>Morgantown, WV 26501<br>(304) 983-6830","latitude":-79.9976095,"longitude":39.6273577},{"name":"Victoria's Secret - Bay Park Square","address":"2481 S. Onieda Street<br>Green Bay, WI 54304<br>(920) 497-8606","latitude":-88.06553989999999,"longitude":44.4839955},{"name":"Victoria's Secret - Bay Park Square","address":"2481 S. Oneida Street<br>Green Bay, WI 54304<br>(920) 497-0813","latitude":-88.06553989999999,"longitude":44.4839955},{"name":"Victoria's Secret - Bay Shore","address":"5695 North Center Parkway<br>Glendale, WI 53217<br>(414) 967-1004","latitude":-87.98449339999999,"longitude":43.0680219},{"name":"Victoria's Secret - Brookfield Square","address":"96 N Moorland Road<br>Brookfield, WI 53005<br>(262) 786-8604","latitude":-88.10665139999999,"longitude":43.0326277},{"name":"Victoria's Secret - East Towne","address":"62 East Towne Mall<br>Madison, WI 53704<br>(608) 241-2453","latitude":-89.3043426,"longitude":43.1280412},{"name":"Victoria's Secret - Forest Mall","address":"835 W Johnson Street<br>Fond Du Lac, WI 54935<br>(920) 921-6489","latitude":-88.4751768,"longitude":43.7849071},{"name":"Victoria's Secret - Fox River","address":"4301 West Wisconsin Avenue<br>Appleton, WI 54913<br>(920)830-6467","latitude":-88.4700678,"longitude":44.2696721},{"name":"Victoria's Secret - Fox River","address":"4301 W Wisconsin Avenue<br>Appleton, WI 54915<br>(920) 739-5695","latitude":-88.4700678,"longitude":44.2696721},{"name":"Victoria's Secret - Janesville Mall","address":"2500 Milton Avenue<br>Janesville, WI 53545<br>(608) 741-9556","latitude":-88.99922350000001,"longitude":42.7119205},{"name":"Victoria's Secret - Mayfair","address":"2500 N Mayfair Road<br>Wauwatosa, WI 53226<br>(414) 258-1348","latitude":-88.0456476,"longitude":43.0638475},{"name":"Victoria's Secret - Mayfair","address":"2500 N Mayfair Road<br>Wauwatosa, WI 53226<br>(414) 454-0190","latitude":-88.0456476,"longitude":43.0638475},{"name":"Victoria's Secret - Oakwood","address":"4800 Golf Road<br>Eau Claire, WI 54701<br>(715) 832-7866","latitude":-91.43820550000001,"longitude":44.7777015},{"name":"Victoria's Secret - Regency Mall","address":"5660 Durand Avenue<br>Racine, WI 53406<br>(262) 554-7450","latitude":-87.8485388,"longitude":42.6973903},{"name":"Victoria's Secret - Southridge","address":"5300 S 76Th Street<br>Greendale, WI 53129<br>(414) 423-6347","latitude":-88.00862699999999,"longitude":42.9478067},{"name":"Victoria's Secret - Southridge","address":"5300 South 76 Street<br>Greendale, WI 53129<br>(414) 423-5624","latitude":-88.00862699999999,"longitude":42.9478067},{"name":"Victoria's Secret - Valley View","address":"3800 State Road 16 STE 144<br>La Crosse, WI 54601<br>(608) 781-0912","latitude":-91.20836650000001,"longitude":43.7908833},{"name":"Victoria's Secret - Wausau Center","address":"C-302 Wausau Center<br>Wausau, WI 54403<br>(715) 842-0241","latitude":-89.628106,"longitude":44.95841},{"name":"Victoria's Secret - West Towne","address":"47 West Towne Mall<br>Madison, WI 53719<br>(608) 836-3021","latitude":-89.5093181,"longitude":43.0570899},{"name":"Victoria's Secret - West Towne","address":"37 W Towne Mall<br>Madison, WI 53719<br>(608) 833-7101","latitude":-89.5093181,"longitude":43.0570899},{"name":"Victoria's Secret - Frontier","address":"1400 Dell Range Boulevard<br>Cheyenne, WY 82009<br>(307) 638-7336","latitude":-104.8033881,"longitude":41.1620483}]