[{"name":"Bahama Breeze","code":null,"latitude":26.15688,"longitude":-80.3191,"address":"2750 Sawgrass Mills Circle, Fort Lauderdale FL","chain_name":null,"distance":0,"street_number":null,"street_name":"Sawgrass Mills Circle","zip":"33323","city":null,"area":null,"county":"Broward County","state":"Florida","country":"us","formatted_address":"Bahama Breeze, Sawgrass Mills Circle, Sawgrass Mills, Sunrise, Broward County, Florida, 33323, United States of America","place_id":"141730958","datatype":"locationiq"},{"name":"Bahama Breeze","code":null,"latitude":28.43709,"longitude":-81.472,"address":"8849 International Drive, Orlando FL","chain_name":null,"distance":0,"street_number":"8849","street_name":"International Drive","zip":"32819","city":null,"area":null,"county":"Orange County","state":"Florida","country":"us","formatted_address":"Bahama Breeze, 8849, International Drive, Dr. Phillips, Orange County, Florida, 32819, United States of America","place_id":"101345953","datatype":"locationiq"},{"name":"Bahama Breeze","code":null,"latitude":26.00774,"longitude":-80.2934,"address":"11000 Pines Boulevard, Hollywood FL","chain_name":null,"distance":0,"street_number":null,"street_name":"Pines Boulevard","zip":"33027","city":null,"area":null,"county":"Broward County","state":"Florida","country":"us","formatted_address":"Pines Boulevard, Pembroke Pines, Broward County, Florida, 33027, United States of America","place_id":"100529280","datatype":"locationiq"},{"name":"Bahamas Breeze","code":null,"latitude":42.0498,"longitude":-88.0696,"address":"406 E Golf Rd, Schaumburg IL","chain_name":null,"distance":0,"street_number":"406","street_name":"Golf Road","zip":"60173","city":null,"area":null,"county":"Cook County","state":"Illinois","country":"us","formatted_address":"Bahama Breeze, 406, Golf Road, Schaumburg, Cook County, Illinois, 60173, United States of America","place_id":"125638794","datatype":"locationiq"},{"name":"Bahama Breeze","code":null,"latitude":27.97051,"longitude":-82.564,"address":"3045 N Rocky Point Drive East, Tampa FL","chain_name":null,"distance":0,"street_number":"3173","street_name":"North Rocky Point Drive East","zip":"33607","city":"Tampa","area":null,"county":"Hillsborough County","state":"Florida","country":"us","formatted_address":"3173, North Rocky Point Drive East, Tampa, Hillsborough County, Florida, 33607, United States of America","place_id":"182165608","datatype":"locationiq"},{"name":"Bahama Breeze","code":null,"latitude":28.66392,"longitude":-81.3741,"address":"499 E Altamonte Drive, Altamonte Springs FL","chain_name":null,"distance":0,"street_number":"527","street_name":"East Altamonte Drive","zip":"32701","city":null,"area":null,"county":"Seminole County","state":"Florida","country":"us","formatted_address":"527, East Altamonte Drive, Altamonte Springs, Seminole County, Florida, 32701, United States of America","place_id":"183176000","datatype":"locationiq"},{"name":"Bahama Breeze","code":null,"latitude":28.37813,"longitude":-81.5009,"address":"8615 Vineland Avenue, Orlando FL","chain_name":null,"distance":0,"street_number":"8788","street_name":"Vineland Avenue","zip":"32830","city":"Orlando","area":null,"county":"Orange County","state":"Florida","country":"us","formatted_address":"Shell, 8788, Vineland Avenue, Orlando, Orange County, Florida, 32830, United States of America","place_id":"101599961","datatype":"locationiq"},{"name":"Bahama Breeze","code":null,"latitude":28.3752,"longitude":-81.5013,"address":"8735 Vineland Avenue, Orlando FL","chain_name":null,"distance":0,"street_number":null,"street_name":"Vineland Avenue","zip":"32830","city":"Orlando","area":"Little Lake Bryan","county":"Orange County","state":"Florida","country":"us","formatted_address":"BJ's Brewhouse, Vineland Avenue, Little Lake Bryan, Orlando, Orange County, Florida, 32830, United States of America","place_id":"155869357","datatype":"locationiq"},{"name":"Bahama Breeze","code":null,"latitude":26.52923,"longitude":-81.8711,"address":"14701 S Tamiami Trail, Fort Myers FL","chain_name":null,"distance":0,"street_number":"14667","street_name":"Tamiami Trail","zip":"33912","city":null,"area":"Jamaica Bay","county":"Lee County","state":"Florida","country":"us","formatted_address":"14667, Tamiami Trail, Jamaica Bay, Forest Island Park, Lee County, Florida, 33912, United States of America","place_id":"182313094","datatype":"locationiq"},{"name":"Bahama Breeze","code":null,"latitude":28.47097,"longitude":-81.4034,"address":"5900 Lake Ellenor Drive, Orlando FL","chain_name":null,"distance":0,"street_number":"6067","street_name":"Lake Ellenor Drive","zip":"32809","city":"Orlando","area":null,"county":"Orange County","state":"Florida","country":"us","formatted_address":"6067, Lake Ellenor Drive, Orlando Central Park, Orlando, Orange County, Florida, 32809, United States of America","place_id":"182687607","datatype":"locationiq"},{"name":"Bahama Breeze","code":null,"latitude":25.68622,"longitude":-80.3925,"address":"12395 SW 88th Street, Miami FL","chain_name":null,"distance":0,"street_number":"12355","street_name":"Southwest 88th Street","zip":"33186","city":null,"area":null,"county":"Miami-Dade County","state":"Florida","country":"us","formatted_address":"12355, Southwest 88th Street, Lindgren Acres, Miami-Dade County, Florida, 33186, United States of America","place_id":"164171833","datatype":"locationiq"},{"name":"Bahama Breeze","code":null,"latitude":39.93889,"longitude":-75.025,"address":"2000 Route 38 # 1160, Cherry Hill NJ","chain_name":null,"distance":0,"street_number":null,"street_name":"Kaighns Avenue","zip":"08002","city":"Cherry Hill Township","area":null,"county":"Camden County","state":"New Jersey","country":"us","formatted_address":"Kaighns Avenue, Cherry Hill Mall, Cherry Hill Township, Camden County, New Jersey, 08002, United States of America","place_id":"84620792","datatype":"locationiq"},{"name":"Bahama Breeze","code":null,"latitude":32.88882,"longitude":-96.959,"address":"857 West John Carpenter Freeway, Irving TX","chain_name":null,"distance":0,"street_number":null,"street_name":"Northwest Highway","zip":"75039","city":"Irving","area":null,"county":"Dallas County","state":"Texas","country":"us","formatted_address":"Northwest Highway, Valley Ranch, Irving, Dallas County, Texas, 75039, United States of America","place_id":"84396671","datatype":"locationiq"},{"name":"Bahama Breeze","code":null,"latitude":42.04981,"longitude":-88.07,"address":"406 E Golf Road, Schaumburg IL","chain_name":null,"distance":0,"street_number":"416","street_name":"Golf Road","zip":"60173","city":null,"area":null,"county":"Cook County","state":"Illinois","country":"us","formatted_address":"416, Golf Road, Schaumburg, Cook County, Illinois, 60173, United States of America","place_id":"184909102","datatype":"locationiq"},{"name":"Bahama Breeze","code":null,"latitude":33.10124,"longitude":-96.8052,"address":"2750 Preston Road, Frisco TX","chain_name":null,"distance":0,"street_number":"2750","street_name":"Preston Road","zip":"75024","city":"Frisco","area":null,"county":"Collin County","state":"Texas","country":"us","formatted_address":"2750, Preston Road, Frisco, Collin County, Texas, 75024, United States of America","place_id":"48456977","datatype":"locationiq"},{"name":"Bahama Breeze","code":null,"latitude":38.6494,"longitude":-90.5651,"address":"291 Chesterfield Mall, Chesterfield MO","chain_name":null,"distance":0,"street_number":null,"street_name":"Chesterfield Center","zip":"63017","city":"Chesterfield","area":null,"county":"St. Louis County","state":"Missouri","country":"us","formatted_address":"Chesterfield Center, Chesterfield, St. Louis County, Missouri, 63017, United States of America","place_id":"70524953","datatype":"locationiq"},{"name":"Bahama Breeze","code":null,"latitude":40.45077,"longitude":-80.1618,"address":"6100 Robinson Center Drive, Pittsburgh PA","chain_name":null,"distance":0,"street_number":null,"street_name":"Robinson Center Drive","zip":"15275","city":null,"area":null,"county":"Allegheny County","state":"Pennsylvania","country":"us","formatted_address":"Olive Garden, Robinson Center Drive, Robinson Township, Allegheny County, Pennsylvania, 15275, United States of America","place_id":"26376050","datatype":"locationiq"},{"name":"Bahama Breeze","code":null,"latitude":38.65469,"longitude":-90.5663,"address":"550 Chesterfield Centre, Chesterfield MO","chain_name":null,"distance":0,"street_number":null,"street_name":"Chesterfield Center","zip":"63017","city":"Chesterfield","area":null,"county":"St. Louis County","state":"Missouri","country":"us","formatted_address":"Chesterfield Center, Chesterfield, St. Louis County, Missouri, 63017, United States of America","place_id":"70524953","datatype":"locationiq"},{"name":"Bahama Breeze","code":null,"latitude":37.26345,"longitude":-76.0143,"address":"3 Marina Circle # 3, Cape Charles VA","chain_name":null,"distance":0,"street_number":"35","street_name":"Marina Road","zip":"23310","city":null,"area":null,"county":"Northampton County","state":"Virginia","country":"us","formatted_address":"35, Marina Road, Cape Charles, Northampton County, Virginia, 23310, United States of America","place_id":"207696150","datatype":"locationiq"},{"name":"Bahama Breeze","code":null,"latitude":40.0912,"longitude":-75.3967,"address":"320 Goddard Boulevard, King Of Prussia PA","chain_name":null,"distance":0,"street_number":null,"street_name":"Goddard Boulevard","zip":"19406","city":"Upper Merion Township","area":null,"county":"Montgomery County","state":"Pennsylvania","country":"us","formatted_address":"Champps, Goddard Boulevard, Upper Merion Township, Montgomery County, Pennsylvania, 19406, United States of America","place_id":"926755","datatype":"locationiq"},{"name":"Bahama Breeze","code":null,"latitude":36.06421,"longitude":-79.6055,"address":"952 Golf House Road W # D, Whitsett NC","chain_name":null,"distance":0,"street_number":"983","street_name":"Golf House Road West","zip":"27377","city":null,"area":null,"county":"Guilford County","state":"North Carolina","country":"us","formatted_address":"983, Golf House Road West, Greesons Crossroads, Guilford County, North Carolina, 27377, United States of America","place_id":"197631193","datatype":"locationiq"},{"name":"Bahama Breeze","code":null,"latitude":41.45774,"longitude":-81.4197,"address":"3900 Orange Place, Chagrin Falls OH","chain_name":null,"distance":0,"street_number":"47","street_name":"Farwood Drive","zip":"44022","city":null,"area":null,"county":"Cuyahoga County","state":"Ohio","country":"us","formatted_address":"47, Farwood Drive, Moreland Hills, Cuyahoga County, Ohio, 44022, United States of America","place_id":"198997275","datatype":"locationiq"},{"name":"Bahama Breeze","code":null,"latitude":35.07221,"longitude":-89.8123,"address":"2830 N Germantown Parkway, Memphis TN","chain_name":null,"distance":0,"street_number":"2808","street_name":"South Germantown Road","zip":"38138","city":"Germantown","area":null,"county":"Shelby County","state":"Tennessee","country":"us","formatted_address":"2808, South Germantown Road, Germantown, Shelby County, Tennessee, 38138, United States of America","place_id":"204095661","datatype":"locationiq"},{"name":"Bahama Breeze","code":null,"latitude":35.82745,"longitude":-78.6202,"address":"3309 Wake Forest Road, Raleigh NC","chain_name":null,"distance":0,"street_number":null,"street_name":"Wake Forest Road","zip":"27609","city":"Raleigh","area":null,"county":"Wake County","state":"North Carolina","country":"us","formatted_address":"Denny's, Wake Forest Road, Millbrook, Raleigh, Wake County, North Carolina, 27609, United States of America","place_id":"126134079","datatype":"locationiq"},{"name":"Bahama Breeze","code":null,"latitude":39.29754,"longitude":-84.4803,"address":"325 Pictoria Drive, Cincinnati OH","chain_name":null,"distance":0,"street_number":null,"street_name":"Pictoria Drive","zip":"45246","city":"Springdale","area":null,"county":"Hamilton County","state":"Ohio","country":"us","formatted_address":"Pappadeaux, Pictoria Drive, Springdale, Hamilton County, Ohio, 45246, United States of America","place_id":"82713820","datatype":"locationiq"},{"name":"Bahama Breeze","code":null,"latitude":36.54534,"longitude":-82.5187,"address":"111 Jack White Drive # 5, Kingsport TN","chain_name":null,"distance":0,"street_number":null,"street_name":"Jack White Drive","zip":"37664","city":"Kingsport","area":null,"county":"Sullivan County","state":"Tennessee","country":"us","formatted_address":"Shell, Jack White Drive, Kingsport, Sullivan County, Tennessee, 37664, United States of America","place_id":"158226715","datatype":"locationiq"},{"name":"Bahama Breeze","code":null,"latitude":41.4552,"longitude":-81.4889,"address":"3900 Orange Place, Beachwood OH","chain_name":null,"distance":0,"street_number":"3746","street_name":"Orange Place","zip":"44022","city":null,"area":null,"county":"Cuyahoga County","state":"Ohio","country":"us","formatted_address":"3746, Orange Place, Orange, Cuyahoga County, Ohio, 44022, United States of America","place_id":"198984664","datatype":"locationiq"},{"name":"Bahama Breeze","code":null,"latitude":35.56325,"longitude":-97.5751,"address":"9219 Lake Hefner Parkway, Oklahoma City OK","chain_name":null,"distance":0,"street_number":null,"street_name":null,"zip":"73120","city":"Oklahoma City","area":null,"county":"Oklahoma County","state":"Oklahoma","country":"us","formatted_address":"Bert Cooper Trails (Lake Hefner Trails), Oklahoma City, Oklahoma County, Oklahoma, 73120, United States of America","place_id":"101001751","datatype":"locationiq"},{"name":"Bahama Breeze","code":null,"latitude":42.42925,"longitude":-83.4332,"address":"19600 Haggerty Road, Livonia MI","chain_name":null,"distance":0,"street_number":"19748","street_name":"Haggerty Road","zip":"48170","city":null,"area":null,"county":"Wayne County","state":"Michigan","country":"us","formatted_address":"19748, Haggerty Road, Northville Township, Wayne County, Michigan, 48170, United States of America","place_id":"191641520","datatype":"locationiq"},{"name":"Bahama Breeze","code":null,"latitude":33.67682,"longitude":-111.9773,"address":"21001 North Tatum Boulevard, Phoenix AZ","chain_name":null,"distance":0,"street_number":"21001","street_name":"North Tatum Boulevard","zip":"85050-4206","city":"Phoenix","area":null,"county":"Maricopa County","state":"Arizona","country":"us","formatted_address":"21001, North Tatum Boulevard, Phoenix, Maricopa County, Arizona, 85050-4206, United States of America","place_id":"26302775","datatype":"locationiq"},{"name":"Bahama Breeze","code":null,"latitude":42.45992,"longitude":-84.0831,"address":"132 East M-36, Gregory MI","chain_name":null,"distance":0,"street_number":"10298","street_name":"West Carr Street","zip":"48137","city":null,"area":null,"county":"Livingston County","state":"Michigan","country":"us","formatted_address":"10298, West Carr Street, Unadilla Township, Livingston County, Michigan, 48137, United States of America","place_id":"191129664","datatype":"locationiq"},{"name":"Bahama Breeze","code":null,"latitude":33.95,"longitude":-84.1275,"address":"3590 Breckinridge Boulevard, Duluth GA","chain_name":null,"distance":0,"street_number":null,"street_name":"Breckinridge Boulevard","zip":"30096","city":null,"area":null,"county":"Gwinnett County","state":"Georgia","country":"us","formatted_address":"Pleasant Hill Church, Breckinridge Boulevard, Pleasant Hill, Gwinnett County, Georgia, 30096, United States of America","place_id":"3527095","datatype":"locationiq"},{"name":"Bahama Breeze","code":null,"latitude":36.11552,"longitude":-115.1552,"address":"375 Hughes Center Drive, Las Vegas NV","chain_name":null,"distance":0,"street_number":null,"street_name":"Hughes Center Drive","zip":"89169","city":null,"area":null,"county":"Clark County","state":"Nevada","country":"us","formatted_address":"Residence Inn Las Vegas Hughes Center, Hughes Center Drive, Hughes Center, Paradise, Clark County, Nevada, 89169, United States of America","place_id":"117014995","datatype":"locationiq"},{"name":"Bahama Breeze","code":null,"latitude":39.92688,"longitude":-86.1057,"address":"3815 E 96th Street, Indianapolis IN","chain_name":null,"distance":0,"street_number":"3535","street_name":"East 96th Street","zip":"46240","city":"Carmel","area":null,"county":"Hamilton County","state":"Indiana","country":"us","formatted_address":"PNC Bank, 3535, East 96th Street, Carmel, Hamilton County, Indiana, 46240, United States of America","place_id":"114173649","datatype":"locationiq"},{"name":"Bahama Breeze","code":null,"latitude":42.56288,"longitude":-83.137,"address":"539 E Big Beaver Road, Troy MI","chain_name":null,"distance":0,"street_number":null,"street_name":"East Big Beaver Road","zip":"48304","city":"Troy","area":null,"county":"Oakland County","state":"Michigan","country":"us","formatted_address":"Apostolic Church, East Big Beaver Road, Troy, Oakland County, Michigan, 48304, United States of America","place_id":"2680073","datatype":"locationiq"},{"name":"Bahama Breeze","code":null,"latitude":34.04834,"longitude":-84.2863,"address":"10845 Haynes Bridge Road, Alpharetta GA","chain_name":null,"distance":0,"street_number":"10845","street_name":"Haynes Bridge Road","zip":"30022","city":"Alpharetta","area":"Alpha Park","county":"Fulton County","state":"Georgia","country":"us","formatted_address":"Bahama Breeze Restaurant, 10845, Haynes Bridge Road, Alpha Park, Alpharetta, Fulton County, Georgia, 30022, United States of America","place_id":"19168664","datatype":"locationiq"},{"name":"Bahama Breeze","code":null,"latitude":34.00643,"longitude":-84.5734,"address":"755 Ernest W Barrett Parkway Northwest, Kennesaw GA","chain_name":null,"distance":0,"street_number":"755","street_name":"Ernest W. Barrett Parkway Northwest","zip":"30144","city":"Kennesaw","area":null,"county":"Cobb County","state":"Georgia","country":"us","formatted_address":"Bahama Breeze, 755, Ernest W. Barrett Parkway Northwest, Kennesaw, Cobb County, Georgia, 30144, United States of America","place_id":"138841122","datatype":"locationiq"},{"name":"Bahama Breeze","code":null,"latitude":39.40196,"longitude":-76.6007,"address":"100 E Joppa Road, Towson MD","chain_name":null,"distance":0,"street_number":"101","street_name":"East Joppa Road","zip":"21286","city":"Towson","area":"East Towson","county":"Baltimore County","state":"Maryland","country":"us","formatted_address":"BJ's Bar and Grill, 101, East Joppa Road, East Towson, Towson, Baltimore County, Maryland, 21286, United States of America","place_id":"136312998","datatype":"locationiq"},{"name":"Bahama Breeze","code":null,"latitude":33.4263,"longitude":-86.7052,"address":"101 Resource Center Parkway, Birmingham AL","chain_name":null,"distance":0,"street_number":null,"street_name":"US 280","zip":"35242","city":"Hoover","area":"Inverness Point","county":"Shelby County","state":"Alabama","country":"us","formatted_address":"US 280, Inverness Point, Hoover, Shelby County, Alabama, 35242, United States of America","place_id":"155820332","datatype":"locationiq"},{"name":"Bahama Breeze","code":null,"latitude":36.91809,"longitude":-88.339,"address":"2698 Us Highway 641 North, Benton KY","chain_name":null,"distance":0,"street_number":"2730","street_name":"US 641","zip":"42025","city":null,"area":null,"county":"Marshall County","state":"Kentucky","country":"us","formatted_address":"2730, US 641, Draffenville, Marshall County, Kentucky, 42025, United States of America","place_id":"188677339","datatype":"locationiq"},{"name":"Bahama Breeze","code":null,"latitude":47.46189,"longitude":-122.2605,"address":"15700 Southcenter Parkway, Seattle WA","chain_name":null,"distance":0,"street_number":null,"street_name":"Tukwila Parkway","zip":"98188","city":"Tukwila","area":null,"county":"King County","state":"Washington","country":"us","formatted_address":"Tukwila Parkway, Tukwila, King County, Washington, 98188, United States of America","place_id":"162255180","datatype":"locationiq"}]