[{"latitude":"32.96053","longitude":"-117.26509","name":"Banana Republic","address":"USA-United States","street_number":null,"street_name":"Camino del Mar","zip":"92014","city":"Del Mar","area":null,"county":"San Diego County","state":"California","country":"us","formatted_address":"Banana Republic, Camino del Mar, Del Mar, San Diego County, California, 92014, United States of America","place_id":"24282976","datatype":"locationiq"},{"latitude":"34.11070","longitude":"-117.53458","name":"Banana Republic","address":"USA-United States","street_number":null,"street_name":"Versailles Street","zip":"91730","city":"Rancho Cucamonga","area":null,"county":"San Bernardino County","state":"California","country":"us","formatted_address":"JCPenney, Versailles Street, Rancho Cucamonga, San Bernardino County, California, 91730, United States of America","place_id":"124952812","datatype":"locationiq"},{"latitude":"32.22131","longitude":"-110.86736","name":"Banana Republic","address":"USA-United States","street_number":"5862","street_name":"East Broadway Boulevard","zip":"85711","city":"Tucson","area":"El Gheko","county":"Pima County","state":"Arizona","country":"us","formatted_address":"5862, East Broadway Boulevard, El Gheko, Tucson, Pima County, Arizona, 85711, United States of America","place_id":"177387200","datatype":"locationiq"},{"latitude":"34.14562","longitude":"-118.15329","name":"Banana Republic","address":"USA-United States","street_number":"126","street_name":"West Colorado Boulevard","zip":"91105","city":"Pasadena","area":"Madison Heights","county":"Los Angeles County","state":"California","country":"us","formatted_address":"Zara, 126, West Colorado Boulevard, Madison Heights, Pasadena, Los Angeles County, California, 91105, United States of America","place_id":"117009637","datatype":"locationiq"},{"latitude":"34.21794","longitude":"-119.06193","name":"Banana Republic","address":"USA-United States","street_number":"112","street_name":"Factory Stores Drive","zip":"93010","city":"Camarillo","area":null,"county":"Ventura County","state":"California","country":"us","formatted_address":"Suite 112 - The Children's Place Outlet, 112, Factory Stores Drive, Camarillo, Ventura County, California, 93010, United States of America","place_id":"43714055","datatype":"locationiq"},{"latitude":"33.06916","longitude":"-117.06868","name":"Banana Republic","address":"USA-United States","street_number":null,"street_name":"Westfield Way","zip":"92025","city":"Escondido","area":null,"county":"San Diego County","state":"California","country":"us","formatted_address":"Romano's Macaroni Grill, Westfield Way, Westfield North County, Escondido, San Diego County, California, 92025, United States of America","place_id":"84779400","datatype":"locationiq"},{"latitude":"34.41908","longitude":"-119.69880","name":"Banana Republic","address":"USA-United States","street_number":"715","street_name":"State Street","zip":"93101","city":"Santa Barbara","area":"Waterfront","county":"Santa Barbara County","state":"California","country":"us","formatted_address":"Central Coast Provisions Santa Barbara, 715, State Street, Waterfront, Santa Barbara, Santa Barbara County, California, 93101, United States of America","place_id":"55380980","datatype":"locationiq"},{"latitude":"32.87327","longitude":"-117.21063","name":"Banana Republic","address":"USA-United States","street_number":null,"street_name":"La Jolla Village Drive","zip":"92039","city":"San Diego","area":"La Jolla Colony","county":"San Diego County","state":"California","country":"us","formatted_address":"Bank of America, La Jolla Village Drive, La Jolla Colony, University City, San Diego, San Diego County, California, 92039, United States of America","place_id":"16798364","datatype":"locationiq"},{"latitude":"33.62556","longitude":"-111.92839","name":"Banana Republic","address":"USA-United States","street_number":null,"street_name":"Kierland Boulevard","zip":"85254","city":"Phoenix","area":null,"county":"Maricopa County","state":"Arizona","country":"us","formatted_address":"Kierland Boulevard, Phoenix, Maricopa County, Arizona, 85254, United States of America","place_id":"126230819","datatype":"locationiq"},{"latitude":"34.05999","longitude":"-118.41976","name":"Banana Republic","address":"USA-United States","street_number":null,"street_name":"Century City parking entrance","zip":"90067","city":"Los Angeles","area":"Century City","county":"Los Angeles County","state":"California","country":"us","formatted_address":"Century City Shopping Center, Century City parking entrance, Century City, Westwood, Los Angeles, Los Angeles County, California, 90067, United States of America","place_id":"10372412","datatype":"locationiq"},{"latitude":"34.05655","longitude":"-118.44126","name":"Banana Republic","address":"USA-United States","street_number":"10863","street_name":"Rochester Avenue","zip":"90024","city":"Los Angeles","area":"Westwood","county":"Los Angeles County","state":"California","country":"us","formatted_address":"10863, Rochester Avenue, Westwood, Los Angeles, Los Angeles County, California, 90024, United States of America","place_id":"178698628","datatype":"locationiq"},{"latitude":"35.28115","longitude":"-120.66101","name":"Banana Republic","address":"USA-United States","street_number":"990","street_name":"Higuera Street","zip":"93401","city":"San Luis Obispo","area":null,"county":"San Luis Obispo County","state":"California","country":"us","formatted_address":"990, Higuera Street, San Luis Obispo, San Luis Obispo County, California, 93401, United States of America","place_id":"25692171","datatype":"locationiq"},{"latitude":"32.54528","longitude":"-117.04135","name":"Banana Republic","address":"USA-United States","street_number":"4291","street_name":"Camino de la Plaza","zip":"92173","city":"San Diego","area":"Park Haven","county":"San Diego County","state":"California","country":"us","formatted_address":"International House of Pancakes, 4291, Camino de la Plaza, Park Haven, San Ysidro, San Diego, San Diego County, California, 92173, United States of America","place_id":"137273618","datatype":"locationiq"},{"latitude":"33.31967","longitude":"-111.96595","name":"Banana Republic","address":"USA-United States","street_number":"7103","street_name":"West Ray Road","zip":"85226","city":"Chandler","area":null,"county":"Maricopa County","state":"Arizona","country":"us","formatted_address":"7103, West Ray Road, Chandler, Maricopa County, Arizona, 85226, United States of America","place_id":"177213002","datatype":"locationiq"},{"latitude":"33.87075","longitude":"-118.35284","name":"Banana Republic","address":"USA-United States","street_number":"1847","street_name":"Hawthorne Boulevard","zip":"90278","city":"Redondo Beach","area":null,"county":"Los Angeles County","state":"California","country":"us","formatted_address":"1847, Hawthorne Boulevard, Redondo Beach, Los Angeles County, California, 90278, United States of America","place_id":"178679534","datatype":"locationiq"},{"latitude":"34.14632","longitude":"-118.25907","name":"Banana Republic","address":"USA-United States","street_number":"100","street_name":"Galleria Way","zip":"91203","city":"Glendale","area":null,"county":"Los Angeles County","state":"California","country":"us","formatted_address":"Glendale Galleria, 100, Galleria Way, Glendale, Los Angeles County, California, 91203, United States of America","place_id":"170054261","datatype":"locationiq"},{"latitude":"34.07127","longitude":"-118.35908","name":"Banana Republic","address":"USA-United States","street_number":null,"street_name":null,"zip":"90036","city":"Los Angeles","area":null,"county":"Los Angeles County","state":"California","country":"us","formatted_address":"Anthropologie, 1st Street, The Grove, Hollywood, Los Angeles, Los Angeles County, California, 90036, United States of America","place_id":"161338763","datatype":"locationiq"},{"latitude":"34.14562","longitude":"-118.15315","name":"Banana Republic","address":"USA-United States","street_number":"126","street_name":"West Colorado Boulevard","zip":"91105","city":"Pasadena","area":"Madison Heights","county":"Los Angeles County","state":"California","country":"us","formatted_address":"Madewell, 126, West Colorado Boulevard, Madison Heights, Pasadena, Los Angeles County, California, 91105, United States of America","place_id":"117263852","datatype":"locationiq"},{"latitude":"32.76941","longitude":"-117.16901","name":"Banana Republic","address":"USA-United States","street_number":null,"street_name":"Friars Road","zip":"92103","city":"San Diego","area":null,"county":"San Diego County","state":"California","country":"us","formatted_address":"Green Go Wash Professional Auto Detailing and Car Wash, Friars Road, Mission Valley, San Diego, San Diego County, California, 92103, United States of America","place_id":"48851346","datatype":"locationiq"},{"latitude":"33.76112","longitude":"-118.13637","name":"Banana Republic","address":"USA-United States","street_number":null,"street_name":"2nd Street","zip":"90803","city":"Long Beach","area":null,"county":"Los Angeles County","state":"California","country":"us","formatted_address":"US Post Office, 2nd Street, Belmont Shore, Long Beach, Los Angeles County, California, 90803, United States of America","place_id":"17549554","datatype":"locationiq"},{"latitude":"33.90425","longitude":"-118.38826","name":"Banana Republic","address":"USA-United States","street_number":"2184","street_name":"Park Place","zip":"90245","city":"El Segundo","area":null,"county":"Los Angeles County","state":"California","country":"us","formatted_address":"2184, Park Place, El Segundo, Los Angeles County, California, 90245, United States of America","place_id":"178564732","datatype":"locationiq"},{"latitude":"33.30557","longitude":"-111.89652","name":"Banana Republic","address":"USA-United States","street_number":null,"street_name":"West Chandler Boulevard","zip":"85226","city":"Chandler","area":null,"county":"Maricopa County","state":"Arizona","country":"us","formatted_address":"The Keg, West Chandler Boulevard, Chandler, Maricopa County, Arizona, 85226, United States of America","place_id":"120482037","datatype":"locationiq"},{"latitude":"33.77269","longitude":"-118.37450","name":"Banana Republic","address":"USA-United States","street_number":null,"street_name":"Deep Valley Drive","zip":"90274","city":"Rolling Hills Estates","area":null,"county":"Los Angeles County","state":"California","country":"us","formatted_address":"El Pollo Inca, Deep Valley Drive, Rolling Hills Estates, Los Angeles County, California, 90274, United States of America","place_id":"47726014","datatype":"locationiq"},{"latitude":"33.50966","longitude":"-112.02733","name":"Banana Republic","address":"USA-United States","street_number":"2522","street_name":"East Camelback Road","zip":"85016","city":"Phoenix","area":null,"county":"Maricopa County","state":"Arizona","country":"us","formatted_address":"2522, East Camelback Road, Biltmore Fashion Park, Camelback East, Phoenix, Maricopa County, Arizona, 85016, United States of America","place_id":"177102049","datatype":"locationiq"},{"latitude":"32.26294","longitude":"-110.96673","name":"Banana Republic","address":"USA-United States","street_number":"340","street_name":"East Delano Street","zip":"85705","city":"Tucson","area":"Coronado Heights","county":"Pima County","state":"Arizona","country":"us","formatted_address":"340, East Delano Street, Coronado Heights, Keeling, Tucson, Pima County, Arizona, 85705, United States of America","place_id":"177334672","datatype":"locationiq"},{"latitude":"33.81254","longitude":"-117.50647","name":"Banana Republic","address":"USA-United States","street_number":null,"street_name":"Temescal Canyon Road","zip":"95883","city":"Corona","area":null,"county":"Riverside County","state":"California","country":"us","formatted_address":"The Savannah Cat Shoppe, Temescal Canyon Road, Dos Lagos, Corona, Riverside County, California, 95883, United States of America","place_id":"8553724","datatype":"locationiq"},{"latitude":"33.50235","longitude":"-111.92890","name":"Banana Republic","address":"USA-United States","street_number":null,"street_name":"East Camelback Road","zip":"85251","city":"Scottsdale","area":null,"county":"Maricopa County","state":"Arizona","country":"us","formatted_address":"East Camelback Road, Scottsdale Fashion Square, Scottsdale, Maricopa County, Arizona, 85251, United States of America","place_id":"172547558","datatype":"locationiq"},{"latitude":"32.71418","longitude":"-117.16122","name":"Banana Republic","address":"USA-United States","street_number":null,"street_name":"4th Avenue","zip":"92101-6144","city":"San Diego","area":null,"county":"San Diego County","state":"California","country":"us","formatted_address":"Balboa Theatre, 4th Avenue, Uptown, San Diego, San Diego County, California, 92101-6144, United States of America","place_id":"76744456","datatype":"locationiq"},{"latitude":"34.23929","longitude":"-118.55369","name":"Banana Republic","address":"USA-United States","street_number":null,"street_name":"Tampa Avenue","zip":"91324","city":"Los Angeles","area":null,"county":"Los Angeles County","state":"California","country":"us","formatted_address":"Tampa Avenue, Northridge Fashion Center, Northridge, Los Angeles, Los Angeles County, California, 91324, United States of America","place_id":"157322775","datatype":"locationiq"},{"latitude":"33.69035","longitude":"-117.88575","name":"Banana Republic","address":"USA-United States","street_number":"3033 F2","street_name":"Bristol Street","zip":"92626\u00ad","city":"Costa Mesa","area":null,"county":"Orange County","state":"California","country":"us","formatted_address":"Dive and Photo 3033 Bristol Street, 3033 F2, Bristol Street, Costa Mesa, Orange County, California, 92626\u00ad, United States of America","place_id":"54202688","datatype":"locationiq"},{"latitude":"33.56135","longitude":"-117.66974","name":"Banana Republic","address":"USA-United States","street_number":"27632","street_name":"Crown Valley Parkway","zip":"92691","city":"Mission Viejo","area":null,"county":"Orange County","state":"California","country":"us","formatted_address":"Men's Wearhouse, 27632, Crown Valley Parkway, Mission Viejo, Orange County, California, 92691, United States of America","place_id":"167346648","datatype":"locationiq"},{"latitude":"34.15744","longitude":"-118.43790","name":"Banana Republic","address":"USA-United States","street_number":null,"street_name":"Riverside Drive","zip":"91423","city":"Los Angeles","area":null,"county":"Los Angeles County","state":"California","country":"us","formatted_address":"Riverside Drive, Sherman Oaks, Los Angeles, Los Angeles County, California, 91423, United States of America","place_id":"158049479","datatype":"locationiq"},{"latitude":"35.60937","longitude":"-115.38947","name":"Banana Republic","address":"USA-United States","street_number":null,"street_name":"South Las Vegas Boulevard","zip":"89019-7029","city":null,"area":null,"county":"Clark County","state":"Nevada","country":"us","formatted_address":"Mad Greek Cafe, South Las Vegas Boulevard, Primm, Clark County, Nevada, 89019-7029, United States of America","place_id":"17980023","datatype":"locationiq"},{"latitude":"34.03635","longitude":"-118.68530","name":"Banana Republic","address":"USA-United States","street_number":null,"street_name":"Burgess Meredith Way","zip":null,"city":"Malibu","area":null,"county":"Los Angeles County","state":"California","country":"us","formatted_address":"Malibu Cinemas, Burgess Meredith Way, Malibu, Los Angeles County, California, United States of America","place_id":"9259439","datatype":"locationiq"},{"latitude":"34.41896","longitude":"-119.69849","name":"Banana Republic","address":"USA-United States","street_number":"715","street_name":"State Street","zip":"93101","city":"Santa Barbara","area":"Waterfront","county":"Santa Barbara County","state":"California","country":"us","formatted_address":"Central Coast Provisions Santa Barbara, 715, State Street, Waterfront, Santa Barbara, Santa Barbara County, California, 93101, United States of America","place_id":"55380980","datatype":"locationiq"},{"latitude":"34.07426","longitude":"-118.37668","name":"Banana Republic","address":"USA-United States","street_number":null,"street_name":"La Cienega Boulevard","zip":"90048","city":"Los Angeles","area":"Carthay Circle","county":"Los Angeles County","state":"California","country":"us","formatted_address":"Chipotle, La Cienega Boulevard, Carthay Circle, Los Angeles, Los Angeles County, California, 90048, United States of America","place_id":"2732301","datatype":"locationiq"},{"latitude":"32.62126","longitude":"-116.96753","name":"Banana Republic","address":"USA-United States","street_number":"2086","street_name":"Birch Road","zip":"91915","city":"Chula Vista","area":null,"county":"San Diego County","state":"California","country":"us","formatted_address":"2086, Birch Road, Chula Vista, San Diego County, California, 91915, United States of America","place_id":"179923222","datatype":"locationiq"},{"latitude":"34.04045","longitude":"-118.42760","name":"Banana Republic","address":"USA-United States","street_number":null,"street_name":"West Pico Boulevard","zip":"90064","city":"Los Angeles","area":"Westwood","county":"Los Angeles County","state":"California","country":"us","formatted_address":"Westside Pavilion, West Pico Boulevard, Westwood, Palms, Los Angeles, Los Angeles County, California, 90064, United States of America","place_id":"120621350","datatype":"locationiq"},{"latitude":"34.00499","longitude":"-118.15291","name":"Banana Republic","address":"USA-United States","street_number":null,"street_name":null,"zip":"90040","city":null,"area":null,"county":"Los Angeles County","state":"California","country":"us","formatted_address":"Panda Express, Food Court, The Citadel Outlet Mall, Commerce, Los Angeles County, California, 90040, United States of America","place_id":"45860728","datatype":"locationiq"},{"latitude":"32.84579","longitude":"-117.27402","name":"Banana Republic","address":"USA-United States","street_number":"7837","street_name":"Girard Avenue","zip":"92037","city":"San Diego","area":null,"county":"San Diego County","state":"California","country":"us","formatted_address":"7837, Girard Avenue, La Jolla, San Diego, San Diego County, California, 92037, United States of America","place_id":"5823216","datatype":"locationiq"},{"latitude":"34.14355","longitude":"-118.39695","name":"Banana Republic","address":"USA-United States","street_number":null,"street_name":"Ventura Boulevard","zip":"91604","city":"Los Angeles","area":"Studio City","county":"Los Angeles County","state":"California","country":"us","formatted_address":"Umami Burger, Ventura Boulevard, Studio City, Valley Village, Los Angeles, Los Angeles County, California, 91604, United States of America","place_id":"52251615","datatype":"locationiq"},{"latitude":"34.10166","longitude":"-118.33882","name":"Banana Republic","address":"USA-United States","street_number":null,"street_name":"Highland Avenue","zip":"90028","city":"Los Angeles","area":null,"county":"Los Angeles County","state":"California","country":"us","formatted_address":"Walk of Fame, Highland Avenue, Whitley Heights Historic District, Los Angeles, Los Angeles County, California, 90028, United States of America","place_id":"155029384","datatype":"locationiq"},{"latitude":"33.56919","longitude":"-117.83347","name":"Banana Republic","address":"USA-United States","street_number":null,"street_name":"East Coast Highway","zip":"92651","city":"Newport Beach","area":null,"county":"Orange County","state":"California","country":"us","formatted_address":"East Coast Highway, Corona del Mar, Newport Beach, Orange County, California, 92651, United States of America","place_id":"120168534","datatype":"locationiq"},{"latitude":"33.71956","longitude":"-116.38181","name":"Banana Republic","address":"USA-United States","street_number":null,"street_name":"El Paseo","zip":"92260-4381","city":"Palm Desert","area":null,"county":"Riverside County","state":"California","country":"us","formatted_address":"The Gardens at El Paseo, El Paseo, Palm Desert, Riverside County, California, 92260-4381, United States of America","place_id":"169081814","datatype":"locationiq"},{"latitude":"34.19039","longitude":"-118.60576","name":"Banana Republic","address":"USA-United States","street_number":null,"street_name":"Topanga Canyon Boulevard","zip":"91303","city":"Los Angeles","area":null,"county":"Los Angeles County","state":"California","country":"us","formatted_address":"Neiman Marcus, Topanga Canyon Boulevard, Warner Center, Los Angeles, Los Angeles County, California, 91303, United States of America","place_id":"174930773","datatype":"locationiq"},{"latitude":"34.06922","longitude":"-118.40148","name":"Banana Republic","address":"USA-United States","street_number":null,"street_name":"North Beverly Drive","zip":"90210","city":"Beverly Hills","area":null,"county":"Los Angeles County","state":"California","country":"us","formatted_address":"The Cheesecake Factory, North Beverly Drive, Beverly Hills, Los Angeles County, California, 90210, United States of America","place_id":"61314568","datatype":"locationiq"},{"latitude":"32.28895","longitude":"-110.97798","name":"Banana Republic","address":"USA-United States","street_number":"4470","street_name":"North Oracle Road","zip":"85705","city":"Tucson","area":"Amphitheater","county":"Pima County","state":"Arizona","country":"us","formatted_address":"4470, North Oracle Road, Amphitheater, Stockham, Tucson, Pima County, Arizona, 85705, United States of America","place_id":"177413010","datatype":"locationiq"},{"latitude":"33.91298","longitude":"-117.88592","name":"Banana Republic","address":"USA-United States","street_number":null,"street_name":"North State College Boulevard","zip":"92821","city":"Brea","area":"Country Hills","county":"Orange County","state":"California","country":"us","formatted_address":"Wells Fargo Bank: South Brea office, North State College Boulevard, Country Hills, Downtown Brea, Brea, Orange County, California, 92821, United States of America","place_id":"13916667","datatype":"locationiq"},{"latitude":"33.12651","longitude":"-117.32279","name":"Banana Republic","address":"USA-United States","street_number":null,"street_name":"Paseo del Norte","zip":"92009-1114","city":"Carlsbad","area":null,"county":"San Diego County","state":"California","country":"us","formatted_address":"Paseo del Norte, Carlsbad, San Diego County, California, 92009-1114, United States of America","place_id":"154950726","datatype":"locationiq"},{"latitude":"34.18708","longitude":"-118.88786","name":"Banana Republic","address":"USA-United States","street_number":"512","street_name":"West Hillcrest Drive","zip":"91320","city":"Thousand Oaks","area":null,"county":"Ventura County","state":"California","country":"us","formatted_address":"512, West Hillcrest Drive, Thousand Oaks, Ventura County, California, 91320, United States of America","place_id":"180506789","datatype":"locationiq"},{"latitude":"34.01806","longitude":"-118.49921","name":"Banana Republic","address":"USA-United States","street_number":null,"street_name":"Wilshire Boulevard","zip":"90025","city":"Santa Monica","area":null,"county":"Los Angeles County","state":"California","country":"us","formatted_address":"Yellow Route 59, Wilshire Boulevard, Santa Monica, Los Angeles County, California, 90025, United States of America","place_id":"58084436","datatype":"locationiq"},{"latitude":"33.86304","longitude":"-118.09278","name":"Banana Republic","address":"USA-United States","street_number":"733","street_name":"Los Cerritos Mall","zip":"90703","city":"Cerritos","area":null,"county":"Los Angeles County","state":"California","country":"us","formatted_address":"733, Los Cerritos Mall, Cerritos, Los Angeles County, California, 90703, United States of America","place_id":"178779787","datatype":"locationiq"},{"latitude":"32.71391","longitude":"-117.16121","name":"Banana Republic","address":"USA-United States","street_number":null,"street_name":"4th Avenue","zip":"92101-6144","city":"San Diego","area":null,"county":"San Diego County","state":"California","country":"us","formatted_address":"Balboa Theatre, 4th Avenue, Uptown, San Diego, San Diego County, California, 92101-6144, United States of America","place_id":"76744456","datatype":"locationiq"}]