[{"name":"Sephora","code":null,"latitude":38.9601701,"longitude":-77.0865555,"address":"5330 E Western Avenue, Chevy Chase MD","chain_name":null,"distance":0,"street_number":null,"street_name":"Western Avenue Northwest","zip":null,"city":null,"area":"Brookdale","county":"Montgomery County","state":"Maryland","country":"us","formatted_address":"Tynan Coffee & Tea, Western Avenue Northwest, Brookdale, Westbard, Friendship Heights Village, Montgomery County, Maryland, United States of America","place_id":"8495951","datatype":"locationiq"},{"name":"Ulta","code":null,"latitude":41.5256904,"longitude":-87.4678089,"address":"10333 Indianapolis Boulevard, Highland IN","chain_name":null,"distance":0,"street_number":null,"street_name":"East 53rd Avenue","zip":"46322","city":null,"area":"Whispering Oaks","county":"Lake County","state":"Indiana","country":"us","formatted_address":"East 53rd Avenue, Whispering Oaks, Highland, Lake County, Indiana, 46322, United States of America","place_id":"69326957","datatype":"locationiq"},{"name":"Sephora","code":null,"latitude":34.017422,"longitude":-118.4982672,"address":"1244 Third Street Promenade, Santa Monica CA","chain_name":null,"distance":0,"street_number":null,"street_name":"Arizona Avenue","zip":"90401","city":"Santa Monica","area":null,"county":"Los Angeles County","state":"California","country":"us","formatted_address":"Arizona Avenue, Santa Monica, Los Angeles County, California, 90401, United States of America","place_id":"67471199","datatype":"locationiq"},{"name":"Ulta","code":null,"latitude":30.3511231,"longitude":-95.4838071,"address":"2928 I-45 North, Conroe TX","chain_name":null,"distance":0,"street_number":"3098","street_name":"I 45","zip":"77303","city":"Conroe","area":null,"county":"Montgomery County","state":"Texas","country":"us","formatted_address":"3098, I 45, Conroe, Montgomery County, Texas, 77303, United States of America","place_id":"206004707","datatype":"locationiq"},{"name":"Macy's","code":null,"latitude":33.3069347,"longitude":-111.752549,"address":"2190 E. Williams Field Road, Gilbert AZ","chain_name":null,"distance":0,"street_number":null,"street_name":"East Williams Field Road","zip":"85295","city":null,"area":"The Spectrum at Val Vista","county":"Maricopa County","state":"Arizona","country":"us","formatted_address":"East Williams Field Road, The Spectrum at Val Vista, Gilbert, Maricopa County, Arizona, 85295, United States of America","place_id":"163976747","datatype":"locationiq"},{"name":"Bare Escentuals Boutiques","code":null,"latitude":30.3892503,"longitude":-91.0878111,"address":"6401 Bluebonnet Boulevard, Baton Rouge LA","chain_name":null,"distance":0,"street_number":"6401","street_name":"Bluebonnet Boulevard","zip":"70836","city":null,"area":null,"county":"East Baton Rouge Parish","state":"Louisiana","country":"us","formatted_address":"Mall of Louisiana, 6401, Bluebonnet Boulevard, Oak Hills Place, East Baton Rouge Parish, Louisiana, 70836, United States of America","place_id":"174498912","datatype":"locationiq"},{"name":"Sephora","code":null,"latitude":40.7282524,"longitude":-73.6241855,"address":"Old Country Road and Meadowbrook, Garden City NY","chain_name":null,"distance":0,"street_number":"412","street_name":"Stewart Ave","zip":"11530","city":null,"area":null,"county":"Nassau","state":"New York","country":"us","formatted_address":"412, Stewart Ave, Garden City, Nassau, New York, 11530, United States of America","place_id":"196539674","datatype":"locationiq"},{"name":"Sephora","code":null,"latitude":46.2262656,"longitude":-119.2262907,"address":"1321 N Columbia Center Boulevard, Kennewick WA","chain_name":null,"distance":0,"street_number":"1321","street_name":"Willamette Avenue","zip":"99336-1117","city":"Kennewick","area":null,"county":"Benton County","state":"Washington","country":"us","formatted_address":"Macy's, 1321, Willamette Avenue, Columbia Center, Kennewick, Benton County, Washington, 99336-1117, United States of America","place_id":"15937993","datatype":"locationiq"},{"name":"Fine salons and spas","code":null,"latitude":36.325619,"longitude":-119.650748,"address":"401 West 7th Street, Hanford CA","chain_name":null,"distance":0,"street_number":"451","street_name":"West 7th Street","zip":"93230","city":"Hanford","area":null,"county":"Kings County","state":"California","country":"us","formatted_address":"451, West 7th Street, Hanford, Kings County, California, 93230, United States of America","place_id":"178511456","datatype":"locationiq"},{"name":"Fine salons and spas","code":null,"latitude":33.667359,"longitude":-84.017816,"address":"924 Center Street, Conyers GA","chain_name":null,"distance":0,"street_number":null,"street_name":"Center Street Northeast","zip":"30012","city":null,"area":null,"county":"Rockdale County","state":"Georgia","country":"us","formatted_address":"Essentially Yours, Center Street Northeast, Conyers, Rockdale County, Georgia, 30012, United States of America","place_id":"144980941","datatype":"locationiq"},{"name":"Bare Escentuals Boutiques","code":null,"latitude":33.6935307,"longitude":-117.8871417,"address":"3333 Bristol Street, Costa Mesa CA","chain_name":null,"distance":0,"street_number":null,"street_name":"Sunflower Avenue","zip":"92707","city":"Costa Mesa","area":null,"county":"Orange County","state":"California","country":"us","formatted_address":"Maggiano's, Sunflower Avenue, Costa Mesa, Orange County, California, 92707, United States of America","place_id":"3584133","datatype":"locationiq"},{"name":"Macy's","code":null,"latitude":39.678198,"longitude":-75.654383,"address":"501 Christiana Mall, Newark DE","chain_name":null,"distance":0,"street_number":null,"street_name":"Mall Road","zip":"19702","city":null,"area":null,"county":"New Castle County","state":"Delaware","country":"us","formatted_address":"Mall Road, Edgebrooke, New Castle County, Delaware, 19702, United States of America","place_id":"127025612","datatype":"locationiq"},{"name":"Bare Escentuals","code":null,"latitude":49.227396,"longitude":-122.99571,"address":"4827 Kingsway, Burnaby BC","chain_name":null,"distance":0,"street_number":null,"street_name":"Kingsway","zip":"V5H 2B3","city":"Burnaby","area":null,"county":"Greater Vancouver Regional District","state":"British Columbia","country":"ca","formatted_address":"Moores, Kingsway, Metrotown, Burnaby, Greater Vancouver Regional District, British Columbia, V5H 2B3, Canada","place_id":"59094116","datatype":"locationiq"},{"name":"Macy's","code":null,"latitude":29.737432,"longitude":-95.463447,"address":"5135 W Alabama, Houston TX","chain_name":null,"distance":0,"street_number":null,"street_name":"Westheimer Road","zip":"77056","city":null,"area":"Highland Village","county":"Harris County","state":"Texas","country":"us","formatted_address":"Westheimer Road, Highland Village, Lamar Terrace, Harris County, Texas, 77056, United States of America","place_id":"161589066","datatype":"locationiq"},{"name":"Sephora","code":null,"latitude":43.5939799,"longitude":-116.5131714,"address":"1200 North Happy Valley Road, Nampa ID","chain_name":null,"distance":0,"street_number":"1098","street_name":"North Happy Valley Road","zip":"83687","city":"Nampa","area":null,"county":"Canyon County","state":"Idaho","country":"us","formatted_address":"1098, North Happy Valley Road, Nampa, Canyon County, Idaho, 83687, United States of America","place_id":"184480699","datatype":"locationiq"},{"name":"Fine salons and spas","code":null,"latitude":34.1546514,"longitude":-118.6428323,"address":"4732 Commons Way #E, Calabasas CA","chain_name":null,"distance":0,"street_number":null,"street_name":"Commons Way","zip":"91302-1405","city":null,"area":null,"county":"Los Angeles County","state":"California","country":"us","formatted_address":"Ralphs, Commons Way, Calabasas, Los Angeles County, California, 91302-1405, United States of America","place_id":"14531758","datatype":"locationiq"},{"name":"Sephora","code":null,"latitude":41.8917667,"longitude":-87.624208,"address":"520 North Michigan Avenue, Chicago IL","chain_name":null,"distance":0,"street_number":"540","street_name":"North Michigan Avenue","zip":"60611","city":"Chicago","area":"Magnificent Mile","county":"Cook County","state":"Illinois","country":"us","formatted_address":"Chicago Marriott Downtown Magnificent Mile, 540, North Michigan Avenue, Magnificent Mile, Chicago, Cook County, Illinois, 60611, United States of America","place_id":"118634402","datatype":"locationiq"},{"name":"Sephora","code":null,"latitude":42.2185246,"longitude":-71.0255463,"address":"250 Granite St., Braintree MA","chain_name":null,"distance":0,"street_number":null,"street_name":"South Shore Plaza Road","zip":"02184","city":null,"area":null,"county":"Norfolk County","state":"Massachusetts","country":"us","formatted_address":"South Shore Plaza Road, South Shore Plaza, Braintree, Norfolk County, Massachusetts, 02184, United States of America","place_id":"80972401","datatype":"locationiq"},{"name":"Ulta","code":null,"latitude":34.0089023,"longitude":-84.5696194,"address":"680 Barrett Parkway, Kennesaw GA","chain_name":null,"distance":0,"street_number":"840","street_name":"Cobb Place Boulevard Northwest","zip":"30144","city":null,"area":null,"county":"Cobb County","state":"Georgia","country":"us","formatted_address":"TGI Fridays, 840, Cobb Place Boulevard Northwest, Elizabeth, Cobb County, Georgia, 30144, United States of America","place_id":"126553336","datatype":"locationiq"},{"name":"Sephora","code":null,"latitude":45.6587249,"longitude":-122.58026,"address":"8900 NE Vancouver Mall Drive, Vancouver WA","chain_name":null,"distance":0,"street_number":null,"street_name":"Northeast Vancouver Mall Drive","zip":"98662-6413","city":"Vancouver","area":null,"county":"Clark County","state":"Washington","country":"us","formatted_address":"Northeast Vancouver Mall Drive, Burton Homes, Vancouver, Clark County, Washington, 98662-6413, United States of America","place_id":"62718216","datatype":"locationiq"},{"name":"Bare Escentuals Boutiques","code":null,"latitude":41.6170649,"longitude":-87.850741,"address":"288 Orland Square, Orland Park IL","chain_name":null,"distance":0,"street_number":null,"street_name":"Orland Square Drive","zip":"60462","city":null,"area":null,"county":"Cook County","state":"Illinois","country":"us","formatted_address":"Robert Morris College, Orland Square Drive, Orland Park, Cook County, Illinois, 60462, United States of America","place_id":"2795785","datatype":"locationiq"},{"name":"Bare Escentuals Boutiques","code":null,"latitude":42.7018586,"longitude":-71.4405267,"address":"310 Daniel Webster Highway, Nashua NH","chain_name":null,"distance":0,"street_number":"314","street_name":"Daniel Webster Highway","zip":"03060","city":"Nashua","area":null,"county":"Hillsborough County","state":"New Hampshire","country":"us","formatted_address":"Zimmermann's Ski & Board, 314, Daniel Webster Highway, South Nashua, Ward 7, Nashua, Hillsborough County, New Hampshire, 03060, United States of America","place_id":"164730131","datatype":"locationiq"},{"name":"Sephora","code":null,"latitude":35.612151,"longitude":-97.561189,"address":"2501 W Memorial Road, Oklahoma City OK","chain_name":null,"distance":0,"street_number":null,"street_name":"Northwest 138th Street","zip":"73134","city":"Oklahoma City","area":null,"county":"Oklahoma County","state":"Oklahoma","country":"us","formatted_address":"Northwest 138th Street, Quail Springs Mall, Oklahoma City, Oklahoma County, Oklahoma, 73134, United States of America","place_id":"160889636","datatype":"locationiq"},{"name":"Ulta","code":null,"latitude":46.804569,"longitude":-92.159865,"address":"1600 Miller Trunk Highway, Duluth MN","chain_name":null,"distance":0,"street_number":null,"street_name":"Mall Drive","zip":"55811","city":"Duluth","area":null,"county":"Saint Louis County","state":"Minnesota","country":"us","formatted_address":"Mall Drive, Duluth, Saint Louis County, Minnesota, 55811, United States of America","place_id":"70290636","datatype":"locationiq"},{"name":"Bare Escentuals","code":null,"latitude":49.8812934,"longitude":-97.199564,"address":"1485 Portage Ave, Unit L178, Winnipeg MB","chain_name":null,"distance":0,"street_number":null,"street_name":"Portage Avenue;Trans-Canada Highway","zip":"R3G 3H1","city":"Winnipeg","area":"West Wolseley","county":null,"state":"Manitoba","country":"ca","formatted_address":"Northbound Polo Park at Polo Park (Rtes 24 95), Portage Avenue;Trans-Canada Highway, West Wolseley, Daniel McIntyre, Winnipeg, Manitoba, R3G 3H1, Canada","place_id":"15208673","datatype":"locationiq"},{"name":"Bare Escentuals","code":null,"latitude":45.6376509,"longitude":-72.9692347,"address":"1350 Rue Gauvin, St. Hyacinthe QC","chain_name":null,"distance":0,"street_number":"2315","street_name":"Rue Gauvin","zip":"J2S 1A5","city":null,"area":null,"county":null,"state":"Quebec","country":"ca","formatted_address":"2315, Rue Gauvin, Saint-Thomas-d'Aquin, Quebec, J2S 1A5, Canada","place_id":"13488971","datatype":"locationiq"},{"name":"Bare Escentuals Boutiques","code":null,"latitude":41.098645,"longitude":-73.959703,"address":"1000 Palisades Center Drive, West Nyack NY","chain_name":null,"distance":0,"street_number":null,"street_name":"Palisades Center Drive","zip":"10994","city":null,"area":null,"county":"Rockland County","state":"New York","country":"us","formatted_address":"Palisades Center Drive, West Nyack, Town of Clarkstown, Rockland County, New York, 10994, United States of America","place_id":"64877451","datatype":"locationiq"},{"name":"Nordstrom","code":null,"latitude":39.0220964,"longitude":-77.1466418,"address":"7111 Democracy Boulevard, Bethesda MD","chain_name":null,"distance":0,"street_number":null,"street_name":"Swansong Way","zip":"20817","city":null,"area":"Knollwood","county":"Montgomery County","state":"Maryland","country":"us","formatted_address":"Bethesda Fire Station Company 26, Swansong Way, Knollwood, Potomac, Montgomery County, Maryland, 20817, United States of America","place_id":"3659580","datatype":"locationiq"},{"name":"Macy's","code":null,"latitude":36.806253,"longitude":-119.780146,"address":"4888 North Fresno Street, Fresno CA","chain_name":null,"distance":0,"street_number":null,"street_name":"North Fresno Street","zip":"93726","city":"Fresno","area":null,"county":"Fresno County","state":"California","country":"us","formatted_address":"North Fresno Street, Fresno, Fresno County, California, 93726, United States of America","place_id":"65214670","datatype":"locationiq"},{"name":"Bare Escentuals Boutiques","code":null,"latitude":38.9877219,"longitude":-76.5446473,"address":"1845 Annapolis Mall, Annapolis MD","chain_name":null,"distance":0,"street_number":null,"street_name":"Jennifer Road","zip":"21401","city":null,"area":"Threemile Oak Corner","county":"Anne Arundel County","state":"Maryland","country":"us","formatted_address":"Red Garage, Jennifer Road, Threemile Oak Corner, Parole, Anne Arundel County, Maryland, 21401, United States of America","place_id":"143694699","datatype":"locationiq"},{"name":"Sephora","code":null,"latitude":39.678305,"longitude":-75.651871,"address":"118 Christiana Mall, Newark DE","chain_name":null,"distance":0,"street_number":"132","street_name":"Mall Road","zip":"19702","city":null,"area":null,"county":"New Castle County","state":"Delaware","country":"us","formatted_address":"Christiana Mall, 132, Mall Road, Cavaliers Country Club Apartments, New Castle County, Delaware, 19702, United States of America","place_id":"101922710","datatype":"locationiq"},{"name":"Sephora","code":null,"latitude":32.4369582,"longitude":-93.7146889,"address":"7451 Youree Drive, Shreveport LA","chain_name":null,"distance":0,"street_number":"7471","street_name":"Youree Drive","zip":"71105","city":"Shreveport","area":null,"county":"Caddo Parish","state":"Louisiana","country":"us","formatted_address":"7471, Youree Drive, Shreveport, Caddo Parish, Louisiana, 71105, United States of America","place_id":"188897983","datatype":"locationiq"},{"name":"Bare Escentuals","code":null,"latitude":43.6536383,"longitude":-79.3801122,"address":"220 Younge Street, Toronto ON","chain_name":null,"distance":0,"street_number":null,"street_name":null,"zip":"M5B2H1","city":"Toronto","area":"Financial District","county":null,"state":"Ontario","country":"ca","formatted_address":"Eaton Centre parking, PATH, Financial District, Old Toronto, Toronto, Ontario, M5B2H1, Canada","place_id":"77159024","datatype":"locationiq"},{"name":"Sephora","code":null,"latitude":37.696665,"longitude":-121.930401,"address":"1500 Stoneridge Mall Road, Pleasanton CA","chain_name":null,"distance":0,"street_number":null,"street_name":"Stoneridge Mall Road","zip":"94568","city":null,"area":null,"county":"Alameda County","state":"California","country":"us","formatted_address":"JCPenney, Stoneridge Mall Road, Pleasanton, Alameda County, California, 94568, United States of America","place_id":"91043476","datatype":"locationiq"},{"name":"Macy's","code":null,"latitude":41.848138,"longitude":-87.954491,"address":"1 Oak Brook Center, Oak Brook IL","chain_name":null,"distance":0,"street_number":null,"street_name":"Oakbrook Center Drive","zip":"60523","city":null,"area":"Mammoth Springs","county":"DuPage County","state":"Illinois","country":"us","formatted_address":"Oakbrook Center, Oakbrook Center Drive, Mammoth Springs, Oak Brook, DuPage County, Illinois, 60523, United States of America","place_id":"45731745","datatype":"locationiq"},{"name":"Fine salons and spas","code":null,"latitude":44.0688957,"longitude":-123.1099249,"address":"460 Valley River Center, Eugene OR","chain_name":null,"distance":0,"street_number":"499","street_name":"Valley River Center Parking Lot","zip":"97401","city":"Eugene","area":null,"county":"Lane County","state":"Oregon","country":"us","formatted_address":"Eugene Crossfit, 499, Valley River Center Parking Lot, Bethel, Eugene, Lane County, Oregon, 97401, United States of America","place_id":"120968196","datatype":"locationiq"},{"name":"Bare Escentuals Boutiques","code":null,"latitude":43.605914,"longitude":-116.278263,"address":"350 North Milwaukee Street, Boise ID","chain_name":null,"distance":0,"street_number":null,"street_name":"Boise Connector","zip":"83704","city":"Boise City","area":null,"county":"Ada County","state":"Idaho","country":"us","formatted_address":"Boise Connector, Boise City, Ada County, Idaho, 83704, United States of America","place_id":"89541520","datatype":"locationiq"},{"name":"Sephora","code":null,"latitude":29.7791291,"longitude":-95.5443546,"address":"900 Gessner, Houston TX","chain_name":null,"distance":0,"street_number":null,"street_name":"Barryknoll Lane","zip":"77024","city":"Hedwig Village","area":null,"county":"Harris County","state":"Texas","country":"us","formatted_address":"Sears Auto Center, Barryknoll Lane, Hedwig Village, Harris County, Texas, 77024, United States of America","place_id":"102993619","datatype":"locationiq"},{"name":"Fine salons and spas","code":null,"latitude":32.499989,"longitude":-92.132063,"address":"403 N 6th, West Monroe LA","chain_name":null,"distance":0,"street_number":"425","street_name":"North 6th Street","zip":"71291","city":"West Monroe","area":null,"county":"Ouachita Parish","state":"Louisiana","country":"us","formatted_address":"425, North 6th Street, West Monroe, Ouachita Parish, Louisiana, 71291, United States of America","place_id":"189183016","datatype":"locationiq"},{"name":"Bare Escentuals Boutiques","code":null,"latitude":25.95796,"longitude":-80.14192,"address":"19575 Biscayne Boulevard, Aventura FL","chain_name":null,"distance":0,"street_number":"19525","street_name":"Biscayne Boulevard","zip":"33180","city":null,"area":null,"county":"Miami-Dade County","state":"Florida","country":"us","formatted_address":"Macy's, 19525, Biscayne Boulevard, Aventura, Miami-Dade County, Florida, 33180, United States of America","place_id":"20392628","datatype":"locationiq"},{"name":"Fine salons and spas","code":null,"latitude":40.7794656,"longitude":-89.6735502,"address":"5201 West War Memorial Drive, Peoria IL","chain_name":null,"distance":0,"street_number":null,"street_name":"IL 91","zip":"61615","city":"Peoria","area":null,"county":"Peoria County","state":"Illinois","country":"us","formatted_address":"IL 91, Peoria, Peoria County, Illinois, 61615, United States of America","place_id":"72548471","datatype":"locationiq"},{"name":"Sephora","code":null,"latitude":33.8895543,"longitude":-84.748464,"address":"5043 Jimmy Lee Smith Parkway, Hiram GA","chain_name":null,"distance":0,"street_number":"5045","street_name":"Jimmy Lee Smith Parkway","zip":"30141","city":"Hiram","area":"Indian Lake","county":"Paulding County","state":"Georgia","country":"us","formatted_address":"5045, Jimmy Lee Smith Parkway, Indian Lake, Hiram, Paulding County, Georgia, 30141, United States of America","place_id":"760337","datatype":"locationiq"},{"name":"Ulta","code":null,"latitude":39.3906689,"longitude":-84.5041722,"address":"3347 Princeton Road, Hamilton OH","chain_name":null,"distance":0,"street_number":"3337","street_name":"Hamilton Princeton Road","zip":"45011","city":null,"area":null,"county":"Butler County","state":"Ohio","country":"us","formatted_address":"3337, Hamilton Princeton Road, Bridgewater Falls, Belmont, Fairfield Township, Butler County, Ohio, 45011, United States of America","place_id":"198869423","datatype":"locationiq"},{"name":"Bare Escentuals Boutiques","code":null,"latitude":34.0509373,"longitude":-84.2945598,"address":"1192 North Point Circle, Alpharetta GA","chain_name":null,"distance":0,"street_number":null,"street_name":"Georgia 400","zip":"30009","city":"Alpharetta","area":"Alpha Park","county":"Fulton County","state":"Georgia","country":"us","formatted_address":"Georgia 400, Alpha Park, Alpharetta, Fulton County, Georgia, 30009, United States of America","place_id":"174074935","datatype":"locationiq"},{"name":"Fine salons and spas","code":null,"latitude":33.8829476,"longitude":-98.5276453,"address":"2913 Bob, Wichita Falls TX","chain_name":null,"distance":0,"street_number":"2901","street_name":"Kemp Boulevard","zip":"76308","city":"Wichita Falls","area":null,"county":"Wichita County","state":"Texas","country":"us","formatted_address":"2901, Kemp Boulevard, Wichita Falls, Wichita County, Texas, 76308, United States of America","place_id":"206609913","datatype":"locationiq"},{"name":"Bare Escentuals","code":null,"latitude":49.855444,"longitude":-97.066741,"address":"100 - 235 Vermillion Road, Winnipeg MB","chain_name":null,"distance":0,"street_number":"235","street_name":"Vermillion Road","zip":"R2J 3Z7","city":"Winnipeg","area":"Southdale","county":null,"state":"Manitoba","country":"ca","formatted_address":"Shoppers Drug Mart, 235, Vermillion Road, Southdale, Saint Boniface, Winnipeg, Manitoba, R2J 3Z7, Canada","place_id":"126797475","datatype":"locationiq"},{"name":"Ulta","code":null,"latitude":34.3155455,"longitude":-88.7022523,"address":"1001 Barnes Crossing Rd, Tupelo MS","chain_name":null,"distance":0,"street_number":"801","street_name":"Barnes Crossing Road","zip":"38804","city":"Tupelo","area":null,"county":"Lee County","state":"Mississippi","country":"us","formatted_address":"801, Barnes Crossing Road, Tupelo, Lee County, Mississippi, 38804, United States of America","place_id":"192964419","datatype":"locationiq"},{"name":"Sephora","code":null,"latitude":42.5066058,"longitude":-83.752482,"address":"9480 Village Place Boulevard, Brighton MI","chain_name":null,"distance":0,"street_number":"9480","street_name":"Green Oak Avenue","zip":"48116","city":null,"area":null,"county":"Livingston County","state":"Michigan","country":"us","formatted_address":"9480, Green Oak Avenue, Green Oak Township, Livingston County, Michigan, 48116, United States of America","place_id":"191128308","datatype":"locationiq"},{"name":"Fine salons and spas","code":null,"latitude":37.6773469,"longitude":-113.0622335,"address":"25 West Center Street, Cedar City UT","chain_name":null,"distance":0,"street_number":null,"street_name":"West Center Street","zip":"84720","city":null,"area":null,"county":"Iron County","state":"Utah","country":"us","formatted_address":"Mayor Square, West Center Street, Cedar City, Iron County, Utah, 84720, United States of America","place_id":"168544079","datatype":"locationiq"},{"name":"Sephora","code":null,"latitude":41.6305694,"longitude":-87.8255007,"address":"730 Square Drive, Orland Park IL","chain_name":null,"distance":0,"street_number":"14078","street_name":"Country Club Lane","zip":"60462","city":null,"area":null,"county":"Cook County","state":"Illinois","country":"us","formatted_address":"14078, Country Club Lane, Orland Park, Cook County, Illinois, 60462, United States of America","place_id":"184875162","datatype":"locationiq"},{"name":"Nordstrom","code":null,"latitude":47.2149084,"longitude":-122.4675393,"address":"4502 South Steele Street, Tacoma WA","chain_name":null,"distance":0,"street_number":"2367","street_name":"South 48th Street","zip":"98408","city":"Tacoma","area":null,"county":"Pierce County","state":"Washington","country":"us","formatted_address":"2367, South 48th Street, Tacoma, Pierce County, Washington, 98408, United States of America","place_id":"208664159","datatype":"locationiq"},{"name":"Ulta","code":null,"latitude":31.26446,"longitude":-85.442975,"address":"4401 Montgomery Highway, Suite 500, Dothan AL","chain_name":null,"distance":0,"street_number":"2626","street_name":"Murphy Mill Road","zip":"36303","city":"Dothan","area":null,"county":"Houston County","state":"Alabama","country":"us","formatted_address":"2626, Murphy Mill Road, Dothan, Houston County, Alabama, 36303, United States of America","place_id":"176300837","datatype":"locationiq"},{"name":"Fine salons and spas","code":null,"latitude":34.9130944,"longitude":-88.5045715,"address":"2301 Virginia Lane, Corinth MS","chain_name":null,"distance":0,"street_number":null,"street_name":"South Parkway Street","zip":"38834","city":null,"area":null,"county":"Alcorn County","state":"Mississippi","country":"us","formatted_address":"South Parkway Street, Corinth, Alcorn County, Mississippi, 38834, United States of America","place_id":"67428386","datatype":"locationiq"},{"name":"Sephora","code":null,"latitude":39.2628854,"longitude":-94.6578846,"address":"9100 NW Skyview Avenue, Kansas City MO","chain_name":null,"distance":0,"street_number":null,"street_name":"North Ambassador Drive","zip":"64154","city":"Kansas City","area":null,"county":"Platte County","state":"Missouri","country":"us","formatted_address":"North Ambassador Drive, Kansas City, Platte County, Missouri, 64154, United States of America","place_id":"71008297","datatype":"locationiq"},{"name":"Fine salons and spas","code":null,"latitude":36.0599738,"longitude":-90.5252644,"address":"2711 W. Kings Highway, Paragould AR","chain_name":null,"distance":0,"street_number":"2957","street_name":"West Kings Highway","zip":"72450","city":null,"area":null,"county":"Greene County","state":"Arkansas","country":"us","formatted_address":"2957, West Kings Highway, Paragould, Greene County, Arkansas, 72450, United States of America","place_id":"177737222","datatype":"locationiq"},{"name":"Fine salons and spas","code":null,"latitude":34.9845243,"longitude":-92.0492855,"address":"2450 West Main Street, Cabot AR","chain_name":null,"distance":0,"street_number":"3032","street_name":"West Main Street","zip":"72023","city":"Cabot","area":null,"county":"Lonoke County","state":"Arkansas","country":"us","formatted_address":"3032, West Main Street, Cabot, Lonoke County, Arkansas, 72023, United States of America","place_id":"177826386","datatype":"locationiq"},{"name":"Fine salons and spas","code":null,"latitude":45.5265647,"longitude":-122.698503,"address":"513 NW 23rd, Portland OR","chain_name":null,"distance":0,"street_number":"530","street_name":"Northwest 23rd Avenue","zip":"97210","city":"Portland","area":null,"county":"Multnomah County","state":"Oregon","country":"us","formatted_address":"Campbell Court Apartments, 530, Northwest 23rd Avenue, Kings Heights, Portland, Multnomah County, Oregon, 97210, United States of America","place_id":"150037258","datatype":"locationiq"},{"name":"Sephora","code":null,"latitude":32.740599,"longitude":-97.438772,"address":"1900 Green Oaks Road, Fort Worth TX","chain_name":null,"distance":0,"street_number":null,"street_name":"Ridgmar Mall","zip":"76116","city":"Fort Worth","area":null,"county":"Tarrant County","state":"Texas","country":"us","formatted_address":"Ridgmar Mall, Fort Worth, Tarrant County, Texas, 76116, United States of America","place_id":"65045173","datatype":"locationiq"},{"name":"Fine salons and spas","code":null,"latitude":43.5275205,"longitude":-96.8156331,"address":"1900 South Sertoma Avenue, Sioux Falls SD","chain_name":null,"distance":0,"street_number":"1907","street_name":"South Sertoma Avenue","zip":"57106","city":"Sioux Falls","area":null,"county":"Minnehaha County","state":"South Dakota","country":"us","formatted_address":"1907, South Sertoma Avenue, Sioux Falls, Minnehaha County, South Dakota, 57106, United States of America","place_id":"203406153","datatype":"locationiq"},{"name":"Sephora","code":null,"latitude":42.689567,"longitude":-73.8495409,"address":"120 Washington Avenue, Albany NY","chain_name":null,"distance":0,"street_number":null,"street_name":"Crossgates Mall Road","zip":"12203","city":null,"area":null,"county":"Albany County","state":"New York","country":"us","formatted_address":"Uno Chicago Grill, Crossgates Mall Road, Crossgates Mall, Westmere, Town of Guilderland, Albany County, New York, 12203, United States of America","place_id":"7708301","datatype":"locationiq"},{"name":"Ulta","code":null,"latitude":32.9549661,"longitude":-96.8159142,"address":"5301 Beltline Road, Dallas TX","chain_name":null,"distance":0,"street_number":null,"street_name":"Knollhaven Drive","zip":"75254","city":"Dallas","area":null,"county":"Dallas County","state":"Texas","country":"us","formatted_address":"Barnes & Noble, Knollhaven Drive, Prestonwood Town Center, Dallas, Dallas County, Texas, 75254, United States of America","place_id":"166336243","datatype":"locationiq"},{"name":"Ulta","code":null,"latitude":33.8245125,"longitude":-117.5176558,"address":"2541 Tuscany Street, Corona CA","chain_name":null,"distance":0,"street_number":null,"street_name":"Tuscany Road","zip":"92881","city":"Corona","area":null,"county":"Riverside County","state":"California","country":"us","formatted_address":"BJ's Brewhouse & Restaurant, Tuscany Road, The Crossings At Corona, Dos Lagos, Corona, Riverside County, California, 92881, United States of America","place_id":"6047154","datatype":"locationiq"},{"name":"Fine salons and spas","code":null,"latitude":45.660037,"longitude":-111.041093,"address":"290 West Kagy Suite B, Bozeman MT","chain_name":null,"distance":0,"street_number":"290","street_name":"West Kagy Boulevard","zip":"59717","city":"Bozeman","area":"South Meadow","county":"Gallatin County","state":"Montana","country":"us","formatted_address":"290, West Kagy Boulevard, South Meadow, Bozeman, Gallatin County, Montana, 59717, United States of America","place_id":"163003954","datatype":"locationiq"},{"name":"Sephora","code":null,"latitude":40.6572331,"longitude":-75.4985521,"address":"835 Lehigh Lifestyle Center, Space 1240, Whitehall PA","chain_name":null,"distance":0,"street_number":"3095","street_name":"North Birch Street","zip":"18052","city":"Whitehall","area":null,"county":"Lehigh County","state":"Pennsylvania","country":"us","formatted_address":"3095, North Birch Street, Whitehall, Lehigh County, Pennsylvania, 18052, United States of America","place_id":"201958317","datatype":"locationiq"},{"name":"Fine salons and spas","code":null,"latitude":41.599837,"longitude":-72.677993,"address":"9 Berlin Road, Cromwell CT","chain_name":null,"distance":0,"street_number":"3","street_name":"Berlin Road","zip":"06416","city":null,"area":null,"county":"Middlesex County","state":"Connecticut","country":"us","formatted_address":"3, Berlin Road, Cromwell Hills, Middlesex County, Connecticut, 06416, United States of America","place_id":"181355232","datatype":"locationiq"},{"name":"Fine salons and spas","code":null,"latitude":35.8953155,"longitude":-84.1744413,"address":"620 North Campbell Station Road, Suite 23, Farragut TN","chain_name":null,"distance":0,"street_number":null,"street_name":"North Campbell Station Road","zip":"37934","city":null,"area":null,"county":"Knox County","state":"Tennessee","country":"us","formatted_address":"Pilot, North Campbell Station Road, Farragut, Knox County, Tennessee, 37934, United States of America","place_id":"151845644","datatype":"locationiq"},{"name":"Sephora","code":null,"latitude":32.8271513,"longitude":-97.19797,"address":"1001 Melbourne Road, Hurst TX","chain_name":null,"distance":0,"street_number":"1001","street_name":"Melbourne Road","zip":"76053","city":"Hurst","area":null,"county":"Tarrant County","state":"Texas","country":"us","formatted_address":"1001, Melbourne Road, Hurst, Tarrant County, Texas, 76053, United States of America","place_id":"206357083","datatype":"locationiq"},{"name":"Ulta","code":null,"latitude":29.5383051,"longitude":-95.1488951,"address":"1507B West Bay Area Blvd., Webster TX","chain_name":null,"distance":0,"street_number":null,"street_name":"West Bay Area Boulevard","zip":"77598","city":null,"area":null,"county":"Harris County","state":"Texas","country":"us","formatted_address":"West Bay Area Boulevard, Clear Lake City, Harris County, Texas, 77598, United States of America","place_id":"82717168","datatype":"locationiq"},{"name":"Sephora","code":null,"latitude":40.7488897,"longitude":-73.9887115,"address":"901 6th Avenue, New York NY","chain_name":null,"distance":0,"street_number":"100","street_name":null,"zip":"10001","city":"New York City","area":null,"county":"New York County","state":"New York","country":"us","formatted_address":"Manhattan Mall, 100, West 33rd Street, Korea Town, Manhattan, New York County, New York City, New York, 10001, United States of America","place_id":"131174664","datatype":"locationiq"},{"name":"Sephora","code":null,"latitude":41.454528,"longitude":-74.370071,"address":"1 N Galleria Dr, Middletown NY","chain_name":null,"distance":0,"street_number":null,"street_name":"Galleria Drive","zip":"10941","city":null,"area":null,"county":"Orange County","state":"New York","country":"us","formatted_address":"Galleria Drive, Midway Park, Town of Wallkill, Orange County, New York, 10941, United States of America","place_id":"71745573","datatype":"locationiq"},{"name":"Ulta","code":null,"latitude":32.285215,"longitude":-110.9780618,"address":"4368 North Oracle Road, Tuscon AZ","chain_name":null,"distance":0,"street_number":null,"street_name":"North Oracle Road","zip":"85704","city":"Tucson","area":"Amphitheater","county":"Pima County","state":"Arizona","country":"us","formatted_address":"Nordstrom Rack, North Oracle Road, Amphitheater, Stockham, Tucson, Pima County, Arizona, 85704, United States of America","place_id":"126045123","datatype":"locationiq"},{"name":"Ulta","code":null,"latitude":30.2537693,"longitude":-81.5324069,"address":"4860 Big Island Drive, Jacksonville FL","chain_name":null,"distance":0,"street_number":null,"street_name":"Town Center Parkway","zip":"32246","city":"Jacksonville","area":null,"county":"Duval County","state":"Florida","country":"us","formatted_address":"Bento Cafe, Town Center Parkway, Jacksonville, Duval County, Florida, 32246, United States of America","place_id":"47671884","datatype":"locationiq"},{"name":"Nordstrom","code":null,"latitude":40.2731876,"longitude":-111.6787536,"address":"693 East University Parkway, Orem UT","chain_name":null,"distance":0,"street_number":null,"street_name":"East University Parkway","zip":"84097","city":"Orem","area":null,"county":"Utah County","state":"Utah","country":"us","formatted_address":"Chipotle, East University Parkway, Orem, Utah County, Utah, 84097, United States of America","place_id":"12523015","datatype":"locationiq"},{"name":"Macy's","code":null,"latitude":36.5834256,"longitude":-121.8974168,"address":"260 Del Monte Center, Monterey CA","chain_name":null,"distance":0,"street_number":null,"street_name":"Cabrillo Highway","zip":"93940","city":"Monterey","area":null,"county":"Monterey County","state":"California","country":"us","formatted_address":"RadioShack, Cabrillo Highway, Monterey, Monterey County, California, 93940, United States of America","place_id":"27764161","datatype":"locationiq"},{"name":"Fine salons and spas","code":null,"latitude":47.780733,"longitude":-96.610142,"address":"620 West 6th Street, Crookston MN","chain_name":null,"distance":0,"street_number":"655","street_name":"West 6th Street","zip":"56716","city":null,"area":null,"county":"Polk County","state":"Minnesota","country":"us","formatted_address":"655, West 6th Street, Crookston, Polk County, Minnesota, 56716, United States of America","place_id":"192410254","datatype":"locationiq"},{"name":"Ulta","code":null,"latitude":40.863221,"longitude":-73.1277912,"address":"2005 Smith Haven Plaza, Lake Grove NY","chain_name":null,"distance":0,"street_number":"44","street_name":"Smith Haven Mall","zip":"11755","city":null,"area":null,"county":"Suffolk County","state":"New York","country":"us","formatted_address":"44, Smith Haven Mall, Lake Grove, Suffolk County, New York, 11755, United States of America","place_id":"196960738","datatype":"locationiq"},{"name":"Sephora","code":null,"latitude":38.8610839,"longitude":-77.3561654,"address":"11801 Fair Oaks Mall, Fairfax VA","chain_name":null,"distance":0,"street_number":"11760","street_name":"Fair Oaks Mall","zip":"22033","city":null,"area":null,"county":"Fairfax County","state":"Virginia","country":"us","formatted_address":"11760, Fair Oaks Mall, Fair Oaks, Fairfax County, Virginia, 22033, United States of America","place_id":"207346677","datatype":"locationiq"},{"name":"Sephora","code":null,"latitude":47.829638,"longitude":-122.276363,"address":"18601 33rd Avenue W, Lynnwood WA","chain_name":null,"distance":0,"street_number":"18601","street_name":"33rd Avenue West","zip":"98037","city":"Lynnwood","area":null,"county":"Snohomish County","state":"Washington","country":"us","formatted_address":"JCPenney, 18601, 33rd Avenue West, Lynnwood, Snohomish County, Washington, 98037, United States of America","place_id":"107918424","datatype":"locationiq"},{"name":"Bare Escentuals Boutiques","code":null,"latitude":38.601935,"longitude":-121.427554,"address":"1689 Arden Way, Sacramento CA","chain_name":null,"distance":0,"street_number":null,"street_name":"Bowling Green Drive","zip":"95815","city":"Sacramento","area":"Ben Ali","county":"Sacramento County","state":"California","country":"us","formatted_address":"Arden Fair Mall, Bowling Green Drive, Ben Ali, Sacramento, Sacramento County, California, 95815, United States of America","place_id":"77052211","datatype":"locationiq"},{"name":"Fine salons and spas","code":null,"latitude":37.8403292,"longitude":-90.491791,"address":"103 Elizabeth Court, Leadington MO","chain_name":null,"distance":0,"street_number":null,"street_name":"East Main Street","zip":"63601","city":"Leadington","area":null,"county":"St. Francois County","state":"Missouri","country":"us","formatted_address":"East Main Street, Leadington, St. Francois County, Missouri, 63601, United States of America","place_id":"128571003","datatype":"locationiq"},{"name":"Sephora","code":null,"latitude":40.8140028,"longitude":-96.6418601,"address":"68 Gateway Mall, Lincoln NE","chain_name":null,"distance":0,"street_number":"130","street_name":"North Cotner Boulevard","zip":"68505","city":"Lincoln","area":null,"county":"Lancaster County","state":"Nebraska","country":"us","formatted_address":"130, North Cotner Boulevard, Lincoln, Lancaster County, Nebraska, 68505, United States of America","place_id":"194677984","datatype":"locationiq"},{"name":"Sephora","code":null,"latitude":39.03727,"longitude":-77.053986,"address":"11160 Veirs Mill Road, Wheaton MD","chain_name":null,"distance":0,"street_number":null,"street_name":"Veirs Mill Road","zip":"20902","city":null,"area":"College View","county":"Montgomery County","state":"Maryland","country":"us","formatted_address":"Veirs Mill Road, College View, North Kensington, Montgomery County, Maryland, 20902, United States of America","place_id":"98782936","datatype":"locationiq"},{"name":"Sephora","code":null,"latitude":33.540743,"longitude":-101.9257049,"address":"6002 Slide Road Building A, Lubbock TX","chain_name":null,"distance":0,"street_number":null,"street_name":"57th Street","zip":"79414","city":"Lubbock","area":null,"county":"Lubbock County","state":"Texas","country":"us","formatted_address":"Dillard's Women, 57th Street, Lubbock, Lubbock County, Texas, 79414, United States of America","place_id":"166349390","datatype":"locationiq"},{"name":"Sephora","code":null,"latitude":48.4458,"longitude":-123.371229,"address":"3147 Douglas Street, Victoria BC","chain_name":null,"distance":0,"street_number":"3110","street_name":"Douglas Street","zip":"V8T 4N3","city":"Victoria","area":null,"county":"Capital Regional District","state":"British Columbia","country":"ca","formatted_address":"Hotel Zed, 3110, Douglas Street, Burnside, Victoria, Capital Regional District, British Columbia, V8T 4N3, Canada","place_id":"174446737","datatype":"locationiq"},{"name":"Fine salons and spas","code":null,"latitude":34.1096748,"longitude":-117.1870846,"address":"7920 Webster Street, Unit A, Highland CA","chain_name":null,"distance":0,"street_number":"7924","street_name":"Webster Street","zip":"92346","city":"Highland","area":null,"county":"San Bernardino County","state":"California","country":"us","formatted_address":"7924, Webster Street, Highland, San Bernardino County, California, 92346, United States of America","place_id":"179707963","datatype":"locationiq"},{"name":"Fine salons and spas","code":null,"latitude":36.3385552,"longitude":-92.3854888,"address":"156 South Main Street, Mountain Home AR","chain_name":null,"distance":0,"street_number":null,"street_name":"South Main Street","zip":"72653","city":null,"area":null,"county":"Baxter County","state":"Arkansas","country":"us","formatted_address":"Dairy Queen, South Main Street, Mountain Home, Baxter County, Arkansas, 72653, United States of America","place_id":"15243320","datatype":"locationiq"},{"name":"Fine salons and spas","code":null,"latitude":40.1171475,"longitude":-76.0514977,"address":"196 Broad Street, inside Flower Warehouse, Blue Ball PA","chain_name":null,"distance":0,"street_number":null,"street_name":"East Main Street","zip":"17519","city":"New Holland","area":null,"county":"Lancaster County","state":"Pennsylvania","country":"us","formatted_address":"Blue Ball Post Office, East Main Street, New Holland, Lancaster County, Pennsylvania, 17519, United States of America","place_id":"53557890","datatype":"locationiq"},{"name":"Bare Escentuals Boutiques","code":null,"latitude":41.827577,"longitude":-71.4176673,"address":"One Providence Place, Providence RI","chain_name":null,"distance":0,"street_number":null,"street_name":null,"zip":"02903","city":"Providence","area":null,"county":"Providence County","state":"Rhode Island","country":"us","formatted_address":"Woonasquatucket Greenway Ramp, Providence, Providence County, Rhode Island, 02903, United States of America","place_id":"88229831","datatype":"locationiq"},{"name":"Macy's","code":null,"latitude":41.884213,"longitude":-87.627385,"address":"111 N. State Street, Chicago IL","chain_name":null,"distance":0,"street_number":"101-137","street_name":"North State Street","zip":"60602","city":"Chicago","area":"Loop","county":"Cook County","state":"Illinois","country":"us","formatted_address":"Macy's, 101-137, North State Street, Loop, Chicago, Cook County, Illinois, 60602, United States of America","place_id":"94846635","datatype":"locationiq"},{"name":"Sephora","code":null,"latitude":42.167072,"longitude":-72.640056,"address":"50 Holyoke Street, Holyoke MA","chain_name":null,"distance":0,"street_number":null,"street_name":"Holyoke Street","zip":"01013","city":null,"area":null,"county":"Hampden County","state":"Massachusetts","country":"us","formatted_address":"HOLYOKE MALL PARKING LOT DR. \/ HOLYOKE, Holyoke Street, Holyoke, Hampden County, Massachusetts, 01013, United States of America","place_id":"16239980","datatype":"locationiq"},{"name":"Ulta","code":null,"latitude":36.0550779,"longitude":-96.0039112,"address":"7505 S. Olympia Ave W, Tulsa OK","chain_name":null,"distance":0,"street_number":null,"street_name":"South Olympia Avenue","zip":"74132","city":"Tulsa","area":null,"county":"Tulsa County","state":"Oklahoma","country":"us","formatted_address":"South Olympia Avenue, Tulsa Hills Shopping Center, Tulsa, Tulsa County, Oklahoma, 74132, United States of America","place_id":"171756832","datatype":"locationiq"},{"name":"Ulta","code":null,"latitude":33.253076,"longitude":-111.637066,"address":"2118 S. Ellsworth Loop Road, Queen Creek AZ","chain_name":null,"distance":0,"street_number":null,"street_name":"South Ellsworth Loop Road","zip":"85240","city":null,"area":null,"county":"Maricopa County","state":"Arizona","country":"us","formatted_address":"Discount Tire, South Ellsworth Loop Road, Queen Creek, Maricopa County, Arizona, 85240, United States of America","place_id":"119912571","datatype":"locationiq"},{"name":"Ulta","code":null,"latitude":28.2425159,"longitude":-82.3534782,"address":"5953 Wesley Grove Boulevard, Wesley Chapel FL","chain_name":null,"distance":0,"street_number":null,"street_name":"Oakley Boulevard","zip":"33544","city":null,"area":null,"county":"Pasco County","state":"Florida","country":"us","formatted_address":"Oakley Boulevard, Wesley Chapel, Pasco County, Florida, 33544, United States of America","place_id":"65434883","datatype":"locationiq"},{"name":"Bare Escentuals Boutiques","code":null,"latitude":33.3779402,"longitude":-86.8108286,"address":"2000 Riverchase Galleria, Hoover AL","chain_name":null,"distance":0,"street_number":null,"street_name":"James W. Wilson Jr Parkway","zip":"35244","city":"Hoover","area":null,"county":"Jefferson County","state":"Alabama","country":"us","formatted_address":"James W. Wilson Jr Parkway, Riverchase Galleria, Hoover, Jefferson County, Alabama, 35244, United States of America","place_id":"126263622","datatype":"locationiq"},{"name":"Fine salons and spas","code":null,"latitude":35.290567,"longitude":-81.545333,"address":"409 West Warren Street, Shelby NC","chain_name":null,"distance":0,"street_number":"441","street_name":"West Warren Street","zip":"28150","city":"Shelby","area":null,"county":"Cleveland County","state":"North Carolina","country":"us","formatted_address":"441, West Warren Street, Shelby, Cleveland County, North Carolina, 28150, United States of America","place_id":"197376894","datatype":"locationiq"},{"name":"Fine salons and spas","code":null,"latitude":32.828395,"longitude":-96.709506,"address":"9005 Garland Road, Dallas TX","chain_name":null,"distance":0,"street_number":"9005","street_name":"Garland Road","zip":"75218","city":"Dallas","area":null,"county":"Dallas County","state":"Texas","country":"us","formatted_address":"9005, Garland Road, Dallas, Dallas County, Texas, 75218, United States of America","place_id":"168403533","datatype":"locationiq"},{"name":"Bare Escentuals Boutiques","code":null,"latitude":39.941035,"longitude":-75.025012,"address":"2000 Route 38, Cherry Hill NJ","chain_name":null,"distance":0,"street_number":null,"street_name":"Cherry Hill Mall Drive","zip":"08002","city":"Cherry Hill Township","area":null,"county":"Camden County","state":"New Jersey","country":"us","formatted_address":"Cherry Hill Mall Drive, Cherry Hill Mall, Cherry Hill Township, Camden County, New Jersey, 08002, United States of America","place_id":"66021365","datatype":"locationiq"},{"name":"Ulta","code":null,"latitude":37.5056625,"longitude":-77.608876,"address":"11500 Midlothian Turnpike, Richmond VA","chain_name":null,"distance":0,"street_number":null,"street_name":"Midlothian Turnpike","zip":"23113","city":null,"area":null,"county":"Chesterfield County","state":"Virginia","country":"us","formatted_address":"Shell, Midlothian Turnpike, Richmond West Plaza, Bon Air, Chesterfield County, Virginia, 23113, United States of America","place_id":"43783514","datatype":"locationiq"},{"name":"Fine salons and spas","code":null,"latitude":33.8767834,"longitude":-117.8432781,"address":"638 Rose Avenue, Placentia CA","chain_name":null,"distance":0,"street_number":null,"street_name":"North Rose Drive","zip":"92870","city":"Placentia","area":null,"county":"Orange County","state":"California","country":"us","formatted_address":"North Rose Drive, Old Town Placentia, Placentia, Orange County, California, 92870, United States of America","place_id":"158553950","datatype":"locationiq"},{"name":"Ulta","code":null,"latitude":33.393204,"longitude":-111.8545865,"address":"1150 W. Southern Avenue, Mesa AZ","chain_name":null,"distance":0,"street_number":"1076","street_name":"West Southern Avenue","zip":"85210","city":"Mesa","area":"PARK PLACE ASSOCIATION","county":"Maricopa County","state":"Arizona","country":"us","formatted_address":"1076, West Southern Avenue, PARK PLACE ASSOCIATION, Mesa, Maricopa County, Arizona, 85210, United States of America","place_id":"176998063","datatype":"locationiq"},{"name":"Ulta","code":null,"latitude":41.8161264,"longitude":-72.8647858,"address":"380 West Main Street, Avon CT","chain_name":null,"distance":0,"street_number":"395","street_name":"West Main Street","zip":"06001","city":null,"area":null,"county":"Hartford County","state":"Connecticut","country":"us","formatted_address":"Ultimate Fitness Superstore, 395, West Main Street, Town of Avon, Hartford County, Connecticut, 06001, United States of America","place_id":"45026725","datatype":"locationiq"},{"name":"Sephora","code":null,"latitude":38.996061,"longitude":-84.6482319,"address":"6000 Florence Mall, Florence KY","chain_name":null,"distance":0,"street_number":null,"street_name":"Mall Circle Road","zip":"41042","city":"Florence","area":null,"county":"Boone County","state":"Kentucky","country":"us","formatted_address":"Mall Circle Road, Florence Mall, Florence, Boone County, Kentucky, 41042, United States of America","place_id":"68862277","datatype":"locationiq"},{"name":"Fine salons and spas","code":null,"latitude":38.337655,"longitude":-75.113825,"address":"12638 Ocean Gateway Village Unit 6, Ocean City MD","chain_name":null,"distance":0,"street_number":"12560","street_name":"Ocean Gateway","zip":"21842","city":null,"area":null,"county":"Worcester County","state":"Maryland","country":"us","formatted_address":"12560, Ocean Gateway, West Ocean City, Worcester County, Maryland, 21842, United States of America","place_id":"190012638","datatype":"locationiq"},{"name":"Sephora","code":null,"latitude":41.2297604,"longitude":-95.8778126,"address":"3333 Market Place Drive, Council Bluffs IA","chain_name":null,"distance":0,"street_number":"3231","street_name":"South 24th Street","zip":"51501","city":"Council Bluffs","area":null,"county":"Pottawattamie County","state":"Iowa","country":"us","formatted_address":"Texas Roadhouse, 3231, South 24th Street, Council Bluffs, Pottawattamie County, Iowa, 51501, United States of America","place_id":"113594924","datatype":"locationiq"},{"name":"Fine salons and spas","code":null,"latitude":31.4356874,"longitude":-100.4420723,"address":"602 South Bryant Boulevard, San Angelo TX","chain_name":null,"distance":0,"street_number":null,"street_name":"South Bryant Boulevard","zip":"76903","city":"San Angelo","area":"Rio Vista","county":"Tom Green County","state":"Texas","country":"us","formatted_address":"South Bryant Boulevard, Rio Vista, San Angelo, Tom Green County, Texas, 76903, United States of America","place_id":"95108037","datatype":"locationiq"},{"name":"Ulta","code":null,"latitude":42.1106904,"longitude":-87.977436,"address":"456 East Rand Road, Arlington Heights IL","chain_name":null,"distance":0,"street_number":"454","street_name":"East Rand Road","zip":"60004","city":null,"area":null,"county":"Cook County","state":"Illinois","country":"us","formatted_address":"454, East Rand Road, Arlington Heights, Cook County, Illinois, 60004, United States of America","place_id":"185005627","datatype":"locationiq"},{"name":"Sephora","code":null,"latitude":29.687101,"longitude":-95.461982,"address":"730 Meyerland Plaza Mall, Houston TX","chain_name":null,"distance":0,"street_number":null,"street_name":"Beechnut Street","zip":"77072","city":null,"area":null,"county":"Harris County","state":"Texas","country":"us","formatted_address":"Target, Beechnut Street, Meyerland, Westwood Park, Harris County, Texas, 77072, United States of America","place_id":"114493741","datatype":"locationiq"},{"name":"Macy's","code":null,"latitude":38.8984136,"longitude":-77.0284727,"address":"1201 G. Street N.W., Washington DC","chain_name":null,"distance":0,"street_number":null,"street_name":"G Street Northwest","zip":"20005","city":"Washington","area":"Downtown","county":null,"state":"District of Columbia","country":"us","formatted_address":"SunTrust Bank, G Street Northwest, Downtown, Chinatown, Washington, District of Columbia, 20005, United States of America","place_id":"7576872","datatype":"locationiq"},{"name":"Ulta","code":null,"latitude":42.380978,"longitude":-87.96528,"address":"6517 Grand Avenue, Gurnee IL","chain_name":null,"distance":0,"street_number":null,"street_name":"Dada Drive","zip":"60031","city":null,"area":null,"county":"Lake County","state":"Illinois","country":"us","formatted_address":"Dada Drive, Gurnee, Lake County, Illinois, 60031, United States of America","place_id":"72486272","datatype":"locationiq"},{"name":"Bare Escentuals","code":null,"latitude":44.366753,"longitude":-69.802494,"address":"5524 Spring Garden Road, Halifax NS","chain_name":null,"distance":0,"street_number":null,"street_name":"Commerce Drive","zip":"04330","city":"Augusta","area":null,"county":"Kennebec County","state":"Maine","country":"us","formatted_address":"Commerce Drive, Augusta, Kennebec County, Maine, 04330, United States of America","place_id":"169919422","datatype":"locationiq"},{"name":"Fine salons and spas","code":null,"latitude":29.7320137,"longitude":-95.7945672,"address":"7135 Heritage Square Drive, Granger IN","chain_name":null,"distance":0,"street_number":null,"street_name":"Kings Landing Lane","zip":"77494","city":null,"area":"Cinco Ranch","county":"Fort Bend County","state":"Texas","country":"us","formatted_address":"Kings Landing Lane, Cinco Ranch, Fort Bend County, Texas, 77494, United States of America","place_id":"87736515","datatype":"locationiq"},{"name":"Macy's","code":null,"latitude":42.0614735,"longitude":-87.7473437,"address":"66 Old Orchard Center, Skokie IL","chain_name":null,"distance":0,"street_number":null,"street_name":"Old Orchard Drive","zip":"60077-1314","city":null,"area":null,"county":"Cook County","state":"Illinois","country":"us","formatted_address":"Crate & Barrel, Old Orchard Drive, Westfield Old Orchard, Skokie, Cook County, Illinois, 60077-1314, United States of America","place_id":"25067659","datatype":"locationiq"},{"name":"Sephora","code":null,"latitude":37.9624736,"longitude":-121.7370607,"address":"4951 Slatten Ranch Road, Antioch CA","chain_name":null,"distance":0,"street_number":null,"street_name":"Shady Willow Lane","zip":"94531","city":"Antioch","area":null,"county":"Contra Costa County","state":"California","country":"us","formatted_address":"Shady Willow Lane, Antioch, Contra Costa County, California, 94531, United States of America","place_id":"156310650","datatype":"locationiq"},{"name":"Ulta","code":null,"latitude":32.8289855,"longitude":-79.8311976,"address":"1740 Towne Center Way, Mt. Pleasant SC","chain_name":null,"distance":0,"street_number":null,"street_name":"Towne Centre Way","zip":"29464","city":null,"area":null,"county":"Charleston County","state":"South Carolina","country":"us","formatted_address":"Rack Room Shoes, Towne Centre Way, Mount Pleasant, Charleston County, South Carolina, 29464, United States of America","place_id":"20776821","datatype":"locationiq"},{"name":"Macy's","code":null,"latitude":34.4174015,"longitude":-118.5620032,"address":"26450 Santa McBean Pkwy, Santa Clarita CA","chain_name":null,"distance":0,"street_number":null,"street_name":"Town Center Drive","zip":"91355","city":"Santa Clarita","area":null,"county":"Los Angeles County","state":"California","country":"us","formatted_address":"BJ's, Town Center Drive, Valencia Town Center, Valencia, Santa Clarita, Los Angeles County, California, 91355, United States of America","place_id":"29620392","datatype":"locationiq"},{"name":"Fine salons and spas","code":null,"latitude":37.086356,"longitude":-113.571429,"address":"558 East Riverside Drive, St. George UT","chain_name":null,"distance":0,"street_number":null,"street_name":"Riverside Drive","zip":"84790","city":"St. George","area":null,"county":"Washington County","state":"Utah","country":"us","formatted_address":"Riverside Drive, Bloomington Hills, St. George, Washington County, Utah, 84790, United States of America","place_id":"114795759","datatype":"locationiq"},{"name":"Ulta","code":null,"latitude":34.0402594,"longitude":-84.3053309,"address":"7671 North Point Parkway, Apharetta GA","chain_name":null,"distance":0,"street_number":"7601","street_name":"North Point Parkway","zip":"30076","city":"Alpharetta","area":"Alpha Park","county":"Fulton County","state":"Georgia","country":"us","formatted_address":"7601, North Point Parkway, Alpha Park, Alpharetta, Fulton County, Georgia, 30076, United States of America","place_id":"151441231","datatype":"locationiq"},{"name":"Macy's","code":null,"latitude":34.267282,"longitude":-119.248286,"address":"477 S. Mills Road, Ventura CA","chain_name":null,"distance":0,"street_number":null,"street_name":"South Mills Road","zip":"93006","city":"Ventura","area":null,"county":"Ventura County","state":"California","country":"us","formatted_address":"Macys, South Mills Road, Ventura, Ventura County, California, 93006, United States of America","place_id":"25770786","datatype":"locationiq"},{"name":"Fine salons and spas","code":null,"latitude":44.223416,"longitude":-70.512714,"address":"8 Market Square, South Paris ME","chain_name":null,"distance":0,"street_number":"98","street_name":"Main Street","zip":"04281","city":null,"area":null,"county":"Oxford County","state":"Maine","country":"us","formatted_address":"98, Main Street, South Paris, Oxford County, Maine, 04281, United States of America","place_id":"189501731","datatype":"locationiq"},{"name":"Macy's","code":null,"latitude":47.659529,"longitude":-122.690639,"address":"10315 Silverdale Way, Silverdale WA","chain_name":null,"distance":0,"street_number":"3065","street_name":"Northwest Randall Way","zip":"98383","city":null,"area":null,"county":"Kitsap County","state":"Washington","country":"us","formatted_address":"3065, Northwest Randall Way, Silverdale, Kitsap County, Washington, 98383, United States of America","place_id":"208549204","datatype":"locationiq"},{"name":"Ulta","code":null,"latitude":33.377162,"longitude":-86.8157177,"address":"4371 Creekside Avenue, Suite 109, Hoover AL","chain_name":null,"distance":0,"street_number":null,"street_name":"Creekside Avenue","zip":"35244","city":"Hoover","area":null,"county":"Jefferson County","state":"Alabama","country":"us","formatted_address":"Creekside Avenue, Patton Creek Shopping Center, Hoover, Jefferson County, Alabama, 35244, United States of America","place_id":"115103401","datatype":"locationiq"},{"name":"Ulta","code":null,"latitude":41.7032418,"longitude":-88.3094844,"address":"2510 Route 34, Oswego IL","chain_name":null,"distance":0,"street_number":"2620","street_name":"Oswego Road","zip":"60543","city":null,"area":null,"county":"Kendall County","state":"Illinois","country":"us","formatted_address":"Olive Garden, 2620, Oswego Road, Oswego, Kendall County, Illinois, 60543, United States of America","place_id":"172188527","datatype":"locationiq"},{"name":"Ulta","code":null,"latitude":40.522657,"longitude":-80.006561,"address":"4801 McKnight Road, Pittsburgh PA","chain_name":null,"distance":0,"street_number":"4801","street_name":"McKnight Road","zip":"15237","city":null,"area":null,"county":"Allegheny County","state":"Pennsylvania","country":"us","formatted_address":"TJ Buffet Sushi & Grill, 4801, McKnight Road, Ross Township, Allegheny County, Pennsylvania, 15237, United States of America","place_id":"85962345","datatype":"locationiq"},{"name":"Ulta","code":null,"latitude":34.2379957,"longitude":-84.4603708,"address":"1810 Cumming Hwy, Suite 640, Canton GA","chain_name":null,"distance":0,"street_number":"1806","street_name":"Cumming Highway","zip":"30114","city":null,"area":null,"county":"Cherokee County","state":"Georgia","country":"us","formatted_address":"1806, Cumming Highway, Canton, Cherokee County, Georgia, 30114, United States of America","place_id":"690309","datatype":"locationiq"},{"name":"Bare Escentuals","code":null,"latitude":43.6974019,"longitude":-79.451333,"address":"3401 Dufferin Street, Toronto ON","chain_name":null,"distance":0,"street_number":"2418","street_name":"Dufferin Street","zip":"M1K2R4","city":"Toronto","area":"Fairbank","county":null,"state":"Ontario","country":"ca","formatted_address":"2418, Dufferin Street, Fairbank, York, Toronto, Ontario, M1K2R4, Canada","place_id":"955548","datatype":"locationiq"},{"name":"Sephora","code":null,"latitude":37.720287,"longitude":-97.242613,"address":"2000 N. Rock Road, Wichita KS","chain_name":null,"distance":0,"street_number":null,"street_name":"North Bradley Fair Parkway","zip":"67206","city":"Wichita","area":null,"county":"Sedgwick County","state":"Kansas","country":"us","formatted_address":"North Bradley Fair Parkway, Wichita, Sedgwick County, Kansas, 67206, United States of America","place_id":"67230642","datatype":"locationiq"},{"name":"Sephora","code":null,"latitude":30.0036428,"longitude":-90.156143,"address":"3301 Veterans Memorial Boulevard, Suite 74, Metairie LA","chain_name":null,"distance":0,"street_number":null,"street_name":"Veterans Memorial Boulevard","zip":"70002","city":null,"area":null,"county":"Jefferson Parish","state":"Louisiana","country":"us","formatted_address":"Veterans Memorial Square, Veterans Memorial Boulevard, Metairie, Jefferson Parish, Louisiana, 70002, United States of America","place_id":"58047943","datatype":"locationiq"},{"name":"Sephora","code":null,"latitude":39.6329459,"longitude":-86.120429,"address":"1251 US 31 North, Greenwood IN","chain_name":null,"distance":0,"street_number":null,"street_name":"Greenwood Park Drive North","zip":"46277","city":"Greenwood","area":null,"county":"Johnson County","state":"Indiana","country":"us","formatted_address":"Greenwood Park Mall, Greenwood Park Drive North, Greenwood, Johnson County, Indiana, 46277, United States of America","place_id":"112043819","datatype":"locationiq"},{"name":"Ulta","code":null,"latitude":38.9959041,"longitude":-77.026404,"address":"914 Ellsworth Drive, Silver Spring MD","chain_name":null,"distance":0,"street_number":null,"street_name":"Ellsworth Drive","zip":"20910","city":null,"area":"Queen Annes","county":"Montgomery County","state":"Maryland","country":"us","formatted_address":"Pho Hiep Hoa, Ellsworth Drive, Queen Annes, Montgomery Hills, Silver Spring, Montgomery County, Maryland, 20910, United States of America","place_id":"4813111","datatype":"locationiq"},{"name":"Fine salons and spas","code":null,"latitude":40.683331,"longitude":-76.196056,"address":"301 Mahantongo Street, Pottsville PA","chain_name":null,"distance":0,"street_number":null,"street_name":"South 2nd Street","zip":"17901","city":"Pottsville","area":null,"county":"Schuylkill County","state":"Pennsylvania","country":"us","formatted_address":"Mahantongo Parking Garage, South 2nd Street, Pottsville, Schuylkill County, Pennsylvania, 17901, United States of America","place_id":"107095394","datatype":"locationiq"},{"name":"Bare Escentuals Boutiques","code":null,"latitude":34.064225,"longitude":-83.984145,"address":"3333 Buford Drive, Buford GA","chain_name":null,"distance":0,"street_number":null,"street_name":"Mall of Georgia Boulevard","zip":"30519","city":null,"area":null,"county":"Gwinnett County","state":"Georgia","country":"us","formatted_address":"Marlow's Tavern, Mall of Georgia Boulevard, Mall of Georgia, Gravel Springs, Gwinnett County, Georgia, 30519, United States of America","place_id":"51843487","datatype":"locationiq"},{"name":"Macy's","code":null,"latitude":33.832232,"longitude":-118.350675,"address":"21600 Hawthorne Boulevard, Torrance CA","chain_name":null,"distance":0,"street_number":"3525","street_name":"Carson Street","zip":"90505","city":"Torrance","area":null,"county":"Los Angeles County","state":"California","country":"us","formatted_address":"Macy's, 3525, Carson Street, La Fresa, Torrance, Los Angeles County, California, 90505, United States of America","place_id":"38508692","datatype":"locationiq"},{"name":"Sephora","code":null,"latitude":40.5220482,"longitude":-74.3611445,"address":"488 Menlo Park Drive, Edison NJ","chain_name":null,"distance":0,"street_number":"249","street_name":"Edison Glen Terrace","zip":"08837","city":"Edison","area":"Bonhamtown","county":"Middlesex County","state":"New Jersey","country":"us","formatted_address":"249, Edison Glen Terrace, Bonhamtown, Edison, Middlesex County, New Jersey, 08837, United States of America","place_id":"195530026","datatype":"locationiq"},{"name":"Fine salons and spas","code":null,"latitude":45.461221,"longitude":-98.4878878,"address":"321 South Main Street, Aberdeen SD","chain_name":null,"distance":0,"street_number":"98","street_name":"4th Avenue Southeast","zip":"57401","city":"Aberdeen","area":null,"county":"Brown County","state":"South Dakota","country":"us","formatted_address":"98, 4th Avenue Southeast, Aberdeen, Brown County, South Dakota, 57401, United States of America","place_id":"203289718","datatype":"locationiq"},{"name":"Ulta","code":null,"latitude":41.62949,"longitude":-93.6978657,"address":"3800 Merle Hay Road, Des Moines IA","chain_name":null,"distance":0,"street_number":"3714","street_name":"Merle Hay Road","zip":"50310","city":"Des Moines","area":null,"county":"Polk County","state":"Iowa","country":"us","formatted_address":"Verizon, 3714, Merle Hay Road, Merle Hay Mall, Des Moines, Polk County, Iowa, 50310, United States of America","place_id":"41949514","datatype":"locationiq"},{"name":"Fine salons and spas","code":null,"latitude":36.7282,"longitude":-108.2094324,"address":"406 West Broadway, Farmington NM","chain_name":null,"distance":0,"street_number":"400","street_name":"West Broadway Street","zip":"87401","city":"Farmington","area":null,"county":"San Juan County","state":"New Mexico","country":"us","formatted_address":"400, West Broadway Street, Farmington, San Juan County, New Mexico, 87401, United States of America","place_id":"196019860","datatype":"locationiq"},{"name":"Sephora","code":null,"latitude":41.460053,"longitude":-81.951392,"address":"160 Crocker Park Boulevard, Westlake OH","chain_name":null,"distance":0,"street_number":null,"street_name":"Crocker Park Boulevard","zip":"4415","city":null,"area":null,"county":"Cuyahoga County","state":"Ohio","country":"us","formatted_address":"Crocker Park Boulevard, Crocker Park, Westlake, Cuyahoga County, Ohio, 4415, United States of America","place_id":"124298088","datatype":"locationiq"},{"name":"Bare Escentuals","code":null,"latitude":45.445003,"longitude":-73.8131119,"address":"6815, Trans-Canadienne, Pointe-Claire QC","chain_name":null,"distance":0,"street_number":null,"street_name":"Avenue Vermont","zip":"T7E1W2","city":null,"area":null,"county":null,"state":"Quebec","country":"ca","formatted_address":"Plaza Pointe-Claire, Avenue Vermont, Pointe-Claire, Montreal (06), Quebec, T7E1W2, Canada","place_id":"66710087","datatype":"locationiq"},{"name":"Ulta","code":null,"latitude":33.4190314,"longitude":-86.6779011,"address":"5267 Highway 280, Birmingham AL","chain_name":null,"distance":0,"street_number":"5322","street_name":"US 280","zip":"35242","city":"Hoover","area":null,"county":"Shelby County","state":"Alabama","country":"us","formatted_address":"5322, US 280, Hoover, Shelby County, Alabama, 35242, United States of America","place_id":"176675010","datatype":"locationiq"},{"name":"Ulta","code":null,"latitude":32.8665329,"longitude":-117.231649,"address":"8657 Villa La Jolla Drive, La Jolla CA","chain_name":null,"distance":0,"street_number":"8677","street_name":"Villa La Jolla Drive","zip":"92037","city":"San Diego","area":"La Jolla Colony","county":"San Diego County","state":"California","country":"us","formatted_address":"8677, Villa La Jolla Drive, La Jolla Colony, University City, San Diego, San Diego County, California, 92037, United States of America","place_id":"5903604","datatype":"locationiq"},{"name":"Ulta","code":null,"latitude":41.6411409,"longitude":-88.4472948,"address":"955 Erica Lane, Yorkville IL","chain_name":null,"distance":0,"street_number":"180","street_name":"West Van Emmon Street","zip":"60560","city":"Yorkville","area":null,"county":"Kendall County","state":"Illinois","country":"us","formatted_address":"180, West Van Emmon Street, Yorkville, Kendall County, Illinois, 60560, United States of America","place_id":"185297112","datatype":"locationiq"},{"name":"Sephora","code":null,"latitude":40.7408508,"longitude":-89.6293945,"address":"2200 W War Memorial Drive, Peoria IL","chain_name":null,"distance":0,"street_number":null,"street_name":"Access Road","zip":"61615","city":"Peoria","area":null,"county":"Peoria County","state":"Illinois","country":"us","formatted_address":"Northwoods Mall, Access Road, Peoria, Peoria County, Illinois, 61615, United States of America","place_id":"91024637","datatype":"locationiq"},{"name":"Fine salons and spas","code":null,"latitude":33.55706,"longitude":-117.711167,"address":"27881 La Paz Road, Suite A, Laguna Niguel CA","chain_name":null,"distance":0,"street_number":"27874","street_name":"El Lazo","zip":"92677","city":"Laguna Niguel","area":null,"county":"Orange County","state":"California","country":"us","formatted_address":"27874, El Lazo, Laguna Niguel, Orange County, California, 92677, United States of America","place_id":"179148883","datatype":"locationiq"},{"name":"Sephora","code":null,"latitude":30.675746,"longitude":-87.9186058,"address":"22500 Town Center Avenue, Spanish Fort AL","chain_name":null,"distance":0,"street_number":null,"street_name":"Blakeley River Road","zip":"36527","city":"Spanish Fort","area":null,"county":"Baldwin County","state":"Alabama","country":"us","formatted_address":"Blakeley River Road, Spanish Fort, Baldwin County, Alabama, 36527, United States of America","place_id":"63520186","datatype":"locationiq"},{"name":"Sephora","code":null,"latitude":45.4519693,"longitude":-122.7830512,"address":"9500 SW Washington Square Road, Portland OR","chain_name":null,"distance":0,"street_number":"9300","street_name":"Southwest Washington Square Road","zip":"97223","city":"Tigard","area":null,"county":"Washington County","state":"Oregon","country":"us","formatted_address":"9300, Southwest Washington Square Road, Tigard, Washington County, Oregon, 97223, United States of America","place_id":"201106818","datatype":"locationiq"},{"name":"Sephora","code":null,"latitude":33.2751798,"longitude":-111.7917359,"address":"2180 South Gilbert Road, Chandler AZ","chain_name":null,"distance":0,"street_number":null,"street_name":"South Gilbert Road","zip":"85296","city":"Chandler","area":null,"county":"Maricopa County","state":"Arizona","country":"us","formatted_address":"JCPenny, South Gilbert Road, Chandler, Maricopa County, Arizona, 85296, United States of America","place_id":"129441557","datatype":"locationiq"},{"name":"Nordstrom","code":null,"latitude":45.437724,"longitude":-122.576108,"address":"11900 SE 82nd Avenue, Portland OR","chain_name":null,"distance":0,"street_number":"8495","street_name":"Southeast Monterey Avenue","zip":"97086","city":null,"area":null,"county":"Clackamas County","state":"Oregon","country":"us","formatted_address":"8495, Southeast Monterey Avenue, Harmony, Clackamas County, Oregon, 97086, United States of America","place_id":"151756814","datatype":"locationiq"},{"name":"Sephora","code":null,"latitude":34.0632281,"longitude":-118.4151704,"address":"10250 Santa Monica Boulevard, Los Angeles CA","chain_name":null,"distance":0,"street_number":null,"street_name":"Century Park East","zip":"90067","city":"Los Angeles","area":"Century City","county":"Los Angeles County","state":"California","country":"us","formatted_address":"Northrop Grumman Plaza I, Century Park East, Century City, Westwood, Los Angeles, Los Angeles County, California, 90067, United States of America","place_id":"110925143","datatype":"locationiq"},{"name":"Ulta","code":null,"latitude":40.6200129,"longitude":-111.9823789,"address":"3736 Center Park Drive, West Jordan UT","chain_name":null,"distance":0,"street_number":null,"street_name":"Jordan Landing Boulevard","zip":"84084","city":"West Jordan","area":null,"county":"Salt Lake County","state":"Utah","country":"us","formatted_address":"Mountain America Credit Union, Jordan Landing Boulevard, Jordan Landing, West Jordan, Salt Lake County, Utah, 84084, United States of America","place_id":"23761420","datatype":"locationiq"},{"name":"Ulta","code":null,"latitude":38.7729349,"longitude":-121.262497,"address":"1232 Galleria Blvd., Roseville CA","chain_name":null,"distance":0,"street_number":"1208","street_name":"Galleria Boulevard","zip":"95678","city":"Roseville","area":null,"county":"Placer County","state":"California","country":"us","formatted_address":"1208, Galleria Boulevard, Roseville, Placer County, California, 95678, United States of America","place_id":"80953163","datatype":"locationiq"},{"name":"Sephora","code":null,"latitude":38.6371877,"longitude":-90.3486392,"address":"2407 St. Louis Galleria, St. Louis MO","chain_name":null,"distance":0,"street_number":null,"street_name":"Galleria Parkway","zip":"63117","city":"Richmond Heights","area":null,"county":"St. Louis County","state":"Missouri","country":"us","formatted_address":"Galleria Parkway, Richmond Heights, St. Louis County, Missouri, 63117, United States of America","place_id":"132413974","datatype":"locationiq"},{"name":"Fine salons and spas","code":null,"latitude":44.2921361,"longitude":-105.495229,"address":"310 South Miller Avenue, Gillette WY","chain_name":null,"distance":0,"street_number":"397","street_name":"Miller Avenue","zip":"82716","city":"Gillette","area":null,"county":"Campbell County","state":"Wyoming","country":"us","formatted_address":"397, Miller Avenue, Gillette, Campbell County, Wyoming, 82716, United States of America","place_id":"209826429","datatype":"locationiq"},{"name":"Ulta","code":null,"latitude":40.4767371,"longitude":-86.1019983,"address":"2140 E. Markland Avenue, Kokomo IN","chain_name":null,"distance":0,"street_number":"2020","street_name":"East Markland Avenue","zip":"46901","city":"Kokomo","area":null,"county":"Howard County","state":"Indiana","country":"us","formatted_address":"2020, East Markland Avenue, Kokomo, Howard County, Indiana, 46901, United States of America","place_id":"44301926","datatype":"locationiq"},{"name":"Sephora","code":null,"latitude":40.7938975,"longitude":-73.9669634,"address":"808 Columbus Ave., New York NY","chain_name":null,"distance":0,"street_number":"808","street_name":"Columbus Avenue","zip":"10025","city":"New York City","area":"Upper West Side","county":"New York County","state":"New York","country":"us","formatted_address":"808, Columbus Avenue, Upper West Side, Manhattan, New York County, New York City, New York, 10025, United States of America","place_id":"132420503","datatype":"locationiq"},{"name":"Sephora","code":null,"latitude":41.098645,"longitude":-73.959703,"address":"1000 Palisades Center Drive, West Nayak NY","chain_name":null,"distance":0,"street_number":null,"street_name":"Palisades Center Drive","zip":"10994","city":null,"area":null,"county":"Rockland County","state":"New York","country":"us","formatted_address":"Palisades Center Drive, West Nyack, Town of Clarkstown, Rockland County, New York, 10994, United States of America","place_id":"64877451","datatype":"locationiq"},{"name":"Fine salons and spas","code":null,"latitude":40.9075117,"longitude":-74.0329349,"address":"10 Riverside Square, Hackensack NJ","chain_name":null,"distance":0,"street_number":"398","street_name":"Hackensack Avenue","zip":"07601","city":"Hackensack","area":null,"county":"Bergen County","state":"New Jersey","country":"us","formatted_address":"398, Hackensack Avenue, Hackensack, Bergen County, New Jersey, 07601, United States of America","place_id":"195288667","datatype":"locationiq"},{"name":"Sephora","code":null,"latitude":43.6126603,"longitude":-79.5559283,"address":"25 The West Mall, Toronto ON","chain_name":null,"distance":0,"street_number":null,"street_name":"The Queensway","zip":"M9C 5H5","city":"Toronto","area":"Alderwood","county":null,"state":"Ontario","country":"ca","formatted_address":"Starbucks Coffee, The Queensway, Alderwood, Etobicoke, Toronto, Ontario, M9C 5H5, Canada","place_id":"55026550","datatype":"locationiq"},{"name":"Sephora","code":null,"latitude":36.806693,"longitude":-119.777843,"address":"555 East Shaw Avenue, Fresno CA","chain_name":null,"distance":0,"street_number":null,"street_name":"East Shaw Avenue","zip":"93740","city":"Fresno","area":null,"county":"Fresno County","state":"California","country":"us","formatted_address":"East Shaw Avenue, Fresno, Fresno County, California, 93740, United States of America","place_id":"123125302","datatype":"locationiq"},{"name":"Ulta","code":null,"latitude":45.0111209,"longitude":-122.9971828,"address":"6361 Ulali Drive NE, Keizer OR","chain_name":null,"distance":0,"street_number":null,"street_name":"Ulali Drive Northeast","zip":"97303","city":"Keizer","area":null,"county":"Marion County","state":"Oregon","country":"us","formatted_address":"Ulali Drive Northeast, Keizer, Marion County, Oregon, 97303, United States of America","place_id":"107714709","datatype":"locationiq"},{"name":"Macy's","code":null,"latitude":32.761996,"longitude":-115.531974,"address":"3551 South Dogwood Road City, El Centro CA","chain_name":null,"distance":0,"street_number":null,"street_name":"East Chick Road","zip":"92243","city":"El Centro","area":null,"county":"Imperial County","state":"California","country":"us","formatted_address":"East Chick Road, El Centro, Imperial County, California, 92243, United States of America","place_id":"101951582","datatype":"locationiq"},{"name":"Sephora","code":null,"latitude":38.9678737,"longitude":-76.9575286,"address":"3500 East West Hwy Ste 1000, Hyattsville MD","chain_name":null,"distance":0,"street_number":null,"street_name":"East-West Highway","zip":"20782","city":"Hyattsville","area":"Hyattsville Hills","county":"Prince George's County","state":"Maryland","country":"us","formatted_address":"East-West Highway, Hyattsville Hills, Hyattsville, Prince George's County, Maryland, 20782, United States of America","place_id":"152160330","datatype":"locationiq"},{"name":"Bare Escentuals Boutiques","code":null,"latitude":41.498607,"longitude":-81.494226,"address":"26300 Cedar Road, Beachwood OH","chain_name":null,"distance":0,"street_number":null,"street_name":"George Zeiger Drive","zip":"44122","city":null,"area":"Elizabeth B Blossom Subdivision Historic District","county":"Cuyahoga County","state":"Ohio","country":"us","formatted_address":"Beachwood Place, George Zeiger Drive, Elizabeth B Blossom Subdivision Historic District, Beachwood, Cuyahoga County, Ohio, 44122, United States of America","place_id":"75975494","datatype":"locationiq"},{"name":"Sephora","code":null,"latitude":34.238952,"longitude":-118.557074,"address":"9301 Tampa Avenue, Northridge CA","chain_name":null,"distance":0,"street_number":null,"street_name":"Shirley Avenue","zip":"91324","city":"Los Angeles","area":null,"county":"Los Angeles County","state":"California","country":"us","formatted_address":"Shirley Avenue, Northridge Fashion Center, Northridge, Los Angeles, Los Angeles County, California, 91324, United States of America","place_id":"66779735","datatype":"locationiq"},{"name":"Ulta","code":null,"latitude":41.954232,"longitude":-87.8072319,"address":"4115 North Harlem Avenue, Norridge IL","chain_name":null,"distance":0,"street_number":null,"street_name":"North Harlem Avenue","zip":"60534","city":null,"area":null,"county":"Cook County","state":"Illinois","country":"us","formatted_address":"Harlem & Forest Preserve Avenue SB, North Harlem Avenue, Norridge, Cook County, Illinois, 60534, United States of America","place_id":"55432316","datatype":"locationiq"},{"name":"Fine salons and spas","code":null,"latitude":36.8426428,"longitude":-119.7898995,"address":"33 East Minarets Avenue, Fresno CA","chain_name":null,"distance":0,"street_number":"23","street_name":"East Minarets Avenue","zip":"93650","city":"Fresno","area":null,"county":"Fresno County","state":"California","country":"us","formatted_address":"23, East Minarets Avenue, Fresno, Fresno County, California, 93650, United States of America","place_id":"178388232","datatype":"locationiq"},{"name":"Fine salons and spas","code":null,"latitude":34.034506,"longitude":-118.685217,"address":"3900 Cross Creek Road, Suite 2, Malibu CA","chain_name":null,"distance":0,"street_number":null,"street_name":"Pacific Coast Highway","zip":null,"city":"Malibu","area":null,"county":"Los Angeles County","state":"California","country":"us","formatted_address":"Shell, Pacific Coast Highway, Malibu, Los Angeles County, California, United States of America","place_id":"61839081","datatype":"locationiq"},{"name":"Bare Escentuals Outlet","code":null,"latitude":39.621518,"longitude":-83.600404,"address":"8725 Factory Shops Boulevard, Jeffersonville OH","chain_name":null,"distance":0,"street_number":null,"street_name":"US 35","zip":"43160","city":null,"area":null,"county":"Fayette County","state":"Ohio","country":"us","formatted_address":"US 35, West Lancaster, Fayette County, Ohio, 43160, United States of America","place_id":"77742459","datatype":"locationiq"},{"name":"Fine salons and spas","code":null,"latitude":43.6573576,"longitude":-84.2474323,"address":"6800 Eastman Avenue, Midland MI","chain_name":null,"distance":0,"street_number":"6517","street_name":"Eastman Avenue","zip":"48640","city":"Midland","area":null,"county":"Midland County","state":"Michigan","country":"us","formatted_address":"6517, Eastman Avenue, Midland, Midland County, Michigan, 48640, United States of America","place_id":"141387646","datatype":"locationiq"},{"name":"Fine salons and spas","code":null,"latitude":36.130095,"longitude":-97.060118,"address":"115 West McElroy, Stillwater OK","chain_name":null,"distance":0,"street_number":null,"street_name":"West McElroy Road","zip":"74075","city":"Stillwater","area":null,"county":"Payne County","state":"Oklahoma","country":"us","formatted_address":"LaRitz Salon and Spa, West McElroy Road, Oklahoma State University, Stillwater, Payne County, Oklahoma, 74075, United States of America","place_id":"44102317","datatype":"locationiq"},{"name":"Ulta","code":null,"latitude":37.9995146,"longitude":-121.3157802,"address":"5410 Pacific Avenue, Stockton CA","chain_name":null,"distance":0,"street_number":"5350","street_name":"Pacific Avenue","zip":"95211","city":"Stockton","area":null,"county":"San Joaquin County","state":"California","country":"us","formatted_address":"5350, Pacific Avenue, Stockton, San Joaquin County, California, 95211, United States of America","place_id":"135176717","datatype":"locationiq"},{"name":"Fine salons and spas","code":null,"latitude":37.036504,"longitude":-77.646491,"address":"10177 North Kings Highway \/ Colonial Mall Suite A5A, Myrtle Beach SC","chain_name":null,"distance":0,"street_number":"17052","street_name":"Boydton Plank Road","zip":"23840","city":null,"area":null,"county":"Dinwiddie County","state":"Virginia","country":"us","formatted_address":"17052, Boydton Plank Road, DeWitt, Dinwiddie County, Virginia, 23840, United States of America","place_id":"207340042","datatype":"locationiq"},{"name":"Ulta","code":null,"latitude":25.6860633,"longitude":-80.3912507,"address":"12054 SW 88th Street, Miami FL","chain_name":null,"distance":0,"street_number":"12295","street_name":"Southwest 88th Street","zip":"33186","city":null,"area":null,"county":"Miami-Dade County","state":"Florida","country":"us","formatted_address":"12295, Southwest 88th Street, Lindgren Acres, Miami-Dade County, Florida, 33186, United States of America","place_id":"163550720","datatype":"locationiq"},{"name":"Ulta","code":null,"latitude":32.924861,"longitude":-83.712258,"address":"5080 Riverside Drive, Macon GA","chain_name":null,"distance":0,"street_number":null,"street_name":"Riverside Drive","zip":"31210","city":"Macon","area":"Wesleyan Hills","county":"Bibb County","state":"Georgia","country":"us","formatted_address":"Chili's, Riverside Drive, Wesleyan Hills, Macon, Bibb County, Georgia, 31210, United States of America","place_id":"171878313","datatype":"locationiq"},{"name":"Ulta","code":null,"latitude":41.9368583,"longitude":-88.0793399,"address":"145 Army Trail Road, Glendale Heights IL","chain_name":null,"distance":0,"street_number":null,"street_name":"East Army Trail Road","zip":"60139","city":null,"area":null,"county":"DuPage County","state":"Illinois","country":"us","formatted_address":"Burger King, East Army Trail Road, Glendale Heights, DuPage County, Illinois, 60139, United States of America","place_id":"5004822","datatype":"locationiq"},{"name":"Sephora","code":null,"latitude":35.0334543,"longitude":-85.1576823,"address":"2100 Hamilton Place Blvd, Chattanooga TN","chain_name":null,"distance":0,"street_number":null,"street_name":"Gunbarrel Road","zip":"37421","city":"Chattanooga","area":null,"county":"Hamilton County","state":"Tennessee","country":"us","formatted_address":"Gunbarrel Road, Chattanooga, Hamilton County, Tennessee, 37421, United States of America","place_id":"109142484","datatype":"locationiq"},{"name":"Macy's","code":null,"latitude":38.918768,"longitude":-77.221188,"address":"800 Tysons Corner Center, McLean VA","chain_name":null,"distance":0,"street_number":"7940","street_name":"Chain Bridge Road","zip":"22102","city":null,"area":"Howard","county":"Fairfax County","state":"Virginia","country":"us","formatted_address":"Lord & Taylor, 7940, Chain Bridge Road, Howard, Madrillon Farms, Fairfax County, Virginia, 22102, United States of America","place_id":"165332122","datatype":"locationiq"},{"name":"Bare Escentuals Boutiques","code":null,"latitude":40.8889332,"longitude":-74.2562057,"address":"1400 Willowbrook Blvd, Wayne NJ","chain_name":null,"distance":0,"street_number":"698","street_name":"Willowbrook Boulevard","zip":"07470","city":"Wayne","area":null,"county":"Passaic County","state":"New Jersey","country":"us","formatted_address":"698, Willowbrook Boulevard, Wayne, Passaic County, New Jersey, 07470, United States of America","place_id":"195718892","datatype":"locationiq"},{"name":"Ulta","code":null,"latitude":41.9376857,"longitude":-71.3457035,"address":"1360 South Washington Street, Unit 1, North Attleboro MA","chain_name":null,"distance":0,"street_number":null,"street_name":"Allen Avenue","zip":"02760","city":null,"area":null,"county":"Bristol County","state":"Massachusetts","country":"us","formatted_address":"Allen Avenue, North Attleborough, Bristol County, Massachusetts, 02760, United States of America","place_id":"64506254","datatype":"locationiq"},{"name":"Fine salons and spas","code":null,"latitude":35.1111726,"longitude":-92.4464705,"address":"2455 West Washington Avenue, Suite 103, ARConway AR","chain_name":null,"distance":0,"street_number":"2469","street_name":"Washington Avenue","zip":"72032","city":"Conway","area":null,"county":"Faulkner County","state":"Arkansas","country":"us","formatted_address":"2469, Washington Avenue, Conway, Faulkner County, Arkansas, 72032, United States of America","place_id":"177684716","datatype":"locationiq"},{"name":"Ulta","code":null,"latitude":30.639269,"longitude":-96.316909,"address":"1505 University Drive East, College Station TX","chain_name":null,"distance":0,"street_number":null,"street_name":"Forest Drive","zip":"77802","city":null,"area":null,"county":"Brazos County","state":"Texas","country":"us","formatted_address":"Chipotle, Forest Drive, College Station, Brazos County, Texas, 77802, United States of America","place_id":"53370894","datatype":"locationiq"},{"name":"Sephora","code":null,"latitude":40.58199,"longitude":-74.1637,"address":"140 Marsh Ave, Staten Island NY","chain_name":null,"distance":0,"street_number":"140","street_name":"Marsh Avenue","zip":"10314","city":"New York City","area":"Heartland Village","county":"Richmond County","state":"New York","country":"us","formatted_address":"140, Marsh Avenue, Heartland Village, Staten Island, Richmond County, New York City, New York, 10314, United States of America","place_id":"126916621","datatype":"locationiq"},{"name":"Sephora","code":null,"latitude":49.2270919,"longitude":-122.9956011,"address":"216-4820 Kingsway, Burnaby BC","chain_name":null,"distance":0,"street_number":null,"street_name":"Kingsway","zip":"V5H 2B3","city":"Burnaby","area":null,"county":"Greater Vancouver Regional District","state":"British Columbia","country":"ca","formatted_address":"Moores, Kingsway, Metrotown, Burnaby, Greater Vancouver Regional District, British Columbia, V5H 2B3, Canada","place_id":"59094116","datatype":"locationiq"},{"name":"Bare Escentuals Boutiques","code":null,"latitude":47.2149084,"longitude":-122.4675393,"address":"4502 South Steele Street, Tacoma WA","chain_name":null,"distance":0,"street_number":"2367","street_name":"South 48th Street","zip":"98408","city":"Tacoma","area":null,"county":"Pierce County","state":"Washington","country":"us","formatted_address":"2367, South 48th Street, Tacoma, Pierce County, Washington, 98408, United States of America","place_id":"208664159","datatype":"locationiq"},{"name":"Bare Escentuals Boutiques","code":null,"latitude":40.734137,"longitude":-73.871856,"address":"90-15 Queens Boulevard, Elmhurst NY","chain_name":null,"distance":0,"street_number":"57-01","street_name":"90th Street","zip":"11373","city":"New York City","area":"Elmhurst","county":"Queens County","state":"New York","country":"us","formatted_address":"57-01, 90th Street, Elmhurst, Queens County, New York City, New York, 11373, United States of America","place_id":"36625946","datatype":"locationiq"},{"name":"Bare Escentuals Boutiques","code":null,"latitude":42.2449483,"longitude":-88.9756038,"address":"7200 Harrison Avenue, Rockford IL","chain_name":null,"distance":0,"street_number":"7200","street_name":"Harrison Avenue","zip":"61112","city":null,"area":null,"county":"Winnebago County","state":"Illinois","country":"us","formatted_address":"Macy's, 7200, Harrison Avenue, Cherry Valley, Winnebago County, Illinois, 61112, United States of America","place_id":"55024478","datatype":"locationiq"},{"name":"Sephora","code":null,"latitude":30.2582897,"longitude":-81.5268427,"address":"10281 Midtown Parkway, Jacksonville FL","chain_name":null,"distance":0,"street_number":null,"street_name":"Mid-Town Parkway","zip":"32246","city":"Jacksonville","area":null,"county":"Duval County","state":"Florida","country":"us","formatted_address":"P.F. Chang's, Mid-Town Parkway, St. Johns Town Center, Jacksonville, Duval County, Florida, 32246, United States of America","place_id":"47712838","datatype":"locationiq"},{"name":"Fine salons and spas","code":null,"latitude":37.306593,"longitude":-89.559141,"address":"107 West Drive, Suite C, Cape Girardeau MO","chain_name":null,"distance":0,"street_number":"67","street_name":"West Drive","zip":"63703","city":"Cape Girardeau","area":null,"county":"Cape Girardeau County","state":"Missouri","country":"us","formatted_address":"67, West Drive, Cape Girardeau, Cape Girardeau County, Missouri, 63703, United States of America","place_id":"193338359","datatype":"locationiq"},{"name":"Ulta","code":null,"latitude":41.1888553,"longitude":-87.8505357,"address":"2058 N. State Route 50, Bourbonnais IL","chain_name":null,"distance":0,"street_number":"4791","street_name":"County Road East 241 North","zip":"60914","city":null,"area":null,"county":"Kankakee County","state":"Illinois","country":"us","formatted_address":"4791, County Road East 241 North, Manteno, Kankakee County, Illinois, 60914, United States of America","place_id":"185283912","datatype":"locationiq"},{"name":"Fine salons and spas","code":null,"latitude":36.6893669,"longitude":-79.8563228,"address":"730 East Church Street Suite 23, Martinsville VA","chain_name":null,"distance":0,"street_number":"758","street_name":"East Church Street","zip":"24112","city":"Martinsville","area":null,"county":"Martinsville City","state":"Virginia","country":"us","formatted_address":"758, East Church Street, Martinsville, Martinsville City, Virginia, 24112, United States of America","place_id":"208043912","datatype":"locationiq"},{"name":"Fine salons and spas","code":null,"latitude":31.151228,"longitude":-81.49593,"address":"1616 Newcastle Street, Brunswick GA","chain_name":null,"distance":0,"street_number":null,"street_name":"New Castle Street","zip":"31520","city":null,"area":null,"county":"Glynn County","state":"Georgia","country":"us","formatted_address":"New Castle Street, Brunswick, Glynn County, Georgia, 31520, United States of America","place_id":"102893086","datatype":"locationiq"},{"name":"Bare Escentuals Boutiques","code":null,"latitude":33.0309514,"longitude":-96.8329963,"address":"6121 West Park Boulevard, Plano TX","chain_name":null,"distance":0,"street_number":null,"street_name":"Willow Bend Mall","zip":"75093","city":"Plano","area":null,"county":"Collin County","state":"Texas","country":"us","formatted_address":"Willow Bend Mall, Plano, Collin County, Texas, 75093, United States of America","place_id":"144157234","datatype":"locationiq"},{"name":"Sephora","code":null,"latitude":29.5922762,"longitude":-95.6290805,"address":"16535 Southwest Freeway, Suite 3012, Sugar Land TX","chain_name":null,"distance":0,"street_number":null,"street_name":"Southwest Freeway Frontage Road","zip":"77479","city":"Sugar Land","area":null,"county":"Fort Bend County","state":"Texas","country":"us","formatted_address":"Southwest Freeway Frontage Road, Sugar Land, Fort Bend County, Texas, 77479, United States of America","place_id":"161441743","datatype":"locationiq"},{"name":"Sephora","code":null,"latitude":42.9731063,"longitude":-78.6967308,"address":"4545 Transit Rd, Williamsville NY","chain_name":null,"distance":0,"street_number":"4799","street_name":"Transit Road","zip":"14221","city":null,"area":null,"county":"Erie County","state":"New York","country":"us","formatted_address":"4799, Transit Road, Harris Hill, Amherst Town, Erie County, New York, 14221, United States of America","place_id":"196283112","datatype":"locationiq"},{"name":"Sephora","code":null,"latitude":26.010504,"longitude":-80.30081,"address":"11401 Pines Blvd, Pembroke Pines FL","chain_name":null,"distance":0,"street_number":null,"street_name":"Northwest 114th Avenue","zip":"33026-4102","city":null,"area":null,"county":"Broward County","state":"Florida","country":"us","formatted_address":"Northwest 114th Avenue, Pembroke Pines, Broward County, Florida, 33026-4102, United States of America","place_id":"166699893","datatype":"locationiq"},{"name":"Fine salons and spas","code":null,"latitude":34.4263652,"longitude":-117.5668216,"address":"4363 Phelan Rd., Phelan CA","chain_name":null,"distance":0,"street_number":"4339","street_name":"Phelan Road","zip":"92371","city":null,"area":null,"county":"San Bernardino County","state":"California","country":"us","formatted_address":"4339, Phelan Road, Phelan, San Bernardino County, California, 92371, United States of America","place_id":"179627360","datatype":"locationiq"},{"name":"Macy's","code":null,"latitude":42.623629,"longitude":-82.985572,"address":"14200 Lakeside Circle, Sterling Heights MI","chain_name":null,"distance":0,"street_number":null,"street_name":"Lakeside Circle","zip":"48313","city":"Sterling Heights","area":null,"county":"Macomb County","state":"Michigan","country":"us","formatted_address":"Lakeside Circle, Sterling Heights, Macomb County, Michigan, 48313, United States of America","place_id":"120730621","datatype":"locationiq"},{"name":"Sephora","code":null,"latitude":32.8289775,"longitude":-97.1972555,"address":"1105 Melbourne Drive, Hurst TX","chain_name":null,"distance":0,"street_number":"1137","street_name":"Melbourne Road","zip":"76053","city":"Hurst","area":null,"county":"Tarrant County","state":"Texas","country":"us","formatted_address":"1137, Melbourne Road, Hurst, Tarrant County, Texas, 76053, United States of America","place_id":"206277691","datatype":"locationiq"},{"name":"Bare Escentuals Boutiques","code":null,"latitude":38.7735899,"longitude":-121.2694671,"address":"1151 Galleria Boulevard, Roseville CA","chain_name":null,"distance":0,"street_number":null,"street_name":"Galleria Circle","zip":"95678","city":"Roseville","area":null,"county":"Placer County","state":"California","country":"us","formatted_address":"Westfield Galleria, Galleria Circle, Westfield Galleria at Roseville, Roseville, Placer County, California, 95678, United States of America","place_id":"81030681","datatype":"locationiq"},{"name":"Fine salons and spas","code":null,"latitude":35.3762199,"longitude":-119.0242198,"address":"1918 19th Street, Bakersfield CA","chain_name":null,"distance":0,"street_number":"1963","street_name":"19th Street","zip":"93301","city":"Bakersfield","area":null,"county":"Kern County","state":"California","country":"us","formatted_address":"1963, 19th Street, Civic Center, Bakersfield, Kern County, California, 93301, United States of America","place_id":"178470611","datatype":"locationiq"},{"name":"Fine salons and spas","code":null,"latitude":45.7829161,"longitude":-108.5065283,"address":"217 North Broadway, Billings MT","chain_name":null,"distance":0,"street_number":null,"street_name":"North 28th Street","zip":"59101","city":"Billings","area":null,"county":"Yellowstone County","state":"Montana","country":"us","formatted_address":"Jimmy John's, North 28th Street, Billings, Yellowstone County, Montana, 59101, United States of America","place_id":"38933801","datatype":"locationiq"},{"name":"Fine salons and spas","code":null,"latitude":36.130095,"longitude":-97.060118,"address":"115 West Mcelroy, Stillwater OK","chain_name":null,"distance":0,"street_number":null,"street_name":"West McElroy Road","zip":"74075","city":"Stillwater","area":null,"county":"Payne County","state":"Oklahoma","country":"us","formatted_address":"LaRitz Salon and Spa, West McElroy Road, Oklahoma State University, Stillwater, Payne County, Oklahoma, 74075, United States of America","place_id":"44102317","datatype":"locationiq"},{"name":"Fine salons and spas","code":null,"latitude":38.42803,"longitude":-122.667616,"address":"2700 Yulupa Avenue, Santa Rosa CA","chain_name":null,"distance":0,"street_number":"2487","street_name":"Woodlake Drive","zip":"95405","city":"Santa Rosa","area":null,"county":"Sonoma County","state":"California","country":"us","formatted_address":"2487, Woodlake Drive, Santa Rosa, Sonoma County, California, 95405, United States of America","place_id":"180339564","datatype":"locationiq"},