[{"latitude":" 33.41464","longitude":"-111.93279","name":" Chick-fil-A - Tempe","address":" USA-(AZ) Tempe","street_number":null,"street_name":"East Apache Boulevard","zip":"85281","city":"Tempe","area":null,"county":"Maricopa County","state":"Arizona","country":"us","formatted_address":"ASU Bike Co-Op, East Apache Boulevard, Tempe, Maricopa County, Arizona, 85281, United States of America","place_id":"7979109","datatype":"locationiq"},{"latitude":" 38.78408","longitude":"-121.28625","name":" Chick-fil-A - Roseville","address":" USA-(CA) Roseville","street_number":"916","street_name":"Pleasant Grove Boulevard","zip":"95678","city":"Roseville","area":null,"county":"Placer County","state":"California","country":"us","formatted_address":"916, Pleasant Grove Boulevard, Roseville, Placer County, California, 95678, United States of America","place_id":"81726121","datatype":"locationiq"},{"latitude":" 33.65561","longitude":"-111.92638","name":" Chick-fil-A - Phoenix","address":" USA-(AZ) Phoenix","street_number":null,"street_name":"East Mayo Boulevard","zip":"85299","city":"Scottsdale","area":null,"county":"Maricopa County","state":"Arizona","country":"us","formatted_address":"East Mayo Boulevard, Scottsdale, Maricopa County, Arizona, 85299, United States of America","place_id":"163968422","datatype":"locationiq"},{"latitude":" 38.42328","longitude":"-121.39292","name":" Chick-fil-A - Elk Grove","address":" USA-(CA) Elk Grove","street_number":null,"street_name":"Bond Road","zip":"95624","city":"Elk Grove","area":null,"county":"Sacramento County","state":"California","country":"us","formatted_address":"Bond Road, Elk Grove, Sacramento County, California, 95624, United States of America","place_id":"173523207","datatype":"locationiq"},{"latitude":" 33.83074","longitude":"-118.08533","name":" Chick-fil-A - Long Beach","address":" USA-(CA) Long Beach","street_number":null,"street_name":"Carson Street","zip":"90808","city":"Long Beach","area":null,"county":"Los Angeles County","state":"California","country":"us","formatted_address":"Chick-fil-A, Carson Street, Long Beach, Los Angeles County, California, 90808, United States of America","place_id":"121236792","datatype":"locationiq"},{"latitude":" 39.54993","longitude":"-104.77063","name":" Chick-fil-A - Parker","address":" USA-(CO) Parker","street_number":null,"street_name":"Crown Crest Boulevard","zip":"80138","city":null,"area":null,"county":"Douglas County","state":"Colorado","country":"us","formatted_address":"Crown Crest Boulevard, Parker, Douglas County, Colorado, 80138, United States of America","place_id":"146558145","datatype":"locationiq"},{"latitude":" 40.62362","longitude":"-111.86157","name":" Chick-fil-A - Midvale","address":" USA-(UT) Midvale","street_number":null,"street_name":"Fort Union Boulevard","zip":"84121","city":"Midvale","area":null,"county":"Salt Lake County","state":"Utah","country":"us","formatted_address":"Chick Fil A, Fort Union Boulevard, Midvale, Salt Lake County, Utah, 84121, United States of America","place_id":"23691724","datatype":"locationiq"},{"latitude":" 41.75633","longitude":"-111.83467","name":" Chick-fil-A - Logan","address":" USA-(UT) Logan","street_number":null,"street_name":"North Main Street","zip":"84321","city":"Logan","area":null,"county":"Cache County","state":"Utah","country":"us","formatted_address":"Chick-fil-A, North Main Street, Logan, Cache County, Utah, 84321, United States of America","place_id":"29195739","datatype":"locationiq"},{"latitude":" 32.23300","longitude":"-110.95228","name":" Chick-fil-A - Tucson","address":" USA-(AZ) Tucson","street_number":null,"street_name":null,"zip":"85721","city":"Tucson","area":"Rincon Heights","county":"Pima County","state":"Arizona","country":"us","formatted_address":"Student Union, East North Campus Drive, Rincon Heights, Tucson, Pima County, Arizona, 85721, United States of America","place_id":"77192335","datatype":"locationiq"},{"latitude":" 40.56727","longitude":"-111.89082","name":" Chick-fil-A - Sandy","address":" USA-(UT) Sandy","street_number":null,"street_name":"West 10070 South","zip":"84070","city":"Sandy","area":null,"county":"Salt Lake County","state":"Utah","country":"us","formatted_address":"Chick-fil-A, West 10070 South, Sandy, Salt Lake County, Utah, 84070, United States of America","place_id":"168760750","datatype":"locationiq"},{"latitude":" 39.08004","longitude":"-108.58427","name":" Chick-fil-A - Grand Junction","address":" USA-(CO) Grand Junction","street_number":"522","street_name":"Bogart Lane","zip":"81505","city":"Grand Junction","area":null,"county":"Mesa County","state":"Colorado","country":"us","formatted_address":"Chick-fla, 522, Bogart Lane, Grand Junction, Mesa County, Colorado, 81505, United States of America","place_id":"174071112","datatype":"locationiq"},{"latitude":" 41.19457","longitude":"-111.98394","name":" Chick-fil-A - Ogden","address":" USA-(UT) Ogden","street_number":"3698","street_name":"South 250 West","zip":"84405","city":"Riverdale","area":null,"county":"Weber County","state":"Utah","country":"us","formatted_address":"3698, South 250 West, Riverdale, Weber County, Utah, 84405, United States of America","place_id":"206961817","datatype":"locationiq"},{"latitude":" 32.22185","longitude":"-110.91577","name":" Chick-fil-A - Tucson","address":" USA-(AZ) Tucson","street_number":null,"street_name":"Richey Avenue","zip":"85716-5400","city":"Tucson","area":null,"county":"Pima County","state":"Arizona","country":"us","formatted_address":"Chick-fil-A, Richey Avenue, El Con Center, Tucson, Pima County, Arizona, 85716-5400, United States of America","place_id":"159933316","datatype":"locationiq"},{"latitude":" 34.10673","longitude":"-117.53929","name":" Chick-fil-A - Rancho Cucamonga","address":" USA-(CA) Rancho Cucamonga","street_number":null,"street_name":"Foothill Boulevard","zip":"91730","city":"Rancho Cucamonga","area":null,"county":"San Bernardino County","state":"California","country":"us","formatted_address":"Chick-fil-A, Foothill Boulevard, Rancho Cucamonga, San Bernardino County, California, 91730, United States of America","place_id":"13121796","datatype":"locationiq"},{"latitude":" 33.89968","longitude":"-117.55608","name":" Chick-fil-A - Corona","address":" USA-(CA) Corona","street_number":null,"street_name":"Hidden Valley Parkway","zip":"92800","city":"Corona","area":null,"county":"Riverside County","state":"California","country":"us","formatted_address":"Hidden Valley Parkway, Corona Spectrum, Corona, Riverside County, California, 92800, United States of America","place_id":"170071322","datatype":"locationiq"},{"latitude":" 34.02603","longitude":"-117.83620","name":" Chick-fil-A - City of Industry","address":" USA-(CA) City Of Industry","street_number":null,"street_name":"Valley Boulevard","zip":"91789","city":"Walnut","area":null,"county":"Los Angeles County","state":"California","country":"us","formatted_address":"Chick-fil-A, Valley Boulevard, Walnut, Los Angeles County, California, 91789, United States of America","place_id":"27721258","datatype":"locationiq"},{"latitude":" 36.85285","longitude":"-119.79046","name":" Chick-fil-A - Fresno","address":" USA-(CA) Fresno","street_number":"8064","street_name":"North Blackstone Avenue","zip":"93720","city":"Fresno","area":null,"county":"Fresno County","state":"California","country":"us","formatted_address":"8064, North Blackstone Avenue, Fresno, Fresno County, California, 93720, United States of America","place_id":"178327814","datatype":"locationiq"},{"latitude":" 33.87174","longitude":"-118.35458","name":" Chick-fil-A - Redondo Beach","address":" USA-(CA) Redondo Beach","street_number":null,"street_name":"Artesia Boulevard","zip":"90278","city":"Redondo Beach","area":null,"county":"Los Angeles County","state":"California","country":"us","formatted_address":"Artesia Boulevard, Redondo Beach, Los Angeles County, California, 90278, United States of America","place_id":"153747730","datatype":"locationiq"},{"latitude":" 41.07723","longitude":"-111.97502","name":" Chick-fil-A - Layton","address":" USA-(UT) Layton","street_number":"779","street_name":"Ring Road","zip":"84041","city":null,"area":"Layton Meadows Apartments","county":"Davis County","state":"Utah","country":"us","formatted_address":"779, Ring Road, Layton Meadows Apartments, Layton, Davis County, Utah, 84041, United States of America","place_id":"206746178","datatype":"locationiq"},{"latitude":" 32.62938","longitude":"-116.96725","name":" Chick-fil-A - Chula Vista","address":" USA-(CA) Chula Vista","street_number":"2089","street_name":"Olympic Parkway","zip":"91915","city":"Chula Vista","area":null,"county":"San Diego County","state":"California","country":"us","formatted_address":"Chick-fil-A, 2089, Olympic Parkway, Chula Vista, San Diego County, California, 91915, United States of America","place_id":"5948843","datatype":"locationiq"},{"latitude":" 34.01748","longitude":"-118.28268","name":" Chick-fil-A - Los Angeles","address":" USA-(CA) Los Angeles","street_number":null,"street_name":"Flower Street","zip":"90089-0871","city":"Los Angeles","area":null,"county":"Los Angeles County","state":"California","country":"us","formatted_address":"Tuscany, Flower Street, Jefferson, Los Angeles, Los Angeles County, California, 90089-0871, United States of America","place_id":"80385490","datatype":"locationiq"},{"latitude":" 43.60566","longitude":"-116.20600","name":" Chick-fil-A - Boise","address":" USA-(ID) Boise","street_number":"2133","street_name":"West Cesar Chavez Lane","zip":"83725","city":"Boise City","area":null,"county":"Ada County","state":"Idaho","country":"us","formatted_address":"(EDUC) Education Building Cesar Chavez Lane, 2133, West Cesar Chavez Lane, Boise City, Ada County, Idaho, 83725, United States of America","place_id":"123463776","datatype":"locationiq"},{"latitude":" 40.62404","longitude":"-111.98433","name":" Chick-fil-A - West Jordan","address":" USA-(UT) West Jordan","street_number":"7689","street_name":"South Crystal Downs Lane","zip":"84084","city":"West Jordan","area":null,"county":"Salt Lake County","state":"Utah","country":"us","formatted_address":"7689, South Crystal Downs Lane, West Jordan, Salt Lake County, Utah, 84084, United States of America","place_id":"206828458","datatype":"locationiq"},{"latitude":" 39.56335","longitude":"-105.10938","name":" Chick-fil-A - Littleton","address":" USA-(CO) Littleton","street_number":null,"street_name":null,"zip":"80127-5008","city":null,"area":null,"county":"Jefferson County","state":"Colorado","country":"us","formatted_address":"Chick-Fil-A, Kipling Trail (East), Ken Caryl, Jefferson County, Colorado, 80127-5008, United States of America","place_id":"5728818","datatype":"locationiq"},{"latitude":" 32.31160","longitude":"-106.74500","name":" Chick-fil-A - Las Cruces","address":" USA-(NM) Las Cruces","street_number":null,"street_name":"South Telshor Boulevard","zip":"88003","city":"Las Cruces","area":null,"county":"Do\u00f1a Ana County","state":"New Mexico","country":"us","formatted_address":"South Telshor Boulevard, Las Cruces, Do\u00f1a Ana County, New Mexico, 88003, United States of America","place_id":"132552641","datatype":"locationiq"},{"latitude":" 39.62046","longitude":"-105.09056","name":" Chick-fil-A - Lakewood","address":" USA-(CO) Lakewood","street_number":null,"street_name":"South Wadsworth Boulevard","zip":"80123","city":"Lakewood","area":null,"county":"Jefferson County","state":"Colorado","country":"us","formatted_address":"Black-eyed Pea, South Wadsworth Boulevard, Lakewood, Jefferson County, Colorado, 80123, United States of America","place_id":"6591562","datatype":"locationiq"},{"latitude":" 41.16199","longitude":"-104.80735","name":" Chick-fil-A - Cheyenne","address":" USA-(WY) Cheyenne","street_number":"1400","street_name":"Dell Range Boulevard","zip":"82009","city":"Cheyenne","area":null,"county":"Laramie County","state":"Wyoming","country":"us","formatted_address":"Sears, 1400, Dell Range Boulevard, Cheyenne, Laramie County, Wyoming, 82009, United States of America","place_id":"124830530","datatype":"locationiq"},{"latitude":" 33.63590","longitude":"-112.23268","name":" Chick-fil-A - Peoria","address":" USA-(AZ) Peoria","street_number":"16657","street_name":"North 83rd Avenue","zip":"85382","city":"Peoria","area":null,"county":"Maricopa County","state":"Arizona","country":"us","formatted_address":"Chick-fil-A, 16657, North 83rd Avenue, Peoria, Maricopa County, Arizona, 85382, United States of America","place_id":"37166035","datatype":"locationiq"},{"latitude":" 33.63858","longitude":"-112.35563","name":" Chick-fil-A - Surprise","address":" USA-(AZ) Surprise","street_number":"13751","street_name":"West Bell Road","zip":"85374","city":"Surprise","area":null,"county":"Maricopa County","state":"Arizona","country":"us","formatted_address":"US Bank, 13751, West Bell Road, Surprise, Maricopa County, Arizona, 85374, United States of America","place_id":"149111720","datatype":"locationiq"},{"latitude":" 33.43398","longitude":"-111.86998","name":" Chick-fil-A - Mesa","address":" USA-(AZ) Mesa","street_number":"921","street_name":"North Dobson Road","zip":"85201","city":"Mesa","area":null,"county":"Maricopa County","state":"Arizona","country":"us","formatted_address":"Panda Express, 921, North Dobson Road, Mesa, Maricopa County, Arizona, 85201, United States of America","place_id":"80356362","datatype":"locationiq"},{"latitude":" 48.73888","longitude":"-122.48616","name":" Chick-fil-A - Bellingham","address":" USA-(WA) Bellingham","street_number":null,"street_name":"North Garden Street","zip":"WA 98225","city":"Bellingham","area":null,"county":"Whatcom County","state":"Washington","country":"us","formatted_address":"Viking Union, North Garden Street, Bellingham, Whatcom County, Washington, WA 98225, United States of America","place_id":"121500484","datatype":"locationiq"},{"latitude":" 38.26132","longitude":"-122.05295","name":" Chick-fil-A - Fairfield","address":" USA-(CA) Fairfield","street_number":null,"street_name":"Solano Mall","zip":"94533","city":"Fairfield","area":null,"county":"Solano County","state":"California","country":"us","formatted_address":"Solano Mall, Fairfield, Solano County, California, 94533, United States of America","place_id":"163969076","datatype":"locationiq"},{"latitude":" 34.41951","longitude":"-118.56214","name":" Chick-fil-A - Santa Clarita","address":" USA-(CA) Santa Clarita","street_number":"24120","street_name":"Magic Mountain Parkway","zip":"91355","city":"Santa Clarita","area":null,"county":"Los Angeles County","state":"California","country":"us","formatted_address":"24120, Magic Mountain Parkway, Valencia, Santa Clarita, Los Angeles County, California, 91355, United States of America","place_id":"178558327","datatype":"locationiq"},{"latitude":" 32.29077","longitude":"-110.97834","name":" Chick-fil-A - Tucson","address":" USA-(AZ) Tucson","street_number":"4631","street_name":"North Oracle Road","zip":"85705","city":"Tucson","area":"Amphitheater","county":"Pima County","state":"Arizona","country":"us","formatted_address":"4631, North Oracle Road, Amphitheater, Stockham, Tucson, Pima County, Arizona, 85705, United States of America","place_id":"171057334","datatype":"locationiq"},{"latitude":" 40.37679","longitude":"-111.79377","name":" Chick-fil-A - American Fork","address":" USA-(UT) American Fork","street_number":null,"street_name":"East Main Street","zip":"84003","city":"American Fork","area":null,"county":"Utah County","state":"Utah","country":"us","formatted_address":"Central Bank, East Main Street, American Fork, Utah County, Utah, 84003, United States of America","place_id":"10976820","datatype":"locationiq"},{"latitude":" 33.38296","longitude":"-111.80592","name":" Chick-fil-A - Mesa","address":" USA-(AZ) Mesa","street_number":null,"street_name":"East Inverness Avenue","zip":"85233","city":"Mesa","area":null,"county":"Maricopa County","state":"Arizona","country":"us","formatted_address":"Chick-fil-A, East Inverness Avenue, Mesa, Maricopa County, Arizona, 85233, United States of America","place_id":"146677075","datatype":"locationiq"},{"latitude":" 33.13427","longitude":"-117.17793","name":" Chick-fil-A - San Marcos","address":" USA-(CA) San Marcos","street_number":"565","street_name":"Grand Avenue","zip":"92078","city":"San Marcos","area":null,"county":"San Diego County","state":"California","country":"us","formatted_address":"565, Grand Avenue, San Elijo Hills, San Marcos, San Diego County, California, 92078, United States of America","place_id":"179857239","datatype":"locationiq"},{"latitude":" 33.17848","longitude":"-117.29497","name":" Chick-fil-A - Oceanside","address":" USA-(CA) Oceanside","street_number":"3490","street_name":"Marron Road","zip":"92010","city":"Oceanside","area":null,"county":"San Diego County","state":"California","country":"us","formatted_address":"3490, Marron Road, Oceanside, San Diego County, California, 92010, United States of America","place_id":"6439150","datatype":"locationiq"},{"latitude":" 35.20600","longitude":"-106.65610","name":" Chick-fil-A - Albuquerque","address":" USA-(NM) Albuquerque","street_number":null,"street_name":"Ellison Road Northwest","zip":"87114","city":"Albuquerque","area":null,"county":"Bernalillo County","state":"New Mexico","country":"us","formatted_address":"Ellison Road Northwest, Albuquerque, Bernalillo County, New Mexico, 87114, United States of America","place_id":"108947429","datatype":"locationiq"},{"latitude":" 33.66775","longitude":"-112.12288","name":" Chick-fil-A - Phoenix","address":" USA-(AZ) Phoenix","street_number":null,"street_name":"West Beardsley Road","zip":"85027-3241","city":"Phoenix","area":null,"county":"Maricopa County","state":"Arizona","country":"us","formatted_address":"West Beardsley Road, Deer Valley, Phoenix, Maricopa County, Arizona, 85027-3241, United States of America","place_id":"164043506","datatype":"locationiq"},{"latitude":" 39.70895","longitude":"-104.82479","name":" Chick-fil-A - Aurora","address":" USA-(CO) Aurora","street_number":null,"street_name":"South Abilene Street","zip":"80012","city":"Aurora","area":null,"county":"Arapahoe County","state":"Colorado","country":"us","formatted_address":"South Abilene Street, Aurora, Arapahoe County, Colorado, 80012, United States of America","place_id":"126633645","datatype":"locationiq"},{"latitude":" 33.28181","longitude":"-111.79030","name":" Chick-fil-A - Chandler","address":" USA-(AZ) Chandler","street_number":null,"street_name":"South Gilbert Road","zip":"85296","city":"Chandler","area":null,"county":"Maricopa County","state":"Arizona","country":"us","formatted_address":"Chick-fil-A, South Gilbert Road, Crossroads Towne Center, Chandler, Maricopa County, Arizona, 85296, United States of America","place_id":"129972081","datatype":"locationiq"},{"latitude":" 40.15254","longitude":"-105.09709","name":" Chick-fil-A - Longmont","address":" USA-(CO) Longmont","street_number":null,"street_name":"CO 119","zip":"80501-6423","city":null,"area":null,"county":"Boulder County","state":"Colorado","country":"us","formatted_address":"CO 119, Harvest Junction North & South, Longmont, Boulder County, Colorado, 80501-6423, United States of America","place_id":"136274755","datatype":"locationiq"},{"latitude":" 33.83075","longitude":"-118.35235","name":" Chick-fil-A - Torrance-Del Amo Fashion Center","address":" USA-(CA) Torrance","street_number":null,"street_name":"West Carson Street","zip":"90503","city":"Torrance","area":null,"county":"Los Angeles County","state":"California","country":"us","formatted_address":"Bank of America, West Carson Street, La Fresa, Torrance, Los Angeles County, California, 90503, United States of America","place_id":"104554183","datatype":"locationiq"},{"latitude":" 33.82394","longitude":"-117.51397","name":" Chick-fil-A - Corona","address":" USA-(CA) Corona","street_number":"3555","street_name":"Grand Oaks","zip":"92881","city":"Corona","area":null,"county":"Riverside County","state":"California","country":"us","formatted_address":"Chick-fil-A, 3555, Grand Oaks, The Crossings At Corona, Dos Lagos, Corona, Riverside County, California, 92881, United States of America","place_id":"5923271","datatype":"locationiq"},{"latitude":" 33.46246","longitude":"-112.34149","name":" Chick-fil-A - Goodyear","address":" USA-(AZ) Goodyear","street_number":null,"street_name":"North Dysart Road","zip":"85323","city":"Avondale","area":null,"county":"Maricopa County","state":"Arizona","country":"us","formatted_address":"Panda Express, North Dysart Road, Avondale, Maricopa County, Arizona, 85323, United States of America","place_id":"6553337","datatype":"locationiq"},{"latitude":" 33.86304","longitude":"-118.09104","name":" Chick-fil-A - Cerritos","address":" USA-(CA) Cerritos","street_number":null,"street_name":"Gridley Road","zip":"90701","city":"Cerritos","area":null,"county":"Los Angeles County","state":"California","country":"us","formatted_address":"Gridley Road, Cerritos, Los Angeles County, California, 90701, United States of America","place_id":"157125304","datatype":"locationiq"},{"latitude":" 35.17375","longitude":"-106.57749","name":" Chick-fil-A - Albuquerque","address":" USA-(NM) Albuquerque","street_number":null,"street_name":"Paseo del Norte Boulevard Northeast","zip":"87113","city":"Albuquerque","area":null,"county":"Bernalillo County","state":"New Mexico","country":"us","formatted_address":"Kingdom Hall of Jehovah's Witnesses-Valley View and Sierra Vista, Paseo del Norte Boulevard Northeast, Albuquerque, Bernalillo County, New Mexico, 87113, United States of America","place_id":"3165085","datatype":"locationiq"},{"latitude":" 32.10547","longitude":"-110.95151","name":" Chick-fil-A - Tucson","address":" USA-(AZ) Tucson","street_number":"1538","street_name":"East Hermans Road","zip":"85706","city":"Tucson","area":null,"county":"Pima County","state":"Arizona","country":"us","formatted_address":"1538, East Hermans Road, Tucson, Pima County, Arizona, 85706, United States of America","place_id":"177417652","datatype":"locationiq"},{"latitude":" 33.91750","longitude":"-117.96563","name":" Chick-fil-A - La Habra","address":" USA-(CA) La Habra","street_number":"1831","street_name":"West Imperial Highway","zip":"90631","city":"La Habra","area":null,"county":"Orange County","state":"California","country":"us","formatted_address":"1831, West Imperial Highway, La Habra, Orange County, California, 90631, United States of America","place_id":"179260324","datatype":"locationiq"},{"latitude":" 40.40781","longitude":"-105.00636","name":" Chick-fil-A - Loveland","address":" USA-(CO) Loveland","street_number":"1545","street_name":"Rocky Mountain Avenue","zip":"80538-8715","city":"Loveland","area":null,"county":"Larimer County","state":"Colorado","country":"us","formatted_address":"Chick-fil-A, 1545, Rocky Mountain Avenue, Loveland, Larimer County, Colorado, 80538-8715, United States of America","place_id":"80949265","datatype":"locationiq"},{"latitude":" 33.39376","longitude":"-111.68895","name":" Chick-fil-A - Mesa","address":" USA-(AZ) Mesa","street_number":null,"street_name":"Superstition Springs Center","zip":"85206","city":"Mesa","area":null,"county":"Maricopa County","state":"Arizona","country":"us","formatted_address":"Old Country Buffet, Superstition Springs Center, Mesa, Maricopa County, Arizona, 85206, United States of America","place_id":"147113334","datatype":"locationiq"},{"latitude":" 34.06841","longitude":"-117.55667","name":" Chick-fil-A - Ontario","address":" USA-(CA) Ontario","street_number":"4350","street_name":"Ontario Mills Parkway","zip":"91764","city":"Ontario","area":null,"county":"San Bernardino County","state":"California","country":"us","formatted_address":"Chick-fil-A, 4350, Ontario Mills Parkway, Ontario, San Bernardino County, California, 91764, United States of America","place_id":"79990031","datatype":"locationiq"},{"latitude":" 35.35449","longitude":"-119.06075","name":" Chick-fil-A - Bakersfield","address":" USA-(CA) Bakersfield","street_number":null,"street_name":"California Avenue","zip":"93309","city":"Bakersfield","area":null,"county":"Kern County","state":"California","country":"us","formatted_address":"Vitamin Shoppe, California Avenue, Bakersfield, Kern County, California, 93309, United States of America","place_id":"83535239","datatype":"locationiq"},{"latitude":" 34.22081","longitude":"-119.15765","name":" Chick-fil-A - Oxnard","address":" USA-(CA) Oxnard","street_number":"2040","street_name":"North Rose Avenue","zip":"93036","city":"Oxnard","area":null,"county":"Ventura County","state":"California","country":"us","formatted_address":"Chick-fil-A, 2040, North Rose Avenue, Oxnard, Ventura County, California, 93036, United States of America","place_id":"88484232","datatype":"locationiq"},{"latitude":" 39.92877","longitude":"-105.14018","name":" Chick-fil-A - Superior","address":" USA-(CO) Superior","street_number":null,"street_name":"Coalton Road","zip":"80029","city":"Broomfield","area":null,"county":"City and County of Broomfield","state":"Colorado","country":"us","formatted_address":"Sonic, Coalton Road, Broomfield, City and County of Broomfield, Colorado, 80029, United States of America","place_id":"124504368","datatype":"locationiq"},{"latitude":" 33.72660","longitude":"-117.78906","name":" Chick-fil-A - Irvine","address":" USA-(CA) Irvine","street_number":null,"street_name":"Jamboree Road","zip":"92782","city":"Tustin","area":null,"county":"Orange County","state":"California","country":"us","formatted_address":"Jamboree Road, Tustin Ranch, Tustin, Orange County, California, 92782, United States of America","place_id":"158448376","datatype":"locationiq"},{"latitude":" 34.00235","longitude":"-117.72779","name":" Chick-fil-A - Chino Hills","address":" USA-(CA) Chino Hills","street_number":"3640","street_name":"Grand Avenue","zip":"91709","city":"Chino Hills","area":null,"county":"San Bernardino County","state":"California","country":"us","formatted_address":"Chick-fil-A, 3640, Grand Avenue, Chino Hills, San Bernardino County, California, 91709, United States of America","place_id":"137950216","datatype":"locationiq"},{"latitude":" 32.91411","longitude":"-117.14435","name":" Chick-fil-A - San Diego","address":" USA-(CA) San Diego","street_number":"10750","street_name":"Camino Ruiz","zip":"92126","city":"San Diego","area":null,"county":"San Diego County","state":"California","country":"us","formatted_address":"10750, Camino Ruiz, Mira Mesa, San Diego, San Diego County, California, 92126, United States of America","place_id":"6610402","datatype":"locationiq"},{"latitude":" 39.40849","longitude":"-104.85911","name":" Chick-fil-A - Castle Rock","address":" USA-(CO) Castle Rock","street_number":null,"street_name":"Trail Boss Drive","zip":"80108","city":null,"area":null,"county":"Douglas County","state":"Colorado","country":"us","formatted_address":"Chick-Fil-A, Trail Boss Drive, Castle Rock, Douglas County, Colorado, 80108, United States of America","place_id":"18438929","datatype":"locationiq"},{"latitude":" 32.28276","longitude":"-106.74769","name":" Chick-fil-A - Las Cruces","address":" USA-(NM) Las Cruces","street_number":null,"street_name":null,"zip":"88003","city":"New Mexico State University","area":null,"county":"Do\u00f1a Ana County","state":"New Mexico","country":"us","formatted_address":"Corbett Center Student Union, International Mall, New Mexico State University, Do\u00f1a Ana County, New Mexico, 88003, United States of America","place_id":"86997325","datatype":"locationiq"},{"latitude":" 39.64270","longitude":"-105.00774","name":" Chick-fil-A - Sheridan","address":" USA-(CO) Sheridan","street_number":"4090","street_name":"River Point Parkway","zip":"80110","city":"Sheridan","area":null,"county":"Arapahoe County","state":"Colorado","country":"us","formatted_address":"Chick-Fil-A, 4090, River Point Parkway, River Point at Sheridan, Sheridan, Arapahoe County, Colorado, 80110, United States of America","place_id":"6759163","datatype":"locationiq"},{"latitude":" 33.69963","longitude":"-117.88539","name":" Chick-fil-A - Santa Ana","address":" USA-(CA) Santa Ana","street_number":null,"street_name":"Macarthur Boulevard","zip":"92707","city":"Santa Ana","area":null,"county":"Orange County","state":"California","country":"us","formatted_address":"Chick-fil-A, Macarthur Boulevard, Santa Ana, Orange County, California, 92707, United States of America","place_id":"122757909","datatype":"locationiq"},{"latitude":" 34.13377","longitude":"-117.63670","name":" Chick-fil-A - Upland","address":" USA-(CA) Upland","street_number":null,"street_name":"Campus Avenue","zip":"91784","city":"Upland","area":null,"county":"San Bernardino County","state":"California","country":"us","formatted_address":"Campus Avenue, Upland, San Bernardino County, California, 91784, United States of America","place_id":"101498192","datatype":"locationiq"},{"latitude":" 38.94716","longitude":"-104.80319","name":" Chick-fil-A - Colorado Springs","address":" USA-(CO) Colorado Springs","street_number":"7990","street_name":"North Academy Boulevard","zip":"80920","city":"Colorado Springs","area":null,"county":"El Paso County","state":"Colorado","country":"us","formatted_address":"Chick-fil-a, 7990, North Academy Boulevard, Colorado Springs, El Paso County, Colorado, 80920, United States of America","place_id":"118574907","datatype":"locationiq"},{"latitude":" 38.59874","longitude":"-121.41725","name":" Chick-fil-A - Sacramento","address":" USA-(CA) Sacramento","street_number":"2101","street_name":"Alta Arden Expressway","zip":"95825","city":"Sacramento","area":"Ben Ali","county":"Sacramento County","state":"California","country":"us","formatted_address":"Chick-fil-A, 2101, Alta Arden Expressway, Ben Ali, Sacramento, Sacramento County, California, 95825, United States of America","place_id":"27176804","datatype":"locationiq"},{"latitude":" 33.46482","longitude":"-112.27439","name":" Chick-fil-A - Avondale","address":" USA-(AZ) Avondale","street_number":null,"street_name":"West McDowell Road","zip":"85392","city":"Avondale","area":null,"county":"Maricopa County","state":"Arizona","country":"us","formatted_address":"Paradise Bakery, West McDowell Road, Avondale, Maricopa County, Arizona, 85392, United States of America","place_id":"19518104","datatype":"locationiq"},{"latitude":" 39.88315","longitude":"-105.02459","name":" Chick-fil-A - Federal Heights","address":" USA-(CO) Federal Heights","street_number":null,"street_name":"Federal Boulevard","zip":"80031","city":null,"area":null,"county":"Adams County","state":"Colorado","country":"us","formatted_address":"Chick-fil-A, Federal Boulevard, Federal Heights, Adams County, Colorado, 80031, United States of America","place_id":"137057800","datatype":"locationiq"},{"latitude":" 32.88014","longitude":"-111.68299","name":" Chick-fil-A - Casa Grande","address":" USA-(AZ) Casa Grande","street_number":null,"street_name":"Casa Grande la Palma Highway","zip":"85122","city":"Casa Grande","area":"Mission Royale","county":"Pinal County","state":"Arizona","country":"us","formatted_address":"In-N-Out Burger, Casa Grande la Palma Highway, Mission Royale, Casa Grande, Pinal County, Arizona, 85122, United States of America","place_id":"104574889","datatype":"locationiq"},{"latitude":" 33.55374","longitude":"-117.68586","name":" Chick-fil-A - Laguna Niguel","address":" USA-(CA) Laguna Niguel","street_number":null,"street_name":"Crown Valley Parkway","zip":"92677","city":"Laguna Niguel","area":null,"county":"Orange County","state":"California","country":"us","formatted_address":"Chick-fil-A, Crown Valley Parkway, Laguna Niguel, Orange County, California, 92677, United States of America","place_id":"7801827","datatype":"locationiq"},{"latitude":" 39.69507","longitude":"-104.86595","name":" Chick-fil-A - Aurora","address":" USA-(CO) Aurora","street_number":null,"street_name":"South Havana Street","zip":"80012-4014","city":"Aurora","area":null,"county":"Arapahoe County","state":"Colorado","country":"us","formatted_address":"S Havana St & E Arizona Pl, South Havana Street, Aurora, Arapahoe County, Colorado, 80012-4014, United States of America","place_id":"32010317","datatype":"locationiq"},{"latitude":" 33.69524","longitude":"-117.82672","name":" Chick-fil-A - Tustin","address":" USA-(CA) Tustin","street_number":null,"street_name":"Jamboree Road","zip":"92614","city":"Tustin","area":null,"county":"Orange County","state":"California","country":"us","formatted_address":"Chick-fil-A, Jamboree Road, Tustin, Orange County, California, 92614, United States of America","place_id":"101697023","datatype":"locationiq"},{"latitude":" 38.89667","longitude":"-104.83408","name":" Chick-fil-A - Colorado Springs","address":" USA-(CO) Colorado Springs","street_number":null,"street_name":"East Garden of the Gods Road","zip":"80919","city":"Colorado Springs","area":null,"county":"El Paso County","state":"Colorado","country":"us","formatted_address":"Chick fil-a, East Garden of the Gods Road, Colorado Springs, El Paso County, Colorado, 80919, United States of America","place_id":"114229351","datatype":"locationiq"},{"latitude":" 34.07054","longitude":"-117.20361","name":" Chick-fil-A - Redlands","address":" USA-(CA) Redlands","street_number":"27520","street_name":"West Lugonia Avenue","zip":"92374","city":"Redlands","area":null,"county":"San Bernardino County","state":"California","country":"us","formatted_address":"27520, West Lugonia Avenue, Redlands, San Bernardino County, California, 92374, United States of America","place_id":"146687025","datatype":"locationiq"},{"latitude":" 39.61340","longitude":"-105.09677","name":" Chick-fil-A - Littleton","address":" USA-(CO) Littleton","street_number":null,"street_name":"West Cross Drive","zip":"80123","city":"Denver","area":null,"county":"Denver County","state":"Colorado","country":"us","formatted_address":"West Cross Drive, Denver, Denver County, Colorado, 80123, United States of America","place_id":"69480768","datatype":"locationiq"},{"latitude":" 35.29740","longitude":"-120.65375","name":" Chick-fil-A - San Luis Obispo","address":" USA-(CA) San Luis Obispo","street_number":null,"street_name":"Grand Avenue","zip":"93407","city":"San Luis Obispo","area":null,"county":"San Luis Obispo County","state":"California","country":"us","formatted_address":"Yosemite Hall: Tower 9 (114 T9), Grand Avenue, San Luis Obispo, San Luis Obispo County, California, 93407, United States of America","place_id":"80636057","datatype":"locationiq"},{"latitude":" 40.71048","longitude":"-112.01683","name":" Chick-fil-A - Salt Lake City","address":" USA-(UT) Salt Lake City","street_number":"2754 S","street_name":"High Parkway","zip":"84120","city":"West Valley City","area":null,"county":"Salt Lake County","state":"Utah","country":"us","formatted_address":"2754 S, High Parkway, West Valley City, Salt Lake County, Utah, 84120, United States of America","place_id":"173033702","datatype":"locationiq"},{"latitude":" 33.67826","longitude":"-117.66351","name":" Chick-fil-A - Foothill Ranch","address":" USA-(CA) Foothill Ranch","street_number":"26792","street_name":"Portola Parkway","zip":"92610","city":"Lake Forest","area":null,"county":"Orange County","state":"California","country":"us","formatted_address":"Chick-fil-A, 26792, Portola Parkway, Foothill Ranch, Lake Forest, Orange County, California, 92610, United States of America","place_id":"144780125","datatype":"locationiq"},{"latitude":" 39.56547","longitude":"-104.88233","name":" Chick-fil-A - Lone Tree","address":" USA-(CO) Lone Tree","street_number":null,"street_name":"County Line Road","zip":"80124","city":"Lone Tree","area":null,"county":"Douglas County","state":"Colorado","country":"us","formatted_address":"Burger King, County Line Road, Lone Tree, Douglas County, Lone Tree, Colorado, 80124, United States of America","place_id":"80583152","datatype":"locationiq"},{"latitude":" 41.18939","longitude":"-111.98257","name":" Chick-fil-A - Riverdale","address":" USA-(UT) Riverdale","street_number":null,"street_name":"South Riverdale Road","zip":"84408","city":"Riverdale","area":null,"county":"Weber County","state":"Utah","country":"us","formatted_address":"Olive Garden, South Riverdale Road, Riverdale, Weber County, Utah, 84408, United States of America","place_id":"1433148","datatype":"locationiq"},{"latitude":" 33.30452","longitude":"-111.74348","name":" Chick-fil-A - Gilbert","address":" USA-(AZ) Gilbert","street_number":"2533","street_name":"South Market Street","zip":"85295","city":"Gilbert","area":null,"county":"Maricopa County","state":"Arizona","country":"us","formatted_address":"Chick-fil-A, 2533, South Market Street, Santan Village, Gilbert, Maricopa County, Arizona, 85295, United States of America","place_id":"99683017","datatype":"locationiq"},{"latitude":" 38.94543","longitude":"-104.79645","name":" Chick-fil-A - Colorado Springs","address":" USA-(CO) Colorado Springs","street_number":"1804","street_name":"Briargate Boulevard","zip":"80920","city":"Colorado Springs","area":null,"county":"El Paso County","state":"Colorado","country":"us","formatted_address":"1804, Briargate Boulevard, Colorado Springs, El Paso County, Colorado, 80920, United States of America","place_id":"180852389","datatype":"locationiq"},{"latitude":" 33.87295","longitude":"-117.74507","name":" Chick-fil-A - Yorba Linda","address":" USA-(CA) Yorba Linda","street_number":"22601","street_name":"Old Canal Road","zip":"92887","city":"Yorba Linda","area":null,"county":"Orange County","state":"California","country":"us","formatted_address":"22601, Old Canal Road, Savi Ranch, Yorba Linda, Orange County, California, 92887, United States of America","place_id":"179197712","datatype":"locationiq"},{"latitude":" 33.56055","longitude":"-117.20343","name":" Chick-fil-A - Murietta","address":" USA-(CA) Murrieta","street_number":"24607","street_name":"Madison Avenue","zip":"92562","city":"Murrieta","area":null,"county":"Riverside County","state":"California","country":"us","formatted_address":"24607, Madison Avenue, California Oaks, Murrieta, Riverside County, California, 92562, United States of America","place_id":"179428666","datatype":"locationiq"},{"latitude":" 33.33518","longitude":"-111.68717","name":" Chick-fil-A - Mesa","address":" USA-(AZ) Mesa","street_number":null,"street_name":"South Power Road","zip":"85212","city":"Tempe","area":null,"county":"Maricopa County","state":"Arizona","country":"us","formatted_address":"South Power Road, Tempe, Maricopa County, Arizona, 85212, United States of America","place_id":"163665437","datatype":"locationiq"},{"latitude":" 40.63592","longitude":"-111.88425","name":" Chick-fil-A - Murray","address":" USA-(UT) Murray","street_number":null,"street_name":"Fashion Boulevard","zip":"84107","city":"Murray","area":null,"county":"Salt Lake County","state":"Utah","country":"us","formatted_address":"The Container Store, Fashion Boulevard, Murray, Salt Lake County, Utah, 84107, United States of America","place_id":"52150546","datatype":"locationiq"},{"latitude":" 39.54388","longitude":"-104.94538","name":" Chick-fil-A - Highlands Ranch","address":" USA-(CO) Highlands Ranch","street_number":null,"street_name":"East Highlands Ranch Parkway","zip":"80126","city":null,"area":null,"county":"Douglas County","state":"Colorado","country":"us","formatted_address":"East Highlands Ranch Parkway, Highlands Ranch, Douglas County, Colorado, 80126, United States of America","place_id":"162165509","datatype":"locationiq"},{"latitude":" 40.53792","longitude":"-105.07719","name":" Chick-fil-A - Fort Collins","address":" USA-(CO) Fort Collins","street_number":"3605","street_name":"South College Avenue","zip":"80525","city":"Fort Collins","area":null,"county":"Larimer County","state":"Colorado","country":"us","formatted_address":"Chick-fil-A, 3605, South College Avenue, Fort Collins Marketplace, Fort Collins, Larimer County, Colorado, 80525, United States of America","place_id":"125601573","datatype":"locationiq"},{"latitude":" 38.88600","longitude":"-104.71755","name":" Chick-fil-A - Colorado Springs","address":" USA-(CO) Colorado Springs","street_number":null,"street_name":"Bloomington Street","zip":"80922","city":"Colorado Springs","area":null,"county":"El Paso County","state":"Colorado","country":"us","formatted_address":"Chick-fil-A, Bloomington Street, First and Main Town Center, Colorado Springs, El Paso County, Colorado, 80922, United States of America","place_id":"4467143","datatype":"locationiq"},{"latitude":" 33.52666","longitude":"-117.14916","name":" Chick-fil-A - Temecula","address":" USA-(CA) Temecula","street_number":null,"street_name":"Margarita Road","zip":"92390","city":"Temecula","area":"Promenade","county":"Riverside County","state":"California","country":"us","formatted_address":"Chick-fil-A, Margarita Road, Promenade, Winchester Highlands, Temecula, Riverside County, California, 92390, United States of America","place_id":"109486210","datatype":"locationiq"},{"latitude":" 39.91451","longitude":"-104.97074","name":" Chick-fil-A - Thornton","address":" USA-(CO) Thornton","street_number":null,"street_name":"East 120th Avenue","zip":"80241","city":"Northglenn","area":null,"county":"Adams County","state":"Colorado","country":"us","formatted_address":"Chick-fil-A, East 120th Avenue, Northglenn, Adams County, Colorado, 80241, United States of America","place_id":"5083000","datatype":"locationiq"},{"latitude":" 33.83174","longitude":"-117.83609","name":" Chick-fil-A - Orange","address":" USA-(CA) Orange","street_number":null,"street_name":"North Tustin Street","zip":"92865","city":"Orange","area":null,"county":"Orange County","state":"California","country":"us","formatted_address":"In-N-Out Burger, North Tustin Street, Orange, Orange County, California, 92865, United States of America","place_id":"108874492","datatype":"locationiq"},{"latitude":" 38.84450","longitude":"-104.75891","name":" Chick-fil-A - Colorado Springs","address":" USA-(CO) Colorado Springs","street_number":null,"street_name":"Portal Drive East","zip":"80909","city":"Colorado Springs","area":null,"county":"El Paso County","state":"Colorado","country":"us","formatted_address":"Joe's Crab Shack, Portal Drive East, Colorado Springs, El Paso County, Colorado, 80909, United States of America","place_id":"117270902","datatype":"locationiq"},{"latitude":" 33.26128","longitude":"-111.64344","name":" Chick-fil-A - Quantum Creek","address":" USA-(AZ) Queen Creek","street_number":null,"street_name":"Rittenhouse Road","zip":"85240","city":null,"area":null,"county":"Maricopa County","state":"Arizona","country":"us","formatted_address":"Rittenhouse Road, Queen Creek, Maricopa County, Arizona, 85240, United States of America","place_id":"110272814","datatype":"locationiq"},{"latitude":" 39.99777","longitude":"-104.97445","name":" Chick-fil-A - Thornton","address":" USA-(CO) Thornton","street_number":null,"street_name":"Washington Street","zip":"80020","city":null,"area":null,"county":"Adams County","state":"Colorado","country":"us","formatted_address":"Chick-Fil-A, Washington Street, Larkridge Shopping Center, Thornton, Adams County, Colorado, 80020, United States of America","place_id":"20423791","datatype":"locationiq"},{"latitude":" 32.75413","longitude":"-117.21161","name":" Chick-fil-A - San Diego","address":" USA-(CA) San Diego","street_number":null,"street_name":"Sports Arena Boulevard","zip":"92110","city":"San Diego","area":null,"county":"San Diego County","state":"California","country":"us","formatted_address":"Chick-fil-A, Sports Arena Boulevard, Old Town, San Diego, San Diego County, California, 92110, United States of America","place_id":"14122068","datatype":"locationiq"},{"latitude":" 39.56302","longitude":"-104.87276","name":" Chick-fil-A - Littleton","address":" USA-(CO) Littleton","street_number":null,"street_name":"South Park Meadows Center Drive","zip":"80124","city":"Lone Tree","area":null,"county":"Douglas County","state":"Colorado","country":"us","formatted_address":"Red Robin, South Park Meadows Center Drive, Lone Tree, Douglas County, Lone Tree, Colorado, 80124, United States of America","place_id":"83505192","datatype":"locationiq"},{"latitude":" 39.61463","longitude":"-104.81545","name":" Chick-fil-A - Aurora","address":" USA-(CO) Aurora","street_number":"5618","street_name":"South Parker Road","zip":"80015","city":"Aurora","area":null,"county":"Arapahoe County","state":"Colorado","country":"us","formatted_address":"5618, South Parker Road, Aurora, Arapahoe County, Colorado, 80015, United States of America","place_id":"180600197","datatype":"locationiq"},{"latitude":" 40.27514","longitude":"-111.68002","name":" Chick-fil-A - Orem","address":" USA-(UT) Orem","street_number":null,"street_name":"University Mall","zip":"84097","city":"Orem","area":null,"county":"Utah County","state":"Utah","country":"us","formatted_address":"American Eagle Outfitters, University Mall, University Place, Orem, Utah County, Utah, 84097, United States of America","place_id":"52552947","datatype":"locationiq"},{"latitude":" 40.54385","longitude":"-111.98242","name":" Chick-fil-A - South Jordan","address":" USA-(UT) South Jordan","street_number":null,"street_name":"11400 South","zip":"84009","city":"South Jordan","area":"Daybreak Eastlake Village","county":"Salt Lake County","state":"Utah","country":"us","formatted_address":"Baskin Robbins, 11400 South, Daybreak Eastlake Village, Daybreak Community, South Jordan, Salt Lake County, Utah, 84009, United States of America","place_id":"125655284","datatype":"locationiq"},{"latitude":" 39.95699","longitude":"-104.77710","name":" Chick-fil-A - Brighton","address":" USA-(CO) Brighton","street_number":"2035","street_name":"Prairie Center Parkway","zip":"80601","city":"Brighton","area":null,"county":"Adams County","state":"Colorado","country":"us","formatted_address":"Chick-fil-A, 2035, Prairie Center Parkway, Brighton, Adams County, Colorado, 80601, United States of America","place_id":"120484958","datatype":"locationiq"},{"latitude":" 33.62101","longitude":"-111.89225","name":" Chick-fil-A - Scottsdale","address":" USA-(AZ) Scottsdale","street_number":null,"street_name":"North Pima Road","zip":"85260","city":"Scottsdale","area":null,"county":"Maricopa County","state":"Arizona","country":"us","formatted_address":"North Pima Road, Scottsdale, Maricopa County, Arizona, 85260, United States of America","place_id":"164306649","datatype":"locationiq"},{"latitude":" 33.69970","longitude":"-117.74208","name":" Chick-fil-A - Irvine","address":" USA-(CA) Irvine","street_number":null,"street_name":"Journey","zip":"92618:92705","city":"Irvine","area":null,"county":"Orange County","state":"California","country":"us","formatted_address":"The Home Depot, Journey, Woodbury, Irvine, Orange County, California, 92618:92705, United States of America","place_id":"91049060","datatype":"locationiq"},{"latitude":" 33.93923","longitude":"-117.27999","name":" Chick-fil-A - Riverside","address":" USA-(CA) Riverside","street_number":"2885","street_name":"Canyon Springs Parkway","zip":"92507","city":"Moreno Valley","area":null,"county":"Riverside County","state":"California","country":"us","formatted_address":"Chick-fil-A, 2885, Canyon Springs Parkway, Moreno Valley, Riverside County, California, 92507, United States of America","place_id":"165399380","datatype":"locationiq"},{"latitude":" 39.74289","longitude":"-104.98869","name":" Chick-fil-A - Denver","address":" USA-(CO) Denver","street_number":"303","street_name":"16th Street","zip":"80202","city":"Denver","area":"Upper Downtown","county":"Denver County","state":"Colorado","country":"us","formatted_address":"303, 16th Street, Upper Downtown, Denver, Denver County, Colorado, 80202, United States of America","place_id":"90812813","datatype":"locationiq"},{"latitude":" 35.18855","longitude":"-111.65583","name":" Chick-fil-A - Flagstaff","address":" USA-(AZ) Flagstaff","street_number":null,"street_name":"Blome Drive North","zip":"86011","city":"Flagstaff","area":"Southside","county":"Coconino County","state":"Arizona","country":"us","formatted_address":"University Union - Dining Services, Blome Drive North, Southside, Flagstaff, Coconino County, Arizona, 86011, United States of America","place_id":"116165527","datatype":"locationiq"},{"latitude":" 39.59589","longitude":"-104.70387","name":" Chick-fil-A - Aurora","address":" USA-(CO) Aurora","street_number":"24400","street_name":"East Smoky Hill Road","zip":"80016","city":"Aurora","area":null,"county":"Arapahoe County","state":"Colorado","country":"us","formatted_address":"Chick-fil-A, 24400, East Smoky Hill Road, Aurora, Arapahoe County, Colorado, 80016, United States of America","place_id":"150068357","datatype":"locationiq"},{"latitude":" 33.59679","longitude":"-111.98048","name":" Chick-fil-A - Phoenix","address":" USA-(AZ) Phoenix","street_number":"12031","street_name":"North Tatum Boulevard","zip":"85032-7725","city":"Phoenix","area":null,"county":"Maricopa County","state":"Arizona","country":"us","formatted_address":"Chick-fil-A, 12031, North Tatum Boulevard, Phoenix, Maricopa County, Arizona, 85032-7725, United States of America","place_id":"84990805","datatype":"locationiq"},{"latitude":" 33.30646","longitude":"-111.88896","name":" Chick-fil-A - Chandler","address":" USA-(AZ) Chandler","street_number":null,"street_name":"West Chandler Boulevard","zip":"85224","city":"Chandler","area":null,"county":"Maricopa County","state":"Arizona","country":"us","formatted_address":"The Coffee Bean & Tea Leaf, West Chandler Boulevard, Chandler, Maricopa County, Arizona, 85224, United States of America","place_id":"20265937","datatype":"locationiq"},{"latitude":" 36.80993","longitude":"-119.74804","name":" Chick-fil-A - Fresno","address":" USA-(CA) Fresno","street_number":"2301","street_name":"East Shaw Avenue","zip":"93740","city":"Fresno","area":null,"county":"Fresno County","state":"California","country":"us","formatted_address":"2301, East Shaw Avenue, Fresno, Fresno County, California, 93740, United States of America","place_id":"178335666","datatype":"locationiq"},{"latitude":" 35.08560","longitude":"-106.61614","name":" Chick-fil-A - Albuquerque","address":" USA-(NM) Albuquerque","street_number":"2700","street_name":"Campus Boulevard Northeast","zip":"87131","city":"Albuquerque","area":null,"county":"Bernalillo County","state":"New Mexico","country":"us","formatted_address":"La Posada Dining Hall, 2700, Campus Boulevard Northeast, Martinez Town, Albuquerque, Bernalillo County, New Mexico, 87131, United States of America","place_id":"106858273","datatype":"locationiq"},{"latitude":" 33.91086","longitude":"-117.88091","name":" Chick-fil-A - Brea","address":" USA-(CA) Brea","street_number":null,"street_name":"Imperial Highway","zip":"92886","city":"Brea","area":"Country Hills","county":"Orange County","state":"California","country":"us","formatted_address":"Lucille's Smokehouse & Barbeque, Imperial Highway, Country Hills, Downtown Brea, Brea, Orange County, California, 92886, United States of America","place_id":"92934670","datatype":"locationiq"}]