[{"name":"Cold Stone Creamery","code":null,"latitude":44.08105,"longitude":-103.2509,"address":"1925 W Main Street, # 3, Rapid City SD","chain_name":null,"distance":0,"street_number":"1911","street_name":"West Main Street","zip":"57702","city":"Rapid City","area":null,"county":"Pennington County","state":"South Dakota","country":"us","formatted_address":"Carroll's Vacuums, 1911, West Main Street, Rapid City, Pennington County, South Dakota, 57702, United States of America","place_id":"140482861","datatype":"locationiq"},{"name":"Cold Stone Creamery","code":null,"latitude":39.1855,"longitude":-75.5352,"address":"1051 N Dupont Highway, Dover DE","chain_name":null,"distance":0,"street_number":null,"street_name":"North Dupont Highway","zip":"19901","city":"Dover","area":null,"county":"Kent County","state":"Delaware","country":"us","formatted_address":"Verizon Wireless, North Dupont Highway, Dover, Kent County, Delaware, 19901, United States of America","place_id":"148187732","datatype":"locationiq"},{"name":"Cold Stone Creamery","code":null,"latitude":43.61812,"longitude":-116.3545,"address":"1400 N Eagle Road, # 103, Meridian ID","chain_name":null,"distance":0,"street_number":"1344","street_name":"North Eagle Road","zip":"83642","city":"Meridian","area":null,"county":"Ada County","state":"Idaho","country":"us","formatted_address":"1344, North Eagle Road, Meridian, Ada County, Idaho, 83642, United States of America","place_id":"184399260","datatype":"locationiq"},{"name":"Cold Stone Creamery","code":null,"latitude":34.10155,"longitude":-118.3387,"address":"6801 Hollywood Boulevard, Los Angeles CA","chain_name":null,"distance":0,"street_number":null,"street_name":null,"zip":"90028","city":"Los Angeles","area":null,"county":"Los Angeles County","state":"California","country":"us","formatted_address":"Walk of Fame, Whitley Heights Historic District, Los Angeles, Los Angeles County, California, 90028, United States of America","place_id":"154686425","datatype":"locationiq"},{"name":"Cold Stone Creamery","code":null,"latitude":32.61828,"longitude":-83.667,"address":"2628 Watson Boulevard, # D, Warner Robins GA","chain_name":null,"distance":0,"street_number":"2643","street_name":"Watson Boulevard","zip":"31088","city":"Warner Robins","area":"Wrights Mill","county":"Houston County","state":"Georgia","country":"us","formatted_address":"2643, Watson Boulevard, Wrights Mill, Warner Robins, Houston County, Georgia, 31088, United States of America","place_id":"183970939","datatype":"locationiq"},{"name":"Cold Stone Creamery","code":null,"latitude":43.65767,"longitude":-70.2546,"address":"180 Middle Street, Portland ME","chain_name":null,"distance":0,"street_number":null,"street_name":"Exchange Street","zip":"04101","city":"Portland","area":null,"county":"Cumberland County","state":"Maine","country":"us","formatted_address":"Post Office Park, Exchange Street, Portland, Cumberland County, Maine, 04101, United States of America","place_id":"146511451","datatype":"locationiq"},{"name":"Cold Stone Creamery","code":null,"latitude":29.86612,"longitude":-81.3291,"address":"200 Cbl Drive, St Augustine FL","chain_name":null,"distance":0,"street_number":null,"street_name":"Cobblestone Drive","zip":"32084","city":null,"area":null,"county":"St. Johns County","state":"Florida","country":"us","formatted_address":"Game Stop, Cobblestone Drive, Moultrie Junction, St. Johns County, Florida, 32084, United States of America","place_id":"45885535","datatype":"locationiq"},{"name":"Cold Stone Creamery","code":null,"latitude":45.03594,"longitude":-92.8391,"address":"13327 N 60 St, Stillwater MN","chain_name":null,"distance":0,"street_number":"13191","street_name":"60th Street North","zip":"55082","city":"Oak Park Heights","area":null,"county":"Washington County","state":"Minnesota","country":"us","formatted_address":"13191, 60th Street North, Oak Park Heights, Washington County, Minnesota, 55082, United States of America","place_id":"192651547","datatype":"locationiq"},{"name":"Cold Stone Creamery","code":null,"latitude":39.91415,"longitude":-74.9241,"address":"230 N Maple Avenue, Marlton NJ","chain_name":null,"distance":0,"street_number":"265","street_name":"North Maple Avenue","zip":"08053","city":"Evesham Township","area":null,"county":"Burlington County","state":"New Jersey","country":"us","formatted_address":"265, North Maple Avenue, Evesham Township, Burlington County, New Jersey, 08053, United States of America","place_id":"195312650","datatype":"locationiq"},{"name":"Cold Stone Creamery","code":null,"latitude":46.83322,"longitude":-100.81,"address":"1219 W Century Avenue, Bismarck ND","chain_name":null,"distance":0,"street_number":null,"street_name":"West Century Avenue","zip":"58505","city":"Bismarck","area":null,"county":"Burleigh County","state":"North Dakota","country":"us","formatted_address":"West Century Avenue, Bismarck, Burleigh County, North Dakota, 58505, United States of America","place_id":"150127937","datatype":"locationiq"},{"name":"Cold Stone Creamery","code":null,"latitude":33.8904,"longitude":-117.3245,"address":"8974 Trautwn Road, Riverside CA","chain_name":null,"distance":0,"street_number":null,"street_name":"Trautwein Road","zip":"92508","city":"Riverside","area":null,"county":"Riverside County","state":"California","country":"us","formatted_address":"Family Dental, Trautwein Road, Riverside, Riverside County, California, 92508, United States of America","place_id":"129977502","datatype":"locationiq"},{"name":"Cold Stone Creamery","code":null,"latitude":38.91931,"longitude":-77.2208,"address":"7852 Tysons Corner Centre, # E, Mc Lean VA","chain_name":null,"distance":0,"street_number":"7940","street_name":"Chain Bridge Road","zip":"22102","city":null,"area":"Howard","county":"Fairfax County","state":"Virginia","country":"us","formatted_address":"Lord & Taylor, 7940, Chain Bridge Road, Howard, Madrillon Farms, Fairfax County, Virginia, 22102, United States of America","place_id":"165332122","datatype":"locationiq"},{"name":"Cold Stone Creamery","code":null,"latitude":36.62676,"longitude":-87.3306,"address":"1780 Tiny Town Road, # C, Clarksville TN","chain_name":null,"distance":0,"street_number":"2098","street_name":"Tiny Town Road","zip":"37042","city":"Clarksville","area":null,"county":"Montgomery County","state":"Tennessee","country":"us","formatted_address":"2098, Tiny Town Road, Clarksville, Montgomery County, Tennessee, 37042, United States of America","place_id":"203970322","datatype":"locationiq"},{"name":"Cold Stone Creamery","code":null,"latitude":42.79892,"longitude":-71.5333,"address":"2 Cellu Drive, # 111, Nashua NH","chain_name":null,"distance":0,"street_number":"550","street_name":"Amherst Street","zip":"03063","city":"Nashua","area":null,"county":"Hillsborough County","state":"New Hampshire","country":"us","formatted_address":"Walgreens, 550, Amherst Street, Ward 2, Nashua, Hillsborough County, New Hampshire, 03063, United States of America","place_id":"114154505","datatype":"locationiq"},{"name":"Cold Stone Creamery","code":null,"latitude":42.25546,"longitude":-83.6881,"address":"3597 Washtenaw Avenue, # B, Ann Arbor MI","chain_name":null,"distance":0,"street_number":"3555","street_name":"Washtenaw Avenue","zip":"48108","city":"Ann Arbor","area":null,"county":"Washtenaw County","state":"Michigan","country":"us","formatted_address":"Marathon, 3555, Washtenaw Avenue, Ann Arbor, Washtenaw County, Michigan, 48108, United States of America","place_id":"154377133","datatype":"locationiq"},{"name":"Cold Stone Creamery","code":null,"latitude":34.00022,"longitude":-96.4078,"address":"307 Radio Road, Durant OK","chain_name":null,"distance":0,"street_number":"346","street_name":"Radio Road","zip":"74701","city":null,"area":null,"county":"Bryan County","state":"Oklahoma","country":"us","formatted_address":"346, Radio Road, Durant, Bryan County, Oklahoma, 74701, United States of America","place_id":"200090447","datatype":"locationiq"},{"name":"Cold Stone Creamery","code":null,"latitude":38.98673,"longitude":-77.5369,"address":"42385 Ryan Road, Ashburn VA","chain_name":null,"distance":0,"street_number":"42385  #110","street_name":"Ryan Road","zip":"20148","city":null,"area":null,"county":"Loudoun County","state":"Virginia","country":"us","formatted_address":"Peet's Coffee & Tea (#614), 42385  #110, Ryan Road, Brambleton, Loudoun County, Virginia, 20148, United States of America","place_id":"40674595","datatype":"locationiq"},{"name":"Cold Stone Creamery","code":null,"latitude":41.37493,"longitude":-73.4875,"address":"28 Backus Avenue, Danbury CT","chain_name":null,"distance":0,"street_number":"19","street_name":"Backus Avenue","zip":"06810","city":"Danbury","area":null,"county":"Fairfield County","state":"Connecticut","country":"us","formatted_address":"Toys  R  Us, 19, Backus Avenue, Danbury, Fairfield County, Connecticut, 06810, United States of America","place_id":"49382160","datatype":"locationiq"},{"name":"Cold Stone Creamery","code":null,"latitude":42.8487,"longitude":-106.3132,"address":"939 E 2nd Street, # 700, Casper WY","chain_name":null,"distance":0,"street_number":"945","street_name":"East 2nd Street","zip":"82601","city":"Casper","area":null,"county":"Natrona County","state":"Wyoming","country":"us","formatted_address":"945, East 2nd Street, Casper, Natrona County, Wyoming, 82601, United States of America","place_id":"209882577","datatype":"locationiq"},{"name":"Cold Stone Creamery","code":null,"latitude":33.59689,"longitude":-86.645,"address":"1430 Gadsden Highway, # 108, Birmingham AL","chain_name":null,"distance":0,"street_number":null,"street_name":"Gadsden Highway","zip":"35235","city":"Birmingham","area":null,"county":"Jefferson County","state":"Alabama","country":"us","formatted_address":"Starbucks, Gadsden Highway, Birmingham, Jefferson County, Alabama, 35235, United States of America","place_id":"22065350","datatype":"locationiq"},{"name":"Cold Stone Creamery","code":null,"latitude":39.0451,"longitude":-95.7616,"address":"1227 SW Wanamaker Road, # 100, Topeka KS","chain_name":null,"distance":0,"street_number":"1136","street_name":"Southwest Wanamaker Road","zip":"66604","city":"Topeka","area":null,"county":"Shawnee County","state":"Kansas","country":"us","formatted_address":"1136, Southwest Wanamaker Road, Topeka, Shawnee County, Kansas, 66604, United States of America","place_id":"114655178","datatype":"locationiq"},{"name":"Cold Stone Creamery","code":null,"latitude":42.0026,"longitude":-93.6095,"address":"1310 S Duff Avenue, # 101, Ames IA","chain_name":null,"distance":0,"street_number":null,"street_name":"Airport Road","zip":"50010","city":"Ames","area":null,"county":"Story County","state":"Iowa","country":"us","formatted_address":"Airport Road, Ames, Story County, Iowa, 50010, United States of America","place_id":"68842359","datatype":"locationiq"},{"name":"Cold Stone Creamery","code":null,"latitude":44.77176,"longitude":-91.4382,"address":"4613 Keystone Xing, Eau Claire WI","chain_name":null,"distance":0,"street_number":null,"street_name":"Keystone Crossing","zip":"54701","city":"Eau Claire","area":null,"county":"Eau Claire County","state":"Wisconsin","country":"us","formatted_address":"Panera Bread, Keystone Crossing, Eau Claire, Eau Claire County, Wisconsin, 54701, United States of America","place_id":"45293625","datatype":"locationiq"},{"name":"Cold Stone Creamery","code":null,"latitude":38.5806,"longitude":-92.246,"address":"610 Wildwood Drive, Jefferson City MO","chain_name":null,"distance":0,"street_number":"734","street_name":"Wildwood Drive","zip":"65109","city":"Jefferson City","area":null,"county":"Cole County","state":"Missouri","country":"us","formatted_address":"734, Wildwood Drive, Jefferson City, Cole County, Missouri, 65109, United States of America","place_id":"193433183","datatype":"locationiq"},{"name":"Cold Stone Creamery","code":null,"latitude":32.73259,"longitude":-97.3888,"address":"4601 West Freeway, Fort Worth TX","chain_name":null,"distance":0,"street_number":"4683","street_name":"West Rosedale Street","zip":"76107","city":"Fort Worth","area":null,"county":"Tarrant County","state":"Texas","country":"us","formatted_address":"4683, West Rosedale Street, Fort Worth, Tarrant County, Texas, 76107, United States of America","place_id":"206372180","datatype":"locationiq"},{"name":"Cold Stone Creamery","code":null,"latitude":42.00917,"longitude":-87.8856,"address":"7080 Mannheim Road, Des Plaines IL","chain_name":null,"distance":0,"street_number":null,"street_name":"Mannheim Road","zip":"60019","city":null,"area":null,"county":"Cook County","state":"Illinois","country":"us","formatted_address":"Rosatti's Pizza, Mannheim Road, Rosemont, Cook County, Illinois, 60019, United States of America","place_id":"55015867","datatype":"locationiq"},{"name":"Cold Stone Creamery","code":null,"latitude":41.80136,"longitude":-73.1213,"address":"50 Main Street, Torrington CT","chain_name":null,"distance":0,"street_number":null,"street_name":"Main Street","zip":"06790","city":"Torrington","area":null,"county":"Litchfield County","state":"Connecticut","country":"us","formatted_address":"The Nutmeg Conservatory for the Arts, Main Street, Torrington, Litchfield County, Connecticut, 06790, United States of America","place_id":"6447068","datatype":"locationiq"},{"name":"Cold Stone Creamery","code":null,"latitude":46.85831,"longitude":-96.862,"address":"4501 15th Avenue South, # 109, Fargo ND","chain_name":null,"distance":0,"street_number":"1501","street_name":"45th Street Southwest","zip":"58103","city":"Fargo","area":null,"county":"Cass County","state":"North Dakota","country":"us","formatted_address":"1501, 45th Street Southwest, Fargo, Cass County, North Dakota, 58103, United States of America","place_id":"198529423","datatype":"locationiq"},{"name":"Cold Stone Creamery","code":null,"latitude":35.8637,"longitude":-78.5702,"address":"5811 Poyner Village Parkway, # 105, Raleigh NC","chain_name":null,"distance":0,"street_number":null,"street_name":"Poyner Center Lane","zip":"27616","city":"Raleigh","area":null,"county":"Wake County","state":"North Carolina","country":"us","formatted_address":"Toys R Us, Poyner Center Lane, Mini City, Raleigh, Wake County, North Carolina, 27616, United States of America","place_id":"54717576","datatype":"locationiq"},{"name":"Cold Stone Creamery","code":null,"latitude":35.05598,"longitude":-85.3119,"address":"100 Chestnut Street, Chattanooga TN","chain_name":null,"distance":0,"street_number":null,"street_name":"Chestnut Street","zip":"37402","city":"Chattanooga","area":null,"county":"Hamilton County","state":"Tennessee","country":"us","formatted_address":"Blue PLate, Chestnut Street, Chattanooga, Hamilton County, Tennessee, 37402, United States of America","place_id":"5739718","datatype":"locationiq"},{"name":"Cold Stone Creamery","code":null,"latitude":46.14194,"longitude":-122.9329,"address":"1208 Washington Way, Longview WA","chain_name":null,"distance":0,"street_number":"1156","street_name":"Washington Way","zip":"98632","city":"Longview","area":null,"county":"Cowlitz County","state":"Washington","country":"us","formatted_address":"Arby's, 1156, Washington Way, Longview, Cowlitz County, Washington, 98632, United States of America","place_id":"139483391","datatype":"locationiq"},{"name":"Cold Stone Creamery","code":null,"latitude":37.7185,"longitude":-87.125,"address":"5140 Frederica Street, # A, Owensboro KY","chain_name":null,"distance":0,"street_number":null,"street_name":"Frederica Street","zip":"42301","city":"Owensboro","area":null,"county":"Daviess County","state":"Kentucky","country":"us","formatted_address":"Applebee's, Frederica Street, Owensboro, Daviess County, Kentucky, 42301, United States of America","place_id":"23456630","datatype":"locationiq"},{"name":"Cold Stone Creamery","code":null,"latitude":40.50502,"longitude":-88.9533,"address":"309 S Veterans Parkway, Normal IL","chain_name":null,"distance":0,"street_number":null,"street_name":"Veterans Parkway","zip":"61704","city":null,"area":null,"county":"McLean County","state":"Illinois","country":"us","formatted_address":"Logan's Roadhouse, Veterans Parkway, Normal, McLean County, Illinois, 61704, United States of America","place_id":"171542719","datatype":"locationiq"},{"name":"Cold Stone Creamery","code":null,"latitude":33.7216,"longitude":-116.3936,"address":"72840 State Highway 111, Palm Desert CA","chain_name":null,"distance":0,"street_number":null,"street_name":"Plaza Way","zip":"92260","city":"Palm Desert","area":null,"county":"Riverside County","state":"California","country":"us","formatted_address":"Chevron, Plaza Way, Palm Desert, Riverside County, California, 92260, United States of America","place_id":"53479006","datatype":"locationiq"},{"name":"Cold Stone Creamery","code":null,"latitude":38.3979,"longitude":-75.5717,"address":"2657 N Salisbury Boulevard, Salisbury MD","chain_name":null,"distance":0,"street_number":null,"street_name":"North Salisbury Boulevard","zip":"21804","city":"Salisbury","area":null,"county":"Wicomico County","state":"Maryland","country":"us","formatted_address":"North Salisbury Boulevard, Salisbury, Wicomico County, Maryland, 21804, United States of America","place_id":"81124519","datatype":"locationiq"},{"name":"Cold Stone Creamery","code":null,"latitude":40.84105,"longitude":-74.2075,"address":"227 Bellevue Avenue, Montclair NJ","chain_name":null,"distance":0,"street_number":null,"street_name":"Valley Road","zip":"07043","city":"Montclair","area":null,"county":"Essex County","state":"New Jersey","country":"us","formatted_address":"Saint James Episcopal Church, Valley Road, Montclair, Essex County, New Jersey, 07043, United States of America","place_id":"143575464","datatype":"locationiq"},{"name":"Cold Stone Creamery","code":null,"latitude":38.42222,"longitude":-82.4431,"address":"10 Pullman Square, Huntington WV","chain_name":null,"distance":0,"street_number":"393","street_name":"3rd Avenue","zip":"25702","city":"Huntington","area":null,"county":"Cabell County","state":"West Virginia","country":"us","formatted_address":"393, 3rd Avenue, Huntington, Cabell County, West Virginia, 25702, United States of America","place_id":"125515113","datatype":"locationiq"},{"name":"Cold Stone Creamery","code":null,"latitude":25.57596,"longitude":-80.3408,"address":"20587 Old Cutler Road, Miami FL","chain_name":null,"distance":0,"street_number":null,"street_name":"Old Cutler Road","zip":"33170","city":null,"area":null,"county":"Miami-Dade County","state":"Florida","country":"us","formatted_address":"Cutler Ridge United Methodist Kindergarten, Old Cutler Road, Cutler Bay, Miami-Dade County, Florida, 33170, United States of America","place_id":"3449261","datatype":"locationiq"},{"name":"Cold Stone Creamery","code":null,"latitude":38.99717,"longitude":-84.6536,"address":"7683 Mall Road, # B, Florence KY","chain_name":null,"distance":0,"street_number":null,"street_name":"Mall Road","zip":"41042","city":"Florence","area":null,"county":"Boone County","state":"Kentucky","country":"us","formatted_address":"7663 Mall Road, Mall Road, Florence, Boone County, Kentucky, 41042, United States of America","place_id":"46107968","datatype":"locationiq"},{"name":"Cold Stone Creamery","code":null,"latitude":42.2138,"longitude":-121.7565,"address":"2655 Shasta Way, # 1, Klamath Falls OR","chain_name":null,"distance":0,"street_number":"2648","street_name":"Shasta Way","zip":"97603","city":null,"area":null,"county":"Klamath County","state":"Oregon","country":"us","formatted_address":"2648, Shasta Way, Altamont, Klamath County, Oregon, 97603, United States of America","place_id":"200860020","datatype":"locationiq"},{"name":"Cold Stone Creamery","code":null,"latitude":34.41689,"longitude":-119.6955,"address":"504 State, Santa Barbara CA","chain_name":null,"distance":0,"street_number":null,"street_name":"State Street","zip":"93101","city":"Santa Barbara","area":"Waterfront","county":"Santa Barbara County","state":"California","country":"us","formatted_address":"Coldstone Creamery, State Street, Waterfront, Santa Barbara, Santa Barbara County, California, 93101, United States of America","place_id":"17358000","datatype":"locationiq"},{"name":"Cold Stone Creamery","code":null,"latitude":42.54639,"longitude":-83.4386,"address":"1741 Haggerty Highway, Walled Lake MI","chain_name":null,"distance":0,"street_number":null,"street_name":"Haggerty Road","zip":"48323","city":null,"area":null,"county":"Oakland County","state":"Michigan","country":"us","formatted_address":"Haggerty Road, Commerce Township, Oakland County, Michigan, 48323, United States of America","place_id":"64217764","datatype":"locationiq"},{"name":"Cold Stone Creamery","code":null,"latitude":37.59398,"longitude":-122.5043,"address":"1321 Linda Mar Shopping Centre, Pacifica CA","chain_name":null,"distance":0,"street_number":"1367","street_name":"De Solo Drive","zip":"94044","city":"Pacifica","area":"Pedro Valley","county":"San Mateo County","state":"California","country":"us","formatted_address":"Kuk Sool Won of Pacifica, 1367, De Solo Drive, Pedro Valley, Pacifica, San Mateo County, California, 94044, United States of America","place_id":"26906332","datatype":"locationiq"},{"name":"Cold Stone Creamery","code":null,"latitude":41.95702,"longitude":-91.7164,"address":"2210 Edgewood Road Southwest, Cedar Rapids IA","chain_name":null,"distance":0,"street_number":null,"street_name":"23rd Street","zip":"52405","city":"Cedar Rapids","area":null,"county":"Linn County","state":"Iowa","country":"us","formatted_address":"Ruby Tuesday, 23rd Street, Williams Plaza, Cedar Rapids, Linn County, Iowa, 52405, United States of America","place_id":"91189206","datatype":"locationiq"},{"name":"Cold Stone Creamery","code":null,"latitude":38.9127,"longitude":-94.7589,"address":"14941 W 119th Street, Olathe KS","chain_name":null,"distance":0,"street_number":null,"street_name":"West 119th Street","zip":"66210","city":"Overland Park","area":null,"county":"Johnson County","state":"Kansas","country":"us","formatted_address":"Bank of America, West 119th Street, Overland Park, Johnson County, Kansas, 66210, United States of America","place_id":"132280486","datatype":"locationiq"},{"name":"Cold Stone Creamery","code":null,"latitude":34.63085,"longitude":-118.2193,"address":"5022 W Avenue North, # 124, Belfast CA","chain_name":null,"distance":0,"street_number":"5108","street_name":"West Avenue N","zip":"93551","city":"Palmdale","area":null,"county":"Los Angeles County","state":"California","country":"us","formatted_address":"5108, West Avenue N, Palmdale, Los Angeles County, California, 93551, United States of America","place_id":"178675959","datatype":"locationiq"},{"name":"Cold Stone Creamery","code":null,"latitude":33.71073,"longitude":-112.2712,"address":"9918 W Happy Valley Road, # 1020, Peoria AZ","chain_name":null,"distance":0,"street_number":null,"street_name":"West Happy Valley Road","zip":"85383","city":"Peoria","area":null,"county":"Maricopa County","state":"Arizona","country":"us","formatted_address":"West Happy Valley Road, Peoria, Maricopa County, Arizona, 85383, United States of America","place_id":"164379087","datatype":"locationiq"},{"name":"Cold Stone Creamery","code":null,"latitude":38.99761,"longitude":-77.0248,"address":"821 Ellsworth Drive, Silver Spring MD","chain_name":null,"distance":0,"street_number":"1","street_name":"Veterans Place","zip":"20910","city":null,"area":"Queen Annes","county":"Montgomery County","state":"Maryland","country":"us","formatted_address":"Silver Spring Civic Building, 1, Veterans Place, Queen Annes, Montgomery Hills, Silver Spring, Montgomery County, Maryland, 20910, United States of America","place_id":"102635214","datatype":"locationiq"},{"name":"Cold Stone Creamery","code":null,"latitude":35.94426,"longitude":-86.82,"address":"600 Frazier Drive, # 100, Franklin TN","chain_name":null,"distance":0,"street_number":"3063","street_name":"Mallory Lane","zip":"37067","city":"Franklin","area":null,"county":"Williamson County","state":"Tennessee","country":"us","formatted_address":"Chick-fil-a, 3063, Mallory Lane, Franklin, Williamson County, Tennessee, 37067, United States of America","place_id":"5213075","datatype":"locationiq"},{"name":"Cold Stone Creamery","code":null,"latitude":36.23943,"longitude":-115.1684,"address":"1829 W Craig Road, # 2, North Las Vegas NV","chain_name":null,"distance":0,"street_number":"1881","street_name":"West Craig Road","zip":"89032","city":"North Las Vegas","area":null,"county":"Clark County","state":"Nevada","country":"us","formatted_address":"1881, West Craig Road, North Las Vegas, Clark County, Nevada, 89032, United States of America","place_id":"194853771","datatype":"locationiq"},{"name":"Cold Stone Creamery","code":null,"latitude":34.75368,"longitude":-92.4139,"address":"12800 Chenal Parkway, # 8, Little Rock AR","chain_name":null,"distance":0,"street_number":"12524","street_name":"Chenal Parkway","zip":"72211","city":"Little Rock","area":null,"county":"Pulaski County","state":"Arkansas","country":"us","formatted_address":"Shell, 12524, Chenal Parkway, Little Rock, Pulaski County, Arkansas, 72211, United States of America","place_id":"149563047","datatype":"locationiq"},{"name":"Cold Stone Creamery","code":null,"latitude":37.45339,"longitude":-122.183,"address":"611 Santa Cruz Avenue, Menlo Park CA","chain_name":null,"distance":0,"street_number":"605","street_name":"Santa Cruz Avenue","zip":"94025","city":null,"area":null,"county":"San Mateo County","state":"California","country":"us","formatted_address":"605, Santa Cruz Avenue, Menlo Park, San Mateo County, California, 94025, United States of America","place_id":"4633640","datatype":"locationiq"},{"name":"Cold Stone Creamery","code":null,"latitude":41.16016,"longitude":-104.7851,"address":"2316 Dell Range Boulevard, # C, Cheyenne WY","chain_name":null,"distance":0,"street_number":"2321","street_name":"Dell Range Boulevard","zip":"82009","city":"Cheyenne","area":null,"county":"Laramie County","state":"Wyoming","country":"us","formatted_address":"2321, Dell Range Boulevard, Cheyenne, Laramie County, Wyoming, 82009, United States of America","place_id":"209869788","datatype":"locationiq"},{"name":"Cold Stone Creamery","code":null,"latitude":33.85631,"longitude":-117.9208,"address":"215 Orangefair Mall, Fullerton CA","chain_name":null,"distance":0,"street_number":"124","street_name":"Orangefair Avenue","zip":"92832","city":"Fullerton","area":null,"county":"Orange County","state":"California","country":"us","formatted_address":"124, Orangefair Avenue, Fullerton Metrocenter, Downtown Fullerton, Fullerton, Orange County, California, 92832, United States of America","place_id":"179169366","datatype":"locationiq"},{"name":"Cold Stone Creamery","code":null,"latitude":40.74023,"longitude":-96.6793,"address":"2910 Pine Lake Road, # P, Lincoln NE","chain_name":null,"distance":0,"street_number":null,"street_name":"South 29th Street","zip":"68512","city":"Lincoln","area":null,"county":"Lancaster County","state":"Nebraska","country":"us","formatted_address":"Starbucks Coffee, South 29th Street, Lincoln, Lancaster County, Nebraska, 68512, United States of America","place_id":"22510070","datatype":"locationiq"},{"name":"Cold Stone Creamery","code":null,"latitude":39.0774,"longitude":-108.5362,"address":"2474 Hwy 6 And 50, Grand Junction CO","chain_name":null,"distance":0,"street_number":null,"street_name":"North Avenue","zip":"81501","city":"Grand Junction","area":null,"county":"Mesa County","state":"Colorado","country":"us","formatted_address":"Randy's Southside Diner, North Avenue, Grand Junction, Mesa County, Colorado, 81501, United States of America","place_id":"171051684","datatype":"locationiq"},{"name":"Cold Stone Creamery","code":null,"latitude":33.48956,"longitude":-82.0797,"address":"210 Robert Centre Daniel Jr Parkway, # A, Augusta GA","chain_name":null,"distance":0,"street_number":null,"street_name":"Robert C. Daniel Junior Parkway","zip":"30909","city":null,"area":null,"county":"Richmond County","state":"Georgia","country":"us","formatted_address":"Starbucks, Robert C. Daniel Junior Parkway, Westwood, Richmond County, Georgia, 30909, United States of America","place_id":"86449500","datatype":"locationiq"},{"name":"Cold Stone Creamery","code":null,"latitude":41.98787,"longitude":-88.3407,"address":"324 Randall Road, South Elgin IL","chain_name":null,"distance":0,"street_number":null,"street_name":"Randall Road","zip":"60175","city":null,"area":null,"county":"Kane County","state":"Illinois","country":"us","formatted_address":"Outback Steakhouse, Randall Road, South Elgin, Kane County, Illinois, 60175, United States of America","place_id":"16016212","datatype":"locationiq"},{"name":"Cold Stone Creamery","code":null,"latitude":39.87884,"longitude":-83.0431,"address":"1776 Stringtown Road, Grove City OH","chain_name":null,"distance":0,"street_number":null,"street_name":"Stringtown Road","zip":"4313","city":"Grove City","area":null,"county":"Franklin County","state":"Ohio","country":"us","formatted_address":"Steak \u2019n Shake, Stringtown Road, Grove City, Franklin County, Ohio, 4313, United States of America","place_id":"19598759","datatype":"locationiq"},{"name":"Cold Stone Creamery","code":null,"latitude":37.97648,"longitude":-87.4738,"address":"6401 E Lloyd Expressway, # 8A, Evansville IN","chain_name":null,"distance":0,"street_number":"6707","street_name":"East Lloyd Expressway","zip":"47715","city":"Evansville","area":null,"county":"Vanderburgh County","state":"Indiana","country":"us","formatted_address":"6707, East Lloyd Expressway, Evansville, Vanderburgh County, Indiana, 47715, United States of America","place_id":"186869478","datatype":"locationiq"},{"name":"Cold Stone Creamery","code":null,"latitude":41.7476,"longitude":-71.4661,"address":"1000 Chapel View Boulevard, Cranston RI","chain_name":null,"distance":0,"street_number":null,"street_name":"Howard Avenue","zip":"02920","city":"Cranston","area":null,"county":"Providence County","state":"Rhode Island","country":"us","formatted_address":"Kids World Child Care Center, Howard Avenue, State of Rhode Island, Howard Complex, Cranston, Providence County, Rhode Island, 02920, United States of America","place_id":"3766615","datatype":"locationiq"},{"name":"Cold Stone Creamery","code":null,"latitude":25.68529,"longitude":-80.4156,"address":"13624 SW 88th Street, Miami FL","chain_name":null,"distance":0,"street_number":null,"street_name":"Southwest 88th Street","zip":"33186","city":null,"area":null,"county":"Miami-Dade County","state":"Florida","country":"us","formatted_address":"SW 88 ST@SW 137 AV, Southwest 88th Street, Kendall Lakes, Miami-Dade County, Florida, 33186, United States of America","place_id":"12450785","datatype":"locationiq"},{"name":"Cold Stone Creamery","code":null,"latitude":34.42044,"longitude":-117.294,"address":"16922 Main, Hesperia CA","chain_name":null,"distance":0,"street_number":"16924","street_name":"Main Street","zip":"92345","city":null,"area":null,"county":"San Bernardino County","state":"California","country":"us","formatted_address":"16924, Main Street, Hesperia, San Bernardino County, California, 92345, United States of America","place_id":"179604549","datatype":"locationiq"},{"name":"Cold Stone Creamery","code":null,"latitude":33.45445,"longitude":-88.8066,"address":"605 Highway 12 East, Starkville MS","chain_name":null,"distance":0,"street_number":null,"street_name":"MS 12","zip":"39759","city":null,"area":"College View","county":"Oktibbeha County","state":"Mississippi","country":"us","formatted_address":"Starbucks, MS 12, College View, Starkville, Oktibbeha County, Mississippi, 39759, United States of America","place_id":"39911939","datatype":"locationiq"},{"name":"Cold Stone Creamery","code":null,"latitude":44.95919,"longitude":-89.6578,"address":"1800 Stewart Avenue, Wausau WI","chain_name":null,"distance":0,"street_number":null,"street_name":"South 18th Avenue","zip":"54401","city":"Wausau","area":null,"county":"Marathon County","state":"Wisconsin","country":"us","formatted_address":"Stewart Ave. @ 18th Ave., South 18th Avenue, Wausau, Marathon County, Wisconsin, 54401, United States of America","place_id":"51960266","datatype":"locationiq"},{"name":"Cold Stone Creamery","code":null,"latitude":30.30155,"longitude":-87.6829,"address":"3800 Gulf Shores Parkway, # 236, Gulf Shores AL","chain_name":null,"distance":0,"street_number":null,"street_name":"Gulf Shores Parkway","zip":"36542","city":"Gulf Shores","area":null,"county":"Baldwin County","state":"Alabama","country":"us","formatted_address":"Gulf Shores Parkway, Gulf Shores, Baldwin County, Alabama, 36542, United States of America","place_id":"79107805","datatype":"locationiq"},{"name":"Cold Stone Creamery","code":null,"latitude":42.35099,"longitude":-71.1598,"address":"957 Comnwlth Avenue, Brighton MA","chain_name":null,"distance":0,"street_number":null,"street_name":"Oakland Street","zip":"02135","city":"Boston","area":"Faneuil","county":"Suffolk County","state":"Massachusetts","country":"us","formatted_address":"Bostons United Pentecostal Church, Oakland Street, Faneuil, Brighton, Boston, Suffolk County, Massachusetts, 02135, United States of America","place_id":"3328258","datatype":"locationiq"},{"name":"Cold Stone Creamery","code":null,"latitude":38.4466,"longitude":-122.6878,"address":"2324 Montgomery Drive, Santa Rosa CA","chain_name":null,"distance":0,"street_number":null,"street_name":"Montgomery Drive","zip":"95405","city":"Santa Rosa","area":"Montgomery Village","county":"Sonoma County","state":"California","country":"us","formatted_address":"Saint Eugenes Cathedral, Montgomery Drive, Montgomery Village, Santa Rosa, Sonoma County, California, 95405, United States of America","place_id":"3597819","datatype":"locationiq"},{"name":"Cold Stone Creamery","code":null,"latitude":33.67033,"longitude":-78.9391,"address":"4008 Deville Street, Myrtle Beach SC","chain_name":null,"distance":0,"street_number":null,"street_name":"Blizzard Street","zip":"29588","city":"Myrtle Beach","area":null,"county":"Horry County","state":"South Carolina","country":"us","formatted_address":"Grand 14, Blizzard Street, Market Common, Market Common District, Myrtle Beach, Horry County, South Carolina, 29588, United States of America","place_id":"8487615","datatype":"locationiq"},{"name":"Cold Stone Creamery","code":null,"latitude":31.5454,"longitude":-110.2573,"address":"1100 S Highway 92, # 2, Sierra Vista AZ","chain_name":null,"distance":0,"street_number":"1243","street_name":"State Route 92","zip":"85650","city":null,"area":null,"county":"Cochise County","state":"Arizona","country":"us","formatted_address":"1243, State Route 92, Sierra Vista, Cochise County, Arizona, 85650, United States of America","place_id":"176865645","datatype":"locationiq"},{"name":"Cold Stone Creamery","code":null,"latitude":34.07105,"longitude":-117.9228,"address":"1240 Lakes Drive, West Covina CA","chain_name":null,"distance":0,"street_number":"1050","street_name":"Lakes Drive","zip":"91790","city":"West Covina","area":null,"county":"Los Angeles County","state":"California","country":"us","formatted_address":"Federal Bureau of Investigation, 1050, Lakes Drive, West Covina, Los Angeles County, California, 91790, United States of America","place_id":"54623060","datatype":"locationiq"},{"name":"Cold Stone Creamery","code":null,"latitude":47.35929,"longitude":-122.1148,"address":"17017 SE 270th Place, Covington WA","chain_name":null,"distance":0,"street_number":null,"street_name":"169th Place Southeast","zip":null,"city":"Covington","area":"Crofton Hills","county":"King County","state":"Washington","country":"us","formatted_address":"Office Depot, 169th Place Southeast, Crofton Hills, Covington, King County, Washington, United States of America","place_id":"53953222","datatype":"locationiq"},{"name":"Cold Stone Creamery","code":null,"latitude":37.11209,"longitude":-113.554,"address":"245 Red Cliffs Drive, # 4, Saint George UT","chain_name":null,"distance":0,"street_number":null,"street_name":"River Road","zip":"84770","city":"St. George","area":null,"county":"Washington County","state":"Utah","country":"us","formatted_address":"The Shoppes at Zion, River Road, Middleton, St. George, Washington County, Utah, 84770, United States of America","place_id":"171080133","datatype":"locationiq"},{"name":"Cold Stone Creamery","code":null,"latitude":42.99054,"longitude":-88.0471,"address":"2935 S 108th Street, Milwaukee WI","chain_name":null,"distance":0,"street_number":"2975","street_name":"South 108th Street","zip":"53227","city":"West Allis","area":null,"county":"Milwaukee County","state":"Wisconsin","country":"us","formatted_address":"2975, South 108th Street, West Allis, Milwaukee County, Wisconsin, 53227, United States of America","place_id":"209535665","datatype":"locationiq"},{"name":"Cold Stone Creamery","code":null,"latitude":30.45135,"longitude":-90.1369,"address":"70380 Highway 21, # 3, Covington LA","chain_name":null,"distance":0,"street_number":null,"street_name":"South Tyler Street","zip":"70433","city":"Covington","area":null,"county":"St. Tammany Parish","state":"Louisiana","country":"us","formatted_address":"South Tyler Street, Covington, St. Tammany Parish, Louisiana, 70433, United States of America","place_id":"66935228","datatype":"locationiq"},{"name":"Cold Stone Creamery","code":null,"latitude":39.46361,"longitude":-76.6361,"address":"10015 York Road, Cockeysville MD","chain_name":null,"distance":0,"street_number":"10001","street_name":"York Road","zip":"21030","city":null,"area":"Ramsgate","county":"Baltimore County","state":"Maryland","country":"us","formatted_address":"IHOP, 10001, York Road, Ramsgate, Hunt Valley, Cockeysville, Baltimore County, Maryland, 21030, United States of America","place_id":"106957531","datatype":"locationiq"},{"name":"Cold Stone Creamery","code":null,"latitude":34.81542,"longitude":-106.7644,"address":"2270 Main Street Northwest, # A, Los Lunas NM","chain_name":null,"distance":0,"street_number":null,"street_name":"Main Street Southwest","zip":"87031","city":null,"area":null,"county":"Valencia County","state":"New Mexico","country":"us","formatted_address":"Panda Express, Main Street Southwest, Los Lunas, Valencia County, New Mexico, 87031, United States of America","place_id":"117582673","datatype":"locationiq"},{"name":"Cold Stone Creamery","code":null,"latitude":35.22616,"longitude":-80.8418,"address":"210 E Trade Street, # 120, Charlotte NC","chain_name":null,"distance":0,"street_number":null,"street_name":"East Trade Street","zip":"28202","city":"Charlotte","area":null,"county":"Mecklenburg County","state":"North Carolina","country":"us","formatted_address":"The Ritz Carlton- Charlotte, East Trade Street, Charlotte, Mecklenburg County, North Carolina, 28202, United States of America","place_id":"19909316","datatype":"locationiq"},{"name":"Cold Stone Creamery","code":null,"latitude":41.03189,"longitude":-73.7664,"address":"25 Mamaroneck Avenue, White Plains NY","chain_name":null,"distance":0,"street_number":null,"street_name":"Mamaroneck Avenue","zip":"10601","city":"White Plains","area":null,"county":"Westchester County","state":"New York","country":"us","formatted_address":"City Center 15, Mamaroneck Avenue, White Plains, Westchester County, New York, 10601, United States of America","place_id":"41116821","datatype":"locationiq"},{"name":"Cold Stone Creamery","code":null,"latitude":33.60173,"longitude":-111.9789,"address":"12625 N Tatum Boulevard, Phoenix AZ","chain_name":null,"distance":0,"street_number":"12641","street_name":"North Tatum Boulevard","zip":"85032","city":"Phoenix","area":null,"county":"Maricopa County","state":"Arizona","country":"us","formatted_address":"12641, North Tatum Boulevard, Phoenix, Maricopa County, Arizona, 85032, United States of America","place_id":"84725853","datatype":"locationiq"},{"name":"Cold Stone Creamery","code":null,"latitude":36.14449,"longitude":-115.2998,"address":"9350 W Sahara Avenue, # 140, Las Vegas NV","chain_name":null,"distance":0,"street_number":"9390","street_name":"West Sahara Avenue","zip":"89117","city":null,"area":null,"county":"Clark County","state":"Nevada","country":"us","formatted_address":"9390, West Sahara Avenue, Summerlin South, Clark County, Nevada, 89117, United States of America","place_id":"194887339","datatype":"locationiq"},{"name":"Cold Stone Creamery","code":null,"latitude":45.75519,"longitude":-108.59,"address":"896 S 29th Street West, # A, Billings MT","chain_name":null,"distance":0,"street_number":"2961","street_name":"King Avenue West","zip":"59106","city":"Billings","area":null,"county":"Yellowstone County","state":"Montana","country":"us","formatted_address":"2961, King Avenue West, Billings, Yellowstone County, Montana, 59106, United States of America","place_id":"194403004","datatype":"locationiq"},{"name":"Cold Stone Creamery","code":null,"latitude":35.62979,"longitude":-117.6698,"address":"501 North China Lake Boulevard, Ridgecrest CA","chain_name":null,"distance":0,"street_number":null,"street_name":"East Las Flores Avenue","zip":"93555","city":"Ridgecrest","area":null,"county":"Kern County","state":"California","country":"us","formatted_address":"Maturango Museum, East Las Flores Avenue, Ridgecrest, Kern County, California, 93555, United States of America","place_id":"3714899","datatype":"locationiq"},{"name":"Cold Stone Creamery","code":null,"latitude":39.97714,"longitude":-75.1194,"address":"2530 Aramingo Avenue, Philadelphia PA","chain_name":null,"distance":0,"street_number":null,"street_name":"Aramingo Avenue","zip":"19134","city":"Philadelphia","area":"Fishtown","county":"Philadelphia County","state":"Pennsylvania","country":"us","formatted_address":"Wawa, Aramingo Avenue, Fishtown, Philadelphia, Philadelphia County, Pennsylvania, 19134, United States of America","place_id":"145155943","datatype":"locationiq"},{"name":"Cold Stone Creamery","code":null,"latitude":38.73396,"longitude":-75.1372,"address":"18578 Coastal Highway, # 1228, Rehoboth Beach DE","chain_name":null,"distance":0,"street_number":null,"street_name":"Coastal Highway","zip":"19971","city":null,"area":null,"county":"Sussex County","state":"Delaware","country":"us","formatted_address":"Pickled Pig Pub, Coastal Highway, Carpenters Corner, Sussex County, Delaware, 19971, United States of America","place_id":"48729970","datatype":"locationiq"},{"name":"Cold Stone Creamery","code":null,"latitude":40.91904,"longitude":-98.3817,"address":"206 Wilmar Avenue, # 6, Grand Island NE","chain_name":null,"distance":0,"street_number":null,"street_name":"Wilmar Avenue","zip":"68803","city":"Grand Island","area":null,"county":"Hall County","state":"Nebraska","country":"us","formatted_address":"Jimmy John's, Wilmar Avenue, Grand Island, Hall County, Nebraska, 68803, United States of America","place_id":"59465454","datatype":"locationiq"},{"name":"Cold Stone Creamery","code":null,"latitude":31.32159,"longitude":-89.382,"address":"6111 US Highway 98, # 10, Hattiesburg MS","chain_name":null,"distance":0,"street_number":"6269","street_name":"US 98","zip":"39402","city":"Hattiesburg","area":null,"county":"Lamar County","state":"Mississippi","country":"us","formatted_address":"6269, US 98, Hattiesburg, Lamar County, Mississippi, 39402, United States of America","place_id":"192924955","datatype":"locationiq"},{"name":"Cold Stone Creamery","code":null,"latitude":43.60099,"longitude":-116.5965,"address":"1238 Caldwell Boulevard, Nampa ID","chain_name":null,"distance":0,"street_number":null,"street_name":"Caldwell Boulevard","zip":"83651","city":"Nampa","area":null,"county":"Canyon County","state":"Idaho","country":"us","formatted_address":"Meineke Car Care Center, Caldwell Boulevard, Nampa, Canyon County, Idaho, 83651, United States of America","place_id":"25179292","datatype":"locationiq"},{"name":"Cold Stone Creamery","code":null,"latitude":36.00894,"longitude":-114.9912,"address":"75 E Horizon Ridge Parkway, # 140, Henderson NV","chain_name":null,"distance":0,"street_number":null,"street_name":"East Horizon Ridge Parkway","zip":"89105","city":"Henderson","area":null,"county":"Clark County","state":"Nevada","country":"us","formatted_address":"Buffalo Wild Wings, East Horizon Ridge Parkway, Mission Hills, Henderson, Clark County, Nevada, 89105, United States of America","place_id":"58444587","datatype":"locationiq"},{"name":"Cold Stone Creamery","code":null,"latitude":46.83274,"longitude":-96.8057,"address":"1617 32nd Avenue South, # F, Fargo ND","chain_name":null,"distance":0,"street_number":"1699","street_name":"32nd Avenue","zip":"58103","city":"Fargo","area":null,"county":"Cass County","state":"North Dakota","country":"us","formatted_address":"1699, 32nd Avenue, Fargo, Cass County, North Dakota, 58103, United States of America","place_id":"198517344","datatype":"locationiq"},{"name":"Cold Stone Creamery","code":null,"latitude":40.72549,"longitude":-73.5153,"address":"3535 Hempstead Turnpike, Levittown NY","chain_name":null,"distance":0,"street_number":"3300","street_name":"Hempstead Tpke","zip":"11756","city":null,"area":null,"county":"Nassau","state":"New York","country":"us","formatted_address":"3300, Hempstead Tpke, Hicksville, Levittown, Nassau, New York, 11756, United States of America","place_id":"156008593","datatype":"locationiq"},{"name":"Cold Stone Creamery","code":null,"latitude":34.02323,"longitude":-118.3948,"address":"9514 Culver Boulevard, Culver City CA","chain_name":null,"distance":0,"street_number":"9540","street_name":"Washington Boulevard","zip":"90232","city":null,"area":null,"county":"Los Angeles County","state":"California","country":"us","formatted_address":"LYFE Kitchen, 9540, Washington Boulevard, Culver City, Los Angeles County, California, 90232, United States of America","place_id":"24675166","datatype":"locationiq"},{"name":"Cold Stone Creamery","code":null,"latitude":29.97271,"longitude":-95.69,"address":"17337 Spring Cypress Road, # A, Cypress TX","chain_name":null,"distance":0,"street_number":null,"street_name":"Spring Cypress Road","zip":"77429","city":null,"area":"Cypress Mill Park","county":"Harris County","state":"Texas","country":"us","formatted_address":"Spring Cypress Road, Cypress Mill Park, Cypress, Harris County, Texas, 77429, United States of America","place_id":"161209620","datatype":"locationiq"},{"name":"Cold Stone Creamery","code":null,"latitude":41.28876,"longitude":-72.528,"address":"7 Glenwood Road, # F, Clinton CT","chain_name":null,"distance":0,"street_number":null,"street_name":"Glenwood Road","zip":"06413","city":null,"area":null,"county":"Middlesex County","state":"Connecticut","country":"us","formatted_address":"Dunkin' Donuts, Glenwood Road, Kelseytown, Middlesex County, Connecticut, 06413, United States of America","place_id":"48718847","datatype":"locationiq"},{"name":"Cold Stone Creamery","code":null,"latitude":38.65152,"longitude":-121.0629,"address":"2085 Vine Street, # 103, El Dorado Hills CA","chain_name":null,"distance":0,"street_number":null,"street_name":"Valley View Parkway","zip":"95762","city":"El Dorado Hills","area":null,"county":"El Dorado County","state":"California","country":"us","formatted_address":"Chili\u2019s Bar and Grill, Valley View Parkway, El Dorado Hills Town Center, El Dorado Hills, El Dorado County, California, 95762, United States of America","place_id":"46589070","datatype":"locationiq"},{"name":"Cold Stone Creamery","code":null,"latitude":33.86244,"longitude":-112.1333,"address":"3434 W Anthem Wy, Anthem AZ","chain_name":null,"distance":0,"street_number":"3406","street_name":"West Anthem Way","zip":"85086","city":null,"area":null,"county":"Maricopa County","state":"Arizona","country":"us","formatted_address":"3406, West Anthem Way, Anthem, New River, Maricopa County, Arizona, 85086, United States of America","place_id":"177238678","datatype":"locationiq"},{"name":"Cold Stone Creamery","code":null,"latitude":41.56849,"longitude":-93.8091,"address":"101 Jordan Creek Parkway, # 12516, West Des Moines IA","chain_name":null,"distance":0,"street_number":"3201","street_name":"South Jordan Creek Parkway","zip":"50266","city":"West Des Moines","area":null,"county":"Dallas County","state":"Iowa","country":"us","formatted_address":"3201, South Jordan Creek Parkway, Plaza at Jordan Creek, West Des Moines, Dallas County, Iowa, 50266, United States of America","place_id":"187140651","datatype":"locationiq"},{"name":"Cold Stone Creamery","code":null,"latitude":37.73812,"longitude":-97.2446,"address":"3000 N Rock Road, Wichita KS","chain_name":null,"distance":0,"street_number":"3015","street_name":"North Rock Road","zip":"67226","city":"Wichita","area":null,"county":"Sedgwick County","state":"Kansas","country":"us","formatted_address":"Chipotle, 3015, North Rock Road, Wichita, Sedgwick County, Kansas, 67226, United States of America","place_id":"15232193","datatype":"locationiq"},{"name":"Cold Stone Creamery","code":null,"latitude":41.57431,"longitude":-109.2448,"address":"1977 Dewar Drive, # E, Rock Springs WY","chain_name":null,"distance":0,"street_number":null,"street_name":"Dewar Drive","zip":"82901","city":"Rock Springs","area":null,"county":"Sweetwater County","state":"Wyoming","country":"us","formatted_address":"Hampton Inn Rock Springs, Dewar Drive, Rock Springs, Sweetwater County, Wyoming, 82901, United States of America","place_id":"53369341","datatype":"locationiq"},{"name":"Cold Stone Creamery","code":null,"latitude":45.03889,"longitude":-93.2211,"address":"2700 39th Avenue Northeast, Minneapolis MN","chain_name":null,"distance":0,"street_number":null,"street_name":"39th Avenue Northeast","zip":"55421","city":"St. Anthony","area":null,"county":"Ramsey County","state":"Minnesota","country":"us","formatted_address":"Coolidge St, 39th Avenue Northeast, St. Anthony, Ramsey County, Minnesota, 55421, United States of America","place_id":"6719261","datatype":"locationiq"},{"name":"Cold Stone Creamery","code":null,"latitude":39.2809,"longitude":-80.2777,"address":"124 Emily Drive, Clarksburg WV","chain_name":null,"distance":0,"street_number":null,"street_name":"West Main Street","zip":"26330","city":"Bridgeport","area":null,"county":"Harrison County","state":"West Virginia","country":"us","formatted_address":"Walgreens, West Main Street, Bridgeport, Harrison County, West Virginia, 26330, United States of America","place_id":"25562290","datatype":"locationiq"},{"name":"Cold Stone Creamery","code":null,"latitude":42.96175,"longitude":-71.4435,"address":"102 March Avenue, Manchester NH","chain_name":null,"distance":0,"street_number":"89","street_name":"March Avenue","zip":"03103","city":"Manchester","area":null,"county":"Hillsborough County","state":"New Hampshire","country":"us","formatted_address":"Town Fair Tire, 89, March Avenue, TJ Maxx Plaza, Manchester, Hillsborough County, New Hampshire, 03103, United States of America","place_id":"87613347","datatype":"locationiq"},{"name":"Cold Stone Creamery","code":null,"latitude":40.99177,"longitude":-74.0331,"address":"441 Broadway, Westwood NJ","chain_name":null,"distance":0,"street_number":null,"street_name":"Broadway","zip":"07642","city":"Westwood","area":null,"county":"Bergen County","state":"New Jersey","country":"us","formatted_address":"Sogno Coffeehouse & Creperie, Broadway, Westwood, Bergen County, New Jersey, 07642, United States of America","place_id":"53120662","datatype":"locationiq"},{"name":"Cold Stone Creamery","code":null,"latitude":35.06391,"longitude":-80.7747,"address":"5355 Ballantyne Commons Parkway, Charlotte NC","chain_name":null,"distance":0,"street_number":"5375","street_name":"Ballantyne Commons Parkway","zip":"28277","city":"Charlotte","area":null,"county":"Mecklenburg County","state":"North Carolina","country":"us","formatted_address":"5375, Ballantyne Commons Parkway, Charlotte, Mecklenburg County, North Carolina, 28277, United States of America","place_id":"197892552","datatype":"locationiq"},{"name":"Cold Stone Creamery","code":null,"latitude":35.46311,"longitude":-97.6189,"address":"315 South Macarthur Boulevard, Oklahoma City OK","chain_name":null,"distance":0,"street_number":"257","street_name":"South MacArthur Boulevard","zip":"73128","city":"Oklahoma City","area":null,"county":"Oklahoma County","state":"Oklahoma","country":"us","formatted_address":"257, South MacArthur Boulevard, Oklahoma City, Oklahoma County, Oklahoma, 73128, United States of America","place_id":"200379357","datatype":"locationiq"},{"name":"Cold Stone Creamery","code":null,"latitude":29.9598,"longitude":-90.1837,"address":"1130 S Clearview Parkway, # F, New Orleans LA","chain_name":null,"distance":0,"street_number":"952","street_name":"South Clearview Parkway","zip":"70123","city":null,"area":null,"county":"Jefferson Parish","state":"Louisiana","country":"us","formatted_address":"952, South Clearview Parkway, Elmwood, Jefferson Parish, Louisiana, 70123, United States of America","place_id":"189040020","datatype":"locationiq"},{"name":"Cold Stone Creamery","code":null,"latitude":41.66082,"longitude":-91.5331,"address":"39 S Dubuque Street, Iowa City IA","chain_name":null,"distance":0,"street_number":null,"street_name":"South Dubuque Street","zip":"52240","city":"Iowa City","area":null,"county":"Johnson County","state":"Iowa","country":"us","formatted_address":"Sports Column, South Dubuque Street, Iowa City, Johnson County, Iowa, 52240, United States of America","place_id":"130517425","datatype":"locationiq"},{"name":"Cold Stone Creamery","code":null,"latitude":44.5195,"longitude":-89.5747,"address":"101 Division Street, Stevens Point WI","chain_name":null,"distance":0,"street_number":"1708","street_name":"Division Street","zip":"54481","city":"Stevens Point","area":null,"county":"Portage County","state":"Wisconsin","country":"us","formatted_address":"1708, Division Street, Stevens Point, Portage County, Wisconsin, 54481, United States of America","place_id":"209633096","datatype":"locationiq"},{"name":"Cold Stone Creamery","code":null,"latitude":38.52577,"longitude":-90.363,"address":"7 Ronnies Plaza, Saint Louis MO","chain_name":null,"distance":0,"street_number":null,"street_name":"Ronnies Plaza Drive","zip":"63126","city":null,"area":null,"county":"St. Louis County","state":"Missouri","country":"us","formatted_address":"Ronnies Plaza Drive, Sappington, St. Louis County, Missouri, 63126, United States of America","place_id":"147732947","datatype":"locationiq"},{"name":"Cold Stone Creamery","code":null,"latitude":41.06995,"longitude":-85.1954,"address":"4150 W Jefferson Boulevard, Fort Wayne IN","chain_name":null,"distance":0,"street_number":null,"street_name":"West Jefferson Boulevard","zip":"46804","city":"Fort Wayne","area":null,"county":"Allen County","state":"Indiana","country":"us","formatted_address":"West Jefferson Boulevard, Fort Wayne, Allen County, Indiana, 46804, United States of America","place_id":"173359913","datatype":"locationiq"},{"name":"Cold Stone Creamery","code":null,"latitude":41.42596,"longitude":-81.7343,"address":"4826 Ridge Road, Cleveland OH","chain_name":null,"distance":0,"street_number":null,"street_name":"Ridge Road","zip":"44133","city":null,"area":null,"county":"Cuyahoga County","state":"Ohio","country":"us","formatted_address":"Dunkin' Donuts, Ridge Road, Brooklyn, Cuyahoga County, Ohio, 44133, United States of America","place_id":"23038573","datatype":"locationiq"},{"name":"Cold Stone Creamery","code":null,"latitude":37.10529,"longitude":-76.4981,"address":"550 Oyster Point Road, Newport News VA","chain_name":null,"distance":0,"street_number":"534","street_name":"Oyster Point Road","zip":"23602","city":"Newport News City","area":"Warwick Mobile Home Estates","county":null,"state":"Virginia","country":"us","formatted_address":"534, Oyster Point Road, Warwick Mobile Home Estates, Oyster Point, Newport News, Newport News City, Virginia, 23602, United States of America","place_id":"144739923","datatype":"locationiq"},{"name":"Cold Stone Creamery","code":null,"latitude":40.78038,"longitude":-74.6975,"address":"235 Us Highway 206 S, Chester NJ","chain_name":null,"distance":0,"street_number":null,"street_name":"Lackawanna Place","zip":"07836","city":null,"area":null,"county":"Morris County","state":"New Jersey","country":"us","formatted_address":"Burger King, Lackawanna Place, Chester, Morris County, New Jersey, 07836, United States of America","place_id":"103890021","datatype":"locationiq"},{"name":"Cold Stone Creamery","code":null,"latitude":43.09272,"longitude":-70.7974,"address":"45 Gosling Road, Newington NH","chain_name":null,"distance":0,"street_number":null,"street_name":"Gosling Road","zip":"03801","city":null,"area":"Wentworth Acres","county":"Rockingham County","state":"New Hampshire","country":"us","formatted_address":"Jared Jewlery, Gosling Road, Wentworth Acres, Portsmouth, Rockingham County, New Hampshire, 03801, United States of America","place_id":"109390593","datatype":"locationiq"},{"name":"Cold Stone Creamery","code":null,"latitude":41.35805,"longitude":-71.809,"address":"143 Franklin, Westerly RI","chain_name":null,"distance":0,"street_number":null,"street_name":"Franklin Street","zip":"02891","city":null,"area":null,"county":"Washington County","state":"Rhode Island","country":"us","formatted_address":"Olympia Sports, Franklin Street, Westerly, Washington County, Rhode Island, 02891, United States of America","place_id":"50372710","datatype":"locationiq"},{"name":"Cold Stone Creamery","code":null,"latitude":40.26416,"longitude":-111.6687,"address":"2302 N University Parkway, Provo UT","chain_name":null,"distance":0,"street_number":null,"street_name":"North University Parkway","zip":"84602","city":"Provo","area":"Wyview Park","county":"Utah County","state":"Utah","country":"us","formatted_address":"Kyoto Japanese Stakehouse and Sushi Bar, North University Parkway, Wyview Park, Provo, Utah County, Utah, 84602, United States of America","place_id":"87892987","datatype":"locationiq"},{"name":"Cold Stone Creamery","code":null,"latitude":38.59531,"longitude":-121.3442,"address":"5150 Arden Way, Carmichael CA","chain_name":null,"distance":0,"street_number":"5174","street_name":"Arden Way","zip":"95608","city":null,"area":null,"county":"Sacramento County","state":"California","country":"us","formatted_address":"5174, Arden Way, Carmichael, Sacramento County, California, 95608, United States of America","place_id":"179512095","datatype":"locationiq"},{"name":"Cold Stone Creamery","code":null,"latitude":31.4961,"longitude":-97.1562,"address":"2812 W Loop 340, # 1, Waco TX","chain_name":null,"distance":0,"street_number":null,"street_name":"W Loop 340 Acess","zip":"76711","city":"Waco","area":null,"county":"McLennan County","state":"Texas","country":"us","formatted_address":"W Loop 340 Acess, Waco, McLennan County, Texas, 76711, United States of America","place_id":"122088599","datatype":"locationiq"},{"name":"Cold Stone Creamery","code":null,"latitude":39.72984,"longitude":-121.8414,"address":"146 Broadway Street, Chico CA","chain_name":null,"distance":0,"street_number":"134","street_name":"West 2nd Street","zip":"95928","city":"Chico","area":null,"county":"Butte County","state":"California","country":"us","formatted_address":"The Banshee, 134, West 2nd Street, Chico, Butte County, California, 95928, United States of America","place_id":"132256185","datatype":"locationiq"},{"name":"Cold Stone Creamery","code":null,"latitude":30.40291,"longitude":-91.1795,"address":"3930 Burbank Drive, # K, Baton Rouge LA","chain_name":null,"distance":0,"street_number":"3955","street_name":"Burbank Drive","zip":"70808","city":"Baton Rouge","area":null,"county":"East Baton Rouge Parish","state":"Louisiana","country":"us","formatted_address":"3955, Burbank Drive, Baton Rouge, East Baton Rouge Parish, Louisiana, 70808, United States of America","place_id":"188977405","datatype":"locationiq"},{"name":"Cold Stone Creamery","code":null,"latitude":38.21738,"longitude":-85.5872,"address":"2015 S Hurstbourne Parkway, Louisville KY","chain_name":null,"distance":0,"street_number":"9120","street_name":"Hurstbourne Lane","zip":"40220","city":"Hurstbourne Acres","area":null,"county":"Jefferson County","state":"Kentucky","country":"us","formatted_address":"9120, Hurstbourne Lane, Hurstbourne Acres, Jefferson County, Kentucky, 40220, United States of America","place_id":"146564879","datatype":"locationiq"},{"name":"Cold Stone Creamery","code":null,"latitude":42.5884,"longitude":-114.4527,"address":"799 Cheney Drive, # A, Twin Falls ID","chain_name":null,"distance":0,"street_number":null,"street_name":"Cheney Drive","zip":"83303","city":"Twin Falls","area":null,"county":"Twin Falls County","state":"Idaho","country":"us","formatted_address":"Cheney Drive, Twin Falls, Twin Falls County, Idaho, 83303, United States of America","place_id":"67769165","datatype":"locationiq"},{"name":"Cold Stone Creamery","code":null,"latitude":41.46044,"longitude":-81.9523,"address":"24 Main, Westlake OH","chain_name":null,"distance":0,"street_number":"30147","street_name":"Detroit Road","zip":"44145","city":null,"area":null,"county":"Cuyahoga County","state":"Ohio","country":"us","formatted_address":"Regal Cinemas, 30147, Detroit Road, Westlake, Cuyahoga County, Ohio, 44145, United States of America","place_id":"173991978","datatype":"locationiq"},{"name":"Cold Stone Creamery","code":null,"latitude":40.01466,"longitude":-105.2629,"address":"2412 Arapahoe Avenue, Boulder CO","chain_name":null,"distance":0,"street_number":null,"street_name":"Arapahoe Avenue","zip":"80309","city":"Boulder","area":"The Hill","county":"Boulder County","state":"Colorado","country":"us","formatted_address":"Cricket Communications, Arapahoe Avenue, The Hill, Boulder, Boulder County, Colorado, 80309, United States of America","place_id":"23449406","datatype":"locationiq"},{"name":"Cold Stone Creamery","code":null,"latitude":32.46824,"longitude":-90.1297,"address":"1888 Main Street, # B, Madison MS","chain_name":null,"distance":0,"street_number":null,"street_name":"Main Street","zip":"39110","city":"Madison","area":null,"county":"Madison County","state":"Mississippi","country":"us","formatted_address":"Applebee's, Main Street, Madison, Madison County, Mississippi, 39110, United States of America","place_id":"92380866","datatype":"locationiq"},{"name":"Cold Stone Creamery","code":null,"latitude":35.65274,"longitude":-97.4641,"address":"1197 E 2nd Street, # 3001, Edmond OK","chain_name":null,"distance":0,"street_number":null,"street_name":"East 2nd Street","zip":"73034","city":"Edmond","area":null,"county":"Oklahoma County","state":"Oklahoma","country":"us","formatted_address":"Chick-fil-A, East 2nd Street, Edmond, Oklahoma County, Oklahoma, 73034, United States of America","place_id":"140354753","datatype":"locationiq"},{"name":"Cold Stone Creamery","code":null,"latitude":48.20818,"longitude":-101.3067,"address":"2400 10th Street Southwest, # 356, Minot ND","chain_name":null,"distance":0,"street_number":null,"street_name":"10th Street Southwest","zip":"58701","city":"Minot","area":null,"county":"Ward County","state":"North Dakota","country":"us","formatted_address":"10th Street Southwest, Minot, Ward County, North Dakota, 58701, United States of America","place_id":"65002628","datatype":"locationiq"},{"name":"Cold Stone Creamery","code":null,"latitude":37.97434,"longitude":-87.6412,"address":"5435 Pearl Drive, # 5, Evansville IN","chain_name":null,"distance":0,"street_number":null,"street_name":"West Lloyd Expressway","zip":"47712","city":"Evansville","area":null,"county":"Vanderburgh County","state":"Indiana","country":"us","formatted_address":"Buffalo Wild Wings, West Lloyd Expressway, Evansville, Vanderburgh County, Indiana, 47712, United States of America","place_id":"47980851","datatype":"locationiq"},{"name":"Cold Stone Creamery","code":null,"latitude":42.91908,"longitude":-83.6191,"address":"12821 S Saginaw Street, # D16, Grand Blanc MI","chain_name":null,"distance":0,"street_number":"7527","street_name":"South Saginaw Road","zip":"48439","city":"Grand Blanc","area":null,"county":"Genesee County","state":"Michigan","country":"us","formatted_address":"7527, South Saginaw Road, Grand Blanc, Genesee County, Michigan, 48439, United States of America","place_id":"190855683","datatype":"locationiq"},{"name":"Cold Stone Creamery","code":null,"latitude":40.54874,"longitude":-74.3339,"address":"55 Parsonage Road, # 453, Edison NJ","chain_name":null,"distance":0,"street_number":null,"street_name":"Parsonage Road","zip":"08837","city":"Edison","area":null,"county":"Middlesex County","state":"New Jersey","country":"us","formatted_address":"IHOP, Parsonage Road, Edison, Middlesex County, New Jersey, 08837, United States of America","place_id":"122445437","datatype":"locationiq"},{"name":"Cold Stone Creamery","code":null,"latitude":38.57264,"longitude":-89.9273,"address":"3228 Green Mount Crossing Drive, O Fallon IL","chain_name":null,"distance":0,"street_number":"3210","street_name":"Green Mount Crossing Drive","zip":"62269","city":null,"area":null,"county":"Saint Clair County","state":"Illinois","country":"us","formatted_address":"3210, Green Mount Crossing Drive, Shiloh, Saint Clair County, Illinois, 62269, United States of America","place_id":"114965532","datatype":"locationiq"},{"name":"Cold Stone Creamery","code":null,"latitude":41.38106,"longitude":-72.1526,"address":"909 Hartford Turnpike, # D7B, Waterford CT","chain_name":null,"distance":0,"street_number":null,"street_name":"Hartford Turnpike","zip":"06385","city":null,"area":null,"county":"New London County","state":"Connecticut","country":"us","formatted_address":"Best Buy, Hartford Turnpike, Chesterfield, New London County, Connecticut, 06385, United States of America","place_id":"79986421","datatype":"locationiq"},{"name":"Cold Stone Creamery","code":null,"latitude":29.62543,"longitude":-82.3741,"address":"3443 SW Archer Road, # A3, Gainesville FL","chain_name":null,"distance":0,"street_number":null,"street_name":"Archer Road","zip":"32608","city":"City of Gainesville Municipal Boundaries","area":"Daysville","county":"Alachua County","state":"Florida","country":"us","formatted_address":"Lowe's, Archer Road, Daysville, City of Gainesville Municipal Boundaries, Alachua County, Florida, 32608, United States of America","place_id":"3627229","datatype":"locationiq"},{"name":"Cold Stone Creamery","code":null,"latitude":33.66602,"longitude":-112.203,"address":"20022 N 67 Avenue, Glendale AZ","chain_name":null,"distance":0,"street_number":"20067","street_name":"North 67th Avenue","zip":"85308","city":null,"area":"The Highlands at Arrowhead Ranch","county":"Maricopa County","state":"Arizona","country":"us","formatted_address":"20067, North 67th Avenue, The Highlands at Arrowhead Ranch, Arrowhead Ranch, Maricopa County, Arizona, 85308, United States of America","place_id":"177150979","datatype":"locationiq"},{"name":"Cold Stone Creamery","code":null,"latitude":32.17639,"longitude":-80.73,"address":"890 William Hilton Parkway, # 38, Hilton Head Island SC","chain_name":null,"distance":0,"street_number":null,"street_name":"William Hilton Parkway","zip":"29926","city":null,"area":"Sea Pines Circle","county":"Beaufort County","state":"South Carolina","country":"us","formatted_address":"William Hilton Parkway, Sea Pines Circle, Hilton Head Island, Beaufort County, South Carolina, 29926, United States of America","place_id":"167545443","datatype":"locationiq"},{"name":"Cold Stone Creamery","code":null,"latitude":34.03277,"longitude":-118.2539,"address":"1300 S San Pedro Street, Los Angeles CA","chain_name":null,"distance":0,"street_number":"701","street_name":"Pico Boulevard","zip":"90021","city":"Los Angeles","area":"Fashion District","county":"Los Angeles County","state":"California","country":"us","formatted_address":"701, Pico Boulevard, Fashion District, Bunker Hill, Los Angeles, Los Angeles County, California, 90021, United States of America","place_id":"178822061","datatype":"locationiq"},{"name":"Cold Stone Creamery","code":null,"latitude":40.17897,"longitude":-74.8794,"address":"2300 E Lincoln Highway, # Fc1, Langhorne PA","chain_name":null,"distance":0,"street_number":"2329","street_name":"Lincoln Highway","zip":"19047","city":"Middletown Township","area":null,"county":"Bucks County","state":"Pennsylvania","country":"us","formatted_address":"Arirang Hibachi Steakhouse, 2329, Lincoln Highway, Middletown Township, Bucks County, Pennsylvania, 19047, United States of America","place_id":"83112199","datatype":"locationiq"},{"name":"Cold Stone Creamery","code":null,"latitude":35.92209,"longitude":-95.8718,"address":"8222 East 103 St South, # 100, Bixby OK","chain_name":null,"distance":0,"street_number":null,"street_name":"South Mingo Road","zip":"74008","city":"Bixby","area":null,"county":"Tulsa County","state":"Oklahoma","country":"us","formatted_address":"South Mingo Road, Bixby, Tulsa County, Oklahoma, 74008, United States of America","place_id":"68855452","datatype":"locationiq"},{"name":"Cold Stone Creamery","code":null,"latitude":33.49491,"longitude":-111.9887,"address":"4290 E Indian School Road, # 121, Phoenix AZ","chain_name":null,"distance":0,"street_number":null,"street_name":"East Indian School Road","zip":"85018","city":"Phoenix","area":null,"county":"Maricopa County","state":"Arizona","country":"us","formatted_address":"Rubio's, East Indian School Road, Camelback East, Phoenix, Maricopa County, Arizona, 85018, United States of America","place_id":"31052126","datatype":"locationiq"},{"name":"Cold Stone Creamery","code":null,"latitude":41.56083,"longitude":-72.6486,"address":"100 Riverview Centre, # 125, Middletown CT","chain_name":null,"distance":0,"street_number":"123","street_name":"Court Street","zip":"06457","city":"Middletown","area":null,"county":"Middlesex County","state":"Connecticut","country":"us","formatted_address":"123, Court Street, Middletown, Middlesex County, Connecticut, 06457, United States of America","place_id":"181348357","datatype":"locationiq"},{"name":"Cold Stone Creamery","code":null,"latitude":40.44857,"longitude":-75.3613,"address":"260 North West End Boulevard, Quakertown PA","chain_name":null,"distance":0,"street_number":null,"street_name":"North West End Boulevard","zip":"18951","city":"Quakertown","area":null,"county":"Bucks County","state":"Pennsylvania","country":"us","formatted_address":"Arby's, North West End Boulevard, Quakertown, Bucks County, Pennsylvania, 18951, United States of America","place_id":"118094824","datatype":"locationiq"},{"name":"Cold Stone Creamery","code":null,"latitude":45.3827,"longitude":-122.7557,"address":"7656 SW Nyberg Street, Tualatin OR","chain_name":null,"distance":0,"street_number":"7600","street_name":"Southwest Nyberg Street","zip":"97062","city":"Tualatin","area":null,"county":"Washington County","state":"Oregon","country":"us","formatted_address":"Jack in the Box, 7600, Southwest Nyberg Street, Tualatin, Washington County, Oregon, 97062, United States of America","place_id":"113477752","datatype":"locationiq"},{"name":"Cold Stone Creamery","code":null,"latitude":35.0926,"longitude":-85.0729,"address":"8308 Mill Race Drive, Ooltewah TN","chain_name":null,"distance":0,"street_number":"8307","street_name":"Mill Race Drive","zip":"37363","city":null,"area":null,"county":"Hamilton County","state":"Tennessee","country":"us","formatted_address":"8307, Mill Race Drive, Rock Ledge Estates, Hamilton County, Tennessee, 37363, United States of America","place_id":"203723473","datatype":"locationiq"},{"name":"Cold Stone Creamery","code":null,"latitude":33.89618,"longitude":-84.0066,"address":"1350 Scenic Highway North, # 824, Snellville GA","chain_name":null,"distance":0,"street_number":null,"street_name":"Scenic Highway","zip":"30078","city":null,"area":"Broxton Woods","county":"Gwinnett County","state":"Georgia","country":"us","formatted_address":"Scenic Highway, Broxton Woods, Lawrenceville, Gwinnett County, Georgia, 30078, United States of America","place_id":"111610184","datatype":"locationiq"},{"name":"Cold Stone Creamery","code":null,"latitude":41.76654,"longitude":-88.0682,"address":"3520 Seven Bridges Drive, # 102, Woodridge IL","chain_name":null,"distance":0,"street_number":null,"street_name":"Seven Bridges Drive","zip":"60517","city":null,"area":null,"county":"DuPage County","state":"Illinois","country":"us","formatted_address":"Seven Bridges Drive, Main Street at Seven Bridges, Woodridge, DuPage County, Illinois, 60517, United States of America","place_id":"72552425","datatype":"locationiq"},{"name":"Cold Stone Creamery","code":null,"latitude":47.48277,"longitude":-111.3397,"address":"1601 Market Place Drive, Great Falls MT","chain_name":null,"distance":0,"street_number":"1883","street_name":"Market Place Drive","zip":"59404","city":"Great Falls","area":null,"county":"Cascade County","state":"Montana","country":"us","formatted_address":"1883, Market Place Drive, Great Falls, Cascade County, Montana, 59404, United States of America","place_id":"194216851","datatype":"locationiq"},{"name":"Cold Stone Creamery","code":null,"latitude":47.67019,"longitude":-122.1215,"address":"7349 164th Avenue, Redmond WA","chain_name":null,"distance":0,"street_number":"7525","street_name":"166th Avenue Northeast","zip":"98052","city":"Redmond","area":"Education Hill","county":"King County","state":"Washington","country":"us","formatted_address":"Brightmont Academy, 7525, 166th Avenue Northeast, Education Hill, Redmond, King County, Washington, 98052, United States of America","place_id":"60701518","datatype":"locationiq"},{"name":"Cold Stone Creamery","code":null,"latitude":39.37181,"longitude":-76.4655,"address":"8137 Honeygo Boulevard, Nottingham MD","chain_name":null,"distance":0,"street_number":"8133 A","street_name":"Honeygo Boulevard","zip":"21236","city":null,"area":"The Apartments At Cambridge Court","county":"Baltimore County","state":"Maryland","country":"us","formatted_address":"Tilted Kilt, 8133 A, Honeygo Boulevard, The Apartments At Cambridge Court, White Marsh, Baltimore County, Maryland, 21236, United States of America","place_id":"41297603","datatype":"locationiq"},{"name":"Cold Stone Creamery","code":null,"latitude":36.1248,"longitude":-94.1559,"address":"160 E Joyce Boulevard, # 109, Fayetteville AR","chain_name":null,"distance":0,"street_number":"100","street_name":"East Joyce Boulevard","zip":"72703","city":"Fayetteville","area":null,"county":"Washington County","state":"Arkansas","country":"us","formatted_address":"100, East Joyce Boulevard, Fayetteville, Washington County, Arkansas, 72703, United States of America","place_id":"173002138","datatype":"locationiq"},{"name":"Cold Stone Creamery","code":null,"latitude":47.88947,"longitude":-97.0795,"address":"3551 32nd Avenue South, # 600, Grand Forks ND","chain_name":null,"distance":0,"street_number":null,"street_name":"32nd Avenue South","zip":"58201","city":"Grand Forks","area":null,"county":"Grand Forks County","state":"North Dakota","country":"us","formatted_address":"Starbucks, 32nd Avenue South, Grand Forks, Grand Forks County, North Dakota, 58201, United States of America","place_id":"12153399","datatype":"locationiq"},{"name":"Cold Stone Creamery","code":null,"latitude":44.92439,"longitude":-93.4097,"address":"768 Mainstreet, Hopkins MN","chain_name":null,"distance":0,"street_number":"801","street_name":"Main Street","zip":"55343","city":"Hopkins","area":null,"county":"Hennepin County","state":"Minnesota","country":"us","formatted_address":"801, Main Street, Hopkins, Hennepin County, Minnesota, 55343, United States of America","place_id":"52107521","datatype":"locationiq"},{"name":"Cold Stone Creamery","code":null,"latitude":36.06362,"longitude":-115.043,"address":"1311 W Sunset Road, # 110, Henderson NV","chain_name":null,"distance":0,"street_number":"1309","street_name":"Sunset Road","zip":"89014","city":"Henderson","area":null,"county":"Clark County","state":"Nevada","country":"us","formatted_address":"1309, Sunset Road, Whitney Ranch, Henderson, Clark County, Nevada, 89014, United States of America","place_id":"194943807","datatype":"locationiq"},{"name":"Cold Stone Creamery","code":null,"latitude":37.65265,"longitude":-122.104,"address":"24381 Southland Drive, Hayward CA","chain_name":null,"distance":0,"street_number":null,"street_name":"Southland Drive","zip":"94545","city":"Hayward","area":null,"county":"Alameda County","state":"California","country":"us","formatted_address":"Panda Express, Southland Drive, Hayward, Alameda County, California, 94545, United States of America","place_id":"55012210","datatype":"locationiq"},{"name":"Cold Stone Creamery","code":null,"latitude":40.81551,"longitude":-96.7025,"address":"232 N 13th Street, # 3, Lincoln NE","chain_name":null,"distance":0,"street_number":null,"street_name":"Q Street","zip":"68503","city":"Lincoln","area":null,"county":"Lancaster County","state":"Nebraska","country":"us","formatted_address":"Chipotle, Q Street, West Lincoln, Lincoln, Lancaster County, Nebraska, 68503, United States of America","place_id":"22442091","datatype":"locationiq"},{"name":"Cold Stone Creamery","code":null,"latitude":36.76678,"longitude":-108.1483,"address":"4917 E Main Street, # A, Farmington NM","chain_name":null,"distance":0,"street_number":null,"street_name":"East Main Street","zip":"87402","city":"Farmington","area":null,"county":"San Juan County","state":"New Mexico","country":"us","formatted_address":"East Main Street, Farmington, San Juan County, New Mexico, 87402, United States of America","place_id":"91857664","datatype":"locationiq"},{"name":"Cold Stone Creamery","code":null,"latitude":32.30886,"longitude":-110.8439,"address":"6960 E Sunrise Drive, Tucson AZ","chain_name":null,"distance":0,"street_number":"6999","street_name":"East Sunrise Drive","zip":"85750","city":"Tucson","area":null,"county":"Pima County","state":"Arizona","country":"us","formatted_address":"6999, East Sunrise Drive, Catalina Foothills, Tucson, Pima County, Arizona, 85750, United States of America","place_id":"177333575","datatype":"locationiq"},{"name":"Cold Stone Creamery","code":null,"latitude":38.91305,"longitude":-94.6464,"address":"5234 W 119th Street, # B, Leawood KS","chain_name":null,"distance":0,"street_number":null,"street_name":"West 119th Street","zip":"66213","city":"Leawood","area":null,"county":"Johnson County","state":"Kansas","country":"us","formatted_address":"On the Border, West 119th Street, Rosana Square, Leawood, Johnson County, Kansas, 66213, United States of America","place_id":"21075782","datatype":"locationiq"},{"name":"Cold Stone Creamery","code":null,"latitude":29.74262,"longitude":-95.4104,"address":"2071 Westheimer Road, Suite E, Houston TX","chain_name":null,"distance":0,"street_number":null,"street_name":"South Shepherd Drive","zip":"77098","city":"Houston","area":null,"county":"Harris County","state":"Texas","country":"us","formatted_address":"Exxon, South Shepherd Drive, Houston, Harris County, Texas, 77098, United States of America","place_id":"23780930","datatype":"locationiq"},{"name":"Cold Stone Creamery","code":null,"latitude":40.41683,"longitude":-86.8389,"address":"100 S Creasy Lane, Lafayette IN","chain_name":null,"distance":0,"street_number":"49","street_name":"South Creasy Lane","zip":"47905","city":"Lafayette","area":null,"county":"Tippecanoe County","state":"Indiana","country":"us","formatted_address":"49, South Creasy Lane, Lafayette, Tippecanoe County, Indiana, 47905, United States of America","place_id":"186848535","datatype":"locationiq"},{"name":"Cold Stone Creamery","code":null,"latitude":38.71663,"longitude":-75.0772,"address":"43 Rehoboth Avenue, # B, Rehoboth Beach DE","chain_name":null,"distance":0,"street_number":null,"street_name":"Rehoboth Avenue","zip":"19971","city":"Rehoboth Beach","area":null,"county":"Sussex County","state":"Delaware","country":"us","formatted_address":"Five Guys Burgers and Fries, Rehoboth Avenue, Rehoboth Beach, Sussex County, Delaware, 19971, United States of America","place_id":"57220746","datatype":"locationiq"},{"name":"Cold Stone Creamery","code":null,"latitude":42.51277,"longitude":-92.434,"address":"6421 University Avenue, # 1, Cedar Falls IA","chain_name":null,"distance":0,"street_number":null,"street_name":"University Avenue Frontage Road","zip":"50613","city":"Cedar Falls","area":null,"county":"Black Hawk County","state":"Iowa","country":"us","formatted_address":"University Avenue Frontage Road, Cedar Falls, Black Hawk County, Iowa, 50613, United States of America","place_id":"69308603","datatype":"locationiq"},{"name":"Cold Stone Creamery","code":null,"latitude":32.51879,"longitude":-93.7405,"address":"420 Boardwalk Boulevard, Bossier City LA","chain_name":null,"distance":0,"street_number":"401","street_name":"Boardwalk Boulevard","zip":"71111","city":"Bossier City","area":null,"county":"Bossier Parish","state":"Louisiana","country":"us","formatted_address":"401, Boardwalk Boulevard, Louisiana Boardwalk, Bossier City, Bossier Parish, Louisiana, 71111, United States of America","place_id":"115614802","datatype":"locationiq"},{"name":"Cold Stone Creamery","code":null,"latitude":27.83755,"longitude":-82.6826,"address":"7220 US Highway 19 North, Pinellas Park FL","chain_name":null,"distance":0,"street_number":"7250","street_name":"US 19","zip":"33781","city":null,"area":null,"county":"Pinellas County","state":"Florida","country":"us","formatted_address":"Chili's Grill & Bar, 7250, US 19, Pinellas Park, Pinellas County, Florida, 33781, United States of America","place_id":"100375181","datatype":"locationiq"},{"name":"Cold Stone Creamery","code":null,"latitude":34.28841,"longitude":-118.7176,"address":"2916 Tapo Canyon Road, Simi Valley CA","chain_name":null,"distance":0,"street_number":"2896","street_name":"Tapo Canyon Road","zip":"93063","city":"Simi Valley","area":null,"county":"Ventura County","state":"California","country":"us","formatted_address":"2896, Tapo Canyon Road, Simi Valley, Ventura County, California, 93063, United States of America","place_id":"180518052","datatype":"locationiq"},{"name":"Cold Stone Creamery","code":null,"latitude":33.41617,"longitude":-111.8321,"address":"25 W Pepper Place, Mesa AZ","chain_name":null,"distance":0,"street_number":"21","street_name":"West Pepper Place","zip":"85201","city":"Mesa","area":null,"county":"Maricopa County","state":"Arizona","country":"us","formatted_address":"21, West Pepper Place, Mesa, Maricopa County, Arizona, 85201, United States of America","place_id":"177029248","datatype":"locationiq"},{"name":"Cold Stone Creamery","code":null,"latitude":39.07629,"longitude":-76.8681,"address":"13600 Baltimore Avenue, Laurel MD","chain_name":null,"distance":0,"street_number":null,"street_name":"Baltimore Avenue","zip":"20707","city":null,"area":"Oak Crest","county":"Prince George's County","state":"Maryland","country":"us","formatted_address":"LongHorn Steakhouse, Baltimore Avenue, Oak Crest, South Laurel, Prince George's County, Maryland, 20707, United States of America","place_id":"124058023","datatype":"locationiq"},{"name":"Cold Stone Creamery","code":null,"latitude":35.9144,"longitude":-78.778,"address":"7840 Alexander Promenade Pl, Raleigh NC","chain_name":null,"distance":0,"street_number":null,"street_name":"Alexander Promenade Place","zip":"27617","city":"Raleigh","area":null,"county":"Wake County","state":"North Carolina","country":"us","formatted_address":"hhgregg, Alexander Promenade Place, Charleston Homes at Alexander Place, Brier Creek, Raleigh, Wake County, North Carolina, 27617, United States of America","place_id":"124423003","datatype":"locationiq"},{"name":"Cold Stone Creamery","code":null,"latitude":33.64062,"longitude":-112.0655,"address":"17015 N 7th Street, # 2, Phoenix AZ","chain_name":null,"distance":0,"street_number":"650","street_name":"East Bell Road","zip":"85022","city":"Phoenix","area":null,"county":"Maricopa County","state":"Arizona","country":"us","formatted_address":"McDonald's, 650, East Bell Road, Phoenix, Maricopa County, Arizona, 85022, United States of America","place_id":"108097122","datatype":"locationiq"},{"name":"Cold Stone Creamery","code":null,"latitude":40.35756,"longitude":-75.9845,"address":"2733 Papermill Road, # X1, Reading PA","chain_name":null,"distance":0,"street_number":null,"street_name":"Papermill Road","zip":"19610","city":null,"area":null,"county":"Berks County","state":"Pennsylvania","country":"us","formatted_address":"Papermill Road, Spring Ridge, Berks County, Pennsylvania, 19610, United States of America","place_id":"111257240","datatype":"locationiq"},{"name":"Cold Stone Creamery","code":null,"latitude":28.49008,"longitude":-81.5084,"address":"4848 S Apopka Vineland Road, #218, Orlando FL","chain_name":null,"distance":0,"street_number":"4801","street_name":"Apopka Vineland Road","zip":"32819","city":null,"area":null,"county":"Orange County","state":"Florida","country":"us","formatted_address":"4801, Apopka Vineland Road, Dr. Phillips, Orange County, Florida, 32819, United States of America","place_id":"182671388","datatype":"locationiq"},{"name":"Cold Stone Creamery","code":null,"latitude":35.69386,"longitude":-78.5822,"address":"164 Shenstone Ln, Garner NC","chain_name":null,"distance":0,"street_number":null,"street_name":"Shenstone Boulevard","zip":"27529","city":null,"area":null,"county":"Wake County","state":"North Carolina","country":"us","formatted_address":"Cold Stone Creamery, Shenstone Boulevard, Garner, Wake County, North Carolina, 27529, United States of America","place_id":"55859507","datatype":"locationiq"},{"name":"Cold Stone Creamery","code":null,"latitude":42.69723,"longitude":-87.8533,"address":"6035 Durand Avenue, # B, Racine WI","chain_name":null,"distance":0,"street_number":"6021","street_name":"Durand Avenue","zip":"53406","city":null,"area":null,"county":"Racine County","state":"Wisconsin","country":"us","formatted_address":"6021, Durand Avenue, Mount Pleasant, Racine County, Wisconsin, 53406, United States of America","place_id":"156267791","datatype":"locationiq"},{"name":"Cold Stone Creamery","code":null,"latitude":30.19491,"longitude":-93.2494,"address":"3475 Nelson Road, Lake Charles LA","chain_name":null,"distance":0,"street_number":"3279","street_name":"Nelson Road","zip":"70605","city":"Lake Charles","area":"The Ihles Townhomes","county":"Calcasieu Parish","state":"Louisiana","country":"us","formatted_address":"3279, Nelson Road, The Ihles Townhomes, Lake Charles, Calcasieu Parish, Louisiana, 70605, United States of America","place_id":"188936829","datatype":"locationiq"},{"name":"Cold Stone Creamery","code":null,"latitude":35.17403,"longitude":-106.5598,"address":"8100 Wyoming Boulevard Northeast, # M2, Albuquerque NM","chain_name":null,"distance":0,"street_number":null,"street_name":"Paseo del Norte Boulevard Northeast","zip":"87122","city":"Albuquerque","area":null,"county":"Bernalillo County","state":"New Mexico","country":"us","formatted_address":"Flying Star, Paseo del Norte Boulevard Northeast, Eldorado Heights, Albuquerque, Bernalillo County, New Mexico, 87122, United States of America","place_id":"17327563","datatype":"locationiq"},{"name":"Cold Stone Creamery","code":null,"latitude":35.2359,"longitude":-97.4809,"address":"1400 24th Avenue Northwest, Norman OK","chain_name":null,"distance":0,"street_number":"1441","street_name":"24th Avenue Northwest","zip":"73069","city":"Norman","area":null,"county":"Cleveland County","state":"Oklahoma","country":"us","formatted_address":"Verizon Wireless, 1441, 24th Avenue Northwest, Norman, Cleveland County, Oklahoma, 73069, United States of America","place_id":"54775086","datatype":"locationiq"},{"name":"Cold Stone Creamery","code":null,"latitude":32.56305,"longitude":-97.3178,"address":"1185 North Burleson Boulevard, Suite 215, Burleson TX","chain_name":null,"distance":0,"street_number":null,"street_name":"East Alsbury Boulevard","zip":"76028","city":"Burleson","area":null,"county":"Tarrant County","state":"Texas","country":"us","formatted_address":"McDonald's, East Alsbury Boulevard, Burleson, Tarrant County, Texas, 76028, United States of America","place_id":"31999524","datatype":"locationiq"},{"name":"Cold Stone Creamery","code":null,"latitude":41.66284,"longitude":-71.4984,"address":"1000 Division, East Greenwich RI","chain_name":null,"distance":0,"street_number":null,"street_name":"Division Road","zip":"02818","city":null,"area":null,"county":"Kent County","state":"Rhode Island","country":"us","formatted_address":"Dunkin' Donuts, Division Road, Bartons Corner, Kent County, Rhode Island, 02818, United States of America","place_id":"6723566","datatype":"locationiq"},{"name":"Cold Stone Creamery","code":null,"latitude":42.35731,"longitude":-71.0628,"address":"8 Park Plaza, Boston MA","chain_name":null,"distance":0,"street_number":"9","street_name":"Park Street","zip":"02108","city":"Boston","area":"Downtown Crossing","county":"Suffolk County","state":"Massachusetts","country":"us","formatted_address":"No. 9 Park, 9, Park Street, Downtown Crossing, Beacon Hill, Boston, Suffolk County, Massachusetts, 02108, United States of America","place_id":"60338359","datatype":"locationiq"},{"name":"Cold Stone Creamery","code":null,"latitude":37.6623,"longitude":-77.4602,"address":"9982 Brook Road, Glen Allen VA","chain_name":null,"distance":0,"street_number":"9640","street_name":"Brook Road","zip":"23060","city":null,"area":null,"county":"Henrico County","state":"Virginia","country":"us","formatted_address":"9640, Brook Road, Glen Allen, Henrico County, Virginia, 23060, United States of America","place_id":"207534309","datatype":"locationiq"},{"name":"Cold Stone Creamery","code":null,"latitude":34.67684,"longitude":-86.5438,"address":"2750 Carl T Jones Drive Southeast, #1200S, Huntsville AL","chain_name":null,"distance":0,"street_number":null,"street_name":"Carl T Jones Drive Southeast","zip":"35802","city":"Huntsville","area":null,"county":"Madison County","state":"Alabama","country":"us","formatted_address":"Carl T Jones Drive Southeast, Huntsville, Madison County, Alabama, 35802, United States of America","place_id":"63936004","datatype":"locationiq"},{"name":"Cold Stone Creamery","code":null,"latitude":36.65822,"longitude":-121.6592,"address":"1176 S Main Street, Salinas CA","chain_name":null,"distance":0,"street_number":null,"street_name":"East San Joaquin Street","zip":"93901","city":"Salinas","area":null,"county":"Monterey County","state":"California","country":"us","formatted_address":"KFC, East San Joaquin Street, Salinas, Monterey County, California, 93901, United States of America","place_id":"5442912","datatype":"locationiq"},{"name":"Cold Stone Creamery","code":null,"latitude":39.79668,"longitude":-105.0774,"address":"5545 Wadsworth Bypass, Arvada CO","chain_name":null,"distance":0,"street_number":null,"street_name":"West 55th Avenue","zip":"80002","city":null,"area":null,"county":"Jefferson County","state":"Colorado","country":"us","formatted_address":"Ruby Tuesday, West 55th Avenue, Arvada, Jefferson County, Colorado, 80002, United States of America","place_id":"11862338","datatype":"locationiq"},{"name":"Cold Stone Creamery","code":null,"latitude":43.95944,"longitude":-71.1818,"address":"1500 White Mountain Highway, Conway NH","chain_name":null,"distance":0,"street_number":"1849","street_name":"White Mountain Highway","zip":"03818","city":"Albany","area":null,"county":"Carroll County","state":"New Hampshire","country":"us","formatted_address":"1849, White Mountain Highway, Albany, Carroll County, New Hampshire, 03818, United States of America","place_id":"195084403","datatype":"locationiq"},{"name":"Cold Stone Creamery","code":null,"latitude":37.60238,"longitude":-122.0667,"address":"30985 Courthouse Drive, Union City CA","chain_name":null,"distance":0,"street_number":"31100","street_name":"Union Landing Boulevard","zip":"94587","city":null,"area":null,"county":"Alameda County","state":"California","country":"us","formatted_address":"Chevy's, 31100, Union Landing Boulevard, Union Landing, Union City, Alameda County, California, 94587, United States of America","place_id":"80513689","datatype":"locationiq"},{"name":"Cold Stone Creamery","code":null,"latitude":40.0623,"longitude":-80.5961,"address":"44 Fort Henry Road, Triadelphia WV","chain_name":null,"distance":0,"street_number":"298","street_name":"Cabela Drive","zip":"26059","city":null,"area":null,"county":"Ohio County","state":"West Virginia","country":"us","formatted_address":"298, Cabela Drive, Valley Camp, Ohio County, West Virginia, 26059, United States of America","place_id":"209128288","datatype":"locationiq"},{"name":"Cold Stone Creamery","code":null,"latitude":33.07188,"longitude":-117.2675,"address":"1935 Calle Barcelona, Carlsbad CA","chain_name":null,"distance":0,"street_number":null,"street_name":"Calle Barcelona","zip":"92024","city":"Carlsbad","area":null,"county":"San Diego County","state":"California","country":"us","formatted_address":"Casa de Bandini, Calle Barcelona, Carlsbad, San Diego County, California, 92024, United States of America","place_id":"7163836","datatype":"locationiq"},{"name":"Cold Stone Creamery","code":null,"latitude":41.79367,"longitude":-71.3242,"address":"47 Commerce Wy, Seekonk MA","chain_name":null,"distance":0,"street_number":"178","street_name":"Commerce Way","zip":"02771","city":null,"area":null,"county":"Bristol County","state":"Massachusetts","country":"us","formatted_address":"178, Commerce Way, Seekonk, Bristol County, Massachusetts, 02771, United States of America","place_id":"190170684","datatype":"locationiq"},{"name":"Cold Stone Creamery","code":null,"latitude":35.09756,"longitude":-89.8585,"address":"1243 Ridgeway Road, Memphis TN","chain_name":null,"distance":0,"street_number":"1272","street_name":"Ridgeway Road","zip":"38119","city":"Memphis","area":null,"county":"Shelby County","state":"Tennessee","country":"us","formatted_address":"1272, Ridgeway Road, Memphis, Shelby County, Tennessee, 38119, United States of America","place_id":"204104342","datatype":"locationiq"},{"name":"Cold Stone Creamery","code":null,"latitude":39.32704,"longitude":-76.6158,"address":"3201 Saint Paul, Baltimore MD","chain_name":null,"distance":0,"street_number":"3201","street_name":"Saint Paul Street","zip":"21218","city":"Baltimore","area":"Oakenshawe","county":null,"state":"Maryland","country":"us","formatted_address":"Chipotle Mexican Grill, 3201, Saint Paul Street, Oakenshawe, Baltimore, Maryland, 21218, United States of America","place_id":"13297681","datatype":"locationiq"},{"name":"Cold Stone Creamery","code":null,"latitude":37.81132,"longitude":-121.9963,"address":"412 Sycamore Valley Road, Danville CA","chain_name":null,"distance":0,"street_number":"130","street_name":"Sycamore Valley Road West","zip":"94526","city":null,"area":null,"county":"Contra Costa County","state":"California","country":"us","formatted_address":"130, Sycamore Valley Road West, Danville, Contra Costa County, California, 94526, United States of America","place_id":"178228902","datatype":"locationiq"},{"name":"Cold Stone Creamery","code":null,"latitude":42.98941,"longitude":-78.6969,"address":"8124 Transit Rd., Williamsville NY","chain_name":null,"distance":0,"street_number":null,"street_name":"Maple Road","zip":"14221","city":null,"area":"North Forest Acres","county":"Erie County","state":"New York","country":"us","formatted_address":"Sunoco, Maple Road, North Forest Acres, Woodstream Farms, Amherst Town, Erie County, New York, 14221, United States of America","place_id":"23421331","datatype":"locationiq"},{"name":"Cold Stone Creamery","code":null,"latitude":36.84273,"longitude":-76.1338,"address":"228 Central Park Avenue, Virginia Beach VA","chain_name":null,"distance":0,"street_number":"229","street_name":"Town Center Drive","zip":"23462","city":"Virginia Beach","area":null,"county":null,"state":"Virginia","country":"us","formatted_address":"229, Town Center Drive, Virginia Beach Town Center, Kempsville, Pembroke Manor, Virginia Beach, Virginia, 23462, United States of America","place_id":"157281046","datatype":"locationiq"},{"name":"Cold Stone Creamery","code":null,"latitude":35.91358,"longitude":-79.0546,"address":"131 E Franklin Street, Chapel Hill NC","chain_name":null,"distance":0,"street_number":"131","street_name":"East Franklin Street","zip":"27599","city":null,"area":null,"county":"Orange County","state":"North Carolina","country":"us","formatted_address":"131, East Franklin Street, Chapel Hill, Orange County, North Carolina, 27599, United States of America","place_id":"143425235","datatype":"locationiq"},{"name":"Cold Stone Creamery","code":null,"latitude":43.47966,"longitude":-111.9844,"address":"2019 S 25th East, Idaho Falls ID","chain_name":null,"distance":0,"street_number":null,"street_name":"Hitt Road","zip":"83406","city":"Idaho Falls","area":null,"county":"Bonneville County","state":"Idaho","country":"us","formatted_address":"McDonald's, Hitt Road, Sandcreek Commons, Idaho Falls, Bonneville County, Idaho, 83406, United States of America","place_id":"79232420","datatype":"locationiq"},{"name":"Cold Stone Creamery","code":null,"latitude":38.57768,"longitude":-90.4064,"address":"328 S Kirkwood Road, Saint Louis MO","chain_name":null,"distance":0,"street_number":null,"street_name":"South Kirkwood Road","zip":"63122","city":"Kirkwood","area":null,"county":"St. Louis County","state":"Missouri","country":"us","formatted_address":"McDonald's, South Kirkwood Road, Kirkwood, St. Louis County, Missouri, 63122, United States of America","place_id":"155603412","datatype":"locationiq"},{"name":"Cold Stone Creamery","code":null,"latitude":34.07,"longitude":-117.183,"address":"27512 W Lugonia Avenue, # B2B, Redlands CA","chain_name":null,"distance":0,"street_number":"45","street_name":"West Lugonia Avenue","zip":"92374","city":"Redlands","area":null,"county":"San Bernardino County","state":"California","country":"us","formatted_address":"45, West Lugonia Avenue, Redlands, San Bernardino County, California, 92374, United States of America","place_id":"179616792","datatype":"locationiq"},{"name":"Cold Stone Creamery","code":null,"latitude":41.21727,"longitude":-80.7404,"address":"1924 Niles Cortland Road Southeast, Warren OH","chain_name":null,"distance":0,"street_number":"1895","street_name":"Niles Cortland Road Southeast","zip":"44484","city":"Niles","area":null,"county":"Trumbull County","state":"Ohio","country":"us","formatted_address":"1895, Niles Cortland Road Southeast, Niles, Trumbull County, Ohio, 44484, United States of America","place_id":"199952898","datatype":"locationiq"},{"name":"Cold Stone Creamery","code":null,"latitude":34.08553,"longitude":-117.6701,"address":"1515 North Mountn Avenue, Ontario CA","chain_name":null,"distance":0,"street_number":null,"street_name":"North Mountain Avenue","zip":"91762","city":"Ontario","area":null,"county":"San Bernardino County","state":"California","country":"us","formatted_address":"North Mountain Avenue, Ontario, San Bernardino County, California, 91762, United States of America","place_id":"170158867","datatype":"locationiq"},{"name":"Cold Stone Creamery","code":null,"latitude":41.26552,"longitude":-73.0029,"address":"297 Boston Post Road, Orange CT","chain_name":null,"distance":0,"street_number":null,"street_name":"Boston Post Road","zip":"06477","city":"West Haven","area":null,"county":"New Haven County","state":"Connecticut","country":"us","formatted_address":"Taylor Rental Party Plus, Boston Post Road, West Haven, New Haven County, Connecticut, 06477, United States of America","place_id":"53397734","datatype":"locationiq"},