[{"name":"DSW Shoe Warehouse","code":null,"latitude":40.6084305,"longitude":-75.4901833,"address":"939 Airport Center Drive, Allentown PA","chain_name":null,"distance":0,"street_number":"1372","street_name":"Tilghman Street","zip":"18102","city":"Allentown","area":null,"county":"Lehigh County","state":"Pennsylvania","country":"us","formatted_address":"1372, Tilghman Street, Allentown, Lehigh County, Pennsylvania, 18102, United States of America","place_id":"201963079","datatype":"locationiq"},{"name":"DSW Shoe Warehouse","code":null,"latitude":42.039449,"longitude":-87.757256,"address":"9601 Skokie Boulevard, Skokie IL","chain_name":null,"distance":0,"street_number":"8765","street_name":"Gross Point Road","zip":"60077","city":null,"area":null,"county":"Cook County","state":"Illinois","country":"us","formatted_address":"8765, Gross Point Road, Skokie, Cook County, Illinois, 60077, United States of America","place_id":"184860466","datatype":"locationiq"},{"name":"DSW Shoe Warehouse","code":null,"latitude":40.6843688,"longitude":-73.9776379,"address":"139 Flatbush Avenue, Brooklyn NY","chain_name":null,"distance":0,"street_number":null,"street_name":"Atlantic Avenue","zip":"11208","city":"New York City","area":"Fort Greene","county":"Kings County","state":"New York","country":"us","formatted_address":"Times Plaza, Atlantic Avenue, Fort Greene, Brooklyn, Kings County, New York City, New York, 11208, United States of America","place_id":"142340110","datatype":"locationiq"},{"name":"DSW Shoe Warehouse","code":null,"latitude":33.7913223,"longitude":-84.3975184,"address":"1374 Atlantic Drive, Atlanta GA","chain_name":null,"distance":0,"street_number":null,"street_name":"17th Street Northwest","zip":"30363","city":"Atlanta","area":"Atlantic Station","county":"Fulton County","state":"Georgia","country":"us","formatted_address":"Twelve Atlantic Station, 17th Street Northwest, Atlantic Station, Rockdale, Atlanta, Fulton County, Georgia, 30363, United States of America","place_id":"127349992","datatype":"locationiq"},{"name":"DSW Shoe Warehouse","code":null,"latitude":37.5093093,"longitude":-77.6134989,"address":"1300 Huguenot Road, Midlothian VA","chain_name":null,"distance":0,"street_number":"1279","street_name":"Huguenot Road","zip":"23113","city":null,"area":null,"county":"Chesterfield County","state":"Virginia","country":"us","formatted_address":"1279, Huguenot Road, Towne Crossings, Bon Air, Chesterfield County, Virginia, 23113, United States of America","place_id":"207280703","datatype":"locationiq"},{"name":"DSW Shoe Warehouse","code":null,"latitude":29.6085841,"longitude":-98.5946903,"address":"17610 La Cantera Parkway, San Antonio TX","chain_name":null,"distance":0,"street_number":"17710","street_name":"La Cantera Parkway","zip":"78257","city":"San Antonio","area":null,"county":"Bexar County","state":"Texas","country":"us","formatted_address":"JCPenney, 17710, La Cantera Parkway, The Rim, San Antonio, Bexar County, Texas, 78257, United States of America","place_id":"83803188","datatype":"locationiq"},{"name":"DSW Shoe Warehouse","code":null,"latitude":41.868394,"longitude":-87.638712,"address":"1101 South Canal, Chicago IL","chain_name":null,"distance":0,"street_number":"1101","street_name":"South Canal Street","zip":"60607","city":"Chicago","area":"Printer's Row","county":"Cook County","state":"Illinois","country":"us","formatted_address":"Southgate Market, 1101, South Canal Street, Printer's Row, Chicago, Cook County, Illinois, 60607, United States of America","place_id":"104764752","datatype":"locationiq"},{"name":"DSW Shoe Warehouse","code":null,"latitude":41.8930275,"longitude":-88.3416613,"address":"702 Commons Drive, Geneva IL","chain_name":null,"distance":0,"street_number":null,"street_name":"Randall Road","zip":"60134","city":"Geneva","area":null,"county":"Kane County","state":"Illinois","country":"us","formatted_address":"Geneva Commons, Randall Road, Geneva, Kane County, Illinois, 60134, United States of America","place_id":"96113332","datatype":"locationiq"},{"name":"DSW Shoe Warehouse","code":null,"latitude":38.644022,"longitude":-121.122097,"address":"2395 Iron Point Road, Folsom CA","chain_name":null,"distance":0,"street_number":null,"street_name":"El Dorado Freeway","zip":"95630","city":"Folsom","area":null,"county":"Sacramento County","state":"California","country":"us","formatted_address":"DSW Shoes, El Dorado Freeway, Folsom, Sacramento County, California, 95630, United States of America","place_id":"18543832","datatype":"locationiq"},{"name":"DSW Shoe Warehouse","code":null,"latitude":32.924861,"longitude":-83.712258,"address":"5080 Riverside Drive, Macon GA","chain_name":null,"distance":0,"street_number":null,"street_name":"Riverside Drive","zip":"31210","city":"Macon","area":"Wesleyan Hills","county":"Bibb County","state":"Georgia","country":"us","formatted_address":"Chili's, Riverside Drive, Wesleyan Hills, Macon, Bibb County, Georgia, 31210, United States of America","place_id":"171878313","datatype":"locationiq"},{"name":"DSW Shoe Warehouse","code":null,"latitude":41.4188401,"longitude":-81.9108916,"address":"25877 Brookpark Road, North Olmsted OH","chain_name":null,"distance":0,"street_number":null,"street_name":"Brookpark Road","zip":"44070","city":null,"area":null,"county":"Cuyahoga County","state":"Ohio","country":"us","formatted_address":"Jared's Jeweler's, Brookpark Road, North Olmsted, Cuyahoga County, Ohio, 44070, United States of America","place_id":"17074413","datatype":"locationiq"},{"name":"DSW Shoe Warehouse","code":null,"latitude":40.8363264,"longitude":-73.334928,"address":"1819 East Jericho Turnpike, Huntington NY","chain_name":null,"distance":0,"street_number":"1850","street_name":"Jericho Turnpike","zip":"11746","city":null,"area":null,"county":"Suffolk County","state":"New York","country":"us","formatted_address":"1850, Jericho Turnpike, Elwood, Suffolk County, New York, 11746, United States of America","place_id":"169747419","datatype":"locationiq"},{"name":"DSW Shoe Warehouse","code":null,"latitude":41.6292892,"longitude":-86.2307144,"address":"1290 East Ireland Road, South Bend IN","chain_name":null,"distance":0,"street_number":null,"street_name":"East Ireland Road","zip":"46614","city":"South Bend","area":null,"county":"Saint Joseph County","state":"Indiana","country":"us","formatted_address":"Panera Bread, East Ireland Road, South Bend, Saint Joseph County, Indiana, 46614, United States of America","place_id":"4591849","datatype":"locationiq"},{"name":"DSW Shoe Warehouse","code":null,"latitude":30.006884,"longitude":-95.267537,"address":"19657 Highway 59 North, Humble TX","chain_name":null,"distance":0,"street_number":null,"street_name":"Eastex Freeway Frontage Road","zip":"77338","city":"Humble","area":null,"county":"Harris County","state":"Texas","country":"us","formatted_address":"AI's Formal Wear, Eastex Freeway Frontage Road, Deerbrook Mall, Humble, Harris County, Texas, 77338, United States of America","place_id":"45838822","datatype":"locationiq"},{"name":"DSW Shoe Warehouse","code":null,"latitude":35.9497885,"longitude":-78.9896069,"address":"3615 Witherspoon Boulevard, Durham NC","chain_name":null,"distance":0,"street_number":null,"street_name":"McFarland Drive","zip":"27514","city":"Durham","area":null,"county":"Durham County","state":"North Carolina","country":"us","formatted_address":"Learning Express, McFarland Drive, Durham, Durham County, North Carolina, 27514, United States of America","place_id":"21277028","datatype":"locationiq"},{"name":"DSW Shoe Warehouse","code":null,"latitude":33.845002,"longitude":-117.988957,"address":"8201 On the Mall, Buena Park CA","chain_name":null,"distance":0,"street_number":"8312","street_name":"On the Mall","zip":"90620","city":"Buena Park","area":null,"county":"Orange County","state":"California","country":"us","formatted_address":"GNC, 8312, On the Mall, Buena Park Mall, Buena Park, Orange County, California, 90620, United States of America","place_id":"45863604","datatype":"locationiq"},{"name":"DSW Shoe Warehouse","code":null,"latitude":37.9436151,"longitude":-121.7318396,"address":"2555 Sand Creek Road, Brentwood CA","chain_name":null,"distance":0,"street_number":null,"street_name":"Sand Creek Road","zip":"94513","city":"Brentwood","area":null,"county":"Contra Costa County","state":"California","country":"us","formatted_address":"Sand Creek Road, Brentwood, Contra Costa County, California, 94513, United States of America","place_id":"119179479","datatype":"locationiq"},{"name":"DSW Shoe Warehouse","code":null,"latitude":42.1082406,"longitude":-87.8026681,"address":"936 Willow Road, Northbrook IL","chain_name":null,"distance":0,"street_number":null,"street_name":"Chelsea Road","zip":"60025","city":null,"area":null,"county":"Cook County","state":"Illinois","country":"us","formatted_address":"DSW Shoes, Chelsea Road, Northbrook, Cook County, Illinois, 60025, United States of America","place_id":"115049903","datatype":"locationiq"},{"name":"DSW Shoe Warehouse","code":null,"latitude":34.06362,"longitude":-83.99527,"address":"1600 Mall Georgia Boulevard, Buford GA","chain_name":null,"distance":0,"street_number":"1600","street_name":"Mall of Georgia Boulevard","zip":"30519","city":null,"area":null,"county":"Gwinnett County","state":"Georgia","country":"us","formatted_address":"1600, Mall of Georgia Boulevard, Mall of Georgia, Gravel Springs, Gwinnett County, Georgia, 30519, United States of America","place_id":"130252240","datatype":"locationiq"},{"name":"DSW Shoe Warehouse","code":null,"latitude":41.6760334,"longitude":-72.8406869,"address":"276 New Britain Avenue, Plainville CT","chain_name":null,"distance":0,"street_number":"260","street_name":"New Britain Avenue","zip":"06062","city":null,"area":null,"county":"Hartford County","state":"Connecticut","country":"us","formatted_address":"McDonald's, 260, New Britain Avenue, Plainville, Town of Plainville, Hartford County, Connecticut, 06062, United States of America","place_id":"109169411","datatype":"locationiq"},{"name":"DSW Shoe Warehouse","code":null,"latitude":40.735133,"longitude":-73.9915544,"address":"40 East 14th Street, New York NY","chain_name":null,"distance":0,"street_number":"125","street_name":"University Place","zip":"10003","city":"New York City","area":"Washington Square Village","county":"New York County","state":"New York","country":"us","formatted_address":"125, University Place, Washington Square Village, Manhattan, New York County, New York City, New York, 10003, United States of America","place_id":"127705709","datatype":"locationiq"},{"name":"DSW Shoe Warehouse","code":null,"latitude":38.6258532,"longitude":-76.9176339,"address":"3017 Waldorf Market Place, Waldorf MD","chain_name":null,"distance":0,"street_number":null,"street_name":"Western Parkway","zip":"20604","city":null,"area":"Carrington","county":"Charles County","state":"Maryland","country":"us","formatted_address":"AC Moore, Western Parkway, Carrington, Saint Charles, St. Charles, Charles County, Maryland, 20604, United States of America","place_id":"47878574","datatype":"locationiq"},{"name":"DSW Shoe Warehouse","code":null,"latitude":40.8617664,"longitude":-73.1244816,"address":"3190 Middle Country Road, Lake Grove NY","chain_name":null,"distance":0,"street_number":"8","street_name":"Middle Country Road","zip":"11755","city":null,"area":null,"county":"Suffolk County","state":"New York","country":"us","formatted_address":"8, Middle Country Road, Lake Grove Shopping Center, Lake Grove, Suffolk County, New York, 11755, United States of America","place_id":"196975533","datatype":"locationiq"},{"name":"DSW Shoe Warehouse","code":null,"latitude":42.7067566,"longitude":-71.4411831,"address":"270 Daniel Webster Highway, Nashua NH","chain_name":null,"distance":0,"street_number":"274","street_name":"Daniel Webster Highway","zip":"03060","city":"Nashua","area":null,"county":"Hillsborough County","state":"New Hampshire","country":"us","formatted_address":"The Vitamin Shoppe, 274, Daniel Webster Highway, South Nashua, Ward 7, Nashua, Hillsborough County, New Hampshire, 03060, United States of America","place_id":"105641806","datatype":"locationiq"},{"name":"DSW Shoe Warehouse","code":null,"latitude":39.5927517,"longitude":-104.8049363,"address":"15600 East Briarwood Circle, Aurora CO","chain_name":null,"distance":0,"street_number":null,"street_name":"East Briarwood Circle","zip":"80015","city":"Aurora","area":null,"county":"Arapahoe County","state":"Colorado","country":"us","formatted_address":"Cornerstar, East Briarwood Circle, Cornerstar Shopping Center, Aurora, Arapahoe County, Colorado, 80015, United States of America","place_id":"106647871","datatype":"locationiq"},{"name":"DSW Shoe Warehouse","code":null,"latitude":28.0866189,"longitude":-82.504485,"address":"15020 North Dale Mabry Highway, Tampa FL","chain_name":null,"distance":0,"street_number":null,"street_name":"Dale Mabry Highway","zip":"33688","city":null,"area":null,"county":"Hillsborough County","state":"Florida","country":"us","formatted_address":"Dale Mabry Hwy @  Ehrlich Rd(15042), Dale Mabry Highway, Mullis City, Carrollwood Village, Hillsborough County, Florida, 33688, United States of America","place_id":"8641320","datatype":"locationiq"},{"name":"DSW Shoe Warehouse","code":null,"latitude":38.863201,"longitude":-77.062829,"address":"1301 South Joyce Street, Arlington VA","chain_name":null,"distance":0,"street_number":null,"street_name":"South Joyce Street","zip":"22204","city":null,"area":null,"county":"Arlington County","state":"Virginia","country":"us","formatted_address":"Pentagon Row, South Joyce Street, Arlington Heights, Arlington, Arlington County, Virginia, 22204, United States of America","place_id":"78881847","datatype":"locationiq"},{"name":"DSW Shoe Warehouse","code":null,"latitude":34.7150398,"longitude":-86.6730537,"address":"301 The Bridge Street, Huntsville AL","chain_name":null,"distance":0,"street_number":null,"street_name":"The Bridge Street","zip":"35806","city":"Huntsville","area":null,"county":"Madison County","state":"Alabama","country":"us","formatted_address":"P. F. Chang's, The Bridge Street, Bridge  Street Town Center, Huntsville, Madison County, Alabama, 35806, United States of America","place_id":"12329496","datatype":"locationiq"},{"name":"DSW Shoe Warehouse","code":null,"latitude":33.7693285,"longitude":-117.8747187,"address":"2495 Park Place, Tustin CA","chain_name":null,"distance":0,"street_number":"2477","street_name":"North Heliotrope Drive","zip":"92706","city":"Santa Ana","area":null,"county":"Orange County","state":"California","country":"us","formatted_address":"2477, North Heliotrope Drive, Santa Ana, Orange County, California, 92706, United States of America","place_id":"179127629","datatype":"locationiq"},{"name":"DSW Shoe Warehouse","code":null,"latitude":39.182936,"longitude":-76.8179339,"address":"9051 Snowden Square Drive, Columbia MD","chain_name":null,"distance":0,"street_number":"9051","street_name":"Snowden Square Drive","zip":"21046","city":"Columbia","area":null,"county":"Howard County","state":"Maryland","country":"us","formatted_address":"DSW Designer Shoe Warehouse, 9051, Snowden Square Drive, Snowden Square Shopping Center, Long Reach, Columbia, Howard County, Maryland, 21046, United States of America","place_id":"100123557","datatype":"locationiq"},{"name":"DSW Shoe Warehouse","code":null,"latitude":42.2011017,"longitude":-87.9331705,"address":"970 Milwaukee Avenue, Lincolnshire IL","chain_name":null,"distance":0,"street_number":"2","street_name":"Olde Half Day Road","zip":"60069","city":null,"area":null,"county":"Lake County","state":"Illinois","country":"us","formatted_address":"2, Olde Half Day Road, Lincolnshire, Lake County, Illinois, 60069, United States of America","place_id":"185342630","datatype":"locationiq"},{"name":"DSW Shoe Warehouse","code":null,"latitude":29.7418818,"longitude":-95.460956,"address":"2477 Post Oak Boulevard, Houston TX","chain_name":null,"distance":0,"street_number":null,"street_name":"Post Oak Boulevard","zip":"77056","city":null,"area":"Highland Village","county":"Harris County","state":"Texas","country":"us","formatted_address":"Q Alterations, Post Oak Boulevard, Highland Village, Lamar Terrace, Harris County, Texas, 77056, United States of America","place_id":"59308728","datatype":"locationiq"},{"name":"DSW Shoe Warehouse","code":null,"latitude":41.2533231,"longitude":-73.0180773,"address":"538 Boston Post Road, Orange CT","chain_name":null,"distance":0,"street_number":"547","street_name":"Boston Post Road","zip":"06477","city":null,"area":null,"county":"New Haven County","state":"Connecticut","country":"us","formatted_address":"547, Boston Post Road, Orange, New Haven County, Connecticut, 06477, United States of America","place_id":"117881675","datatype":"locationiq"},{"name":"DSW Shoe Warehouse","code":null,"latitude":28.4871635,"longitude":-81.4272569,"address":"4021 Conroy Road, Orlando FL","chain_name":null,"distance":0,"street_number":null,"street_name":"Conroy Road","zip":"32839","city":"Orlando","area":null,"county":"Orange County","state":"Florida","country":"us","formatted_address":"Orlando Metropolitan Museum of Art, Conroy Road, Orlando, Orange County, Florida, 32839, United States of America","place_id":"3691488","datatype":"locationiq"},{"name":"DSW Shoe Warehouse","code":null,"latitude":39.9950467,"longitude":-85.9308961,"address":"14139 Town Center Boulevard, Noblesville IN","chain_name":null,"distance":0,"street_number":"13345","street_name":"Campus Parkway","zip":"46060","city":"Noblesville","area":null,"county":"Hamilton County","state":"Indiana","country":"us","formatted_address":"13345, Campus Parkway, Noblesville, Hamilton County, Indiana, 46060, United States of America","place_id":"186252888","datatype":"locationiq"},{"name":"DSW Shoe Warehouse","code":null,"latitude":34.0755079,"longitude":-117.5631884,"address":"4120 East Fourth Street, Ontario CA","chain_name":null,"distance":0,"street_number":"4120","street_name":"4th Street","zip":"91764","city":"Ontario","area":null,"county":"San Bernardino County","state":"California","country":"us","formatted_address":"4120, 4th Street, Ontario, San Bernardino County, California, 91764, United States of America","place_id":"81075045","datatype":"locationiq"},{"name":"DSW Shoe Warehouse","code":null,"latitude":40.6398281,"longitude":-75.4402993,"address":"939 Airport Center Dr, Allentown PA","chain_name":null,"distance":0,"street_number":null,"street_name":"Lehigh Valley Thruway","zip":"18109","city":"Hanover","area":null,"county":"Lehigh County","state":"Pennsylvania","country":"us","formatted_address":"Lehigh Valley Thruway, Hanover, Lehigh County, Pennsylvania, 18109, United States of America","place_id":"73800402","datatype":"locationiq"},{"name":"DSW Shoe Warehouse","code":null,"latitude":39.71014,"longitude":-105.073335,"address":"7000 West Alameda Avenue, Lakewood CO","chain_name":null,"distance":0,"street_number":"6909","street_name":"West Alaska Drive","zip":"80226","city":"Lakewood","area":null,"county":"Jefferson County","state":"Colorado","country":"us","formatted_address":"6909, West Alaska Drive, Bel-Mar, Lakewood, Jefferson County, Colorado, 80226, United States of America","place_id":"180938455","datatype":"locationiq"},{"name":"DSW Shoe Warehouse","code":null,"latitude":33.8717892,"longitude":-118.3523564,"address":"17502 Hawthorne Boulevard, Torrance CA","chain_name":null,"distance":0,"street_number":"17507","street_name":"Hawthorne Boulevard","zip":"90504","city":"Redondo Beach","area":null,"county":"Los Angeles County","state":"California","country":"us","formatted_address":"17507, Hawthorne Boulevard, Redondo Beach, Los Angeles County, California, 90504, United States of America","place_id":"178650804","datatype":"locationiq"},{"name":"DSW Shoe Warehouse","code":null,"latitude":39.382607,"longitude":-77.405625,"address":"5500 Buckeystown Pike, Frederick MD","chain_name":null,"distance":0,"street_number":"5500","street_name":"Buckeystown Pike","zip":"21703","city":null,"area":null,"county":"Frederick County","state":"Maryland","country":"us","formatted_address":"Francis Scott Key Mall, 5500, Buckeystown Pike, Ballenger Creek, Frederick County, Maryland, 21703, United States of America","place_id":"106837514","datatype":"locationiq"},{"name":"DSW Shoe Warehouse","code":null,"latitude":27.9286691,"longitude":-82.3243982,"address":"949 Brandon Town Center Mall, Brandon FL","chain_name":null,"distance":0,"street_number":null,"street_name":"Brandon Town Center Drive","zip":"33511","city":"Brandon","area":null,"county":"Hillsborough County","state":"Florida","country":"us","formatted_address":"Brandon Town Center Drive, Brandon, Hillsborough County, Florida, 33511, United States of America","place_id":"65994316","datatype":"locationiq"},{"name":"DSW Shoe Warehouse","code":null,"latitude":33.775743,"longitude":-117.865834,"address":"763 South Main Street, Orange CA","chain_name":null,"distance":0,"street_number":null,"street_name":"West Town and Country Road","zip":"92868","city":"Orange","area":null,"county":"Orange County","state":"California","country":"us","formatted_address":"West Town and Country Road, Orange, Orange County, California, 92868, United States of America","place_id":"158360296","datatype":"locationiq"},{"name":"DSW Shoe Warehouse","code":null,"latitude":38.768867,"longitude":-121.2658644,"address":"1021 Galleria Boulevard, Roseville CA","chain_name":null,"distance":0,"street_number":null,"street_name":"Roseville Parkway","zip":"95678","city":"Roseville","area":null,"county":"Placer County","state":"California","country":"us","formatted_address":"Mimi Cafe, Roseville Parkway, Roseville, Placer County, California, 95678, United States of America","place_id":"81290104","datatype":"locationiq"},{"name":"DSW Shoe Warehouse","code":null,"latitude":42.0737067,"longitude":-88.1839264,"address":"100 West Higgins Road, South Barrington IL","chain_name":null,"distance":0,"street_number":null,"street_name":"West Higgins Road","zip":"60010","city":null,"area":null,"county":"Cook County","state":"Illinois","country":"us","formatted_address":"Cooper's Hawk, West Higgins Road, Hoffman Estates, Cook County, Illinois, 60010, United States of America","place_id":"141902088","datatype":"locationiq"},{"name":"DSW Shoe Warehouse","code":null,"latitude":39.0258595,"longitude":-77.1270053,"address":"10400 Old Georgetown Road, Bethesda MD","chain_name":null,"distance":0,"street_number":"7624","street_name":"Old Georgetown Road","zip":"20814","city":"Bethesda","area":"Lone Oak","county":"Montgomery County","state":"Maryland","country":"us","formatted_address":"Chipotle Mexican Grill, 7624, Old Georgetown Road, Lone Oak, Pooks Hill, Bethesda, Montgomery County, Maryland, 20814, United States of America","place_id":"28720038","datatype":"locationiq"},{"name":"DSW Shoe Warehouse","code":null,"latitude":35.6119144,"longitude":-97.5493812,"address":"13840 N. Pennsylvania Avenue, Oklahoma City OK","chain_name":null,"distance":0,"street_number":null,"street_name":"North Pennsylvania Avenue","zip":"73003","city":"Oklahoma City","area":null,"county":"Oklahoma County","state":"Oklahoma","country":"us","formatted_address":"North Pennsylvania Avenue, Oklahoma City, Oklahoma County, Oklahoma, 73003, United States of America","place_id":"161608042","datatype":"locationiq"},{"name":"DSW Shoe Warehouse","code":null,"latitude":44.8612385,"longitude":-93.3348135,"address":"124 West Market Street, Bloomington MN","chain_name":null,"distance":0,"street_number":"4300","street_name":"MarketPointe Drive","zip":"55435","city":"Bloomington","area":null,"county":"Hennepin County","state":"Minnesota","country":"us","formatted_address":"One MarketPointe, 4300, MarketPointe Drive, Bloomington, Hennepin County, Minnesota, 55435, United States of America","place_id":"139974722","datatype":"locationiq"},{"name":"DSW Shoe Warehouse","code":null,"latitude":33.8792438,"longitude":-84.4713262,"address":"1240 Cumberland Mall Southeast, Vinings GA","chain_name":null,"distance":0,"street_number":"1628","street_name":"Cumberland Mall","zip":"30339","city":null,"area":"Stonewall","county":"Cobb County","state":"Georgia","country":"us","formatted_address":"1628, Cumberland Mall, Stonewall, Vinings, Cobb County, Georgia, 30339, United States of America","place_id":"183559037","datatype":"locationiq"},{"name":"DSW Shoe Warehouse","code":null,"latitude":42.3162914,"longitude":-83.2216311,"address":"18900 Michigan Avenue, Dearborn MI","chain_name":null,"distance":0,"street_number":null,"street_name":"Town Center Drive","zip":"48126","city":"Dearborn","area":null,"county":"Wayne County","state":"Michigan","country":"us","formatted_address":"Bravo!, Town Center Drive, Fairlane Town Center, Dearborn, Wayne County, Michigan, 48126, United States of America","place_id":"114536985","datatype":"locationiq"},{"name":"DSW Shoe Warehouse","code":null,"latitude":32.9549661,"longitude":-96.8159142,"address":"5301 Belt Line Road, Dallas TX","chain_name":null,"distance":0,"street_number":null,"street_name":"Knollhaven Drive","zip":"75254","city":"Dallas","area":null,"county":"Dallas County","state":"Texas","country":"us","formatted_address":"Barnes & Noble, Knollhaven Drive, Prestonwood Town Center, Dallas, Dallas County, Texas, 75254, United States of America","place_id":"166336243","datatype":"locationiq"},{"name":"DSW Shoe Warehouse","code":null,"latitude":41.9386826,"longitude":-87.6494937,"address":"3131 North Clark Street, Chicago IL","chain_name":null,"distance":0,"street_number":"3131-3155","street_name":"North Clark Street","zip":"60657","city":"Chicago","area":"Pine Grove","county":"Cook County","state":"Illinois","country":"us","formatted_address":"3131-3155, North Clark Street, Pine Grove, Uptown, Chicago, Cook County, Illinois, 60657, United States of America","place_id":"118520116","datatype":"locationiq"},{"name":"DSW Shoe Warehouse","code":null,"latitude":32.7655125,"longitude":-117.156165,"address":"836 Camino Del Rio North, San Diego CA","chain_name":null,"distance":0,"street_number":null,"street_name":"Del Rio North Drwy","zip":"92018","city":"San Diego","area":null,"county":"San Diego County","state":"California","country":"us","formatted_address":"Golfsmith, Del Rio North Drwy, Westfield Mission Valley, Mission Valley, San Diego, San Diego County, California, 92018, United States of America","place_id":"17941022","datatype":"locationiq"},{"name":"DSW Shoe Warehouse","code":null,"latitude":42.6880448,"longitude":-73.8523859,"address":"1 Crossgates Mall Road, Albany NY","chain_name":null,"distance":0,"street_number":null,"street_name":"Crossgates Mall Road","zip":"12203","city":null,"area":null,"county":"Albany County","state":"New York","country":"us","formatted_address":"Crossgates Mall Road, Crossgates Mall, Westmere, Town of Guilderland, Albany County, New York, 12203, United States of America","place_id":"78728820","datatype":"locationiq"},{"name":"DSW Shoe Warehouse","code":null,"latitude":32.679345,"longitude":-97.129586,"address":"3811 South Cooper Street, Arlington TX","chain_name":null,"distance":0,"street_number":null,"street_name":"Parks at Arlington Mall","zip":"76001","city":"Arlington","area":null,"county":"Tarrant County","state":"Texas","country":"us","formatted_address":"Parks at Arlington Mall, The Parks Mall at Arlington, Arlington, Tarrant County, Texas, 76001, United States of America","place_id":"65387650","datatype":"locationiq"},{"name":"DSW Shoe Warehouse","code":null,"latitude":36.1360016,"longitude":-86.8852049,"address":"6722 Charlotte Pike, Nashville TN","chain_name":null,"distance":0,"street_number":null,"street_name":"Brook Hollow Road","zip":"37205","city":"Nashville-Davidson","area":null,"county":"Davidson County","state":"Tennessee","country":"us","formatted_address":"Hill Park, Brook Hollow Road, Nashville-Davidson, Davidson County, Tennessee, 37205, United States of America","place_id":"3003999","datatype":"locationiq"},{"name":"DSW Shoe Warehouse","code":null,"latitude":41.778705,"longitude":-70.742533,"address":"2421 Cranberry Highway, Wareham MA","chain_name":null,"distance":0,"street_number":null,"street_name":"Cranberry Highway","zip":"02576","city":null,"area":null,"county":"Plymouth County","state":"Massachusetts","country":"us","formatted_address":"Wareham Crossing, Cranberry Highway, Wareham, Plymouth County, Massachusetts, 02576, United States of America","place_id":"16418311","datatype":"locationiq"},{"name":"DSW Shoe Warehouse","code":null,"latitude":40.5619203,"longitude":-111.8907834,"address":"10401 South State Street, Sandy UT","chain_name":null,"distance":0,"street_number":null,"street_name":"State Street","zip":"84047","city":"Sandy","area":null,"county":"Salt Lake County","state":"Utah","country":"us","formatted_address":"Paradise Bakery, State Street, Sandy, Salt Lake County, Utah, 84047, United States of America","place_id":"149655903","datatype":"locationiq"},{"name":"DSW Shoe Warehouse","code":null,"latitude":33.9865545,"longitude":-118.441456,"address":"13450 Maxella Avenue, Marina Del Rey CA","chain_name":null,"distance":0,"street_number":null,"street_name":"Maxella Avenue","zip":"90066","city":null,"area":null,"county":"Los Angeles County","state":"California","country":"us","formatted_address":"DSW Shoes, Maxella Avenue, Culver City, Los Angeles County, California, 90066, United States of America","place_id":"18809258","datatype":"locationiq"},{"name":"DSW Shoe Warehouse","code":null,"latitude":35.7608419,"longitude":-78.735979,"address":"427 Crossroads Boulevard, Cary NC","chain_name":null,"distance":0,"street_number":null,"street_name":"Crossroads Boulevard","zip":"27511","city":null,"area":null,"county":"Wake County","state":"North Carolina","country":"us","formatted_address":"A.C. Moore, Crossroads Boulevard, Crossroads Plaza, Cary, Wake County, North Carolina, 27511, United States of America","place_id":"31999649","datatype":"locationiq"},{"name":"DSW Shoe Warehouse","code":null,"latitude":41.3929969,"longitude":-73.5222473,"address":"113 Mill Plain Road, Danbury CT","chain_name":null,"distance":0,"street_number":null,"street_name":"Mill Plain Road","zip":null,"city":"Danbury","area":null,"county":"Fairfield County","state":"Connecticut","country":"us","formatted_address":"Trader Joe's, Mill Plain Road, Danbury, Fairfield County, Connecticut, United States of America","place_id":"13000892","datatype":"locationiq"},{"name":"DSW Shoe Warehouse","code":null,"latitude":44.0642594,"longitude":-123.0785558,"address":"160 Oakway Road, Eugene OR","chain_name":null,"distance":0,"street_number":"135","street_name":"Oakway Road","zip":"97401","city":"Eugene","area":null,"county":"Lane County","state":"Oregon","country":"us","formatted_address":"Nike Running, 135, Oakway Road, College Hill, Eugene, Lane County, Oregon, 97401, United States of America","place_id":"157890383","datatype":"locationiq"},{"name":"DSW Shoe Warehouse","code":null,"latitude":38.8477828,"longitude":-77.1220378,"address":"5518 Leesburg Pike, Falls Church VA","chain_name":null,"distance":0,"street_number":null,"street_name":"Leesburg Pike","zip":"22311","city":null,"area":null,"county":"Fairfax County","state":"Virginia","country":"us","formatted_address":"Leesburg Pike, Bailey s Crossroads, Fairfax County, Virginia, 22311, United States of America","place_id":"116797993","datatype":"locationiq"},{"name":"DSW Shoe Warehouse","code":null,"latitude":40.6222507,"longitude":-111.8644946,"address":"1132 East Fort Union Boulevard, Midvale UT","chain_name":null,"distance":0,"street_number":null,"street_name":"7130 South","zip":"84047","city":"Midvale","area":null,"county":"Salt Lake County","state":"Utah","country":"us","formatted_address":"See's Candies Chocolate Shop, 7130 South, Midvale, Salt Lake County, Utah, 84047, United States of America","place_id":"52461205","datatype":"locationiq"},{"name":"DSW Shoe Warehouse","code":null,"latitude":33.6931371,"longitude":-84.0928461,"address":"8110 Mall Parkway, Lithonia GA","chain_name":null,"distance":0,"street_number":"8586","street_name":"Mall Parkway","zip":"30038","city":null,"area":null,"county":"DeKalb County","state":"Georgia","country":"us","formatted_address":"8586, Mall Parkway, Collinsville, DeKalb County, Georgia, 30038, United States of America","place_id":"183624746","datatype":"locationiq"},{"name":"DSW Shoe Warehouse","code":null,"latitude":40.1536934,"longitude":-105.0952799,"address":"180 Ken Pratt Boulevard, Longmont CO","chain_name":null,"distance":0,"street_number":null,"street_name":null,"zip":"80501","city":null,"area":null,"county":"Boulder County","state":"Colorado","country":"us","formatted_address":"Saint Vrain Trail, Harvest Junction North & South, Longmont, Boulder County, Colorado, 80501, United States of America","place_id":"80343809","datatype":"locationiq"},{"name":"DSW Shoe Warehouse","code":null,"latitude":41.887797,"longitude":-87.807828,"address":"7321 West Lake Street, River Forest IL","chain_name":null,"distance":0,"street_number":null,"street_name":"Central Avenue","zip":"60302","city":null,"area":null,"county":"Cook County","state":"Illinois","country":"us","formatted_address":"DSW, Central Avenue, River Forest, Cook County, Illinois, 60302, United States of America","place_id":"57223995","datatype":"locationiq"},{"name":"DSW Shoe Warehouse","code":null,"latitude":45.2001626,"longitude":-93.3506357,"address":"12658 Riverdale Boulevard, Coon Rapids MN","chain_name":null,"distance":0,"street_number":"12698","street_name":"Riverdale Boulevard","zip":"55448","city":null,"area":null,"county":"Anoka County","state":"Minnesota","country":"us","formatted_address":"12698, Riverdale Boulevard, Coon Rapids, Anoka County, Minnesota, 55448, United States of America","place_id":"191818532","datatype":"locationiq"},{"name":"DSW Shoe Warehouse","code":null,"latitude":29.5391261,"longitude":-95.1441398,"address":"1211 West Bay Area Boulevard, Webster TX","chain_name":null,"distance":0,"street_number":"1141","street_name":"West Bay Area Boulevard","zip":"77598","city":null,"area":null,"county":"Harris County","state":"Texas","country":"us","formatted_address":"1141, West Bay Area Boulevard, Clear Lake City, Harris County, Texas, 77598, United States of America","place_id":"205515331","datatype":"locationiq"},{"name":"DSW Shoe Warehouse","code":null,"latitude":42.5057009,"longitude":-71.1326032,"address":"300 Mishuwam Road, Woburn MA","chain_name":null,"distance":0,"street_number":"300","street_name":"Mishawum Road","zip":"01801","city":null,"area":null,"county":"Middlesex County","state":"Massachusetts","country":"us","formatted_address":"Cooper Jewelers, 300, Mishawum Road, Woburn, Middlesex County, Massachusetts, 01801, United States of America","place_id":"42523611","datatype":"locationiq"},{"name":"DSW Shoe Warehouse","code":null,"latitude":32.22162,"longitude":-110.839214,"address":"7191 East Broadway Boulevard, Tucson AZ","chain_name":null,"distance":0,"street_number":null,"street_name":"East Broadway Boulevard","zip":"85710-1408","city":"Tucson","area":null,"county":"Pima County","state":"Arizona","country":"us","formatted_address":"DSW, East Broadway Boulevard, Cloud Ridge, Broadway Northeast, Tucson, Pima County, Arizona, 85710-1408, United States of America","place_id":"124496692","datatype":"locationiq"},{"name":"DSW Shoe Warehouse","code":null,"latitude":29.552926,"longitude":-95.3861268,"address":"3137 Silverlake Village Dr, Pearland TX","chain_name":null,"distance":0,"street_number":"3107","street_name":"Silverlake Village Drive","zip":"77584","city":null,"area":null,"county":"Brazoria County","state":"Texas","country":"us","formatted_address":"3107, Silverlake Village Drive, Brazoria County, Texas, 77584, United States of America","place_id":"204563961","datatype":"locationiq"},{"name":"DSW Shoe Warehouse","code":null,"latitude":37.643656,"longitude":-77.567505,"address":"9880 West Broad Street, Glen Allen VA","chain_name":null,"distance":0,"street_number":null,"street_name":"West Broad Street","zip":"23294","city":null,"area":null,"county":"Henrico County","state":"Virginia","country":"us","formatted_address":"Glen Allen LifeWay Christian Store, West Broad Street, Tuckernuck Square, Laurel, Henrico County, Virginia, 23294, United States of America","place_id":"42074043","datatype":"locationiq"},{"name":"DSW Shoe Warehouse","code":null,"latitude":36.0662216,"longitude":-115.0363898,"address":"671 Marks Street, Henderson NV","chain_name":null,"distance":0,"street_number":"747","street_name":"Marks Street","zip":"89014","city":"Henderson","area":null,"county":"Clark County","state":"Nevada","country":"us","formatted_address":"747, Marks Street, Whitney Ranch, Henderson, Clark County, Nevada, 89014, United States of America","place_id":"194841849","datatype":"locationiq"},{"name":"DSW Shoe Warehouse","code":null,"latitude":36.0853877,"longitude":-79.8375971,"address":"3350 West Friendly Avenue, Greensboro NC","chain_name":null,"distance":0,"street_number":null,"street_name":"West Friendly Avenue","zip":"27409","city":"Greensboro","area":null,"county":"Guilford County","state":"North Carolina","country":"us","formatted_address":"Mimi's Cafe, West Friendly Avenue, Greensboro, Guilford County, North Carolina, 27409, United States of America","place_id":"133772614","datatype":"locationiq"},{"name":"DSW Shoe Warehouse","code":null,"latitude":47.5649059,"longitude":-122.1746171,"address":"4001 Factoria Mall Southeast, Bellevue WA","chain_name":null,"distance":0,"street_number":null,"street_name":null,"zip":"98006","city":"Bellevue","area":null,"county":"King County","state":"Washington","country":"us","formatted_address":"Coal Creek Trail, Eastgate, Bellevue, King County, Washington, 98006, United States of America","place_id":"131033338","datatype":"locationiq"},{"name":"DSW Shoe Warehouse","code":null,"latitude":40.9165156,"longitude":-74.0715543,"address":"60 State Route 17 North, Paramus NJ","chain_name":null,"distance":0,"street_number":null,"street_name":"South Farview Avenue","zip":"07652","city":"Paramus","area":null,"county":"Bergen County","state":"New Jersey","country":"us","formatted_address":"DSW Shoes, South Farview Avenue, Paramus, Bergen County, New Jersey, 07652, United States of America","place_id":"35466675","datatype":"locationiq"},{"name":"DSW Shoe Warehouse","code":null,"latitude":39.9982341,"longitude":-86.1294982,"address":"14477 Clay Terrace Boulevard, Carmel IN","chain_name":null,"distance":0,"street_number":"14511","street_name":"Clay Terrace Boulevard","zip":"46032","city":"Carmel","area":null,"county":"Hamilton County","state":"Indiana","country":"us","formatted_address":"American Eagle Outfitters, 14511, Clay Terrace Boulevard, Carmel, Hamilton County, Indiana, 46032, United States of America","place_id":"56858955","datatype":"locationiq"},{"name":"DSW Shoe Warehouse","code":null,"latitude":46.804569,"longitude":-92.159865,"address":"1600 Miller Trunk Highway, Duluth MN","chain_name":null,"distance":0,"street_number":null,"street_name":"Mall Drive","zip":"55811","city":"Duluth","area":null,"county":"Saint Louis County","state":"Minnesota","country":"us","formatted_address":"Mall Drive, Duluth, Saint Louis County, Minnesota, 55811, United States of America","place_id":"70290636","datatype":"locationiq"},{"name":"DSW Shoe Warehouse","code":null,"latitude":40.587388,"longitude":-74.166888,"address":"2485 Richmond Avenue, Staten Island NY","chain_name":null,"distance":0,"street_number":"2485","street_name":"Richmond Avenue","zip":"10314","city":"New York City","area":"New Springville","county":"Richmond County","state":"New York","country":"us","formatted_address":"2485, Richmond Avenue, New Springville, Staten Island, Richmond County, New York City, New York, 10314, United States of America","place_id":"127396739","datatype":"locationiq"},{"name":"DSW Shoe Warehouse","code":null,"latitude":33.9827913,"longitude":-84.2155855,"address":"5131 Peachtree Parkway, Norcross GA","chain_name":null,"distance":0,"street_number":null,"street_name":"Peachtree Parkway Northwest","zip":"30092","city":null,"area":"Avala","county":"Gwinnett County","state":"Georgia","country":"us","formatted_address":"Jason's Deli, Peachtree Parkway Northwest, Avala, Peachtree Corners, Gwinnett County, Georgia, 30092, United States of America","place_id":"46641819","datatype":"locationiq"},{"name":"DSW Shoe Warehouse","code":null,"latitude":36.8205475,"longitude":-76.0679462,"address":"2701 North Mall Drive, Virginia Beach VA","chain_name":null,"distance":0,"street_number":"2708","street_name":"North Mall Drive","zip":"23452","city":"Virginia Beach","area":null,"county":null,"state":"Virginia","country":"us","formatted_address":"Burger King, 2708, North Mall Drive, Lynnhaven Mall, Lynnhaven, Lamplight Manor, Virginia Beach, Virginia, 23452, United States of America","place_id":"157853994","datatype":"locationiq"},{"name":"DSW Shoe Warehouse","code":null,"latitude":38.794293,"longitude":-90.62164,"address":"290 Mid Rivers Center, St. Peters MO","chain_name":null,"distance":0,"street_number":"100","street_name":"Mid Rivers Mall Drive","zip":"63376","city":"St. Peters","area":null,"county":"St. Charles County","state":"Missouri","country":"us","formatted_address":"100, Mid Rivers Mall Drive, St. Peters, St. Charles County, Missouri, 63376, United States of America","place_id":"193947125","datatype":"locationiq"},{"name":"DSW Shoe Warehouse","code":null,"latitude":47.7075525,"longitude":-122.3270436,"address":"401 Northeast Northgate Way, Seattle WA","chain_name":null,"distance":0,"street_number":"301","street_name":"Northeast Northgate Way","zip":"98175","city":"Seattle","area":"Licton Springs","county":"King County","state":"Washington","country":"us","formatted_address":"Panera Bread, 301, Northeast Northgate Way, Licton Springs, Northgate, Seattle, King County, Washington, 98175, United States of America","place_id":"46076718","datatype":"locationiq"},{"name":"DSW Shoe Warehouse","code":null,"latitude":41.090298,"longitude":-111.9818926,"address":"2161 North Harris Boulevard, Layton UT","chain_name":null,"distance":0,"street_number":"2065","street_name":"North Harris Boulevard","zip":"84041","city":null,"area":"Pleasant Hills","county":"Davis County","state":"Utah","country":"us","formatted_address":"Cafe Rio, 2065, North Harris Boulevard, Pleasant Hills, Layton, Davis County, Utah, 84041, United States of America","place_id":"7851253","datatype":"locationiq"},{"name":"DSW Shoe Warehouse","code":null,"latitude":40.282444,"longitude":-74.292898,"address":"4345 Route 9, Freehold NJ","chain_name":null,"distance":0,"street_number":null,"street_name":"US 9","zip":"07731","city":"Freehold Township","area":null,"county":"Monmouth County","state":"New Jersey","country":"us","formatted_address":"US 9, Freehold Township, Monmouth County, New Jersey, 07731, United States of America","place_id":"83918382","datatype":"locationiq"},{"name":"DSW Shoe Warehouse","code":null,"latitude":38.9961448,"longitude":-77.0260915,"address":"910 Ellsworth Drive, Silver Spring MD","chain_name":null,"distance":0,"street_number":null,"street_name":"Ellsworth Drive","zip":"20910","city":null,"area":"Queen Annes","county":"Montgomery County","state":"Maryland","country":"us","formatted_address":"Starbucks Coffee, Ellsworth Drive, Queen Annes, Montgomery Hills, Silver Spring, Montgomery County, Maryland, 20910, United States of America","place_id":"12435943","datatype":"locationiq"},{"name":"DSW Shoe Warehouse","code":null,"latitude":42.5394723,"longitude":-83.1070405,"address":"600 John R Road, Troy MI","chain_name":null,"distance":0,"street_number":null,"street_name":"John R Road","zip":"48307","city":"Troy","area":null,"county":"Oakland County","state":"Michigan","country":"us","formatted_address":"John R Road, Troy, Oakland County, Michigan, 48307, United States of America","place_id":"132419844","datatype":"locationiq"},{"name":"DSW Shoe Warehouse","code":null,"latitude":35.9690643,"longitude":-86.809758,"address":"1626 Galleria Boulevard, Brentwood TN","chain_name":null,"distance":0,"street_number":"1672","street_name":"Galleria Boulevard","zip":"37027","city":"Brentwood","area":null,"county":"Williamson County","state":"Tennessee","country":"us","formatted_address":"1672, Galleria Boulevard, Brentwood Pointe, Brentwood, Williamson County, Tennessee, 37027, United States of America","place_id":"204278143","datatype":"locationiq"},{"name":"DSW Shoe Warehouse","code":null,"latitude":39.7065416,"longitude":-86.3592518,"address":"314 Metropolis Mile, Plainfield IN","chain_name":null,"distance":0,"street_number":null,"street_name":"Stout Heritage Pkwy","zip":"46168","city":null,"area":null,"county":"Hendricks County","state":"Indiana","country":"us","formatted_address":"Stout Heritage Pkwy, Plainfield, Hendricks County, Indiana, 46168, United States of America","place_id":"89426518","datatype":"locationiq"},{"name":"DSW Shoe Warehouse","code":null,"latitude":39.2517497,"longitude":-94.6650183,"address":"8679 North Stoddard Avenue, Kansas City MO","chain_name":null,"distance":0,"street_number":"7420","street_name":"Winter Street","zip":"64153","city":"Kansas City","area":null,"county":"Platte County","state":"Missouri","country":"us","formatted_address":"Altars, 7420, Winter Street, Kansas City, Platte County, Missouri, 64153, United States of America","place_id":"28504333","datatype":"locationiq"},{"name":"DSW Shoe Warehouse","code":null,"latitude":33.1072909,"longitude":-96.809393,"address":"3333 Preston Road, Frisco TX","chain_name":null,"distance":0,"street_number":"3259","street_name":"Preston Road","zip":"75034","city":"Frisco","area":null,"county":"Collin County","state":"Texas","country":"us","formatted_address":"3259, Preston Road, The Centre at Preston Ridge, Frisco, Collin County, Texas, 75034, United States of America","place_id":"48505192","datatype":"locationiq"},{"name":"DSW Shoe Warehouse","code":null,"latitude":33.3005089,"longitude":-111.7437972,"address":"2803 South Market Street, Gilbert AZ","chain_name":null,"distance":0,"street_number":"2685","street_name":"South Market Street","zip":"85295","city":"Gilbert","area":null,"county":"Maricopa County","state":"Arizona","country":"us","formatted_address":"2685, South Market Street, Santan Village, Gilbert, Maricopa County, Arizona, 85295, United States of America","place_id":"177017788","datatype":"locationiq"},{"name":"DSW Shoe Warehouse","code":null,"latitude":39.6674647,"longitude":-75.665943,"address":"301 West Main Street, Newark DE","chain_name":null,"distance":0,"street_number":null,"street_name":"Browns Lane","zip":"19702","city":null,"area":null,"county":"New Castle County","state":"Delaware","country":"us","formatted_address":"Browns Lane, Christiana Village, New Castle County, Delaware, 19702, United States of America","place_id":"133071090","datatype":"locationiq"},{"name":"DSW Shoe Warehouse","code":null,"latitude":42.2556031,"longitude":-83.6889116,"address":"3665 Washtenaw Avenue, Ann Arbor MI","chain_name":null,"distance":0,"street_number":"3555","street_name":"Washtenaw Avenue","zip":"48108","city":"Ann Arbor","area":null,"county":"Washtenaw County","state":"Michigan","country":"us","formatted_address":"Marathon, 3555, Washtenaw Avenue, Ann Arbor, Washtenaw County, Michigan, 48108, United States of America","place_id":"154377133","datatype":"locationiq"},{"name":"DSW Shoe Warehouse","code":null,"latitude":25.786696,"longitude":-80.377607,"address":"11401 Northwest 12th Street, Miami FL","chain_name":null,"distance":0,"street_number":"11401","street_name":"Northwest 12th Street","zip":"33172","city":null,"area":null,"county":"Miami-Dade County","state":"Florida","country":"us","formatted_address":"Forever 21, 11401, Northwest 12th Street, Sweetwater, Lil Abner Mobile Home Park, Miami-Dade County, Florida, 33172, United States of America","place_id":"15255968","datatype":"locationiq"},{"name":"DSW Shoe Warehouse","code":null,"latitude":42.4978739,"longitude":-83.2848682,"address":"28700 Telegraph Road, Southfield MI","chain_name":null,"distance":0,"street_number":null,"street_name":"Telegraph Road","zip":"48034","city":"Southfield","area":null,"county":"Oakland County","state":"Michigan","country":"us","formatted_address":"Telegraph Road, Southfield, Oakland County, Michigan, 48034, United States of America","place_id":"120663979","datatype":"locationiq"},{"name":"DSW Shoe Warehouse","code":null,"latitude":32.3374179,"longitude":-90.0685295,"address":"754 Mackenzie Lane, Flowood MS","chain_name":null,"distance":0,"street_number":null,"street_name":"Mackenzie Ln","zip":"39232","city":null,"area":null,"county":"Rankin County","state":"Mississippi","country":"us","formatted_address":"Mackenzie Ln, Flowood, Rankin County, Mississippi, 39232, United States of America","place_id":"115648759","datatype":"locationiq"},{"name":"DSW Shoe Warehouse","code":null,"latitude":43.0670925,"longitude":-76.1707547,"address":"9773 Carousel Center, Syracuse NY","chain_name":null,"distance":0,"street_number":"9259","street_name":"Destiny USA Drive","zip":"13290","city":"Syracuse","area":null,"county":"Onondaga County","state":"New York","country":"us","formatted_address":"9259, Destiny USA Drive, Destiny USA Mall, Syracuse, Onondaga County, New York, 13290, United States of America","place_id":"196635896","datatype":"locationiq"},{"name":"DSW Shoe Warehouse","code":null,"latitude":43.0929029,"longitude":-89.5277025,"address":"1700 Deming Way, Middleton WI","chain_name":null,"distance":0,"street_number":null,"street_name":"Market Street","zip":"53562","city":"City of Middleton","area":null,"county":"Dane County","state":"Wisconsin","country":"us","formatted_address":"Tuesday Morning, Market Street, Greenway Station, City of Middleton, Dane County, Wisconsin, 53562, United States of America","place_id":"12438720","datatype":"locationiq"},{"name":"DSW Shoe Warehouse","code":null,"latitude":47.3152005,"longitude":-122.310019,"address":"1824 South 320th, Federal Way WA","chain_name":null,"distance":0,"street_number":null,"street_name":"Chase ATM","zip":"98003","city":"Federal Way","area":null,"county":"King County","state":"Washington","country":"us","formatted_address":"Billy McHale's, Chase ATM, Sea-Tac Village, Federal Way, King County, Washington, 98003, United States of America","place_id":"79730695","datatype":"locationiq"},{"name":"DSW Shoe Warehouse","code":null,"latitude":40.1791232,"longitude":-74.8796996,"address":"2426 East Lincoln Highway, Langhorne PA","chain_name":null,"distance":0,"street_number":"2466","street_name":"Lincoln Highway","zip":"19047","city":"Middletown Township","area":null,"county":"Bucks County","state":"Pennsylvania","country":"us","formatted_address":"2466, Lincoln Highway, Middletown Township, Bucks County, Pennsylvania, 19047, United States of America","place_id":"201445313","datatype":"locationiq"},{"name":"DSW Shoe Warehouse","code":null,"latitude":42.6397859,"longitude":-83.1318973,"address":"2831 South Rochester Road, Rochester Hills MI","chain_name":null,"distance":0,"street_number":null,"street_name":"South Rochester Road","zip":"48307","city":"Rochester Hills","area":null,"county":"Oakland County","state":"Michigan","country":"us","formatted_address":"South Rochester Road, Hampton Village Centre, Rochester Hills, Oakland County, Michigan, 48307, United States of America","place_id":"164621016","datatype":"locationiq"},{"name":"DSW Shoe Warehouse","code":null,"latitude":43.0591026,"longitude":-88.0480606,"address":"2265 North Mayfair Road, Wauwatosa WI","chain_name":null,"distance":0,"street_number":"2243","street_name":"North Mayfair Road","zip":"53226","city":"Wauwatosa","area":null,"county":"Milwaukee County","state":"Wisconsin","country":"us","formatted_address":"2243, North Mayfair Road, Wauwatosa, Milwaukee County, Wisconsin, 53226, United States of America","place_id":"209550852","datatype":"locationiq"},{"name":"DSW Shoe Warehouse","code":null,"latitude":41.971814,"longitude":-71.3468091,"address":"1360 South Washington Street, North Attleborough MA","chain_name":null,"distance":0,"street_number":null,"street_name":"Metcalf Road","zip":"02760","city":null,"area":null,"county":"Bristol County","state":"Massachusetts","country":"us","formatted_address":"Metcalf Road, North Attleborough, Bristol County, Massachusetts, 02760, United States of America","place_id":"64798972","datatype":"locationiq"},{"name":"DSW Shoe Warehouse","code":null,"latitude":32.9404393,"longitude":-97.1328521,"address":"1435 East Southlake Boulevard, Southlake TX","chain_name":null,"distance":0,"street_number":"1574","street_name":"East Southlake Boulevard","zip":"76092","city":"Southlake","area":null,"county":"Tarrant County","state":"Texas","country":"us","formatted_address":"1574, East Southlake Boulevard, Southlake, Tarrant County, Texas, 76092, United States of America","place_id":"206302079","datatype":"locationiq"},{"name":"DSW Shoe Warehouse","code":null,"latitude":41.697339,"longitude":-83.641339,"address":"5001 Monroe Street, Toledo OH","chain_name":null,"distance":0,"street_number":null,"street_name":"Monroe Street","zip":"43560","city":"Toledo","area":"Franklin Park","county":"Lucas County","state":"Ohio","country":"us","formatted_address":"Jared The Galleria of Jewelry, Monroe Street, Franklin Park, Toledo, Lucas County, Ohio, 43560, United States of America","place_id":"136344409","datatype":"locationiq"},{"name":"DSW Shoe Warehouse","code":null,"latitude":25.575631,"longitude":-80.371084,"address":"20505 South Dixie Highway, Miami FL","chain_name":null,"distance":0,"street_number":null,"street_name":"Dixie Highway","zip":"33189","city":null,"area":null,"county":"Miami-Dade County","state":"Florida","country":"us","formatted_address":"Applebees, Dixie Highway, Cutler Bay, Miami-Dade County, Florida, 33189, United States of America","place_id":"100944187","datatype":"locationiq"},{"name":"DSW Shoe Warehouse","code":null,"latitude":39.4523385,"longitude":-74.7276626,"address":"225 Consumer Square, Mays Landing NJ","chain_name":null,"distance":0,"street_number":null,"street_name":"Main Street","zip":"08330","city":"Hamilton Township","area":null,"county":"Atlantic County","state":"New Jersey","country":"us","formatted_address":"Memorial Park, Main Street, Hamilton Township, Atlantic County, New Jersey, 08330, United States of America","place_id":"83657436","datatype":"locationiq"},{"name":"DSW Shoe Warehouse","code":null,"latitude":33.678615,"longitude":-111.9746066,"address":"21001 North Tatum Boulevard, Phoenix AZ","chain_name":null,"distance":0,"street_number":null,"street_name":"East Deer Valley Road","zip":"85050-4206","city":"Phoenix","area":null,"county":"Maricopa County","state":"Arizona","country":"us","formatted_address":"Albertsons, East Deer Valley Road, Phoenix, Maricopa County, Arizona, 85050-4206, United States of America","place_id":"18161124","datatype":"locationiq"},{"name":"DSW Shoe Warehouse","code":null,"latitude":33.7084002,"longitude":-116.2841464,"address":"79150 Highway 111, La Quinta CA","chain_name":null,"distance":0,"street_number":"79-174","street_name":"Highway 111","zip":"92253","city":"La Quinta","area":null,"county":"Riverside County","state":"California","country":"us","formatted_address":"Chipotle, 79-174, Highway 111, La Quinta, Riverside County, California, 92253, United States of America","place_id":"20247810","datatype":"locationiq"},{"name":"DSW Shoe Warehouse","code":null,"latitude":42.322099,"longitude":-83.4816648,"address":"44590 Ford Rd, Canton MI","chain_name":null,"distance":0,"street_number":null,"street_name":"Ford Road","zip":"48187","city":null,"area":null,"county":"Wayne County","state":"Michigan","country":"us","formatted_address":"McDonald's, Ford Road, Canton, Wayne County, Michigan, 48187, United States of America","place_id":"147123482","datatype":"locationiq"},{"name":"DSW Shoe Warehouse","code":null,"latitude":30.2316916,"longitude":-97.8188577,"address":"5207 Brodie Lane, Sunset Valley TX","chain_name":null,"distance":0,"street_number":"5203","street_name":"Brodie Lane","zip":"78748","city":"Sunset Valley","area":null,"county":"Travis County","state":"Texas","country":"us","formatted_address":"5203, Brodie Lane, Sunset Valley, Travis County, Texas, 78748, United States of America","place_id":"153991202","datatype":"locationiq"},{"name":"DSW Shoe Warehouse","code":null,"latitude":38.5986595,"longitude":-121.4212483,"address":"1901 Arden Way, Sacramento CA","chain_name":null,"distance":0,"street_number":"1901","street_name":"Arden Way","zip":"95815","city":"Sacramento","area":"Ben Ali","county":"Sacramento County","state":"California","country":"us","formatted_address":"Best Buy, 1901, Arden Way, Ben Ali, Sacramento, Sacramento County, California, 95815, United States of America","place_id":"114267818","datatype":"locationiq"},{"name":"DSW Shoe Warehouse","code":null,"latitude":41.2642572,"longitude":-96.0683296,"address":"10000 California Street, Omaha NE","chain_name":null,"distance":0,"street_number":null,"street_name":"California Street","zip":"68114","city":"Omaha","area":null,"county":"Douglas County","state":"Nebraska","country":"us","formatted_address":"Westroads, California Street, Omaha, Douglas County, Nebraska, 68114, United States of America","place_id":"108277787","datatype":"locationiq"},{"name":"DSW Shoe Warehouse","code":null,"latitude":38.9224485,"longitude":-77.2360013,"address":"8389 Leesburg Pike, Vienna VA","chain_name":null,"distance":0,"street_number":null,"street_name":"Leesburg Pike","zip":"22182","city":null,"area":"Howard","county":"Fairfax County","state":"Virginia","country":"us","formatted_address":"BB&T, Leesburg Pike, Howard, Madrillon Farms, Fairfax County, Virginia, 22182, United States of America","place_id":"99908889","datatype":"locationiq"},{"name":"DSW Shoe Warehouse","code":null,"latitude":42.322099,"longitude":-83.4816648,"address":"44590 Ford Road, Canton MI","chain_name":null,"distance":0,"street_number":null,"street_name":"Ford Road","zip":"48187","city":null,"area":null,"county":"Wayne County","state":"Michigan","country":"us","formatted_address":"McDonald's, Ford Road, Canton, Wayne County, Michigan, 48187, United States of America","place_id":"147123482","datatype":"locationiq"},{"name":"DSW Shoe Warehouse","code":null,"latitude":39.0247538,"longitude":-84.5793316,"address":"2771 Towne Center Boulevard, Crestview Hills KY","chain_name":null,"distance":0,"street_number":null,"street_name":"Town Center Boulevard","zip":"41017","city":"Crestview Hills","area":null,"county":"Kenton County","state":"Kentucky","country":"us","formatted_address":"Dillard\u2019s, Town Center Boulevard, Crestview Hills Town Center, Crestview Hills, Kenton County, Kentucky, 41017, United States of America","place_id":"105752126","datatype":"locationiq"},{"name":"DSW Shoe Warehouse","code":null,"latitude":39.287134,"longitude":-84.4595355,"address":"489 East Kemper Road, Springdale OH","chain_name":null,"distance":0,"street_number":"807","street_name":"East Kemper Road","zip":"45246","city":"Springdale","area":null,"county":"Hamilton County","state":"Ohio","country":"us","formatted_address":"807, East Kemper Road, Kemper Commons, Springdale, Hamilton County, Ohio, 45246, United States of America","place_id":"199278028","datatype":"locationiq"},{"name":"DSW Shoe Warehouse","code":null,"latitude":40.6411247,"longitude":-74.4158242,"address":"1515 US Highway 22 West, Watchung NJ","chain_name":null,"distance":0,"street_number":null,"street_name":"US 22","zip":"07062","city":"Watchung","area":null,"county":"Somerset County","state":"New Jersey","country":"us","formatted_address":"US 22, Watchung, Somerset County, New Jersey, 07062, United States of America","place_id":"84060397","datatype":"locationiq"},{"name":"DSW Shoe Warehouse","code":null,"latitude":40.0960541,"longitude":-83.0897437,"address":"3704 W. Dublin-Granville Road, Columbus OH","chain_name":null,"distance":0,"street_number":"3706","street_name":"West Dublin - Granville Road","zip":"43235","city":"Worthington","area":null,"county":"Franklin County","state":"Ohio","country":"us","formatted_address":"3706, West Dublin - Granville Road, Sun Center, Worthington, Franklin County, Ohio, 43235, United States of America","place_id":"199134705","datatype":"locationiq"},{"name":"DSW Shoe Warehouse","code":null,"latitude":34.1456714,"longitude":-118.1425773,"address":"376 East Colorado Boulevard, Pasadena CA","chain_name":null,"distance":0,"street_number":null,"street_name":"East Colorado Boulevard","zip":"91101","city":"Pasadena","area":"Madison Heights","county":"Los Angeles County","state":"California","country":"us","formatted_address":"DSW, East Colorado Boulevard, Madison Heights, Pasadena, Los Angeles County, California, 91101, United States of America","place_id":"61246847","datatype":"locationiq"},{"name":"DSW Shoe Warehouse","code":null,"latitude":40.9071405,"longitude":-74.56395,"address":"204 Enterprise Drive, Rockaway NJ","chain_name":null,"distance":0,"street_number":null,"street_name":"MarketPlace","zip":"07885","city":"Rockaway Township","area":null,"county":"Morris County","state":"New Jersey","country":"us","formatted_address":"MarketPlace, Rockaway Township, Morris County, New Jersey, 07885, United States of America","place_id":"131778963","datatype":"locationiq"},{"name":"DSW Shoe Warehouse","code":null,"latitude":41.3597363,"longitude":-72.8708537,"address":"410 Universal Drive N, North Haven CT","chain_name":null,"distance":0,"street_number":"72","street_name":"Universal Drive North","zip":"06473","city":null,"area":null,"county":"New Haven County","state":"Connecticut","country":"us","formatted_address":"72, Universal Drive North, North Haven, New Haven County, Connecticut, 06473, United States of America","place_id":"181415124","datatype":"locationiq"},{"name":"DSW Shoe Warehouse","code":null,"latitude":33.3890682,"longitude":-84.7626681,"address":"346 Newnan Crossing Bypass, Newnan GA","chain_name":null,"distance":0,"street_number":null,"street_name":"Newnan Crossing Bypass","zip":"30277","city":null,"area":null,"county":"Coweta County","state":"Georgia","country":"us","formatted_address":"Newnan Crossing Bypass, Newnan, Coweta County, Georgia, 30277, United States of America","place_id":"114200675","datatype":"locationiq"},{"name":"DSW Shoe Warehouse","code":null,"latitude":29.7377227,"longitude":-95.5019928,"address":"7534 Westheimer Road, Houston TX","chain_name":null,"distance":0,"street_number":null,"street_name":"Westheimer Road","zip":"77063","city":null,"area":null,"county":"Harris County","state":"Texas","country":"us","formatted_address":"Taco Bell, Westheimer Road, Lamar Terrace, Harris County, Texas, 77063, United States of America","place_id":"23816380","datatype":"locationiq"},{"name":"DSW Shoe Warehouse","code":null,"latitude":39.149332,"longitude":-84.4450784,"address":"2701 Edmondson Road, Cincinnati OH","chain_name":null,"distance":0,"street_number":null,"street_name":"Edmondson Road","zip":"45212","city":"Norwood","area":null,"county":"Hamilton County","state":"Ohio","country":"us","formatted_address":"Courtyard Cincinnati Midtown\/Rookwood, Edmondson Road, Rookwood Commons & Rookwood Pavillion, Norwood, Hamilton County, Ohio, 45212, United States of America","place_id":"159672223","datatype":"locationiq"},{"name":"DSW Shoe Warehouse","code":null,"latitude":32.8643594,"longitude":-96.8065894,"address":"8335 Westchester Drive, Dallas TX","chain_name":null,"distance":0,"street_number":"8300","street_name":"Westchester Drive","zip":"75225","city":"Dallas","area":null,"county":"Dallas County","state":"Texas","country":"us","formatted_address":"8300, Westchester Drive, Dallas, Dallas County, Texas, 75225, United States of America","place_id":"84366977","datatype":"locationiq"},{"name":"DSW Shoe Warehouse","code":null,"latitude":33.9340396,"longitude":-84.3376139,"address":"4741 Ashford Dunwoody Road, Dunwoody GA","chain_name":null,"distance":0,"street_number":"4741","street_name":"Ashford Dunwoody Road Northeast","zip":"30338","city":null,"area":"Valley View","county":"DeKalb County","state":"Georgia","country":"us","formatted_address":"4741, Ashford Dunwoody Road Northeast, Valley View, Dunwoody, DeKalb County, Georgia, 30338, United States of America","place_id":"183621534","datatype":"locationiq"},{"name":"DSW Shoe Warehouse","code":null,"latitude":40.0084569,"longitude":-75.297575,"address":"62 Greenfield Avenue, Ardmore PA","chain_name":null,"distance":0,"street_number":"62","street_name":"Greenfield Avenue","zip":"19003","city":"Lower Merion Township","area":null,"county":"Montgomery County","state":"Pennsylvania","country":"us","formatted_address":"62, Greenfield Avenue, Wynnewood, Lower Merion Township, Montgomery County, Pennsylvania, 19003, United States of America","place_id":"202129951","datatype":"locationiq"},{"name":"DSW Shoe Warehouse","code":null,"latitude":40.9824307,"longitude":-73.8282903,"address":"2500 Central Park Avenue, Yonkers NY","chain_name":null,"distance":0,"street_number":"2498","street_name":"Central Park Avenue N","zip":"10710","city":null,"area":null,"county":"Westchester County","state":"New York","country":"us","formatted_address":"2498, Central Park Avenue N, Greenville, Town of Greenburgh, Westchester County, New York, 10710, United States of America","place_id":"197123179","datatype":"locationiq"},{"name":"DSW Shoe Warehouse","code":null,"latitude":42.1489013,"longitude":-88.3358154,"address":"1820 South Randall Road, Algonquin IL","chain_name":null,"distance":0,"street_number":"1524","street_name":"South Randall Road","zip":"60102","city":null,"area":null,"county":"McHenry County","state":"Illinois","country":"us","formatted_address":"Biaggi's, 1524, South Randall Road, Algonquin, McHenry County, Illinois, 60102, United States of America","place_id":"95225450","datatype":"locationiq"},{"name":"DSW Shoe Warehouse","code":null,"latitude":38.595252,"longitude":-90.485607,"address":"13920 Manchester Road, Ballwin MO","chain_name":null,"distance":0,"street_number":null,"street_name":"Manchester Road","zip":"63011","city":null,"area":null,"county":"St. Louis County","state":"Missouri","country":"us","formatted_address":"Manchester Road, Ozark View, St. Louis County, Missouri, 63011, United States of America","place_id":"89956743","datatype":"locationiq"},{"name":"DSW Shoe Warehouse","code":null,"latitude":44.9360612,"longitude":-93.3832151,"address":"8236 Highway 7, Saint Louis Park MN","chain_name":null,"distance":0,"street_number":"8126","street_name":"Highway 7","zip":"55426","city":"St. Louis Park","area":"South Oak Hill","county":"Hennepin County","state":"Minnesota","country":"us","formatted_address":"Blaze Pizza, 8126, Highway 7, South Oak Hill, St. Louis Park, Hennepin County, Minnesota, 55426, United States of America","place_id":"22874159","datatype":"locationiq"},{"name":"DSW Shoe Warehouse","code":null,"latitude":34.15581,"longitude":-118.467371,"address":"15301 Ventura Boulevard, Sherman Oaks CA","chain_name":null,"distance":0,"street_number":null,"street_name":"San Diego Freeway","zip":"CA 91403","city":"Los Angeles","area":null,"county":"Los Angeles County","state":"California","country":"us","formatted_address":"Urban Home, San Diego Freeway, Sherman Oaks, Los Angeles, Los Angeles County, California, CA 91403, United States of America","place_id":"80648110","datatype":"locationiq"},{"name":"DSW Shoe Warehouse","code":null,"latitude":38.9420103,"longitude":-104.7995095,"address":"7639 North Academy Boulevard, Colorado Springs CO","chain_name":null,"distance":0,"street_number":null,"street_name":"North Academy Boulevard","zip":"80920","city":"Colorado Springs","area":null,"county":"El Paso County","state":"Colorado","country":"us","formatted_address":"Academy Frame, North Academy Boulevard, Colorado Springs, El Paso County, Colorado, 80920, United States of America","place_id":"111859814","datatype":"locationiq"},{"name":"DSW Shoe Warehouse","code":null,"latitude":47.671748,"longitude":-122.111897,"address":"17158 Redmond Parkway, Redmond WA","chain_name":null,"distance":0,"street_number":null,"street_name":"Northeast Redmond Way","zip":"98052","city":"Redmond","area":"Education Hill","county":"King County","state":"Washington","country":"us","formatted_address":"Agave, Northeast Redmond Way, Education Hill, Redmond, King County, Washington, 98052, United States of America","place_id":"14713740","datatype":"locationiq"},{"name":"DSW Shoe Warehouse","code":null,"latitude":39.9386057,"longitude":-75.3562324,"address":"400 South State Road, Springfield PA","chain_name":null,"distance":0,"street_number":null,"street_name":"Media Bypass","zip":"19064","city":"Springfield Township","area":null,"county":"Delaware County","state":"Pennsylvania","country":"us","formatted_address":"Marshall's, Media Bypass, Springfield Township, Delaware County, Pennsylvania, 19064, United States of America","place_id":"6495992","datatype":"locationiq"},{"name":"DSW Shoe Warehouse","code":null,"latitude":28.341967,"longitude":-81.4308998,"address":"2571 West Osceola Parkway, Kissimmee FL","chain_name":null,"distance":0,"street_number":null,"street_name":"Osceola Parkway","zip":"32837","city":"Kissimmee","area":null,"county":"Osceola County","state":"Florida","country":"us","formatted_address":"Osceola Parkway, Kissimmee, Osceola County, Florida, 32837, United States of America","place_id":"137937235","datatype":"locationiq"},{"name":"DSW Shoe Warehouse","code":null,"latitude":33.7258385,"longitude":-116.3998944,"address":"72-399 Highway 111, Palm Desert CA","chain_name":null,"distance":0,"street_number":null,"street_name":"Highway 111","zip":"92260","city":"Palm Desert","area":null,"county":"Riverside County","state":"California","country":"us","formatted_address":"Whole Foods, Highway 111, Palm Desert, Riverside County, California, 92260, United States of America","place_id":"157292266","datatype":"locationiq"},{"name":"DSW Shoe Warehouse","code":null,"latitude":39.7353976,"longitude":-105.1592651,"address":"14363 Colfax Avenue, Lakewood CO","chain_name":null,"distance":0,"street_number":null,"street_name":"West Colfax Avenue","zip":"80410","city":"Lakewood","area":null,"county":"Jefferson County","state":"Colorado","country":"us","formatted_address":"Macaroni Grill, West Colfax Avenue, Lakewood, Jefferson County, Colorado, 80410, United States of America","place_id":"85301968","datatype":"locationiq"},{"name":"DSW Shoe Warehouse","code":null,"latitude":33.5447694,"longitude":-101.9541632,"address":"6072 Marsha Sharp Freeway, Lubbock TX","chain_name":null,"distance":0,"street_number":"6036","street_name":"Marsha Sharp Freeway","zip":"79407","city":"Lubbock","area":"Ironton","county":"Lubbock County","state":"Texas","country":"us","formatted_address":"6036, Marsha Sharp Freeway, Ironton, Lubbock, Lubbock County, Texas, 79407, United States of America","place_id":"205876708","datatype":"locationiq"},{"name":"DSW Shoe Warehouse","code":null,"latitude":32.4217773,"longitude":-110.9369377,"address":"11895 North Oracle Road, Oro Valley AZ","chain_name":null,"distance":0,"street_number":null,"street_name":"North Oracle Road","zip":"85737","city":null,"area":null,"county":"Pima County","state":"Arizona","country":"us","formatted_address":"North Oracle Road, Oro Valley, Pima County, Arizona, 85737, United States of America","place_id":"147038283","datatype":"locationiq"},{"name":"DSW Shoe Warehouse","code":null,"latitude":29.5961547,"longitude":-95.6198609,"address":"2745 Town Center Boulevard, Sugar Land TX","chain_name":null,"distance":0,"street_number":"2298","street_name":"Town Center Boulevard","zip":"77479","city":"Sugar Land","area":null,"county":"Fort Bend County","state":"Texas","country":"us","formatted_address":"2298, Town Center Boulevard, Sugar Land, Fort Bend County, Texas, 77479, United States of America","place_id":"205150667","datatype":"locationiq"},{"name":"DSW Shoe Warehouse","code":null,"latitude":39.9150901,"longitude":-75.5057627,"address":"200 Town Centre Drive, Glen Mills PA","chain_name":null,"distance":0,"street_number":"250","street_name":"Glen Mills Road","zip":"19342","city":"Thornbury Township","area":null,"county":"Delaware County","state":"Pennsylvania","country":"us","formatted_address":"250, Glen Mills Road, Thornbury Township, Delaware County, Pennsylvania, 19342, United States of America","place_id":"201698677","datatype":"locationiq"},{"name":"DSW Shoe Warehouse","code":null,"latitude":40.437553,"longitude":-79.766565,"address":"4100 William Penn Highway, Monroeville PA","chain_name":null,"distance":0,"street_number":null,"street_name":"Miracle Mile Drive","zip":"15146","city":"Monroeville","area":null,"county":"Allegheny County","state":"Pennsylvania","country":"us","formatted_address":"Miracle Mile Drive, Miracle Mile Shopping Center, Monroeville, Allegheny County, Pennsylvania, 15146, United States of America","place_id":"165681691","datatype":"locationiq"},{"name":"DSW Shoe Warehouse","code":null,"latitude":35.3708482,"longitude":-80.7169034,"address":"8088 Concord Mills Boulevard, Concord NC","chain_name":null,"distance":0,"street_number":null,"street_name":"Concord Mills Boulevard","zip":"82869","city":"Concord","area":null,"county":"Cabarrus County","state":"North Carolina","country":"us","formatted_address":"Applebee's, Concord Mills Boulevard, Concord Mills, Concord, Cabarrus County, North Carolina, 82869, United States of America","place_id":"153008836","datatype":"locationiq"},{"name":"DSW Shoe Warehouse","code":null,"latitude":33.377162,"longitude":-86.8157177,"address":"4350 Creekside Avenue, Hoover AL","chain_name":null,"distance":0,"street_number":null,"street_name":"Creekside Avenue","zip":"35244","city":"Hoover","area":null,"county":"Jefferson County","state":"Alabama","country":"us","formatted_address":"Creekside Avenue, Patton Creek Shopping Center, Hoover, Jefferson County, Alabama, 35244, United States of America","place_id":"115103401","datatype":"locationiq"},{"name":"DSW Shoe Warehouse","code":null,"latitude":33.5790596,"longitude":-111.8865596,"address":"10220-B North 90th Street, Scottsdale AZ","chain_name":null,"distance":0,"street_number":"10240","street_name":"North 90th Street","zip":"85258","city":"Scottsdale","area":null,"county":"Maricopa County","state":"Arizona","country":"us","formatted_address":"Dunkin' Donuts, 10240, North 90th Street, Scottsdale, Maricopa County, Arizona, 85258, United States of America","place_id":"49739463","datatype":"locationiq"},{"name":"DSW Shoe Warehouse","code":null,"latitude":33.9247815,"longitude":-118.1318321,"address":"12058 Lakewood Boulevard, Downey CA","chain_name":null,"distance":0,"street_number":null,"street_name":"Lakewood Boulevard","zip":"90242","city":"Downey","area":null,"county":"Los Angeles County","state":"California","country":"us","formatted_address":"Lakewood Boulevard, Downey, Los Angeles County, California, 90242, United States of America","place_id":"157263463","datatype":"locationiq"},{"name":"DSW Shoe Warehouse","code":null,"latitude":38.307762,"longitude":-77.5119098,"address":"1751 Carl D. Silver Parkway, Fredericksburg VA","chain_name":null,"distance":0,"street_number":null,"street_name":"Carl D Silver Parkway","zip":"22402","city":"Fredericksburg","area":null,"county":"Fredericksburg City","state":"Virginia","country":"us","formatted_address":"Krispy Kreme, Carl D Silver Parkway, Central Park, Fredericksburg, Fredericksburg City, Virginia, 22402, United States of America","place_id":"58138457","datatype":"locationiq"},{"name":"DSW Shoe Warehouse","code":null,"latitude":45.3979008,"longitude":-122.7490543,"address":"16920 South West 72nd Avenue, Tigard OR","chain_name":null,"distance":0,"street_number":"16850","street_name":"Southwest 72nd Avenue","zip":"97224","city":"Tigard","area":null,"county":"Washington County","state":"Oregon","country":"us","formatted_address":"16850, Southwest 72nd Avenue, Tigard, Washington County, Oregon, 97224, United States of America","place_id":"201142266","datatype":"locationiq"},{"name":"DSW Shoe Warehouse","code":null,"latitude":26.54242,"longitude":-81.868509,"address":"13711 South Tamiami Trail, Fort Myers FL","chain_name":null,"distance":0,"street_number":null,"street_name":"Sauer Drive","zip":"33919","city":"Cape Coral","area":"Fort Myers Villas","county":"Lee County","state":"Florida","country":"us","formatted_address":"Target, Sauer Drive, Fort Myers Villas, Cape Coral, Lee County, Florida, 33919, United States of America","place_id":"135221769","datatype":"locationiq"},{"name":"DSW Shoe Warehouse","code":null,"latitude":25.7500195,"longitude":-80.2495588,"address":"3301 Coral Way, Miami FL","chain_name":null,"distance":0,"street_number":"3400","street_name":"Southwest 22nd Street","zip":"33145","city":"Miami","area":null,"county":"Miami-Dade County","state":"Florida","country":"us","formatted_address":"3400, Southwest 22nd Street, Miami, Miami-Dade County, Florida, 33145, United States of America","place_id":"164161490","datatype":"locationiq"},{"name":"DSW Shoe Warehouse","code":null,"latitude":26.2957768,"longitude":-81.8021882,"address":"13585 Tamiami Trail North, Naples FL","chain_name":null,"distance":0,"street_number":null,"street_name":"Tamiami Trail","zip":"34110","city":null,"area":null,"county":"Collier County","state":"Florida","country":"us","formatted_address":"Tamiami Trail, Gulf Harbor, Collier County, Florida, 34110, United States of America","place_id":"100387220","datatype":"locationiq"},{"name":"DSW Shoe Warehouse","code":null,"latitude":26.0043528,"longitude":-80.3369369,"address":"630 Southwest 145 Terrace, Pembroke Pines FL","chain_name":null,"distance":0,"street_number":"500","street_name":"Southwest 145th Terrace","zip":"33027","city":null,"area":null,"county":"Broward County","state":"Florida","country":"us","formatted_address":"500, Southwest 145th Terrace, Shops at Pembroke Gardens, Pembroke Pines, Broward County, Florida, 33027, United States of America","place_id":"181731231","datatype":"locationiq"},{"name":"DSW Shoe Warehouse","code":null,"latitude":42.2497515,"longitude":-71.1710678,"address":"344 Providence Highway, Dedham MA","chain_name":null,"distance":0,"street_number":null,"street_name":"Boston Providence Turnpike","zip":"02026","city":null,"area":"East Dedham","county":"Norfolk County","state":"Massachusetts","country":"us","formatted_address":"Boston Providence Turnpike, East Dedham, Dedham, Norfolk County, Massachusetts, 02026, United States of America","place_id":"89107135","datatype":"locationiq"},{"name":"DSW Shoe Warehouse","code":null,"latitude":40.7353643,"longitude":-73.8749175,"address":"88-01 Queens Boulevard, Elmhurst NY","chain_name":null,"distance":0,"street_number":"88-01","street_name":"Queens Boulevard","zip":"11373","city":"New York City","area":"Elmhurst","county":"Queens County","state":"New York","country":"us","formatted_address":"Queens Place, 88-01, Queens Boulevard, Elmhurst, Queens County, New York City, New York, 11373, United States of America","place_id":"133818159","datatype":"locationiq"},{"name":"DSW Shoe Warehouse","code":null,"latitude":38.3087048,"longitude":-85.5784265,"address":"4250 Summit Plaza Drive, Louisville KY","chain_name":null,"distance":0,"street_number":"4250","street_name":"Summit Plaza Drive","zip":null,"city":"Louisville","area":null,"county":"Jefferson County","state":"Kentucky","country":"us","formatted_address":"DSW, 4250, Summit Plaza Drive, Paddock Shops, Louisville, Jefferson County, Kentucky, United States of America","place_id":"23277036","datatype":"locationiq"},{"name":"DSW Shoe Warehouse","code":null,"latitude":34.1540943,"longitude":-84.1781259,"address":"410 Peachtree Parkway, Cumming GA","chain_name":null,"distance":0,"street_number":null,"street_name":"Peachtree Parkway","zip":null,"city":null,"area":null,"county":"Forsyth County","state":"Georgia","country":"us","formatted_address":"Peachtree Parkway, Big Creek, Forsyth County, Georgia, United States of America","place_id":"118066371","datatype":"locationiq"},{"name":"DSW Shoe Warehouse","code":null,"latitude":39.928439,"longitude":-105.131212,"address":"595 Flatiron Boulevard, Broomfield CO","chain_name":null,"distance":0,"street_number":null,"street_name":null,"zip":"80029","city":"Broomfield","area":null,"county":"City and County of Broomfield","state":"Colorado","country":"us","formatted_address":"DSW Shoe Warehouse, Access to Tramway, Broomfield, City and County of Broomfield, Colorado, 80029, United States of America","place_id":"143650483","datatype":"locationiq"},{"name":"DSW Shoe Warehouse","code":null,"latitude":39.7678573,"longitude":-84.0497272,"address":"2720 Towne Drive, Beavercreek OH","chain_name":null,"distance":0,"street_number":"2786","street_name":"Towne Drive","zip":"45431","city":"Beavercreek","area":null,"county":"Greene County","state":"Ohio","country":"us","formatted_address":"2786, Towne Drive, Beavercreek, Greene County, Ohio, 45431, United States of America","place_id":"199225861","datatype":"locationiq"},{"name":"DSW Shoe Warehouse","code":null,"latitude":34.0424952,"longitude":-84.3030318,"address":"7361 North Point Parkway, Alpharetta GA","chain_name":null,"distance":0,"street_number":"7301","street_name":"North Point Parkway","zip":"30022","city":"Alpharetta","area":"Alpha Park","county":"Fulton County","state":"Georgia","country":"us","formatted_address":"Verizon Wireless, 7301, North Point Parkway, Alpha Park, Alpharetta, Fulton County, Georgia, 30022, United States of America","place_id":"151329610","datatype":"locationiq"},{"name":"DSW Shoe Warehouse","code":null,"latitude":33.190594,"longitude":-97.108111,"address":"2201 Interstate 35 East South, Denton TX","chain_name":null,"distance":0,"street_number":null,"street_name":"San Jacinto Boulevard","zip":"76205","city":"Denton","area":null,"county":"Denton County","state":"Texas","country":"us","formatted_address":"Golden Triangle Mall, San Jacinto Boulevard, Denton, Denton County, Texas, 76205, United States of America","place_id":"96135579","datatype":"locationiq"},{"name":"DSW Shoe Warehouse","code":null,"latitude":39.4957777,"longitude":-76.6563549,"address":"118 Shawan Road, Cockeysville MD","chain_name":null,"distance":0,"street_number":"120","street_name":"Shawan Road","zip":"21030","city":null,"area":"Ivy Hill","county":"Baltimore County","state":"Maryland","country":"us","formatted_address":"M&T Bank, 120, Shawan Road, Ivy Hill, Hunt Valley, Cockeysville, Baltimore County, Maryland, 21030, United States of America","place_id":"82255638","datatype":"locationiq"},{"name":"DSW Shoe Warehouse","code":null,"latitude":42.299748,"longitude":-71.8022863,"address":"7 Neponset Street, Worcester MA","chain_name":null,"distance":0,"street_number":"98","street_name":"Neponset Street","zip":"01606","city":"Worcester","area":null,"county":"Worcester County","state":"Massachusetts","country":"us","formatted_address":"98, Neponset Street, Greendale Mall, Worcester, Worcester County, Massachusetts, 01606, United States of America","place_id":"190565664","datatype":"locationiq"},{"name":"DSW Shoe Warehouse","code":null,"latitude":25.6900165,"longitude":-80.3068929,"address":"8607 South Dixie Highway, Miami FL","chain_name":null,"distance":0,"street_number":null,"street_name":"South Dixie Highway","zip":"33156-7704","city":null,"area":null,"county":"Miami-Dade County","state":"Florida","country":"us","formatted_address":"Ross, South Dixie Highway, Pinecrest, Miami-Dade County, Florida, 33156-7704, United States of America","place_id":"8652847","datatype":"locationiq"},{"name":"DSW Shoe Warehouse","code":null,"latitude":37.502775,"longitude":-121.9677068,"address":"43598 Christy Street, Fremont CA","chain_name":null,"distance":0,"street_number":null,"street_name":"Christy Street","zip":"94538","city":"Fremont","area":null,"county":"Alameda County","state":"California","country":"us","formatted_address":"Christy Street, Irvington District, Fremont, Alameda County, California, 94538, United States of America","place_id":"141632038","datatype":"locationiq"},{"name":"DSW Shoe Warehouse","code":null,"latitude":41.261242,"longitude":-96.182508,"address":"17110 Davenport Street, Omaha NE","chain_name":null,"distance":0,"street_number":"17110","street_name":"Davenport Street","zip":"68118","city":"Omaha","area":null,"county":"Douglas County","state":"Nebraska","country":"us","formatted_address":"Archiver's, 17110, Davenport Street, Village Pointe, Omaha, Douglas County, Nebraska, 68118, United States of America","place_id":"20436682","datatype":"locationiq"},{"name":"DSW Shoe Warehouse","code":null,"latitude":36.7776966,"longitude":-76.2346208,"address":"1412 Greenbrier Parkway, Chesapeake VA","chain_name":null,"distance":0,"street_number":"1412","street_name":"Greenbrier Parkway","zip":"23320","city":"Chesapeake City","area":null,"county":null,"state":"Virginia","country":"us","formatted_address":"Value City Furniture, 1412, Greenbrier Parkway, Crossways Shopping Center, Chesapeake, Chesapeake City, Virginia, 23320, United States of America","place_id":"44829258","datatype":"locationiq"},{"name":"DSW Shoe Warehouse","code":null,"latitude":42.626241,"longitude":-82.9939096,"address":"44925 Schoenherr Road, Sterling Heights MI","chain_name":null,"distance":0,"street_number":null,"street_name":"Hall Road","zip":"48313","city":"Sterling Heights","area":null,"county":"Macomb County","state":"Michigan","country":"us","formatted_address":"Hall Road, Sterling Heights, Macomb County, Michigan, 48313, United States of America","place_id":"163347646","datatype":"locationiq"},{"name":"DSW Shoe Warehouse","code":null,"latitude":29.5231134,"longitude":-98.4950302,"address":"125 Northwest Loop 410, San Antonio TX","chain_name":null,"distance":0,"street_number":null,"street_name":"Coronet Street","zip":"78216","city":"San Antonio","area":null,"county":"Bexar County","state":"Texas","country":"us","formatted_address":"Coronet Street, San Antonio, Bexar County, Texas, 78216, United States of America","place_id":"68290625","datatype":"locationiq"},{"name":"DSW Shoe Warehouse","code":null,"latitude":38.6291488,"longitude":-90.3403769,"address":"8502 Eager Road, Brentwood MO","chain_name":null,"distance":0,"street_number":"8544","street_name":"Eager Road","zip":"63144","city":"Richmond Heights","area":null,"county":"St. Louis County","state":"Missouri","country":"us","formatted_address":"8544, Eager Road, Richmond Heights, St. Louis County, Missouri, 63144, United States of America","place_id":"194044032","datatype":"locationiq"},{"name":"DSW Shoe Warehouse","code":null,"latitude":33.6887701,"longitude":-117.8960618,"address":"901-B South Coast Drive, Costa Mesa CA","chain_name":null,"distance":0,"street_number":null,"street_name":"San Diego Freeway","zip":"92626","city":"Costa Mesa","area":null,"county":"Orange County","state":"California","country":"us","formatted_address":"Edwards, San Diego Freeway, Costa Mesa, Orange County, California, 92626, United States of America","place_id":"4591283","datatype":"locationiq"},{"name":"DSW Shoe Warehouse","code":null,"latitude":42.7574976,"longitude":-71.2116188,"address":"290 South Broadway, Salem NH","chain_name":null,"distance":0,"street_number":"14","street_name":"Kelly Road","zip":"03079","city":null,"area":null,"county":"Rockingham County","state":"New Hampshire","country":"us","formatted_address":"Ashley HomeStore, 14, Kelly Road, Salem, Rockingham County, New Hampshire, 03079, United States of America","place_id":"61132020","datatype":"locationiq"},{"name":"DSW Shoe Warehouse","code":null,"latitude":26.093888,"longitude":-80.2511683,"address":"2112 South University Drive, Davie FL","chain_name":null,"distance":0,"street_number":"2146","street_name":"South University Drive","zip":"33324","city":null,"area":null,"county":"Broward County","state":"Florida","country":"us","formatted_address":"2146, South University Drive, Davie, Broward County, Florida, 33324, United States of America","place_id":"181717695","datatype":"locationiq"},{"name":"DSW Shoe Warehouse","code":null,"latitude":36.306178,"longitude":-86.6929959,"address":"2130 Gallatin Pike Road, Madison TN","chain_name":null,"distance":0,"street_number":"723","street_name":"Conference Drive","zip":"37072","city":"Nashville-Davidson","area":null,"county":"Davidson County","state":"Tennessee","country":"us","formatted_address":"723, Conference Drive, Nashville-Davidson, Davidson County, Tennessee, 37072, United States of America","place_id":"203587417","datatype":"locationiq"},{"name":"DSW Shoe Warehouse","code":null,"latitude":34.7807213,"longitude":-92.466627,"address":"17721 Chenal Pkwy, Little Rock AR","chain_name":null,"distance":0,"street_number":"67","street_name":"Quercus Circle","zip":"72223","city":"Little Rock","area":"Lamarche","county":"Pulaski County","state":"Arkansas","country":"us","formatted_address":"67 Quercus Circle, 67, Quercus Circle, Lamarche, Little Rock, Pulaski County, Arkansas, 72223, United States of America","place_id":"22017744","datatype":"locationiq"},{"name":"DSW Shoe Warehouse","code":null,"latitude":40.234514,"longitude":-75.1371593,"address":"761 Easton Road, Warrington PA","chain_name":null,"distance":0,"street_number":"701","street_name":"Easton Road","zip":"18976","city":"Warrington Township","area":null,"county":"Bucks County","state":"Pennsylvania","country":"us","formatted_address":"701, Easton Road, Warrington Township, Bucks County, Pennsylvania, 18976, United States of America","place_id":"201413866","datatype":"locationiq"},{"name":"DSW Shoe Warehouse","code":null,"latitude":36.0606861,"longitude":-95.8815977,"address":"8506 East 71st Street South, Tulsa OK","chain_name":null,"distance":0,"street_number":null,"street_name":"East 71st Street South","zip":"74133","city":"Tulsa","area":"Burning Tree","county":"Tulsa County","state":"Oklahoma","country":"us","formatted_address":"East 71st Street South, Burning Tree, Tulsa, Tulsa County, Oklahoma, 74133, United States of America","place_id":"171410787","datatype":"locationiq"},{"name":"DSW Shoe Warehouse","code":null,"latitude":42.5294091,"longitude":-83.360314,"address":"7290 Orchard Lake Road, West Bloomfield MI","chain_name":null,"distance":0,"street_number":null,"street_name":"Orchard Lake Road","zip":"48334","city":null,"area":null,"county":"Oakland County","state":"Michigan","country":"us","formatted_address":"Orchard Lake Road, West Bloomfield Township, Oakland County, Michigan, 48334, United States of America","place_id":"153147596","datatype":"locationiq"},{"name":"DSW Shoe Warehouse","code":null,"latitude":39.4646406,"longitude":-119.7833874,"address":"6659 South Virginia Street, Reno NV","chain_name":null,"distance":0,"street_number":null,"street_name":"South Virginia Street","zip":"89502","city":"Reno","area":null,"county":"Washoe County","state":"Nevada","country":"us","formatted_address":"Kimmie's, South Virginia Street, Reno, Washoe County, Nevada, 89502, United States of America","place_id":"154717485","datatype":"locationiq"},{"name":"DSW Shoe Warehouse","code":null,"latitude":44.2683985,"longitude":-88.4760226,"address":"670 North Casaloma Drive, Appleton WI","chain_name":null,"distance":0,"street_number":"646","street_name":"North Casaloma Drive","zip":"54913","city":null,"area":null,"county":"Outagamie County","state":"Wisconsin","country":"us","formatted_address":"646, North Casaloma Drive, Fox River Mall, Grand Chute, Town of Grand Chute, Outagamie County, Wisconsin, 54913, United States of America","place_id":"209591701","datatype":"locationiq"},{"name":"DSW Shoe Warehouse","code":null,"latitude":41.7474323,"longitude":-88.1972648,"address":"2515 West 75th Street, Naperville IL","chain_name":null,"distance":0,"street_number":null,"street_name":"75th Street","zip":"60504","city":"Naperville","area":null,"county":"DuPage County","state":"Illinois","country":"us","formatted_address":"75th Street, Naperville, DuPage County, Illinois, 60504, United States of America","place_id":"114202991","datatype":"locationiq"},{"name":"DSW Shoe Warehouse","code":null,"latitude":33.7496733,"longitude":-118.0138294,"address":"1044 Westminster Mall, Westminster CA","chain_name":null,"distance":0,"street_number":null,"street_name":"West Drive","zip":"92684","city":"Westminster","area":null,"county":"Orange County","state":"California","country":"us","formatted_address":"West Drive, Westminster Mall, Little Saigon, Westminster, Orange County, California, 92684, United States of America","place_id":"67852377","datatype":"locationiq"},{"name":"DSW Shoe Warehouse","code":null,"latitude":33.6563396,"longitude":-84.5097746,"address":"3755 Carmia Drive, Atlanta GA","chain_name":null,"distance":0,"street_number":null,"street_name":"Camp Creek Parkway","zip":"30272","city":"East Point","area":"Red Wing Cove","county":"Fulton County","state":"Georgia","country":"us","formatted_address":"Jason's Deli, Camp Creek Parkway, Red Wing Cove, East Point, Fulton County, Georgia, 30272, United States of America","place_id":"135347480","datatype":"locationiq"},{"name":"DSW Shoe Warehouse","code":null,"latitude":42.9154521,"longitude":-85.5810928,"address":"3665 28th Street Southeast, Grand Rapids MI","chain_name":null,"distance":0,"street_number":null,"street_name":"East Mall Drive Southeast","zip":"49546","city":"Kentwood","area":null,"county":"Kent County","state":"Michigan","country":"us","formatted_address":"East Mall Drive Southeast, Kentwood, Kent County, Michigan, 49546, United States of America","place_id":"70046992","datatype":"locationiq"},{"name":"DSW Shoe Warehouse","code":null,"latitude":42.5066058,"longitude":-83.752482,"address":"9570 Village Place Boulevard, Brighton MI","chain_name":null,"distance":0,"street_number":"9480","street_name":"Green Oak Avenue","zip":"48116","city":null,"area":null,"county":"Livingston County","state":"Michigan","country":"us","formatted_address":"9480, Green Oak Avenue, Green Oak Township, Livingston County, Michigan, 48116, United States of America","place_id":"191128308","datatype":"locationiq"},{"name":"DSW Shoe Warehouse","code":null,"latitude":33.0204669,"longitude":-96.714701,"address":"801 West 15th Street, Plano TX","chain_name":null,"distance":0,"street_number":"726","street_name":"West 16th Street","zip":"75075","city":"Plano","area":null,"county":"Collin County","state":"Texas","country":"us","formatted_address":"726, West 16th Street, Plano, Collin County, Texas, 75075, United States of America","place_id":"204738734","datatype":"locationiq"},{"name":"DSW Shoe Warehouse","code":null,"latitude":42.350489,"longitude":-71.6190937,"address":"747 Donald J. Lynch Boulevard, Marlborough MA","chain_name":null,"distance":0,"street_number":"601","street_name":"Donald J. Lynch Boulevard","zip":"01752","city":null,"area":null,"county":"Middlesex County","state":"Massachusetts","country":"us","formatted_address":"601, Donald J. Lynch Boulevard, Marlborough, Middlesex County, Massachusetts, 01752, United States of America","place_id":"190390915","datatype":"locationiq"},{"name":"DSW Shoe Warehouse","code":null,"latitude":33.2976649,"longitude":-111.8985367,"address":"3411 West Frye Road, Chandler AZ","chain_name":null,"distance":0,"street_number":null,"street_name":"West Frye Road","zip":"85226","city":"Chandler","area":null,"county":"Maricopa County","state":"Arizona","country":"us","formatted_address":"Famous Dave's BBQ, West Frye Road, Chandler Fashion Center, Chandler, Maricopa County, Arizona, 85226, United States of America","place_id":"20056995","datatype":"locationiq"},{"name":"DSW Shoe Warehouse","code":null,"latitude":39.6853537,"longitude":-104.938027,"address":"4100 East Mexico Avenue, Denver CO","chain_name":null,"distance":0,"street_number":"4100","street_name":"East Mexico Avenue","zip":"80222","city":"Denver","area":null,"county":"Denver County","state":"Colorado","country":"us","formatted_address":"Best Buy, 4100, East Mexico Avenue, Denver, Denver County, Colorado, 80222, United States of America","place_id":"147346745","datatype":"locationiq"},{"name":"DSW Shoe Warehouse","code":null,"latitude":42.0662452,"longitude":-80.111602,"address":"2088 Interchange Road, Erie PA","chain_name":null,"distance":0,"street_number":null,"street_name":"Interchange Road","zip":"16509","city":"Millcreek Township","area":null,"county":"Erie County","state":"Pennsylvania","country":"us","formatted_address":"Interchange Road, Millcreek Township, Erie County, Pennsylvania, 16509, United States of America","place_id":"137105560","datatype":"locationiq"},{"name":"DSW Shoe Warehouse","code":null,"latitude":40.8911831,"longitude":-74.250498,"address":"95 Route 23 South, Wayne NJ","chain_name":null,"distance":0,"street_number":null,"street_name":"North Leg","zip":"07470","city":"Wayne","area":null,"county":"Passaic County","state":"New Jersey","country":"us","formatted_address":"Costco Gas, North Leg, Wayne Towne Center, Wayne, Passaic County, New Jersey, 07470, United States of America","place_id":"173128321","datatype":"locationiq"},{"name":"DSW Shoe Warehouse","code":null,"latitude":40.5545609,"longitude":-74.3140364,"address":"25 Ronson Road, Iselin NJ","chain_name":null,"distance":0,"street_number":null,"street_name":"US 1","zip":"08830","city":"Woodbridge Township","area":null,"county":"Middlesex County","state":"New Jersey","country":"us","formatted_address":"US 1, Woodbridge Township, Middlesex County, New Jersey, 08830, United States of America","place_id":"84503506","datatype":"locationiq"},{"name":"DSW Shoe Warehouse","code":null,"latitude":35.0410292,"longitude":-85.1545366,"address":"2220 Hamilton Place Boulevard, Chattanooga TN","chain_name":null,"distance":0,"street_number":"2202","street_name":"Hamilton Place Boulevard","zip":"37421","city":"Chattanooga","area":null,"county":"Hamilton County","state":"Tennessee","country":"us","formatted_address":"2202, Hamilton Place Boulevard, Chattanooga, Hamilton County, Tennessee, 37421, United States of America","place_id":"203742438","datatype":"locationiq"},{"name":"DSW Shoe Warehouse","code":null,"latitude":39.03727,"longitude":-77.053986,"address":"11160 Veirs Mill Road, Wheaton MD","chain_name":null,"distance":0,"street_number":null,"street_name":"Veirs Mill Road","zip":"20902","city":null,"area":"College View","county":"Montgomery County","state":"Maryland","country":"us","formatted_address":"Veirs Mill Road, College View, North Kensington, Montgomery County, Maryland, 20902, United States of America","place_id":"98782936","datatype":"locationiq"},{"name":"DSW Shoe Warehouse","code":null,"latitude":47.7017181,"longitude":-117.411364,"address":"4727 North Division Street, Spokane WA","chain_name":null,"distance":0,"street_number":null,"street_name":"North Division Street","zip":"99208-1213","city":"Spokane","area":null,"county":"Spokane County","state":"Washington","country":"us","formatted_address":"Sport Clips Haircuts, North Division Street, Spokane, Spokane County, Washington, 99208-1213, United States of America","place_id":"57117753","datatype":"locationiq"},{"name":"DSW Shoe Warehouse","code":null,"latitude":37.785889,"longitude":-122.4079915,"address":"111 Powell Street, San Francisco CA","chain_name":null,"distance":0,"street_number":"111","street_name":"Powell Street","zip":"94104","city":"San Francisco","area":"Union Square","county":"San Francisco City and County","state":"California","country":"us","formatted_address":"Uniqlo, 111, Powell Street, Union Square, San Francisco, San Francisco City and County, California, 94104, United States of America","place_id":"21759767","datatype":"locationiq"},{"name":"DSW Shoe Warehouse","code":null,"latitude":41.9540673,"longitude":-70.7173761,"address":"180 Colony Place Road, Plymouth MA","chain_name":null,"distance":0,"street_number":null,"street_name":"Colony Place","zip":"02364","city":null,"area":null,"county":"Plymouth County","state":"Massachusetts","country":"us","formatted_address":"Colony Place, Plymouth, Plymouth County, Massachusetts, 02364, United States of America","place_id":"87233482","datatype":"locationiq"},{"name":"DSW Shoe Warehouse","code":null,"latitude":44.4860854,"longitude":-88.0633012,"address":"800 Willard Drive, Ashwaubenon WI","chain_name":null,"distance":0,"street_number":"820","street_name":"Willard Drive","zip":"54304","city":null,"area":null,"county":"Brown County","state":"Wisconsin","country":"us","formatted_address":"820, Willard Drive, Bay Park Square Mall, Ashwaubenon, Brown County, Wisconsin, 54304, United States of America","place_id":"209240496","datatype":"locationiq"},{"name":"DSW Shoe Warehouse","code":null,"latitude":42.2962805,"longitude":-85.649694,"address":"5110 West Main Street, Kalamazoo MI","chain_name":null,"distance":0,"street_number":"5020","street_name":"West Main Street","zip":"49009","city":null,"area":null,"county":"Kalamazoo County","state":"Michigan","country":"us","formatted_address":"Walgreens, 5020, West Main Street, Westwood, Kalamazoo County, Michigan, 49009, United States of America","place_id":"130913312","datatype":"locationiq"},{"name":"DSW Shoe Warehouse","code":null,"latitude":41.4715614,"longitude":-87.3190467,"address":"2114 East 80th Avenue, Merrillville IN","chain_name":null,"distance":0,"street_number":null,"street_name":"East 81st Avenue","zip":"46410-5468","city":null,"area":"Chapel Manor","county":"Lake County","state":"Indiana","country":"us","formatted_address":"East 81st Avenue, Chapel Manor, Merrillville, Lake County, Indiana, 46410-5468, United States of America","place_id":"104148078","datatype":"locationiq"},{"name":"DSW Shoe Warehouse","code":null,"latitude":40.335695,"longitude":-79.946916,"address":"451 Clairton Boulevard, Pittsburgh PA","chain_name":null,"distance":0,"street_number":null,"street_name":"Mall Drive","zip":"15236","city":"West Mifflin","area":null,"county":"Allegheny County","state":"Pennsylvania","country":"us","formatted_address":"PNC Bank, Mall Drive, West Mifflin, Allegheny County, Pennsylvania, 15236, United States of America","place_id":"171315320","datatype":"locationiq"},{"name":"DSW Shoe Warehouse","code":null,"latitude":43.6400895,"longitude":-70.3328526,"address":"198 Maine Mall Road, South Portland ME","chain_name":null,"distance":0,"street_number":"198","street_name":"Maine Mall Road","zip":"04106","city":"South Portland","area":null,"county":"Cumberland County","state":"Maine","country":"us","formatted_address":"Mallside Plaza, 198, Maine Mall Road, South Portland, Cumberland County, Maine, 04106, United States of America","place_id":"158502214","datatype":"locationiq"},{"name":"DSW Shoe Warehouse","code":null,"latitude":45.091855,"longitude":-93.4261328,"address":"11531 Fountains Drive North, Maple Grove MN","chain_name":null,"distance":0,"street_number":"11215","street_name":"Fountains Drive North","zip":"55369","city":"Maple Grove","area":null,"county":"Hennepin County","state":"Minnesota","country":"us","formatted_address":"11215, Fountains Drive North, Maple Grove, Hennepin County, Minnesota, 55369, United States of America","place_id":"192057487","datatype":"locationiq"},{"name":"DSW Shoe Warehouse","code":null,"latitude":35.1075425,"longitude":-80.8812949,"address":"9535 South Boulevard, Charlotte NC","chain_name":null,"distance":0,"street_number":null,"street_name":"Carolina Pavillion Drive","zip":"28134","city":"Charlotte","area":null,"county":"Mecklenburg County","state":"North Carolina","country":"us","formatted_address":"Carolina Pavillion Drive, Charlotte, Mecklenburg County, North Carolina, 28134, United States of America","place_id":"142706794","datatype":"locationiq"},{"name":"DSW Shoe Warehouse","code":null,"latitude":38.9014495,"longitude":-76.847377,"address":"920 Shoppers Way, Largo MD","chain_name":null,"distance":0,"street_number":null,"street_name":"Arena Drive","zip":"20785","city":null,"area":null,"county":"Prince George's County","state":"Maryland","country":"us","formatted_address":"Arena Drive, Boulevard at the Capital Centre, Lake Arbor, Prince George's County, Maryland, 20785, United States of America","place_id":"82100988","datatype":"locationiq"},{"name":"DSW Shoe Warehouse","code":null,"latitude":39.293178,"longitude":-76.510337,"address":"7801 Eastern Avenue, Baltimore MD","chain_name":null,"distance":0,"street_number":null,"street_name":"Eastpoint Mall","zip":"21224","city":null,"area":null,"county":"Baltimore County","state":"Maryland","country":"us","formatted_address":"Eastpoint Mall, Dundalk, Baltimore County, Maryland, 21224, United States of America","place_id":"84374471","datatype":"locationiq"},{"name":"DSW Shoe Warehouse","code":null,"latitude":34.0054606,"longitude":-84.5754992,"address":"840 Ernest Barrett Parkway, Kennesaw GA","chain_name":null,"distance":0,"street_number":"812","street_name":"Ernest W. Barrett Parkway Northwest","zip":"30144","city":"Kennesaw","area":null,"county":"Cobb County","state":"Georgia","country":"us","formatted_address":"812, Ernest W. Barrett Parkway Northwest, Kennesaw, Cobb County, Georgia, 30144, United States of America","place_id":"183524586","datatype":"locationiq"},{"name":"DSW Shoe Warehouse","code":null,"latitude":45.5360649,"longitude":-122.8675288,"address":"2453 Northwest 185th Avenue, Hillsboro OR","chain_name":null,"distance":0,"street_number":"2185","street_name":"Northwest 185th Avenue","zip":"97124","city":"Hillsboro","area":null,"county":"Washington County","state":"Oregon","country":"us","formatted_address":"Shari's, 2185, Northwest 185th Avenue, Tanasbourne, Hillsboro, Washington County, Oregon, 97124, United States of America","place_id":"82550359","datatype":"locationiq"},{"name":"DSW Shoe Warehouse","code":null,"latitude":41.4594734,"longitude":-81.9521632,"address":"291 Crocker Park Boulevard, Westlake OH","chain_name":null,"distance":0,"street_number":"57","street_name":"Main Street","zip":"44145","city":null,"area":null,"county":"Cuyahoga County","state":"Ohio","country":"us","formatted_address":"57, Main Street, Crocker Park, Westlake, Cuyahoga County, Ohio, 44145, United States of America","place_id":"199035552","datatype":"locationiq"},{"name":"DSW Shoe Warehouse","code":null,"latitude":38.9332114,"longitude":-94.4008457,"address":"840 Northwest Blue Parkway, Lee's Summit MO","chain_name":null,"distance":0,"street_number":"961","street_name":"Northwest Blue Parkway","zip":"64086","city":"Lee's Summit","area":null,"county":"Jackson County","state":"Missouri","country":"us","formatted_address":"961, Northwest Blue Parkway, Lee's Summit, Jackson County, Missouri, 64086, United States of America","place_id":"193590593","datatype":"locationiq"},{"name":"DSW Shoe Warehouse","code":null,"latitude":47.4500315,"longitude":-122.2613525,"address":"17100 Southcenter Parkway, Tukwila WA","chain_name":null,"distance":0,"street_number":"17250","street_name":"Southcenter Parkway","zip":"98188","city":"Tukwila","area":null,"county":"King County","state":"Washington","country":"us","formatted_address":"North Building, 17250, Southcenter Parkway, Southcenter Square, Tukwila, King County, Washington, 98188, United States of America","place_id":"136142556","datatype":"locationiq"},{"name":"DSW Shoe Warehouse","code":null,"latitude":41.0125894,"longitude":-73.6830521,"address":"24 Waterfront Place, Port Chester NY","chain_name":null,"distance":0,"street_number":"23","street_name":"Hidden Pond Drive","zip":"10573","city":null,"area":null,"county":"Westchester County","state":"New York","country":"us","formatted_address":"23, Hidden Pond Drive, Rye Brook, Town of Rye, Westchester County, New York, 10573, United States of America","place_id":"42401365","datatype":"locationiq"},{"name":"DSW Shoe Warehouse","code":null,"latitude":37.7027935,"longitude":-121.933459,"address":"7896 Dublin Boulevard, Dublin CA","chain_name":null,"distance":0,"street_number":"6921","street_name":"Regional Street","zip":"94568","city":"Dublin","area":null,"county":"Alameda County","state":"California","country":"us","formatted_address":"Burger King, 6921, Regional Street, Dublin, Alameda County, California, 94568, United States of America","place_id":"124878493","datatype":"locationiq"},{"name":"DSW Shoe Warehouse","code":null,"latitude":33.8500898,"longitude":-84.3719833,"address":"1 Buckhead Loop Northeast, Atlanta GA","chain_name":null,"distance":0,"street_number":null,"street_name":"Tower Place Drive","zip":"30326","city":"Atlanta","area":null,"county":"Fulton County","state":"Georgia","country":"us","formatted_address":"Atlanta Tech Village, Tower Place Drive, Buckhead, Atlanta, Fulton County, Georgia, 30326, United States of America","place_id":"132291829","datatype":"locationiq"},{"name":"DSW Shoe Warehouse","code":null,"latitude":40.1031546,"longitude":-75.2908462,"address":"2320 Chemical Road, Plymouth Meeting PA","chain_name":null,"distance":0,"street_number":"2150","street_name":"Chemical Road","zip":"19462","city":"Plymouth Township","area":"Cold Point Village","county":"Montgomery County","state":"Pennsylvania","country":"us","formatted_address":"2150, Chemical Road, Cold Point Village, Plymouth Township, Montgomery County, Pennsylvania, 19462, United States of America","place_id":"202146735","datatype":"locationiq"},{"name":"DSW Shoe Warehouse","code":null,"latitude":40.2918541,"longitude":-74.6860944,"address":"3371 Brunswick Pike, Lawrenceville NJ","chain_name":null,"distance":0,"street_number":"3271","street_name":"Brunswick Pike","zip":"08648","city":"Lawrence Township","area":null,"county":"Mercer County","state":"New Jersey","country":"us","formatted_address":"3271, Brunswick Pike, Lawrence Township, Mercer County, New Jersey, 08648, United States of America","place_id":"55225447","datatype":"locationiq"},{"name":"DSW Shoe Warehouse","code":null,"latitude":42.7515678,"longitude":-84.5480511,"address":"2800 Town Center Boulevard, Lansing MI","chain_name":null,"distance":0,"street_number":null,"street_name":"I 96 Business","zip":"48906","city":"Lansing","area":"Old Town","county":"Ingham County","state":"Michigan","country":"us","formatted_address":"I 96 Business, Old Town, Lansing, Ingham County, Michigan, 48906, United States of America","place_id":"152493205","datatype":"locationiq"},{"name":"DSW Shoe Warehouse","code":null,"latitude":41.6139448,"longitude":-87.8521459,"address":"202 Orland Park Place, Orland Park IL","chain_name":null,"distance":0,"street_number":"142","street_name":"Orland Park Place","zip":"60462","city":null,"area":null,"county":"Cook County","state":"Illinois","country":"us","formatted_address":"142, Orland Park Place, Orland Park, Cook County, Illinois, 60462, United States of America","place_id":"184920345","datatype":"locationiq"},{"name":"DSW Shoe Warehouse","code":null,"latitude":40.089941,"longitude":-75.384336,"address":"640 West Dekalb Pike, King of Prussia PA","chain_name":null,"distance":0,"street_number":null,"street_name":"Wills Road","zip":"19406","city":"Upper Merion Township","area":null,"county":"Montgomery County","state":"Pennsylvania","country":"us","formatted_address":"DSW Shoes, Wills Road, Upper Merion Township, Montgomery County, Pennsylvania, 19406, United States of America","place_id":"12585556","datatype":"locationiq"},{"name":"DSW Shoe Warehouse","code":null,"latitude":42.1649316,"longitude":-88.0593814,"address":"20771 North Rand Road, Kildeer IL","chain_name":null,"distance":0,"street_number":null,"street_name":"Rand Road","zip":"60047","city":null,"area":null,"county":"Lake County","state":"Illinois","country":"us","formatted_address":"Rand Road, Deer Park, Lake County, Illinois, 60047, United States of America","place_id":"123817689","datatype":"locationiq"},{"name":"DSW Shoe Warehouse","code":null,"latitude":40.0512828,"longitude":-82.9207878,"address":"3710 Easton Market, Columbus OH","chain_name":null,"distance":0,"street_number":"3635","street_name":"Easton Market","zip":"43219","city":"Columbus","area":null,"county":"Franklin County","state":"Ohio","country":"us","formatted_address":"3635, Easton Market, Easton Town Center, Columbus, Franklin County, Ohio, 43219, United States of America","place_id":"199127560","datatype":"locationiq"},{"name":"DSW Shoe Warehouse","code":null,"latitude":40.5250253,"longitude":-105.0266145,"address":"4431 Corbett Drive, Fort Collins CO","chain_name":null,"distance":0,"street_number":null,"street_name":"Council Tree Avenue","zip":"80528-9599","city":"Fort Collins","area":null,"county":"Larimer County","state":"Colorado","country":"us","formatted_address":"Front Range Village, Council Tree Avenue, Front Range Village, Fort Collins, Larimer County, Colorado, 80528-9599, United States of America","place_id":"149693991","datatype":"locationiq"},{"name":"DSW Shoe Warehouse","code":null,"latitude":29.6550659,"longitude":-98.4491801,"address":"23006 North US Highway 281, San Antonio TX","chain_name":null,"distance":0,"street_number":"23342","street_name":"US Highway 281","zip":"78259","city":"San Antonio","area":null,"county":"Bexar County","state":"Texas","country":"us","formatted_address":"23342, US Highway 281, San Antonio, Bexar County, Texas, 78259, United States of America","place_id":"204479934","datatype":"locationiq"},{"name":"DSW Shoe Warehouse","code":null,"latitude":41.807154,"longitude":-72.536013,"address":"110B Slater Street, Manchester CT","chain_name":null,"distance":0,"street_number":null,"street_name":"Wilbur Cross Highway","zip":"06042","city":null,"area":null,"county":"Hartford County","state":"Connecticut","country":"us","formatted_address":"Wilbur Cross Highway, Buckland, Hartford County, Connecticut, 06042, United States of America","place_id":"87692036","datatype":"locationiq"},{"name":"DSW Shoe Warehouse","code":null,"latitude":32.766947,"longitude":-115.5316004,"address":"572 East Danenberg Drive, El Centro CA","chain_name":null,"distance":0,"street_number":null,"street_name":"East Chick Road","zip":"92243","city":"El Centro","area":null,"county":"Imperial County","state":"California","country":"us","formatted_address":"East Chick Road, El Centro, Imperial County, California, 92243, United States of America","place_id":"101626336","datatype":"locationiq"},{"name":"DSW Shoe Warehouse","code":null,"latitude":32.9547612,"longitude":-96.6178356,"address":"601 Town Center Boulevard, Garland TX","chain_name":null,"distance":0,"street_number":null,"street_name":"TX 78","zip":"75040","city":"Garland","area":null,"county":"Dallas County","state":"Texas","country":"us","formatted_address":"In-N-Out Burger, TX 78, Garland, Dallas County, Texas, 75040, United States of America","place_id":"173087478","datatype":"locationiq"},{"name":"DSW Shoe Warehouse","code":null,"latitude":41.7202448,"longitude":-88.0444835,"address":"635 East Boughton Road, Bolingbrook IL","chain_name":null,"distance":0,"street_number":null,"street_name":"West Boughton Road","zip":"60440-1412","city":null,"area":null,"county":"Will County","state":"Illinois","country":"us","formatted_address":"West Boughton Road, Bolingbrook, Will County, Illinois, 60440-1412, United States of America","place_id":"84832165","datatype":"locationiq"},{"name":"DSW Shoe Warehouse","code":null,"latitude":37.69948,"longitude":-122.4671481,"address":"306 Westlake Village, Daly City CA","chain_name":null,"distance":0,"street_number":"304","street_name":"Westlake Avenue","zip":"94014","city":"Daly City","area":"Westlake","county":"San Mateo County","state":"California","country":"us","formatted_address":"304, Westlake Avenue, Westlake, Daly City, San Mateo County, California, 94014, United States of America","place_id":"180074256","datatype":"locationiq"},{"name":"DSW Shoe Warehouse","code":null,"latitude":41.454528,"longitude":-74.370071,"address":"1 Galleria Drive, Middletown NY","chain_name":null,"distance":0,"street_number":null,"street_name":"Galleria Drive","zip":"10941","city":null,"area":null,"county":"Orange County","state":"New York","country":"us","formatted_address":"Galleria Drive, Midway Park, Town of Wallkill, Orange County, New York, 10941, United States of America","place_id":"71745573","datatype":"locationiq"},{"name":"DSW Shoe Warehouse","code":null,"latitude":39.8690284,"longitude":-105.0530432,"address":"9380 Sheridan Boulevard, Westminster CO","chain_name":null,"distance":0,"street_number":"9210","street_name":"Sheridan Boulevard","zip":"80031","city":null,"area":null,"county":"Jefferson County","state":"Colorado","country":"us","formatted_address":"9210, Sheridan Boulevard, Westminster, Jefferson County, Colorado, 80031, United States of America","place_id":"180584425","datatype":"locationiq"},{"name":"DSW Shoe Warehouse","code":null,"latitude":39.006281,"longitude":-77.437576,"address":"22000 Dulles Retail Plaza, Dulles VA","chain_name":null,"distance":0,"street_number":null,"street_name":"Dulles Retail Plaza","zip":"20166","city":null,"area":null,"county":"Loudoun County","state":"Virginia","country":"us","formatted_address":"California Tortilla, Dulles Retail Plaza, Ashburn, Loudoun County, Virginia, 20166, United States of America","place_id":"37303987","datatype":"locationiq"},{"name":"DSW Shoe Warehouse","code":null,"latitude":41.6237973,"longitude":-73.9176787,"address":"2001 South Road, Poughkeepsie NY","chain_name":null,"distance":0,"street_number":"1935","street_name":"South Road","zip":"12601","city":null,"area":null,"county":"Dutchess County","state":"New York","country":"us","formatted_address":"1935, South Road, Knapps Corner, Town of Poughkeepsie, Dutchess County, New York, 12601, United States of America","place_id":"196253805","datatype":"locationiq"},{"name":"DSW Shoe Warehouse","code":null,"latitude":37.322635,"longitude":-121.960579,"address":"3530 Steven's Creek Boulevard, San Jose CA","chain_name":null,"distance":0,"street_number":"3530","street_name":"Stevens Creek Boulevard","zip":"95117","city":"Santa Clara","area":null,"county":"Santa Clara County","state":"California","country":"us","formatted_address":"DSW, 3530, Stevens Creek Boulevard, Santa Clara, Santa Clara County, California, 95117, United States of America","place_id":"91610205","datatype":"locationiq"},{"name":"DSW Shoe Warehouse","code":null,"latitude":42.7087694,"longitude":-83.307296,"address":"4910 South Baldwin Road, Orion MI","chain_name":null,"distance":0,"street_number":"4959","street_name":"Baldwin Road","zip":"48359","city":null,"area":null,"county":"Oakland County","state":"Michigan","country":"us","formatted_address":"4959, Baldwin Road, Orion Township, Oakland County, Michigan, 48359, United States of America","place_id":"191338997","datatype":"locationiq"},{"name":"DSW Shoe Warehouse","code":null,"latitude":42.233604,"longitude":-87.940979,"address":"413 North Milwaukee Avenue, Vernon Hills IL","chain_name":null,"distance":0,"street_number":null,"street_name":"Milwaukee Avenue","zip":"60061","city":null,"area":null,"county":"Lake County","state":"Illinois","country":"us","formatted_address":"Milwaukee Avenue, Vernon Hills, Lake County, Illinois, 60061, United States of America","place_id":"155225915","datatype":"locationiq"},{"name":"DSW Shoe Warehouse","code":null,"latitude":40.0721944,"longitude":-75.1548263,"address":"2385 West Cheltenham Avenue, Philadelphia PA","chain_name":null,"distance":0,"street_number":"2421","street_name":"West Cheltenham Avenue","zip":"19150","city":"Philadelphia","area":"West Oak Lane","county":"Philadelphia County","state":"Pennsylvania","country":"us","formatted_address":"Chick-fil-A, 2421, West Cheltenham Avenue, West Oak Lane, Philadelphia, Philadelphia County, Pennsylvania, 19150, United States of America","place_id":"152470472","datatype":"locationiq"},{"name":"DSW Shoe Warehouse","code":null,"latitude":38.9960405,"longitude":-94.7236793,"address":"7345 Quivira Road, Shawnee KS","chain_name":null,"distance":0,"street_number":"7331","street_name":"Quivira Road","zip":"66216","city":"Shawnee","area":null,"county":"Johnson County","state":"Kansas","country":"us","formatted_address":"7331, Quivira Road, Shawnee, Johnson County, Kansas, 66216, United States of America","place_id":"187922538","datatype":"locationiq"},{"name":"DSW Shoe Warehouse","code":null,"latitude":40.8610013,"longitude":-81.4324396,"address":"5508 Dressler Road, Canton OH","chain_name":null,"distance":0,"street_number":"5512","street_name":"Dressler Road Northwest","zip":"44720","city":null,"area":null,"county":"Stark County","state":"Ohio","country":"us","formatted_address":"5512, Dressler Road Northwest, Monterey Heights, Jackson Township, Stark County, Ohio, 44720, United States of America","place_id":"199882512","datatype":"locationiq"},{"name":"DSW Shoe Warehouse","code":null,"latitude":30.259737,"longitude":-81.5272739,"address":"4665 Town Crossing Drive, Jacksonville FL","chain_name":null,"distance":0,"street_number":null,"street_name":"Town Crossing Drive","zip":"32246","city":"Jacksonville","area":null,"county":"Duval County","state":"Florida","country":"us","formatted_address":"Men's Wearhouse, Town Crossing Drive, St. Johns Town Center, Jacksonville, Duval County, Florida, 32246, United States of America","place_id":"47787714","datatype":"locationiq"},{"name":"DSW Shoe Warehouse","code":null,"latitude":40.7453392,"longitude":-73.6032559,"address":"357 Old Country Road, Carle Place NY","chain_name":null,"distance":0,"street_number":"440","street_name":"Old Country Road","zip":"11514","city":null,"area":null,"county":"Nassau","state":"New York","country":"us","formatted_address":"Chateau Briand Caterers, 440, Old Country Road, Westbury Plaza, Carle Place, Nassau, New York, 11514, United States of America","place_id":"51627708","datatype":"locationiq"},{"name":"DSW Shoe Warehouse","code":null,"latitude":39.096329,"longitude":-84.277132,"address":"650 Eastgate South Drive, Cincinnati OH","chain_name":null,"distance":0,"street_number":"4398","street_name":"Eastgate Boulevard","zip":"45245","city":null,"area":null,"county":"Clermont County","state":"Ohio","country":"us","formatted_address":"4398, Eastgate Boulevard, KRG Plaza, Glen Ridge Acres, Union Township, Clermont County, Ohio, 45245, United States of America","place_id":"198920243","datatype":"locationiq"},{"name":"DSW Shoe Warehouse","code":null,"latitude":39.8950203,"longitude":-74.9287771,"address":"175 South Route 73, Marlton NJ","chain_name":null,"distance":0,"street_number":null,"street_name":"State Route 73","zip":"08053","city":"Evesham Township","area":null,"county":"Burlington County","state":"New Jersey","country":"us","formatted_address":"State Route 73, Evesham Township, Burlington County, New Jersey, 08053, United States of America","place_id":"84404299","datatype":"locationiq"},{"name":"DSW Shoe Warehouse","code":null,"latitude":39.9058959,"longitude":-86.0906346,"address":"4619 East 82nd Street, Castleton IN","chain_name":null,"distance":0,"street_number":"4741","street_name":"East 82nd Street","zip":"46250","city":null,"area":null,"county":"Marion County","state":"Indiana","country":"us","formatted_address":"4741, East 82nd Street, Allisonville, Marion County, Indiana, 46250, United States of America","place_id":"186567609","datatype":"locationiq"},{"name":"DSW Shoe Warehouse","code":null,"latitude":34.1907251,"longitude":-118.6233939,"address":"6621 Fallbrook Avenue, West Hills CA","chain_name":null,"distance":0,"street_number":null,"street_name":"Fallbrook Avenue","zip":"91367-1604","city":"Los Angeles","area":null,"county":"Los Angeles County","state":"California","country":"us","formatted_address":"Fallbrook Avenue, West Hills, Los Angeles, Los Angeles County, California, 91367-1604, United States of America","place_id":"157500953","datatype":"locationiq"},{"name":"DSW Shoe Warehouse","code":null,"latitude":42.3006992,"longitude":-71.3961732,"address":"1 Worcester Road, Framingham MA","chain_name":null,"distance":0,"street_number":"1","street_name":"Worcester Road","zip":"01701","city":null,"area":null,"county":"Middlesex County","state":"Massachusetts","country":"us","formatted_address":"Best Buy, 1, Worcester Road, Framingham, Middlesex County, Massachusetts, 01701, United States of America","place_id":"169439687","datatype":"locationiq"},{"name":"DSW Shoe Warehouse","code":null,"latitude":39.289562,"longitude":-84.3183678,"address":"8834 Governors Hill Drive, Cincinnati OH","chain_name":null,"distance":0,"street_number":null,"street_name":"Governors Hill Drive","zip":"45249","city":null,"area":null,"county":"Hamilton County","state":"Ohio","country":"us","formatted_address":"DSW Shoe Warehouse, Governors Hill Drive, Governor\u2019s Hill Office Park, Sixteen Mile Stand, Symmes Township, Hamilton County, Ohio, 45249, United States of America","place_id":"77210303","datatype":"locationiq"},{"name":"DSW Shoe Warehouse","code":null,"latitude":28.665109,"longitude":-81.3795958,"address":"375 East Altamonte Drive, Altamonte Springs FL","chain_name":null,"distance":0,"street_number":null,"street_name":"East Altamonte Drive","zip":"32701","city":null,"area":null,"county":"Seminole County","state":"Florida","country":"us","formatted_address":"East Altamonte Drive, Altamonte Springs, Seminole County, Florida, 32701, United States of America","place_id":"87181855","datatype":"locationiq"},{"name":"DSW Shoe Warehouse","code":null,"latitude":42.171156,"longitude":-72.6401677,"address":"50 Holyoke Street, Holyoke MA","chain_name":null,"distance":0,"street_number":"2","street_name":"Holyoke Street","zip":"01040","city":null,"area":null,"county":"Hampden County","state":"Massachusetts","country":"us","formatted_address":"2, Holyoke Street, Holyoke, Hampden County, Massachusetts, 01040, United States of America","place_id":"190271363","datatype":"locationiq"},{"name":"DSW Shoe Warehouse","code":null,"latitude":38.9087851,"longitude":-94.6724058,"address":"12160 Blue Valley Parkway, Overland Park KS","chain_name":null,"distance":0,"street_number":"12196","street_name":"Blue Valley Parkway","zip":"66213","city":"Overland Park","area":null,"county":"Johnson County","state":"Kansas","country":"us","formatted_address":"12196, Blue Valley Parkway, Overland Park, Johnson County, Kansas, 66213, United States of America","place_id":"187933486","datatype":"locationiq"},{"name":"DSW Shoe Warehouse","code":null,"latitude":42.9121964,"longitude":-78.7631592,"address":"One Walden Galleria, Buffalo NY","chain_name":null,"distance":0,"street_number":null,"street_name":"Galleria Drive","zip":"14225","city":null,"area":null,"county":"Erie County","state":"New York","country":"us","formatted_address":"Galleria Drive, Cheektowaga, Cheektowaga Town, Erie County, New York, 14225, United States of America","place_id":"123216589","datatype":"locationiq"},{"name":"DSW Shoe Warehouse","code":null,"latitude":27.008957,"longitude":-82.147863,"address":"1441 Tamiami Trail, Port Charlotte FL","chain_name":null,"distance":0,"street_number":null,"street_name":"Murdock Circle","zip":"33948","city":null,"area":null,"county":"Charlotte County","state":"Florida","country":"us","formatted_address":"Murdock Circle, Murdock, Charlotte County, Florida, 33948, United States of America","place_id":"65895602","datatype":"locationiq"},{"name":"DSW Shoe Warehouse","code":null,"latitude":39.395335,"longitude":-76.581113,"address":"1238 Putty Hill Avenue, Baltimore MD","chain_name":null,"distance":0,"street_number":"1238","street_name":"Putty Hill Avenue","zip":"21286","city":"Towson","area":"Fellowship Forest","county":"Baltimore County","state":"Maryland","country":"us","formatted_address":"1238, Putty Hill Avenue, Fellowship Forest, Towson, Baltimore County, Maryland, 21286, United States of America","place_id":"102997734","datatype":"locationiq"},{"name":"DSW Shoe Warehouse","code":null,"latitude":44.9462165,"longitude":-92.9213005,"address":"9200 Hudson Road, Woodbury MN","chain_name":null,"distance":0,"street_number":null,"street_name":"Woodbury Lakes Drive","zip":"55125","city":"Woodbury","area":null,"county":"Washington County","state":"Minnesota","country":"us","formatted_address":"Woodbury Lakes Drive, Woodbury, Washington County, Minnesota, 55125, United States of America","place_id":"78801653","datatype":"locationiq"},{"name":"DSW Shoe Warehouse","code":null,"latitude":32.8665329,"longitude":-117.231649,"address":"8657 Villa La Jolla Drive, La Jolla CA","chain_name":null,"distance":0,"street_number":"8677","street_name":"Villa La Jolla Drive","zip":"92037","city":"San Diego","area":"La Jolla Colony","county":"San Diego County","state":"California","country":"us","formatted_address":"8677, Villa La Jolla Drive, La Jolla Colony, University City, San Diego, San Diego County, California, 92037, United States of America","place_id":"5903604","datatype":"locationiq"},{"name":"DSW Shoe Warehouse","code":null,"latitude":33.8994864,"longitude":-84.004495,"address":"1250 Scenic Highway, Lawrenceville GA","chain_name":null,"distance":0,"street_number":"1419","street_name":"Webb Gin House Road","zip":"30045","city":null,"area":"Timbercrest","county":"Gwinnett County","state":"Georgia","country":"us","formatted_address":"1419, Webb Gin House Road, Timbercrest, Cotton Creek, Gwinnett County, Georgia, 30045, United States of America","place_id":"183854011","datatype":"locationiq"},{"name":"DSW Shoe Warehouse","code":null,"latitude":39.56533,"longitude":-104.883252,"address":"9188 Westview Road, Littleton CO","chain_name":null,"distance":0,"street_number":null,"street_name":"Parkland Road","zip":"80124","city":"Lone Tree","area":null,"county":"Douglas County","state":"Colorado","country":"us","formatted_address":"Chick-Fil-A, Parkland Road, Lone Tree, Douglas County, Lone Tree, Colorado, 80124, United States of America","place_id":"80942425","datatype":"locationiq"},{"name":"DSW Shoe Warehouse","code":null,"latitude":45.5360649,"longitude":-122.8675288,"address":"2453 NW 185th Ave, Hillsboro OR","chain_name":null,"distance":0,"street_number":"2185","street_name":"Northwest 185th Avenue","zip":"97124","city":"Hillsboro","area":null,"county":"Washington County","state":"Oregon","country":"us","formatted_address":"Shari's, 2185, Northwest 185th Avenue, Tanasbourne, Hillsboro, Washington County, Oregon, 97124, United States of America","place_id":"82550359","datatype":"locationiq"},{"name":"DSW Shoe Warehouse","code":null,"latitude":25.9523663,"longitude":-80.1465782,"address":"19135 Biscayne Boulevard, Aventura FL","chain_name":null,"distance":0,"street_number":null,"street_name":"Biscayne Boulevard","zip":"33180","city":null,"area":null,"county":"Miami-Dade County","state":"Florida","country":"us","formatted_address":"BISCAYNE BD@NE 191 ST, Biscayne Boulevard, Aventura, Miami-Dade County, Florida, 33180, United States of America","place_id":"12063349","datatype":"locationiq"},{"name":"DSW Shoe Warehouse","code":null,"latitude":42.4910918,"longitude":-83.4782291,"address":"43713 West Oaks Drive, Novi MI","chain_name":null,"distance":0,"street_number":"43709","street_name":"West Oaks Drive","zip":"48377","city":"Novi","area":null,"county":"Oakland County","state":"Michigan","country":"us","formatted_address":"43709, West Oaks Drive, West Oaks, Novi, Oakland County, Michigan, 48377, United States of America","place_id":"191346091","datatype":"locationiq"},{"name":"DSW Shoe Warehouse","code":null,"latitude":32.825499,"longitude":-97.204185,"address":"900 Northeast Loop 820, Hurst TX","chain_name":null,"distance":0,"street_number":"926","street_name":"Northeast Loop 820","zip":"76053","city":"Hurst","area":null,"county":"Tarrant County","state":"Texas","country":"us","formatted_address":"926, Northeast Loop 820, Hurst, Tarrant County, Texas, 76053, United States of America","place_id":"206277831","datatype":"locationiq"},{"name":"DSW Shoe Warehouse","code":null,"latitude":41.7030769,"longitude":-71.492452,"address":"1350 Bald Hill Road, Warwick RI","chain_name":null,"distance":0,"street_number":null,"street_name":"Bald Hill Road","zip":"02893","city":"Warwick","area":null,"county":"Kent County","state":"Rhode Island","country":"us","formatted_address":"Barnes & Nobles, Bald Hill Road, Warwick, Kent County, Rhode Island, 02893, United States of America","place_id":"101295438","datatype":"locationiq"},{"name":"DSW Shoe Warehouse","code":null,"latitude":32.4367886,"longitude":-93.7145915,"address":"7463 Youree Drive, Shreveport LA","chain_name":null,"distance":0,"street_number":"7487","street_name":"Youree Drive","zip":"71105","city":"Shreveport","area":null,"county":"Caddo Parish","state":"Louisiana","country":"us","formatted_address":"7487, Youree Drive, Shreveport, Caddo Parish, Louisiana, 71105, United States of America","place_id":"188897983","datatype":"locationiq"},{"name":"DSW Shoe Warehouse","code":null,"latitude":41.3626645,"longitude":-75.677672,"address":"5031 Shoppes Boulevard, Moosic PA","chain_name":null,"distance":0,"street_number":null,"street_name":"Glenmaura National Boulevard","zip":"18507","city":"Moosic","area":null,"county":"Lackawanna County","state":"Pennsylvania","country":"us","formatted_address":"Longhorn Steakhouse, Glenmaura National Boulevard, The Shoppes at Montage, Moosic, Lackawanna County, Pennsylvania, 18507, United States of America","place_id":"136966123","datatype":"locationiq"},{"name":"DSW Shoe Warehouse","code":null,"latitude":34.241742,"longitude":-118.559086,"address":"19500 Plummer Street, Northridge CA","chain_name":null,"distance":0,"street_number":"19500","street_name":"Plummer Street","zip":"91324","city":"Los Angeles","area":null,"county":"Los Angeles County","state":"California","country":"us","formatted_address":"DSW Designer Shoe Warehouse, 19500, Plummer Street, Northridge, Los Angeles, Los Angeles County, California, 91324, United States of America","place_id":"53103954","datatype":"locationiq"},{"name":"DSW Shoe Warehouse","code":null,"latitude":30.6329128,"longitude":-97.6957993,"address":"1015 West University Avenue, Georgetown TX","chain_name":null,"distance":0,"street_number":null,"street_name":"West University Avenue","zip":"78626","city":null,"area":null,"county":"Williamson County","state":"Texas","country":"us","formatted_address":"Chase, West University Avenue, Georgetown, Williamson County, Texas, 78626, United States of America","place_id":"140055563","datatype":"locationiq"},{"name":"DSW Shoe Warehouse","code":null,"latitude":39.9258582,"longitude":-75.0328667,"address":"907 Haddonfield Road, Cherry Hill NJ","chain_name":null,"distance":0,"street_number":"906","street_name":"Haddonfield Road","zip":"08002","city":"Cherry Hill Township","area":null,"county":"Camden County","state":"New Jersey","country":"us","formatted_address":"906, Haddonfield Road, Garden State Park \u2014 Plaza Grande, Cherry Hill Township, Camden County, New Jersey, 08002, United States of America","place_id":"195341459","datatype":"locationiq"},{"name":"DSW Shoe Warehouse","code":null,"latitude":26.40846,"longitude":-81.810725,"address":"8050 Mediterranian Drive, Estero FL","chain_name":null,"distance":0,"street_number":"7996","street_name":"Mediterranean Drive","zip":"33928","city":null,"area":null,"county":"Lee County","state":"Florida","country":"us","formatted_address":"CNL Bank, 7996, Mediterranean Drive, Coconut Point, Rapallo at Coconut Point, Lee County, Florida, 33928, United States of America","place_id":"110144952","datatype":"locationiq"},{"name":"DSW Shoe Warehouse","code":null,"latitude":33.004624,"longitude":-96.980728,"address":"420 East Round Grove Road, Lewisville TX","chain_name":null,"distance":0,"street_number":"413","street_name":"East Round Grove Road","zip":"75057","city":"Lewisville","area":null,"county":"Denton County","state":"Texas","country":"us","formatted_address":"Romeo's Pizza, 413, East Round Grove Road, Lewisville, Denton County, Texas, 75057, United States of America","place_id":"33299831","datatype":"locationiq"},{"name":"DSW Shoe Warehouse","code":null,"latitude":40.1429583,"longitude":-82.9885083,"address":"1200 Polaris Parkway, Columbus OH","chain_name":null,"distance":0,"street_number":"1200","street_name":"Polaris Parkway","zip":"43240","city":"Columbus","area":null,"county":"Delaware County","state":"Ohio","country":"us","formatted_address":"DSW, 1200, Polaris Parkway, Columbus, Delaware County, Ohio, 43240, United States of America","place_id":"148888179","datatype":"locationiq"},{"name":"DSW Shoe Warehouse","code":null,"latitude":27.956678,"longitude":-82.509361,"address":"1500 North Dale Mabry Highway, Tampa FL","chain_name":null,"distance":0,"street_number":null,"street_name":"Dale Mabry Highway","zip":"33607","city":"Tampa","area":"Macfarlane Park","county":"Hillsborough County","state":"Florida","country":"us","formatted_address":"Target, Dale Mabry Highway, Macfarlane Park, Hyde Park, Tampa, Hillsborough County, Florida, 33607, United States of America","place_id":"5062323","datatype":"locationiq"},{"name":"DSW Shoe Warehouse","code":null,"latitude":38.7956969,"longitude":-77.6043182,"address":"13201 Gateway Center Drive, Gainesville VA","chain_name":null,"distance":0,"street_number":"13113","street_name":"Gateway Center Drive","zip":"20155","city":null,"area":null,"county":"Prince William County","state":"Virginia","country":"us","formatted_address":"13113, Gateway Center Drive, Virginia Gateway, Gainesville, Prince William County, Virginia, 20155, United States of America","place_id":"207781192","datatype":"locationiq"},{"name":"DSW Shoe Warehouse","code":null,"latitude":32.7071188,"longitude":-97.3878007,"address":"3000 South Hulen, Fort Worth TX","chain_name":null,"distance":0,"street_number":"3012","street_name":"South Hulen Street","zip":"76109","city":"Fort Worth","area":null,"county":"Tarrant County","state":"Texas","country":"us","formatted_address":"3012, South Hulen Street, Fort Worth, Tarrant County, Texas, 76109, United States of America","place_id":"206308084","datatype":"locationiq"},{"name":"DSW Shoe Warehouse","code":null,"latitude":40.7256482,"longitude":-73.506812,"address":"3503 Hempstead Turnpike, Levittown NY","chain_name":null,"distance":0,"street_number":"3483","street_name":"Hempstead Tpke","zip":"11756","city":null,"area":null,"county":"Nassau","state":"New York","country":"us","formatted_address":"3483, Hempstead Tpke, Hicksville, Levittown, Nassau, New York, 11756, United States of America","place_id":"156103889","datatype":"locationiq"},{"name":"DSW Shoe Warehouse","code":null,"latitude":26.2830742,"longitude":-80.1865356,"address":"4401 Lyons Road, Coconut Creek FL","chain_name":null,"distance":0,"street_number":"4351","street_name":"Lyons Road","zip":"33073","city":null,"area":null,"county":"Broward County","state":"Florida","country":"us","formatted_address":"4351, Lyons Road, Coconut Creek, Broward County, Florida, 33073, United States of America","place_id":"181732970","datatype":"locationiq"},{"name":"DSW Shoe Warehouse","code":null,"latitude":33.0309514,"longitude":-96.8329963,"address":"6121 West Park Boulevard, Plano TX","chain_name":null,"distance":0,"street_number":null,"street_name":"Willow Bend Mall","zip":"75093","city":"Plano","area":null,"county":"Collin County","state":"Texas","country":"us","formatted_address":"Willow Bend Mall, Plano, Collin County, Texas, 75093, United States of America","place_id":"144157234","datatype":"locationiq"},{"name":"DSW Shoe Warehouse","code":null,"latitude":41.446334,"longitude":-81.495724,"address":"4039 Richmond Road, Warrensville Heights OH","chain_name":null,"distance":0,"street_number":null,"street_name":"Richmond Road","zip":"44146","city":null,"area":null,"county":"Cuyahoga County","state":"Ohio","country":"us","formatted_address":"Richmond Road, Warrensville Heights, Cuyahoga County, Ohio, 44146, United States of America","place_id":"167301668","datatype":"locationiq"},{"name":"DSW Shoe Warehouse","code":null,"latitude":30.3866329,"longitude":-91.0837613,"address":"9330 Mall of Louisiana Blvd., Baton Rouge LA","chain_name":null,"distance":0,"street_number":null,"street_name":"Mall of Louisiana Boulevard","zip":"70836","city":"Baton Rouge","area":null,"county":"East Baton Rouge Parish","state":"Louisiana","country":"us","formatted_address":"Mall of Louisiana Boulevard, Mall of Louisiana, Baton Rouge, East Baton Rouge Parish, Louisiana, 70836, United States of America","place_id":"99427900","datatype":"locationiq"},{"name":"DSW Shoe Warehouse","code":null,"latitude":40.45248,"longitude":-80.170563,"address":"2100 Park Manor Boulevard, Pittsburgh PA","chain_name":null,"distance":0,"street_number":null,"street_name":"Park Manor Boulevard","zip":"15275","city":null,"area":null,"county":"Allegheny County","state":"Pennsylvania","country":"us","formatted_address":"Park Manor Boulevard, Robinson Township, Allegheny County, Pennsylvania, 15275, United States of America","place_id":"106686323","datatype":"locationiq"},{"name":"DSW Shoe Warehouse","code":null,"latitude":38.7742701,"longitude":-77.1782842,"address":"6644 Loisdale Road, Springfield VA","chain_name":null,"distance":0,"street_number":null,"street_name":"Loisdale Road","zip":"22150","city":null,"area":null,"county":"Fairfax County","state":"Virginia","country":"us","formatted_address":"Loisdale Road, Springfield Town Center, Springfield, Fairfax County, Virginia, 22150, United States of America","place_id":"169753284","datatype":"locationiq"},{"name":"DSW Shoe Warehouse","code":null,"latitude":38.2562579,"longitude":-85.7533273,"address":"723 US 31 North, Greenwood IN","chain_name":null,"distance":0,"street_number":"100","street_name":"South 2nd Street","zip":"40202","city":"Louisville","area":null,"county":"Jefferson County","state":"Kentucky","country":"us","formatted_address":"Courtyard by Marriott - Downtown Louisville, 100, South 2nd Street, Louisville, Jefferson County, Kentucky, 40202, United States of America","place_id":"121573079","datatype":"locationiq"},{"name":"DSW Shoe Warehouse","code":null,"latitude":33.1018054,"longitude":-96.6803347,"address":"937 Market Street, Allen TX","chain_name":null,"distance":0,"street_number":null,"street_name":"West McDermott Drive","zip":"75013","city":null,"area":"Watters Creek","county":"Collin County","state":"Texas","country":"us","formatted_address":"Jack in the Box, West McDermott Drive, Watters Creek, Allen, Collin County, Texas, 75013, United States of America","place_id":"159175516","datatype":"locationiq"},{"name":"DSW Shoe Warehouse","code":null,"latitude":42.9908344,"longitude":-78.81127,"address":"4100 Maple Road, Amherst NY","chain_name":null,"distance":0,"street_number":"4080","street_name":"Maple Road","zip":"14226","city":null,"area":null,"county":"Erie County","state":"New York","country":"us","formatted_address":"Red Robin, 4080, Maple Road, Tonawanda, Amherst Town, Erie County, New York, 14226, United States of America","place_id":"24365266","datatype":"locationiq"},{"name":"DSW Shoe Warehouse","code":null,"latitude":26.366783,"longitude":-80.1997419,"address":"9870 Glades Road, Boca Raton FL","chain_name":null,"distance":0,"street_number":null,"street_name":"95th Avenue South","zip":"33431:33432","city":null,"area":null,"county":"Palm Beach County","state":"Florida","country":"us","formatted_address":"The Home Depot, 95th Avenue South, Mission Bay, Palm Beach County, Florida, 33431:33432, United States of America","place_id":"105628270","datatype":"locationiq"},{"name":"DSW Shoe Warehouse","code":null,"latitude":29.552926,"longitude":-95.3861268,"address":"3137 Silverlake Village Drive, Pearland TX","chain_name":null,"distance":0,"street_number":"3107","street_name":"Silverlake Village Drive","zip":"77584","city":null,"area":null,"county":"Brazoria County","state":"Texas","country":"us","formatted_address":"3107, Silverlake Village Drive, Brazoria County, Texas, 77584, United States of America","place_id":"204563961","datatype":"locationiq"},{"name":"DSW Shoe Warehouse","code":null,"latitude":44.7500694,"longitude":-93.2878254,"address":"14001 Aldrich Avenue, Burnsville MN","chain_name":null,"distance":0,"street_number":null,"street_name":"Aldrich Avenue South","zip":"55337","city":"Burnsville","area":null,"county":"Dakota County","state":"Minnesota","country":"us","formatted_address":"Aldrich Ave S & 140th St W, Aldrich Avenue South, Burnsville, Dakota County, Minnesota, 55337, United States of America","place_id":"6796275","datatype":"locationiq"},{"name":"DSW Shoe Warehouse","code":null,"latitude":33.6380524,"longitude":-112.2305753,"address":"7555 West Bell Road, Peoria AZ","chain_name":null,"distance":0,"street_number":"8001","street_name":"West Bell Road","zip":"85382","city":"Peoria","area":null,"county":"Maricopa County","state":"Arizona","country":"us","formatted_address":"Applebee's Neighborhood Grill, 8001, West Bell Road, Peoria, Maricopa County, Arizona, 85382, United States of America","place_id":"45309680","datatype":"locationiq"},{"name":"DSW Shoe Warehouse","code":null,"latitude":30.1802151,"longitude":-95.4557726,"address":"19075 Interstate Highway 45 S, Shenandoah TX","chain_name":null,"distance":0,"street_number":"287298","street_name":"Enchanted Drive","zip":"77381","city":"Shenandoah","area":"Tuscany Woods","county":"Montgomery County","state":"Texas","country":"us","formatted_address":"287298, Enchanted Drive, Tuscany Woods, Shenandoah, Montgomery County, Texas, 77381, United States of America","place_id":"205975781","datatype":"locationiq"},{"name":"DSW Shoe Warehouse","code":null,"latitude":35.8636198,"longitude":-78.5775573,"address":"3604 Sumner Boulevard, Raleigh NC","chain_name":null,"distance":0,"street_number":"3415","street_name":"Sumner Boulevard","zip":"27616","city":"Raleigh","area":null,"county":"Wake County","state":"North Carolina","country":"us","formatted_address":"3415, Sumner Boulevard, Mini City, Raleigh, Wake County, North Carolina, 27616, United States of America","place_id":"198314958","datatype":"locationiq"},{"name":"DSW Shoe Warehouse","code":null,"latitude":40.1546789,"longitude":-75.1393395,"address":"3638 Welsh Road, Willow Grove PA","chain_name":null,"distance":0,"street_number":null,"street_name":"Welsh Road","zip":"19407","city":"Upper Moreland Township","area":null,"county":"Montgomery County","state":"Pennsylvania","country":"us","formatted_address":"Citizens Bank, Welsh Road, Upper Moreland Township, Montgomery County, Pennsylvania, 19407, United States of America","place_id":"50347909","datatype":"locationiq"},{"name":"DSW Shoe Warehouse store #29552","code":null,"latitude":45.6119035,"longitude":-122.6817807,"address":"1835 tomahawk dr, Portland OR","chain_name":null,"distance":0,"street_number":"12200","street_name":"North Parker Avenue","zip":"97217","city":"Portland","area":null,"county":"Multnomah County","state":"Oregon","country":"us","formatted_address":"Stanford's, 12200, North Parker Avenue, Jantzen Beach Center, Faloma, Portland, Multnomah County, Oregon, 97217, United States of America","place_id":"87564252","datatype":"locationiq"},{"name":"DSW Shoe Warehouse","code":null,"latitude":42.3562228,"longitude":-71.0596493,"address":"385 Washington Street, Boston MA","chain_name":null,"distance":0,"street_number":"1","street_name":null,"zip":"02110-1301","city":"Boston","area":"Downtown Crossing","county":"Suffolk County","state":"Massachusetts","country":"us","formatted_address":"Millenium Tower, 1, Franklin Street, Downtown Crossing, Financial District, Boston, Suffolk County, Massachusetts, 02110-1301, United States of America","place_id":"89536605","datatype":"locationiq"},{"name":"DSW Shoe Warehouse","code":null,"latitude":43.08813,"longitude":-77.624166,"address":"720 Jefferson Road, Rochester NY","chain_name":null,"distance":0,"street_number":null,"street_name":"Jefferson Road","zip":"14623","city":null,"area":null,"county":"Monroe County","state":"New York","country":"us","formatted_address":"Five Below, Jefferson Road, Ridgeland, Henrietta Town, Monroe County, New York, 14623, United States of America","place_id":"29104671","datatype":"locationiq"},{"name":"DSW Shoe Warehouse","code":null,"latitude":26.1946952,"longitude":-98.260365,"address":"3300 Expressway 83, McAllen TX","chain_name":null,"distance":0,"street_number":null,"street_name":"I 2;US 83","zip":"78503","city":"McAllen","area":null,"county":"Hidalgo County","state":"Texas","country":"us","formatted_address":"141, I 2;US 83, McAllen, Hidalgo County, Texas, 78503, United States of America","place_id":"1532565","datatype":"locationiq"},{"name":"DSW Shoe Warehouse","code":null,"latitude":31.7216043,"longitude":-106.3041053,"address":"1331 George Dieter Drive, El Paso TX","chain_name":null,"distance":0,"street_number":"1310","street_name":"George Dieter Drive","zip":"79936","city":"El Paso City","area":null,"county":"El Paso County","state":"Texas","country":"us","formatted_address":"Whataburger, 1310, George Dieter Drive, El Paso City, El Paso County, Texas, 79936, United States of America","place_id":"131568958","datatype":"locationiq"},{"name":"DSW Shoe Warehouse","code":null,"latitude":39.636909,"longitude":-84.220129,"address":"2700 Miamisburg-Centerville Rd, Dayton OH","chain_name":null,"distance":0,"street_number":"2700","street_name":"Miamisburg Centerville Road","zip":"45459","city":"Miamisburg","area":null,"county":"Montgomery County","state":"Ohio","country":"us","formatted_address":"2700, Miamisburg Centerville Road, Miamisburg, Montgomery County, Ohio, 45459, United States of America","place_id":"199669428","datatype":"locationiq"},{"name":"DSW Shoe Warehouse","code":null,"latitude":39.179401,"longitude":-77.2679567,"address":"12922 Middlebrook Road, Germantown MD","chain_name":null,"distance":0,"street_number":"12900","street_name":"Middlebrook Road","zip":"20874","city":null,"area":"North Germantown","county":"Montgomery County","state":"Maryland","country":"us","formatted_address":"12900, Middlebrook Road, North Germantown, Fox Chapel, Germantown, Montgomery County, Maryland, 20874, United States of America","place_id":"114268108","datatype":"locationiq"},{"name":"DSW Shoe Warehouse","code":null,"latitude":41.84547,"longitude":-87.971241,"address":"2155 West 22nd Street, Oak Brook IL","chain_name":null,"distance":0,"street_number":"2155","street_name":"West 22nd Street","zip":"60523","city":"Oakbrook Terrace","area":null,"county":"DuPage County","state":"Illinois","country":"us","formatted_address":"Nordstrom Rack, 2155, West 22nd Street, Oakbrook Terrace, DuPage County, Illinois, 60523, United States of America","place_id":"28563456","datatype":"locationiq"},{"name":"DSW Shoe Warehouse","code":null,"latitude":25.6860519,"longitude":-80.39154,"address":"12090 Southwest 88th Street, Miami FL","chain_name":null,"distance":0,"street_number":"12295","street_name":"Southwest 88th Street","zip":"33186","city":null,"area":null,"county":"Miami-Dade County","state":"Florida","country":"us","formatted_address":"12295, Southwest 88th Street, Lindgren Acres, Miami-Dade County, Florida, 33186, United States of America","place_id":"163550720","datatype":"locationiq"},{"name":"DSW Shoe Warehouse","code":null,"latitude":38.8584346,"longitude":-77.3910336,"address":"12997 Fair Lakes Center, Fairfax VA","chain_name":null,"distance":0,"street_number":null,"street_name":"Fair Lakes Shopping Center","zip":"22030","city":null,"area":null,"county":"Fairfax County","state":"Virginia","country":"us","formatted_address":"The Olive Garden, Fair Lakes Shopping Center, Fair Lakes Center, Chantilly, Fairfax County, Virginia, 22030, United States of America","place_id":"114850882","datatype":"locationiq"},{"name":"DSW Shoe Warehouse","code":null,"latitude":40.0186415,"longitude":-75.6755338,"address":"56 Quarry Road, Downingtown PA","chain_name":null,"distance":0,"street_number":"12","street_name":"Quarry Road","zip":"19335","city":"East Caln Township","area":null,"county":"Chester County","state":"Pennsylvania","country":"us","formatted_address":"12, Quarry Road, East Caln Township, Chester County, Pennsylvania, 19335, United States of America","place_id":"201527608","datatype":"locationiq"},{"name":"DSW Shoe Warehouse","code":null,"latitude":34.0702798,"longitude":-117.2029491,"address":"27536 Lugonia Avenue, Redlands CA","chain_name":null,"distance":0,"street_number":"27592","street_name":"West Lugonia Avenue","zip":"92374","city":"Redlands","area":null,"county":"San Bernardino County","state":"California","country":"us","formatted_address":"27592, West Lugonia Avenue, Redlands, San Bernardino County, California, 92374, United States of America","place_id":"81200647","datatype":"locationiq"},{"name":"DSW Shoe Warehouse","code":null,"latitude":34.102102,"longitude":-118.342786,"address":"7021 Hollywood Boulevard, Los Angeles CA","chain_name":null,"distance":0,"street_number":"7021","street_name":"Hollywood Boulevard","zip":"90028","city":"Los Angeles","area":null,"county":"Los Angeles County","state":"California","country":"us","formatted_address":"7021, Hollywood Boulevard, Whitley Heights, Los Angeles, Los Angeles County, California, 90028, United States of America","place_id":"174920375","datatype":"locationiq"},{"name":"DSW Shoe Warehouse","code":null,"latitude":41.1358746,"longitude":-81.6389432,"address":"3889 Medina Road, Akron OH","chain_name":null,"distance":0,"street_number":null,"street_name":"Medina Road","zip":"44256:44321","city":null,"area":null,"county":"Summit County","state":"Ohio","country":"us","formatted_address":"McDonald's, Medina Road, Montrose-Ghent, Bath Township, Summit County, Ohio, 44256:44321, United States of America","place_id":"139631536","datatype":"locationiq"},{"name":"DSW Shoe Warehouse","code":null,"latitude":38.8439611,"longitude":-77.2753966,"address":"9650 East Main Street, Fairfax VA","chain_name":null,"distance":0,"street_number":null,"street_name":"Bradwater Street","zip":"22031","city":"Fairfax","area":null,"county":"Fairfax City","state":"Virginia","country":"us","formatted_address":"Hallmark, Bradwater Street, Fairfax, Fairfax City, Virginia, 22031, United States of America","place_id":"48573401","datatype":"locationiq"},{"name":"DSW Shoe Warehouse","code":null,"latitude":37.155247,"longitude":-121.652193,"address":"1015 Cochrane Road, Morgan Hill CA","chain_name":null,"distance":0,"street_number":null,"street_name":"South Valley Freeway","zip":"95037","city":"San Jos\u00e9","area":null,"county":"Santa Clara County","state":"California","country":"us","formatted_address":"Dick's Sporting Goods, South Valley Freeway, San Jos\u00e9, Santa Clara County, California, 95037, United States of America","place_id":"160070460","datatype":"locationiq"},{"name":"DSW Shoe Warehouse","code":null,"latitude":30.3930274,"longitude":-97.7327111,"address":"10515 North Mopac Expressway, Austin TX","chain_name":null,"distance":0,"street_number":"10644","street_name":"North MoPac Expressway","zip":"78759","city":"Austin","area":null,"county":"Travis County","state":"Texas","country":"us","formatted_address":"10644, North MoPac Expressway, Austin, Travis County, Texas, 78759, United States of America","place_id":"206447067","datatype":"locationiq"},{"name":"DSW Shoe Warehouse","code":null,"latitude":29.1417017,"longitude":-82.1907538,"address":"4414 Southwest College Road, Ocala FL","chain_name":null,"distance":0,"street_number":null,"street_name":"College Road","zip":"34474","city":"Ocala","area":null,"county":"Marion County","state":"Florida","country":"us","formatted_address":"College Road, Ocala, Marion County, Florida, 34474, United States of America","place_id":"116825336","datatype":"locationiq"},{"name":"DSW Shoe Warehouse","code":null,"latitude":39.9728485,"longitude":-74.9089792,"address":"64 Centerton Road, Mount Laurel NJ","chain_name":null,"distance":0,"street_number":null,"street_name":"Centerton Road","zip":"08054","city":"Mount Laurel Township","area":null,"county":"Burlington County","state":"New Jersey","country":"us","formatted_address":"Centerton Road, Centerton Square, Mount Laurel Township, Burlington County, New Jersey, 08054, United States of America","place_id":"66156356","datatype":"locationiq"},{"name":"DSW Shoe Warehouse","code":null,"latitude":41.5617981,"longitude":-93.7991857,"address":"6905 Mills Civic Parkway, West Des Moines IA","chain_name":null,"distance":0,"street_number":"490","street_name":"South 68th Street","zip":"50266","city":"West Des Moines","area":null,"county":"Dallas County","state":"Iowa","country":"us","formatted_address":"490, South 68th Street, Bella Terra, West Des Moines, Dallas County, Iowa, 50266, United States of America","place_id":"94539920","datatype":"locationiq"},{"name":"DSW Shoe Warehouse","code":null,"latitude":38.0233024,"longitude":-84.4175628,"address":"1958 Pavilion Way, Lexington KY","chain_name":null,"distance":0,"street_number":null,"street_name":"Pavilion Way","zip":"40509","city":null,"area":null,"county":"Fayette County","state":"Kentucky","country":"us","formatted_address":"Pavilion Way, Brighton, Fayette County, Kentucky, 40509, United States of America","place_id":"68909546","datatype":"locationiq"},{"name":"DSW Shoe Warehouse","code":null,"latitude":40.4140073,"longitude":-79.9040916,"address":"520 East Waterfront Drive, Homestead PA","chain_name":null,"distance":0,"street_number":"658","street_name":"Waterfront Drive East","zip":"15120","city":"Munhall","area":null,"county":"Allegheny County","state":"Pennsylvania","country":"us","formatted_address":"Holiday Inn Express, 658, Waterfront Drive East, The Waterfront, Munhall, Allegheny County, Pennsylvania, 15120, United States of America","place_id":"155963617","datatype":"locationiq"},{"name":"DSW Shoe Warehouse","code":null,"latitude":42.1016519,"longitude":-71.0673453,"address":"1362 Park Street, Stoughton MA","chain_name":null,"distance":0,"street_number":null,"street_name":"Park Street","zip":"02072","city":null,"area":null,"county":"Norfolk County","state":"Massachusetts","country":"us","formatted_address":"Park St - Brockton-Stoughton line, Park Street, Stoughton, Norfolk County, Massachusetts, 02072, United States of America","place_id":"16597589","datatype":"locationiq"},{"name":"DSW Shoe Warehouse","code":null,"latitude":36.19733,"longitude":-115.239036,"address":"2100 North Rainbow Boulevard, Las Vegas NV","chain_name":null,"distance":0,"street_number":"2100","street_name":"North Rainbow Boulevard","zip":"89108","city":"Las Vegas","area":null,"county":"Clark County","state":"Nevada","country":"us","formatted_address":"Bed Bath & Beyond, 2100, North Rainbow Boulevard, Inner Northwest, Las Vegas, Clark County, Nevada, 89108, United States of America","place_id":"51260453","datatype":"locationiq"},{"name":"DSW Shoe Warehouse","code":null,"latitude":45.0137494,"longitude":-93.1689868,"address":"823 Rosedale Center, Roseville MN","chain_name":null,"distance":0,"street_number":null,"street_name":"Rosedale Shopping Center","zip":"55113","city":"Roseville","area":null,"county":"Ramsey County","state":"Minnesota","country":"us","formatted_address":"AMC Rosedale 16, Rosedale Shopping Center, Roseville, Ramsey County, Minnesota, 55113, United States of America","place_id":"78910124","datatype":"locationiq"},{"name":"DSW Shoe Warehouse","code":null,"latitude":29.9853043,"longitude":-95.5029717,"address":"4849 FM 1960 West, Houston TX","chain_name":null,"distance":0,"street_number":null,"street_name":"Cypress Creek Parkway","zip":"77069","city":null,"area":null,"county":"Harris County","state":"Texas","country":"us","formatted_address":"McDonald's, Cypress Creek Parkway, Bammel, Harris County, Texas, 77069, United States of America","place_id":"46055873","datatype":"locationiq"},{"name":"DSW Shoe Warehouse","code":null,"latitude":35.09248,"longitude":-89.8059905,"address":"7712 Highway 72, Germantown TN","chain_name":null,"distance":0,"street_number":"7702","street_name":"Poplar Avenue","zip":"38138","city":"Germantown","area":null,"county":"Shelby County","state":"Tennessee","country":"us","formatted_address":"7702, Poplar Avenue, Germantown, Shelby County, Tennessee, 38138, United States of America","place_id":"204112255","datatype":"locationiq"},{"name":"DSW Shoe Warehouse","code":null,"latitude":42.4625516,"longitude":-71.0244914,"address":"1160 Broadway, Saugus MA","chain_name":null,"distance":0,"street_number":null,"street_name":"Newburyport Turnpike","zip":"01906","city":null,"area":null,"county":"Essex County","state":"Massachusetts","country":"us","formatted_address":"Newburyport Turnpike, Saugus, Essex County, Massachusetts, 01906, United States of America","place_id":"64760572","datatype":"locationiq"},{"name":"DSW Shoe Warehouse","code":null,"latitude":42.0494462,"longitude":-88.0373686,"address":"901 Perimeter Drive, Schaumburg IL","chain_name":null,"distance":0,"street_number":"901","street_name":"Perimeter Drive","zip":"60173","city":null,"area":null,"county":"Cook County","state":"Illinois","country":"us","formatted_address":"901, Perimeter Drive, Schaumburg, Cook County, Illinois, 60173, United States of America","place_id":"184752606","datatype":"locationiq"},{"name":"DSW Shoe Warehouse","code":null,"latitude":32.6231317,"longitude":-116.9675537,"address":"2015 Birch Road, Chula Vista CA","chain_name":null,"distance":0,"street_number":"2015","street_name":"Birch Road","zip":"91915","city":"Chula Vista","area":null,"county":"San Diego County","state":"California","country":"us","formatted_address":"2015, Birch Road, Chula Vista, San Diego County, California, 91915, United States of America","place_id":"5864927","datatype":"locationiq"},{"name":"DSW Shoe Warehouse","code":null,"latitude":29.7844209,"longitude":-95.525387,"address":"9419 Katy Freeway, Houston TX","chain_name":null,"distance":0,"street_number":null,"street_name":"Katy Tollway","zip":"77024","city":null,"area":null,"county":"Harris County","state":"Texas","country":"us","formatted_address":"Katy Tollway, Spring Valley Village, Harris County, Texas, 77024, United States of America","place_id":"91323429","datatype":"locationiq"},{"name":"DSW Shoe Warehouse","code":null,"latitude":41.0991905,"longitude":-73.9556136,"address":"3721 Palisades Center Drive, West Nyack NY","chain_name":null,"distance":0,"street_number":"3885","street_name":"Palisades Center Drive","zip":"10994","city":null,"area":null,"county":"Rockland County","state":"New York","country":"us","formatted_address":"3885, Palisades Center Drive, West Nyack, Town of Clarkstown, Rockland County, New York, 10994, United States of America","place_id":"196784327","datatype":"locationiq"}]