[{"latitude":"34.4386417","longitude":"-85.7513756","name":"DUNHAM'S SPORTS-Fort Payne,AL","address":"101 Cracker Barrel Row SW [The Crossings at Ft Payne], Fort Payne,AL 35968, (256) 845-7755","street_number":"134","street_name":"Airport Road West","zip":"35968","city":null,"area":null,"county":"DeKalb County","state":"Alabama","country":"us","formatted_address":"134, Airport Road West, Fort Payne, DeKalb County, Alabama, 35968, United States of America","place_id":"176220442","datatype":"locationiq"},{"latitude":"34.6494211","longitude":"-86.0301147","name":"DUNHAM'S SPORTS-Scottsboro,AL","address":"23041 John T Reid Pkwy [Scottsboro Shopping Center], Scottsboro,AL 35768, (256) 259-0318","street_number":"22800","street_name":"John T Reid Parkway","zip":"35768","city":"Scottsboro","area":null,"county":"Jackson County","state":"Alabama","country":"us","formatted_address":"22800, John T Reid Parkway, Scottsboro, Jackson County, Alabama, 35768, United States of America","place_id":"176309301","datatype":"locationiq"},{"latitude":"34.301843","longitude":"-85.176092","name":"DUNHAM'S SPORTS-Rome,GA","address":"2770 Martha Berry Blvd [Mount Berry Square Mall], Rome,GA 30165, (706) 378-1209","street_number":null,"street_name":"Martha Berry Highway","zip":"30165","city":null,"area":null,"county":"Floyd County","state":"Georgia","country":"us","formatted_address":"Landmark, Martha Berry Highway, Rome, Floyd County, Georgia, 30165, United States of America","place_id":"18229751","datatype":"locationiq"},{"latitude":"41.5570396","longitude":"-90.5593633","name":"DUNHAM'S SPORTS-Davenport,IA","address":"1010 East Kimberly Road, Davenport,IA 52807, (563) 445-1111","street_number":"1035","street_name":"East Kimberly Road","zip":"52807","city":"Davenport","area":null,"county":"Scott County","state":"Iowa","country":"us","formatted_address":"1035, East Kimberly Road, Davenport, Scott County, Iowa, 52807, United States of America","place_id":"187547042","datatype":"locationiq"},{"latitude":"42.5011711","longitude":"-94.1630801","name":"DUNHAM'S SPORTS-Fort Dodge,IA","address":"217 South 25th Street [Crossroads Mall], Fort Dodge,IA 50501, (515) 576-7755","street_number":"563","street_name":"South 25th Street","zip":"50501","city":null,"area":null,"county":"Webster County","state":"Iowa","country":"us","formatted_address":"563, South 25th Street, Fort Dodge, Webster County, Iowa, 50501, United States of America","place_id":"187646998","datatype":"locationiq"},{"latitude":"42.4757276","longitude":"-96.3323759","name":"DUNHAM'S SPORTS-Sioux City,IA","address":"5969 E Gordon Drive [Eastgate Shopping Center], Sioux City,IA 51106, (712) 274-8844","street_number":"5995","street_name":"East Gordon Drive","zip":"51106","city":"Sioux City","area":null,"county":"Woodbury County","state":"Iowa","country":"us","formatted_address":"5995, East Gordon Drive, Sioux City, Woodbury County, Iowa, 51106, United States of America","place_id":"187667496","datatype":"locationiq"},{"latitude":"43.128315","longitude":"-95.157347","name":"DUNHAM'S SPORTS-Spencer,IA","address":"901 11Th Street Sw [Southpark Mall], Spencer,IA 51301, (712) 262-6222","street_number":null,"street_name":"11th Street Southwest","zip":"51301","city":null,"area":null,"county":"Clay County","state":"Iowa","country":"us","formatted_address":"Southpark Mall, 11th Street Southwest, Spencer, Clay County, Iowa, 51301, United States of America","place_id":"109499526","datatype":"locationiq"},{"latitude":"40.1721257","longitude":"-87.6306398","name":"DUNHAM'S SPORTS-Danville,IL","address":"2917 N Vermillion St [Village Mall], Danville,IL 61832, (217) 709-0862","street_number":"3100","street_name":"North Vermilion Street","zip":"61832","city":"Danville","area":null,"county":"Vermilion County","state":"Illinois","country":"us","formatted_address":"3100, North Vermilion Street, Danville, Vermilion County, Illinois, 61832, United States of America","place_id":"185821512","datatype":"locationiq"},{"latitude":"40.9707298","longitude":"-90.3849564","name":"DUNHAM'S SPORTS-Galesburg,IL","address":"1890 N Henderson St, Galesburg,IL 61401, (309) 343-1860","street_number":null,"street_name":"South Mall Drive","zip":"61401","city":"Galesburg","area":null,"county":"Knox County","state":"Illinois","country":"us","formatted_address":"Jo-Ann Fabrics, South Mall Drive, Galesburg, Knox County, Illinois, 61401, United States of America","place_id":"20245663","datatype":"locationiq"},{"latitude":"39.722969","longitude":"-90.2675061","name":"DUNHAM'S SPORTS-Jacksonville,IL","address":"1909 W Morton Ave [Pathway Plaza], Jacksonville,IL 62650, (217) 243-0046","street_number":null,"street_name":"West Morton Avenue","zip":"62650","city":"Jacksonville","area":null,"county":"Morgan County","state":"Illinois","country":"us","formatted_address":"BJ's Restaurant, West Morton Avenue, Jacksonville, Morgan County, Illinois, 62650, United States of America","place_id":"115685152","datatype":"locationiq"},{"latitude":"38.3143409","longitude":"-88.9392135","name":"DUNHAM'S SPORTS-Mt Vernon,IL","address":"3917 Broadway, Mt Vernon,IL 62864, (618) 242-5872","street_number":"3913","street_name":"Broadway Street","zip":"62864","city":"Mount Vernon","area":null,"county":"Jefferson County","state":"Illinois","country":"us","formatted_address":"3913, Broadway Street, Mount Vernon, Jefferson County, Illinois, 62864, United States of America","place_id":"185229935","datatype":"locationiq"},{"latitude":"40.5460686","longitude":"-89.6026587","name":"DUNHAM'S SPORTS-Pekin,IL","address":"3465 Court Street, Pekin,IL 61554, (309) 346-1515","street_number":"3524","street_name":"Court Street","zip":"61554","city":"Pekin","area":null,"county":"Tazewell County","state":"Illinois","country":"us","formatted_address":"3524, Court Street, Pekin, Tazewell County, Illinois, 61554, United States of America","place_id":"185786380","datatype":"locationiq"},{"latitude":"40.7302657","longitude":"-89.6127799","name":"DUNHAM'S SPORTS-Peoria,IL","address":"3425 N University Ave [University Plaza], Peoria,IL 61604, (309) 685-6819","street_number":"3477","street_name":"North University Street","zip":"61604","city":"Peoria","area":null,"county":"Peoria County","state":"Illinois","country":"us","formatted_address":"3477, North University Street, Peoria, Peoria County, Illinois, 61604, United States of America","place_id":"185619284","datatype":"locationiq"},{"latitude":"41.3528965","longitude":"-89.1266573","name":"DUNHAM'S SPORTS-Peru,IL","address":"1606 36th Street, Peru,IL 61354, (815) 220-1162","street_number":"1500","street_name":"36th Street","zip":"61354","city":"Peru","area":null,"county":"LaSalle County","state":"Illinois","country":"us","formatted_address":"1500, 36th Street, Peru, LaSalle County, Illinois, 61354, United States of America","place_id":"185391528","datatype":"locationiq"},{"latitude":"41.8059812","longitude":"-89.6619927","name":"DUNHAM'S SPORTS-Sterling,IL","address":"2900 E Lincolnway [Northland Mall], Sterling,IL 61081, (815) 564-0091","street_number":"2494","street_name":"East Lincolnway","zip":"61081","city":"Sterling","area":null,"county":"Whiteside County","state":"Illinois","country":"us","formatted_address":"2494, East Lincolnway, Sterling, Whiteside County, Illinois, 61081, United States of America","place_id":"185847267","datatype":"locationiq"},{"latitude":"40.0992875","longitude":"-85.6526209","name":"DUNHAM'S SPORTS-Anderson,IN","address":"1716 Scatterfield, Anderson,IN 46016, (765) 649-7136","street_number":"1708","street_name":"Scatterfield Road","zip":"46016","city":"Anderson","area":null,"county":"Madison County","state":"Indiana","country":"us","formatted_address":"1708, Scatterfield Road, Anderson, Madison County, Indiana, 46016, United States of America","place_id":"186509602","datatype":"locationiq"},{"latitude":"41.6553511","longitude":"-84.9995036","name":"DUNHAM'S SPORTS-Angola,IN","address":"2008 N Wayne [Angola Square], Angola,IN 46703, (260) 668-3500","street_number":"1929","street_name":"North Wayne Street","zip":"46703","city":null,"area":null,"county":"Steuben County","state":"Indiana","country":"us","formatted_address":"1929, North Wayne Street, Angola, Steuben County, Indiana, 46703, United States of America","place_id":"186823570","datatype":"locationiq"},{"latitude":"41.3666183","longitude":"-85.0718811","name":"DUNHAM'S SPORTS-Auburn,IN","address":"1009 W 7Th Street [Auburn Plaza], Auburn,IN 46706, (260) 927-1095","street_number":null,"street_name":"West 7th Street","zip":"46706","city":"Auburn","area":null,"county":"DeKalb County","state":"Indiana","country":"us","formatted_address":"Advance Auto Parts, West 7th Street, Auburn, DeKalb County, Indiana, 46706, United States of America","place_id":"50250022","datatype":"locationiq"},{"latitude":"38.8670466","longitude":"-86.5184176","name":"DUNHAM'S SPORTS-Bedford,IN","address":"1018 James Avenue [Town Fair Center], Bedford,IN 47421, (812) 275-5030","street_number":null,"street_name":"James Avenue","zip":"47421","city":"Bedford","area":null,"county":"Lawrence County","state":"Indiana","country":"us","formatted_address":"Steak-n-Shake, James Avenue, Bedford, Lawrence County, Indiana, 47421, United States of America","place_id":"104744986","datatype":"locationiq"},{"latitude":"41.170448","longitude":"-85.500297","name":"DUNHAM'S SPORTS-Columbia City,IN","address":"496 W Plaza Dr, Columbia City,IN 46725, (260) 248-2068","street_number":"646","street_name":"Armstrong Drive","zip":"46725","city":"Columbia City","area":null,"county":"Whitley County","state":"Indiana","country":"us","formatted_address":"646, Armstrong Drive, Columbia City, Whitley County, Indiana, 46725, United States of America","place_id":"186967099","datatype":"locationiq"},{"latitude":"39.223075","longitude":"-85.8974044","name":"DUNHAM'S SPORTS-Columbus,IN","address":"2394 25th Street [Fair Oaks Mall], Columbus,IN 47201, (812) 376-1093","street_number":"2498","street_name":"25th Street","zip":"47201","city":"Columbus","area":null,"county":"Bartholomew County","state":"Indiana","country":"us","formatted_address":"2498, 25th Street, Columbus, Bartholomew County, Indiana, 47201, United States of America","place_id":"186028770","datatype":"locationiq"},{"latitude":"40.0237656","longitude":"-86.8996429","name":"DUNHAM'S SPORTS-Crawfordsville,IN","address":"1602 Crafordsville Sq Dr [Crawfordsville Square], Crawfordsville,IN 47933, (765) 362-7739","street_number":"1698","street_name":"Eastway Drive","zip":"47933","city":"Crawfordsville","area":null,"county":"Montgomery County","state":"Indiana","country":"us","formatted_address":"1698, Eastway Drive, Crawfordsville, Montgomery County, Indiana, 47933, United States of America","place_id":"186638790","datatype":"locationiq"},{"latitude":"41.1153104","longitude":"-85.146976","name":"DUNHAM'S SPORTS-Fort Wayne,IN","address":"4122 Lima Rd [Glenbrook Commons], Fort Wayne,IN 46805, (260) 471-4264","street_number":"3934","street_name":"Lima Road","zip":"46805","city":"Fort Wayne","area":null,"county":"Allen County","state":"Indiana","country":"us","formatted_address":"3934, Lima Road, Fort Wayne, Allen County, Indiana, 46805, United States of America","place_id":"186018375","datatype":"locationiq"},{"latitude":"40.4429171","longitude":"-86.1248549","name":"DUNHAM'S SPORTS-Kokomo,IN","address":"3754 S Reed [Southway Plaza], Kokomo,IN 46902, (765) 453-0071","street_number":"3730","street_name":"South Reed Road","zip":"46902","city":"Kokomo","area":null,"county":"Howard County","state":"Indiana","country":"us","formatted_address":"3730, South Reed Road, Kokomo, Howard County, Indiana, 46902, United States of America","place_id":"44316191","datatype":"locationiq"},{"latitude":"41.6006488","longitude":"-86.7370968","name":"DUNHAM'S SPORTS-Laporte,IN","address":"1448 W State Road 2 [Laporte Towne Square], Laporte,IN 46350, (219) 324-0243","street_number":null,"street_name":"Lincolnway","zip":"46350","city":"La Porte","area":null,"county":"LaPorte County","state":"Indiana","country":"us","formatted_address":"Lincolnway, La Porte, LaPorte County, Indiana, 46350, United States of America","place_id":"69780947","datatype":"locationiq"},{"latitude":"40.7584817","longitude":"-86.3286695","name":"DUNHAM'S SPORTS-Logansport,IN","address":"3916 E Market Street [Logansport Mall], Logansport,IN 46947, (574) 722-3359","street_number":"4762","street_name":"East Market Street","zip":"46947","city":null,"area":null,"county":"Cass County","state":"Indiana","country":"us","formatted_address":"4762, East Market Street, Logansport, Cass County, Indiana, 46947, United States of America","place_id":"186073275","datatype":"locationiq"},{"latitude":"40.5468323","longitude":"-85.6739429","name":"DUNHAM'S SPORTS-Marion,IN","address":"1512 South Western Ave [MidTowne Crossing], Marion,IN 46953, (765) 674-2000","street_number":"1392","street_name":"South Baldwin Avenue","zip":"46953","city":"Marion","area":null,"county":"Grant County","state":"Indiana","country":"us","formatted_address":"1392, South Baldwin Avenue, Marion, Grant County, Indiana, 46953, United States of America","place_id":"186238699","datatype":"locationiq"},{"latitude":"41.6810873","longitude":"-86.1929001","name":"DUNHAM'S SPORTS-Mishawaka,IN","address":"2572 Miracle Lane [Mckinley Town & Cntry Ctr], Mishawaka,IN 46545, (574) 255-6600","street_number":"2556","street_name":"Miracle Lane","zip":"46545","city":"Mishawaka","area":null,"county":"Saint Joseph County","state":"Indiana","country":"us","formatted_address":"Harbor Freight Tools, 2556, Miracle Lane, Town and Country Shopping Center, Mishawaka, Saint Joseph County, Indiana, 46545, United States of America","place_id":"16863253","datatype":"locationiq"},{"latitude":"39.829645","longitude":"-84.839017","name":"DUNHAM'S SPORTS-Richmond,IN","address":"4651 National Road East [Eastern Gateway Center], Richmond,IN 47374, (765) 965-9966","street_number":"4661","street_name":"National Road East","zip":"47374","city":null,"area":null,"county":"Wayne County","state":"Indiana","country":"us","formatted_address":"Buffalo Wild WIngs, 4661, National Road East, Richmond, Wayne County, Indiana, 47374, United States of America","place_id":"40337635","datatype":"locationiq"},{"latitude":"38.6885355","longitude":"-87.5025798","name":"DUNHAM'S SPORTS-Vincennes,IN","address":"618 Niblack Blvd [Vincennes Plaza], Vincennes,IN 47591, (812) 886-9169","street_number":"685","street_name":"Niblack Boulevard","zip":"47591","city":"Vincennes","area":null,"county":"Knox County","state":"Indiana","country":"us","formatted_address":"685, Niblack Boulevard, Vincennes, Knox County, Indiana, 47591, United States of America","place_id":"186400977","datatype":"locationiq"},{"latitude":"40.8144624","longitude":"-85.8373184","name":"DUNHAM'S SPORTS-Wabash,IN","address":"1483 N Cass Street [Wabash Crossing SC], Wabash,IN 46992, (260) 569-1600","street_number":"1493","street_name":"Cass Street","zip":"46992","city":"Wabash","area":null,"county":"Wabash County","state":"Indiana","country":"us","formatted_address":"1493, Cass Street, Wabash, Wabash County, Indiana, 46992, United States of America","place_id":"186913631","datatype":"locationiq"},{"latitude":"41.236552","longitude":"-85.818199","name":"DUNHAM'S SPORTS-Warsaw,IN","address":"2806 Frontage Road [The Marketplace], Warsaw,IN 46580, (574) 268-9715","street_number":"245","street_name":"Eastlake Drive","zip":"46580","city":"Warsaw","area":null,"county":"Kosciusko County","state":"Indiana","country":"us","formatted_address":"245, Eastlake Drive, Shopping, Warsaw, Kosciusko County, Indiana, 46580, United States of America","place_id":"186413540","datatype":"locationiq"},{"latitude":"38.9849686","longitude":"-84.4018932","name":"DUNHAM'S SPORTS-Alexandria,KY","address":"6905 Alexandria Pike [Alexandria Village Green], Alexandria,KY 41001, (859) 448-0758","street_number":"7010","street_name":"Alexandria Pike","zip":"41001","city":"Alexandria","area":null,"county":"Campbell County","state":"Kentucky","country":"us","formatted_address":"7010, Alexandria Pike, Village Green Shopping Center, Alexandria, Campbell County, Kentucky, 41001, United States of America","place_id":"188359990","datatype":"locationiq"},{"latitude":"38.4997825","longitude":"-82.6764462","name":"DUNHAM'S SPORTS-Ashland,KY","address":"256 Russell Road [Russell Plaza], Ashland,KY 41101, (606) 329-0300","street_number":null,"street_name":"Seaton Avenue","zip":"41139","city":"Russell","area":null,"county":"Greenup County","state":"Kentucky","country":"us","formatted_address":"Seaton Avenue, Russell, Greenup County, Kentucky, 41139, United States of America","place_id":"94512187","datatype":"locationiq"},{"latitude":"36.9503148","longitude":"-86.4251127","name":"DUNHAM'S SPORTS-Bowling Green,KY","address":"2625 Scottsville Road [Greenwood Mall], Bowling Green,KY 42104, (270) 901-1825","street_number":"2643","street_name":"Scottsville Road","zip":"42104","city":"Bowling Green","area":null,"county":"Warren County","state":"Kentucky","country":"us","formatted_address":"2643, Scottsville Road, Bowling Green, Warren County, Kentucky, 42104, United States of America","place_id":"188801702","datatype":"locationiq"},{"latitude":"38.6270539","longitude":"-83.7919367","name":"DUNHAM'S SPORTS-Maysville,KY","address":"425 Market Square Drive, Maysville,KY 41056, (606) 759-8512","street_number":null,"street_name":"Tumbleweed Drive","zip":"41056","city":null,"area":null,"county":"Mason County","state":"Kentucky","country":"us","formatted_address":"Tumbleweed Drive, Maysville, Mason County, Kentucky, 41056, United States of America","place_id":"69592332","datatype":"locationiq"},{"latitude":"37.7337517","longitude":"-84.2740907","name":"DUNHAM'S SPORTS-Richmond,KY","address":"833 Eastern Bypass [Carriage Gate Shopping Center], Richmond,KY 40475, (859) 624-0265","street_number":null,"street_name":"Eastern Bypass","zip":"40475","city":"Richmond","area":null,"county":"Madison County","state":"Kentucky","country":"us","formatted_address":"Eastern Bypass, Richmond, Madison County, Kentucky, 40475, United States of America","place_id":"100589315","datatype":"locationiq"},{"latitude":"37.054637","longitude":"-84.6270019","name":"DUNHAM'S SPORTS-Somerset,KY","address":"2835 S Highway 27, Somerset,KY 42501, (606) 677-1123","street_number":null,"street_name":"Commercial Drive","zip":"42533","city":null,"area":null,"county":"Pulaski County","state":"Kentucky","country":"us","formatted_address":"T.J. Maxx, Commercial Drive, Somerset, Pulaski County, Kentucky, 42533, United States of America","place_id":"44295400","datatype":"locationiq"},{"latitude":"41.8791211","longitude":"-84.0431524","name":"DUNHAM'S SPORTS-Adrian,MI","address":"1357 S Main St [Adrian Mall], Adrian,MI 49221, (517) 265-6339","street_number":"1360","street_name":"South Main Street","zip":"49221","city":"Adrian","area":null,"county":"Lenawee County","state":"Michigan","country":"us","formatted_address":"Culver's, 1360, South Main Street, Adrian, Lenawee County, Michigan, 49221, United States of America","place_id":"91546362","datatype":"locationiq"},{"latitude":"42.2775166","longitude":"-83.214671","name":"DUNHAM'S SPORTS-Allen Park,MI","address":"23150 W Outer Drive [Allen Born SC], Allen Park,MI 48101, (313) 278-2496","street_number":null,"street_name":"West Outer Drive","zip":"48101","city":"Allen Park","area":null,"county":"Wayne County","state":"Michigan","country":"us","formatted_address":"West Outer Drive, Allen Park, Wayne County, Michigan, 48101, United States of America","place_id":"79283577","datatype":"locationiq"},{"latitude":"45.0396363","longitude":"-83.4625065","name":"DUNHAM'S SPORTS-Alpena,MI","address":"2398 Us 23 South [Alpena Mall], Alpena,MI 49707, (989) 354-3383","street_number":"2281","street_name":"Diamond Point Road","zip":"49707","city":null,"area":null,"county":"Alpena County","state":"Michigan","country":"us","formatted_address":"2281, Diamond Point Road, Alpena Junction, Alpena County, Michigan, 49707, United States of America","place_id":"190636472","datatype":"locationiq"},{"latitude":"42.2826868","longitude":"-83.780433","name":"DUNHAM'S SPORTS-Ann Arbor,MI","address":"217 North Maple Road [Maple Village Center], Ann Arbor,MI 48103, (734) 663-0770","street_number":"273","street_name":"North Maple Road","zip":"48103","city":"Ann Arbor","area":"Wildwood","county":"Washtenaw County","state":"Michigan","country":"us","formatted_address":"273, North Maple Road, Wildwood, Ann Arbor, Washtenaw County, Michigan, 48103, United States of America","place_id":"191624995","datatype":"locationiq"},{"latitude":"43.8208913","longitude":"-83.0010026","name":"DUNHAM'S SPORTS-Bad Axe,MI","address":"850 N Van Dyke, Bad Axe,MI 48413, (989) 269-6091","street_number":"998","street_name":"North Van Dyke Road","zip":"48413","city":"Bad Axe","area":null,"county":"Huron County","state":"Michigan","country":"us","formatted_address":"998, North Van Dyke Road, Bad Axe, Huron County, Michigan, 48413, United States of America","place_id":"190907253","datatype":"locationiq"},{"latitude":"42.2610563","longitude":"-85.182696","name":"DUNHAM'S SPORTS-Battle Creek,MI","address":"5775 Beckley Road 341 [Lakeview Square Mall], Battle Creek,MI 49015, (269) 979-4949","street_number":null,"street_name":"Beckley Road","zip":"49015","city":"Battle Creek","area":null,"county":"Calhoun County","state":"Michigan","country":"us","formatted_address":"Beckley Road, Battle Creek, Calhoun County, Michigan, 49015, United States of America","place_id":"157549452","datatype":"locationiq"},{"latitude":"43.6238243","longitude":"-83.8943151","name":"DUNHAM'S SPORTS-Bay City,MI","address":"4101 Wilder Rd [Bay City Mall], Bay City,MI 48706, (989) 667-4100","street_number":"4084-B","street_name":"State Street Road","zip":"48532","city":null,"area":null,"county":"Bay County","state":"Michigan","country":"us","formatted_address":"A Clean Cigarette, 4084-B, State Street Road, Bangor Township, Bay County, Michigan, 48532, United States of America","place_id":"26019290","datatype":"locationiq"},{"latitude":"42.215345","longitude":"-83.541865","name":"DUNHAM'S SPORTS-Belleville,MI","address":"2035 Rawsonville Road [Lakewood Shopping Center], Belleville,MI 48111, (734) 480-1101","street_number":null,"street_name":"Rawsonville Road","zip":"48111","city":null,"area":null,"county":"Washtenaw County","state":"Michigan","country":"us","formatted_address":"Rawsonville Road, Ypsilanti Township, Washtenaw County, Michigan, 48111, United States of America","place_id":"64889908","datatype":"locationiq"},{"latitude":"42.0870843","longitude":"-86.4343565","name":"DUNHAM'S SPORTS-Benton Harbor,MI","address":"1000 Napier [Fairplain Plaza], Benton Harbor,MI 49022, (269) 927-9969","street_number":"1027","street_name":"East Napier Avenue","zip":"49022","city":null,"area":null,"county":"Berrien County","state":"Michigan","country":"us","formatted_address":"1027, East Napier Avenue, Fair Plain, Berrien County, Michigan, 49022, United States of America","place_id":"190698708","datatype":"locationiq"},{"latitude":"43.0186864","longitude":"-83.6282693","name":"DUNHAM'S SPORTS-Burton,MI","address":"G4190 E Court St [Courtland Center], Burton,MI 48509, (810) 742-7100","street_number":"4120","street_name":"East Court Street","zip":"48509","city":"City of Burton","area":null,"county":"Genesee County","state":"Michigan","country":"us","formatted_address":"4120, East Court Street, City of Burton, Genesee County, Michigan, 48509, United States of America","place_id":"190843840","datatype":"locationiq"},{"latitude":"44.2803712","longitude":"-85.4066538","name":"DUNHAM'S SPORTS-Cadillac,MI","address":"2200 N Mitchell, Cadillac,MI 49601, (231) 775-0700","street_number":"2204","street_name":"North Mitchell Street","zip":"49601","city":"Cadillac","area":null,"county":"Wexford County","state":"Michigan","country":"us","formatted_address":"FirstMerit Bank, 2204, North Mitchell Street, Cadillac, Wexford County, Michigan, 49601, United States of America","place_id":"28759407","datatype":"locationiq"},{"latitude":"42.3227457","longitude":"-83.4553084","name":"DUNHAM'S SPORTS-Canton,MI","address":"41968 Ford Road [Willow Creek], Canton,MI 48187, (734) 981-7265","street_number":"41980","street_name":"Ford Road","zip":"48187","city":null,"area":null,"county":"Wayne County","state":"Michigan","country":"us","formatted_address":"Buffalo Wild Wings, 41980, Ford Road, Canton, Wayne County, Michigan, 48187, United States of America","place_id":"139270370","datatype":"locationiq"},{"latitude":"42.5841785","longitude":"-84.8046373","name":"DUNHAM'S SPORTS-Charlotte,MI","address":"1658 Lansing Rd [Charlotte Retail Center], Charlotte,MI 48813, (517) 541-0701","street_number":null,"street_name":"East Lansing Road","zip":"48813","city":"Charlotte","area":null,"county":"Eaton County","state":"Michigan","country":"us","formatted_address":"East Lansing Road, Charlotte, Eaton County, Michigan, 48813, United States of America","place_id":"69996843","datatype":"locationiq"},{"latitude":"45.6280313","longitude":"-84.478442","name":"DUNHAM'S SPORTS-Cheboygan,MI","address":"1008 South Main, Cheboygan,MI 49721, (231) 627-1000","street_number":"1048","street_name":"South Main Street","zip":"49721","city":"Cheboygan","area":null,"county":"Cheboygan County","state":"Michigan","country":"us","formatted_address":"1048, South Main Street, Cheboygan, Cheboygan County, Michigan, 49721, United States of America","place_id":"190755477","datatype":"locationiq"},{"latitude":"42.6759987","longitude":"-82.8290939","name":"DUNHAM'S SPORTS-Chesterfield Township,MI","address":"51328 Gratiot [Chesterfield Village Sq], Chesterfield Township,MI 48051, (586) 598-4625","street_number":null,"street_name":"23 Mile Road","zip":"48047","city":null,"area":null,"county":"Macomb County","state":"Michigan","country":"us","formatted_address":"23 Mile Road, Chesterfield Township, Macomb County, Michigan, 48047, United States of America","place_id":"130499282","datatype":"locationiq"},{"latitude":"41.9370436","longitude":"-84.9785797","name":"DUNHAM'S SPORTS-Coldwater,MI","address":"573 E Chicago Street, Coldwater,MI 49036, (517) 278-8441","street_number":null,"street_name":"East Chicago Street","zip":"49036","city":"Coldwater","area":null,"county":"Branch County","state":"Michigan","country":"us","formatted_address":"Big Boy, East Chicago Street, Coldwater, Branch County, Michigan, 49036, United States of America","place_id":"172944597","datatype":"locationiq"},{"latitude":"42.326435","longitude":"-83.3001125","name":"DUNHAM'S SPORTS-Dearborn Heights,MI","address":"26312 Ford Road [The Heights Shopping Ctr], Dearborn Heights,MI 48127, (313) 565-4498","street_number":null,"street_name":"Ford Road","zip":"48185","city":"Dearborn Heights","area":null,"county":"Wayne County","state":"Michigan","country":"us","formatted_address":"Applebee's, Ford Road, Dearborn Heights, Wayne County, Michigan, 48185, United States of America","place_id":"141460689","datatype":"locationiq"},{"latitude":"45.7479742","longitude":"-87.0799062","name":"DUNHAM'S SPORTS-Escanaba,MI","address":"301 N Lincoln Road [Delta Plaza], Escanaba,MI 49829, (906) 789-4007","street_number":"317","street_name":"North Lincoln Road","zip":"49829","city":"Escanaba","area":null,"county":"Delta County","state":"Michigan","country":"us","formatted_address":"Sayklly's, 317, North Lincoln Road, Escanaba, Delta County, Michigan, 49829, United States of America","place_id":"124433437","datatype":"locationiq"},{"latitude":"42.4504341","longitude":"-83.3418003","name":"DUNHAM'S SPORTS-Farmington Hills,MI","address":"30100 Grand River [West River Center], Farmington Hills,MI 48336, (248) 442-0770","street_number":"29994","street_name":"Grand River Avenue","zip":"48336","city":"Farmington Hills","area":null,"county":"Oakland County","state":"Michigan","country":"us","formatted_address":"29994, Grand River Avenue, Farmington Hills, Oakland County, Michigan, 48336, United States of America","place_id":"191343837","datatype":"locationiq"},{"latitude":"42.7963633","longitude":"-83.7366167","name":"DUNHAM'S SPORTS-Fenton,MI","address":"17375 Silver Parkway [Silver Pointe Shop Cent], Fenton,MI 48430, (810) 593-1001","street_number":null,"street_name":"Silver Parkway","zip":"48430","city":"Fenton","area":null,"county":"Genesee County","state":"Michigan","country":"us","formatted_address":"Silver Parkway, Fenton, Genesee County, Michigan, 48430, United States of America","place_id":"64384379","datatype":"locationiq"},{"latitude":"42.9928979","longitude":"-83.7317033","name":"DUNHAM'S SPORTS-Flint,MI","address":"G3590 Miller Road, Flint,MI 48507, (810) 230-9107","street_number":"3596","street_name":"Miller Road","zip":"48503","city":"City of Flint","area":null,"county":"Genesee County","state":"Michigan","country":"us","formatted_address":"3596, Miller Road, City of Flint, Genesee County, Michigan, 48503, United States of America","place_id":"190830778","datatype":"locationiq"},{"latitude":"43.0363994","longitude":"-82.45368","name":"DUNHAM'S SPORTS-Fort Gratiot,MI","address":"4350 24Th Avenue [Birchwood Mall], Fort Gratiot,MI 48059, (810) 385-3939","street_number":null,"street_name":"Greenview Circle","zip":"48059","city":null,"area":null,"county":"Saint Clair County","state":"Michigan","country":"us","formatted_address":"Birchwood Mall, Greenview Circle, Fort Gratiot Township, Saint Clair County, Michigan, 48059, United States of America","place_id":"117724432","datatype":"locationiq"},{"latitude":"43.4672073","longitude":"-85.9689058","name":"DUNHAM'S SPORTS-Fremont,MI","address":"1413 W Main Street [Fremont Shopping Center], Fremont,MI 49412, (231) 924-2912","street_number":"1410","street_name":"West Main Street","zip":"49412","city":"Fremont","area":null,"county":"Newaygo County","state":"Michigan","country":"us","formatted_address":"1410, West Main Street, Fremont, Newaygo County, Michigan, 49412, United States of America","place_id":"191318715","datatype":"locationiq"},{"latitude":"45.0274274","longitude":"-84.6968103","name":"DUNHAM'S SPORTS-Gaylord,MI","address":"1401 DW Main St [Pine Ridge Square], Gaylord,MI 49735, (989) 732-9607","street_number":"1361","street_name":"West Main Street","zip":"49732","city":"Gaylord","area":null,"county":"Otsego County","state":"Michigan","country":"us","formatted_address":"Mancino's, 1361, West Main Street, Gaylord, Otsego County, Michigan, 49732, United States of America","place_id":"38586551","datatype":"locationiq"},{"latitude":"42.9125749","longitude":"-85.5794788","name":"DUNHAM'S SPORTS-Grand Rapids,MI","address":"3555 28th Street [The Shops at Centerpointe], Grand Rapids,MI 49512, (616) 977-0799","street_number":"3573","street_name":"28th Street Southeast","zip":"49512","city":"Kentwood","area":null,"county":"Kent County","state":"Michigan","country":"us","formatted_address":"3573, 28th Street Southeast, Kentwood, Kent County, Michigan, 49512, United States of America","place_id":"191040042","datatype":"locationiq"},{"latitude":"43.0403103","longitude":"-85.6086998","name":"DUNHAM'S SPORTS-Grand Rapids,MI","address":"4311A Plainfield Ave Ne, Grand Rapids,MI 49525, (616) 365-9612","street_number":"4305","street_name":"Plainfield Avenue Northeast","zip":"49525","city":null,"area":null,"county":"Kent County","state":"Michigan","country":"us","formatted_address":"4305, Plainfield Avenue Northeast, Northview, Kent County, Michigan, 49525, United States of America","place_id":"191025122","datatype":"locationiq"},{"latitude":"42.8154558","longitude":"-86.0874113","name":"DUNHAM'S SPORTS-Holland,MI","address":"12331 James Street [Westshore Mall], Holland,MI 49424, (616) 396-6059","street_number":"12331","street_name":"James Street","zip":"49424","city":null,"area":null,"county":"Ottawa County","state":"Michigan","country":"us","formatted_address":"Westshore Mall, 12331, James Street, Waverly, Ottawa County, Michigan, 49424, United States of America","place_id":"130875399","datatype":"locationiq"},{"latitude":"47.1040937","longitude":"-88.595244","name":"DUNHAM'S SPORTS-Houghton,MI","address":"47420 N M26 [Copper Country Mall], Houghton,MI 49931, (906) 482-6300","street_number":"47402","street_name":"Green Acres Road","zip":"49931","city":"Houghton","area":null,"county":"Houghton County","state":"Michigan","country":"us","formatted_address":"Copper Country Ford, 47402, Green Acres Road, Houghton, Houghton County, Michigan, 49931, United States of America","place_id":"23718566","datatype":"locationiq"},{"latitude":"44.2985673","longitude":"-84.7078617","name":"DUNHAM'S SPORTS-Houghton Lake,MI","address":"3451D West Houghton Lake Dr, Houghton Lake,MI 48629, (989) 366-0504","street_number":"3499","street_name":"West Houghton Lake Drive","zip":"48629","city":null,"area":null,"county":"Roscommon County","state":"Michigan","country":"us","formatted_address":"3499, West Houghton Lake Drive, Houghton Lake, Roscommon County, Michigan, 48629, United States of America","place_id":"191495740","datatype":"locationiq"},{"latitude":"42.5885726","longitude":"-83.8792759","name":"DUNHAM'S SPORTS-Howell,MI","address":"3591 E Grand River, Howell,MI 48843, (517) 548-9600","street_number":null,"street_name":"East Grand River Avenue","zip":"48843","city":"Howell","area":null,"county":"Livingston County","state":"Michigan","country":"us","formatted_address":"McDonald's, East Grand River Avenue, Howell, Livingston County, Michigan, 48843, United States of America","place_id":"55642849","datatype":"locationiq"},{"latitude":"45.8087676","longitude":"-88.0430915","name":"DUNHAM'S SPORTS-Iron Mountain,MI","address":"1856 S Stephenson [Iron Mountain Plaza], Iron Mountain,MI 49801, (906) 774-6800","street_number":"1807","street_name":"South Stephenson Avenue","zip":"49801","city":"Iron Mountain","area":null,"county":"Dickinson County","state":"Michigan","country":"us","formatted_address":"1807, South Stephenson Avenue, Iron Mountain, Dickinson County, Michigan, 49801, United States of America","place_id":"190796298","datatype":"locationiq"},{"latitude":"46.4632852","longitude":"-90.1450337","name":"DUNHAM'S SPORTS-Ironwood,MI","address":"1450 E Cloverland Dr, Ironwood,MI 49938, (906) 932-0990","street_number":"1410","street_name":"East Cloverland Drive","zip":"49938","city":"Ironwood","area":null,"county":"Gogebic County","state":"Michigan","country":"us","formatted_address":"Burger King, 1410, East Cloverland Drive, Ironwood, Gogebic County, Michigan, 49938, United States of America","place_id":"149253355","datatype":"locationiq"},{"latitude":"42.2595447","longitude":"-84.42346","name":"DUNHAM'S SPORTS-Jackson,MI","address":"930 North West Avenue [Argyle Acres], Jackson,MI 49202, (517) 789-8300","street_number":"932","street_name":"North West Avenue","zip":"49202","city":"Jackson","area":null,"county":"Jackson County","state":"Michigan","country":"us","formatted_address":"932, North West Avenue, Jackson, Jackson County, Michigan, 49202, United States of America","place_id":"190972640","datatype":"locationiq"},{"latitude":"42.2961893","longitude":"-85.653844","name":"DUNHAM'S SPORTS-Kalamazoo,MI","address":"5474 W Main Street , Kalamazoo,MI 49009, (269) 381-4523","street_number":null,"street_name":"West Main Street","zip":"49009","city":null,"area":null,"county":"Kalamazoo County","state":"Michigan","country":"us","formatted_address":"First National Bank, West Main Street, Westwood, Kalamazoo County, Michigan, 49009, United States of America","place_id":"131782475","datatype":"locationiq"},{"latitude":"42.7625462","longitude":"-83.2411417","name":"DUNHAM'S SPORTS-Lake Orion,MI","address":"1279 S Lapeer Road [Lake Orion Shopping Ctr], Lake Orion,MI 48360, (248) 814-1146","street_number":null,"street_name":"South Lapeer Road","zip":"48359","city":null,"area":null,"county":"Oakland County","state":"Michigan","country":"us","formatted_address":"South Lapeer Road, Orion Township, Oakland County, Michigan, 48359, United States of America","place_id":"130136750","datatype":"locationiq"},{"latitude":"42.7353809","longitude":"-84.502896","name":"DUNHAM'S SPORTS-Lansing,MI","address":"3301 East Michigan [Frandor Plus], Lansing,MI 48912, (517) 337-3827","street_number":null,"street_name":"Friendship Circle","zip":"48912","city":"East Lansing","area":null,"county":"Ingham County","state":"Michigan","country":"us","formatted_address":"Dunham Sports, Friendship Circle, East Lansing, Ingham County, Michigan, 48912, United States of America","place_id":"18350947","datatype":"locationiq"},{"latitude":"42.7410427","longitude":"-84.6228045","name":"DUNHAM'S SPORTS-Lansing,MI","address":"5184 W Saginaw Highway [Lansing Mall], Lansing,MI 48917, (517) 321-2435","street_number":"5334","street_name":"West Saginaw Highway","zip":"48837","city":null,"area":null,"county":"Eaton County","state":"Michigan","country":"us","formatted_address":"5334, West Saginaw Highway, Waverly, Eaton County, Michigan, 48837, United States of America","place_id":"190808287","datatype":"locationiq"},{"latitude":"43.0501645","longitude":"-83.3427213","name":"DUNHAM'S SPORTS-Lapeer,MI","address":"1935 West Genesee St, Lapeer,MI 48446, (810) 664-7200","street_number":"3098","street_name":"West Genesee Street","zip":"48446","city":"Lapeer","area":null,"county":"Lapeer County","state":"Michigan","country":"us","formatted_address":"3098, West Genesee Street, Lapeer, Lapeer County, Michigan, 48446, United States of America","place_id":"191082007","datatype":"locationiq"},{"latitude":"42.3690692","longitude":"-83.3399833","name":"DUNHAM'S SPORTS-Livonia,MI","address":"30070 Plymouth Road [Livonia Plaza], Livonia,MI 48150, (734) 793-1069","street_number":null,"street_name":"Plymouth Road","zip":"48170","city":"Livonia","area":null,"county":"Wayne County","state":"Michigan","country":"us","formatted_address":"White Castle, Plymouth Road, Livonia, Wayne County, Michigan, 48170, United States of America","place_id":"126391829","datatype":"locationiq"},{"latitude":"43.9555599","longitude":"-86.3947378","name":"DUNHAM'S SPORTS-Ludington,MI","address":"4532 West US 10, Ludington,MI 49431, (231) 845-9911","street_number":"4704","street_name":"East Ludington Avenue","zip":"49431","city":null,"area":null,"county":"Mason County","state":"Michigan","country":"us","formatted_address":"4704, East Ludington Avenue, Mason County, Michigan, 49431, United States of America","place_id":"191223889","datatype":"locationiq"},{"latitude":"42.5273026","longitude":"-83.1067721","name":"DUNHAM'S SPORTS-Madison Heights,MI","address":"32101 John R [Madison Place Shopping], Madison Heights,MI 48071, (248) 658-1382","street_number":null,"street_name":"East Whitcomb Avenue","zip":"48071","city":"Madison Heights","area":null,"county":"Oakland County","state":"Michigan","country":"us","formatted_address":"7\/11, East Whitcomb Avenue, Madison Heights, Oakland County, Michigan, 48071, United States of America","place_id":"87533183","datatype":"locationiq"},{"latitude":"44.2288557","longitude":"-86.3116512","name":"DUNHAM'S SPORTS-Manistee,MI","address":"1383 Manistee Hwy Us 31 S [The Plaza At Manistee], Manistee,MI 49660, (231) 398-3440","street_number":"1327","street_name":"Manistee Highway","zip":"49660","city":"Manistee","area":null,"county":"Manistee County","state":"Michigan","country":"us","formatted_address":"1327, Manistee Highway, Manistee, Manistee County, Michigan, 49660, United States of America","place_id":"191211623","datatype":"locationiq"},{"latitude":"43.6590517","longitude":"-84.2471505","name":"DUNHAM'S SPORTS-Midland,MI","address":"6800 Eastman Ave [Midland Mall], Midland,MI 48642, (989) 832-7877","street_number":"6730","street_name":"Eastman Avenue","zip":"48642","city":"Midland","area":null,"county":"Midland County","state":"Michigan","country":"us","formatted_address":"Burger King, 6730, Eastman Avenue, Midland, Midland County, Michigan, 48642, United States of America","place_id":"140572824","datatype":"locationiq"},{"latitude":"41.945885","longitude":"-83.4022586","name":"DUNHAM'S SPORTS-Monroe,MI","address":"2149 N Telegraph Road [Monroe Centre], Monroe,MI 48162, (734) 241-5599","street_number":"1766","street_name":"Telegraph Road","zip":"48161","city":null,"area":null,"county":"Monroe County","state":"Michigan","country":"us","formatted_address":"Buffalo Wild Wings, 1766, Telegraph Road, Golfcrest, Frenchtown Township, Monroe County, Michigan, 48161, United States of America","place_id":"130954216","datatype":"locationiq"},{"latitude":"43.6210226","longitude":"-84.7678877","name":"DUNHAM'S SPORTS-Mt Pleasant,MI","address":"2129 S Mission Rd [Mt Pleasant Shopping Ctr], Mt Pleasant,MI 48858, (989) 772-5464","street_number":"1331","street_name":"South Mission Road","zip":"48858","city":null,"area":null,"county":"Isabella County","state":"Michigan","country":"us","formatted_address":"1331, South Mission Road, Isabella County, Michigan, 48858, United States of America","place_id":"190970299","datatype":"locationiq"},{"latitude":"43.158919","longitude":"-86.2057525","name":"DUNHAM'S SPORTS-Norton Shores,MI","address":"5141 Harvey Street [Lakeshore Marketplace], Norton Shores,MI 49444, (231) 798-8255","street_number":"5139","street_name":"South Harvey Street","zip":"49444","city":"Norton Shores","area":null,"county":"Muskegon County","state":"Michigan","country":"us","formatted_address":"5139, South Harvey Street, Norton Shores, Muskegon County, Michigan, 49444, United States of America","place_id":"191296458","datatype":"locationiq"},{"latitude":"42.9977804","longitude":"-84.1459996","name":"DUNHAM'S SPORTS-Owosso,MI","address":"1435 East Main [East Shopping Center], Owosso,MI 48867, (989) 725-8944","street_number":"1413","street_name":"East Main Street","zip":"48867","city":"Owosso","area":null,"county":"Shiawassee County","state":"Michigan","country":"us","formatted_address":"1413, East Main Street, Owosso, Shiawassee County, Michigan, 48867, United States of America","place_id":"191576488","datatype":"locationiq"},{"latitude":"45.3678528","longitude":"-84.970909","name":"DUNHAM'S SPORTS-Petoskey,MI","address":"910 Spring Street 14 [Bay Mall], Petoskey,MI 49770, (231) 347-9779","street_number":"942","street_name":"Spring Street","zip":"49770","city":"Petoskey","area":null,"county":"Emmet County","state":"Michigan","country":"us","formatted_address":"942, Spring Street, Petoskey, Emmet County, Michigan, 49770, United States of America","place_id":"190815609","datatype":"locationiq"},{"latitude":"42.2246278","longitude":"-85.5961668","name":"DUNHAM'S SPORTS-Portage,MI","address":"665 Mall Drive [Crossroads Centre Ii], Portage,MI 49024, (269) 323-1800","street_number":"571","street_name":"Mall Drive","zip":"49024","city":"Portage","area":null,"county":"Kalamazoo County","state":"Michigan","country":"us","formatted_address":"571, Mall Drive, Portage, Kalamazoo County, Michigan, 49024, United States of America","place_id":"190990299","datatype":"locationiq"},{"latitude":"42.6502924","longitude":"-83.1323306","name":"DUNHAM'S SPORTS-Rochester Hills,MI","address":"2155 S Rochester Road [Hampton Plaza], Rochester Hills,MI 48307, (248) 852-9500","street_number":"2112","street_name":"South Rochester Road","zip":"48307","city":"Rochester Hills","area":null,"county":"Oakland County","state":"Michigan","country":"us","formatted_address":"2112, South Rochester Road, Rochester Hills, Oakland County, Michigan, 48307, United States of America","place_id":"191396731","datatype":"locationiq"},{"latitude":"42.536601","longitude":"-82.9107875","name":"DUNHAM'S SPORTS-Roseville,MI","address":"32470 Gratiot Ave, Roseville,MI 48066, (586) 294-7450","street_number":null,"street_name":"North Gratiot Avenue","zip":"48082","city":"Roseville","area":null,"county":"Macomb County","state":"Michigan","country":"us","formatted_address":"North Gratiot Avenue, Roseville, Macomb County, Michigan, 48082, United States of America","place_id":"85301506","datatype":"locationiq"},{"latitude":"43.4714383","longitude":"-83.9754709","name":"DUNHAM'S SPORTS-Saginaw,MI","address":"4358 Bay Road [Unit 13], Saginaw,MI 48603, (989) 799-9119","street_number":"4430","street_name":"Bay Road","zip":"48603","city":"City of Saginaw","area":null,"county":"Saginaw County","state":"Michigan","country":"us","formatted_address":"4430, Bay Road, Consumers Energy, City of Saginaw, Saginaw County, Michigan, 48603, United States of America","place_id":"191504876","datatype":"locationiq"},{"latitude":"46.4767835","longitude":"-84.3545866","name":"DUNHAM'S SPORTS-Sault Ste Marie,MI","address":"4338 I 75 Business Spur [Cascade Crossing], Sault Ste Marie,MI 49783, (906) 253-2067","street_number":"2648","street_name":"I-75 Business Spur","zip":"49783","city":"Sault Ste. Marie","area":null,"county":"Chippewa County","state":"Michigan","country":"us","formatted_address":"2648, I-75 Business Spur, Sault Ste. Marie, Chippewa County, Michigan, 49783, United States of America","place_id":"190765366","datatype":"locationiq"},{"latitude":"42.402149","longitude":"-86.256462","name":"DUNHAM'S SPORTS-South Haven,MI","address":"1220 Phoenix St [South Haven Shopping Ctr], South Haven,MI 49090, (269) 637-2700","street_number":null,"street_name":"Cider Court","zip":"49090","city":null,"area":null,"county":"Van Buren County","state":"Michigan","country":"us","formatted_address":"Dunhams Sports, Cider Court, Maple Grove Corners, Van Buren County, Michigan, 49090, United States of America","place_id":"28573223","datatype":"locationiq"},{"latitude":"42.199338","longitude":"-83.1870936","name":"DUNHAM'S SPORTS-Southgate,MI","address":"13311 Eureka Road [Southgate Commons], Southgate,MI 48195, (734) 283-1953","street_number":null,"street_name":"Eureka Road","zip":"48174","city":"Southgate","area":null,"county":"Wayne County","state":"Michigan","country":"us","formatted_address":"Eureka across from James, Eureka Road, Southgate Shopping Center, Southgate, Wayne County, Michigan, 48174, United States of America","place_id":"45458423","datatype":"locationiq"},{"latitude":"42.9881305","longitude":"-84.5424504","name":"DUNHAM'S SPORTS-St Johns,MI","address":"1945 S Scott Rd [Townsend Centre], St Johns,MI 48879, (989) 224-8100","street_number":"1922","street_name":"South Scott Road","zip":"48879","city":"St. Johns","area":null,"county":"Clinton County","state":"Michigan","country":"us","formatted_address":"1922, South Scott Road, St. Johns, Clinton County, Michigan, 48879, United States of America","place_id":"190774558","datatype":"locationiq"},{"latitude":"42.626452","longitude":"-83.0048088","name":"DUNHAM'S SPORTS-Sterling Heights,MI","address":"11950 Hall Road [Delco Plaza], Sterling Heights,MI 48313, (586) 997-1600","street_number":null,"street_name":"Hall Road","zip":"48313","city":"Sterling Heights","area":null,"county":"Macomb County","state":"Michigan","country":"us","formatted_address":"Hall Road, Sterling Heights, Macomb County, Michigan, 48313, United States of America","place_id":"171840273","datatype":"locationiq"},{"latitude":"41.8249359","longitude":"-85.4470215","name":"DUNHAM'S SPORTS-Sturgis,MI","address":"69060 M66, Sturgis,MI 49091, (269) 651-2731","street_number":"26084","street_name":"Grim Road","zip":"49091","city":"Sturgis","area":null,"county":"Saint Joseph County","state":"Michigan","country":"us","formatted_address":"26084, Grim Road, Sturgis, Saint Joseph County, Michigan, 49091, United States of America","place_id":"191547239","datatype":"locationiq"},{"latitude":"42.223222","longitude":"-83.270038","name":"DUNHAM'S SPORTS-Taylor,MI","address":"11500 Telegraph [Tel Goddard Center], Taylor,MI 48180, (734) 759-1012","street_number":"11210","street_name":"Telegraph Road","zip":"48180","city":"Taylor","area":null,"county":"Wayne County","state":"Michigan","country":"us","formatted_address":"11210, Telegraph Road, Taylor, Wayne County, Michigan, 48180, United States of America","place_id":"191736255","datatype":"locationiq"},{"latitude":"41.9327087","longitude":"-85.6401062","name":"DUNHAM'S SPORTS-Three Rivers,MI","address":"1320 W Broadway Road [Three Rivers Plaza], Three Rivers,MI 49093, (269) 273-7646","street_number":"698","street_name":"West Broadway Street","zip":"49093","city":"Three Rivers","area":null,"county":"Saint Joseph County","state":"Michigan","country":"us","formatted_address":"698, West Broadway Street, Three Rivers, Saint Joseph County, Michigan, 49093, United States of America","place_id":"191552426","datatype":"locationiq"},{"latitude":"44.7548192","longitude":"-85.5725131","name":"DUNHAM'S SPORTS-Traverse City,MI","address":"736 Munson Avenue [East Bay Plaza], Traverse City,MI 49686, (231) 935-1414","street_number":"686","street_name":"Munson Avenue","zip":"49686","city":"Traverse City","area":null,"county":"Grand Traverse County","state":"Michigan","country":"us","formatted_address":"686, Munson Avenue, Traverse City, Grand Traverse County, Michigan, 49686, United States of America","place_id":"190869261","datatype":"locationiq"},{"latitude":"42.5452579","longitude":"-83.1863394","name":"DUNHAM'S SPORTS-Troy,MI","address":"1285 N Coolidge Hwy [Midtown Square], Troy,MI 48084, (248) 614-3952","street_number":"1380","street_name":"Coolidge Highway","zip":"48084","city":"Troy","area":null,"county":"Oakland County","state":"Michigan","country":"us","formatted_address":"Artisan Cosmetic Surgery Center, 1380, Coolidge Highway, Troy, Oakland County, Michigan, 48084, United States of America","place_id":"44430880","datatype":"locationiq"},{"latitude":"42.4871993","longitude":"-83.0064619","name":"DUNHAM'S SPORTS-Warren,MI","address":"26285 Hoover Road, Warren,MI 48089, (586) 574-9520","street_number":"26291","street_name":"Hoover Road","zip":"48089","city":"Warren","area":null,"county":"Macomb County","state":"Michigan","country":"us","formatted_address":"26291, Hoover Road, Warren, Macomb County, Michigan, 48089, United States of America","place_id":"191148384","datatype":"locationiq"},{"latitude":"42.6921868","longitude":"-83.3887785","name":"DUNHAM'S SPORTS-Waterford,MI","address":"5000 Dixie Highway, Waterford,MI 48329, (248) 674-4975","street_number":"5002","street_name":"Dixie Highway","zip":"48329","city":null,"area":null,"county":"Oakland County","state":"Michigan","country":"us","formatted_address":"5002, Dixie Highway, Waterford Township, Oakland County, Michigan, 48329, United States of America","place_id":"191418147","datatype":"locationiq"},{"latitude":"42.5307198","longitude":"-83.360128","name":"DUNHAM'S SPORTS-West Bloomfield,MI","address":"7320 Orchard Lake Road [Gateway Center], West Bloomfield,MI 48322, (248) 626-9595","street_number":null,"street_name":"Orchard Lake Road","zip":"48334","city":null,"area":null,"county":"Oakland County","state":"Michigan","country":"us","formatted_address":"Orchard Lake & 14 Mile, Orchard Lake Road, West Bloomfield Township, Oakland County, Michigan, 48334, United States of America","place_id":"23515912","datatype":"locationiq"},{"latitude":"42.2497619","longitude":"-83.6556982","name":"DUNHAM'S SPORTS-Ypsilanti,MI","address":"2850 Washtenaw Ave 1C [Washtenaw Fountain Plaza], Ypsilanti,MI 48197, (734) 434-8500","street_number":"2848","street_name":"Washtenaw Road","zip":"48197","city":null,"area":null,"county":"Washtenaw County","state":"Michigan","country":"us","formatted_address":"2848, Washtenaw Road, Ypsilanti Township, Washtenaw County, Michigan, 48197, United States of America","place_id":"191631862","datatype":"locationiq"},{"latitude":"43.6803251","longitude":"-93.3588766","name":"DUNHAM'S SPORTS-Albert Lea,MN","address":"2500 N Bridge Avenue [Northbridge Mall], Albert Lea,MN 56007, (507) 369-1444","street_number":"2500","street_name":"Bridge Avenue","zip":"56007","city":"Albert Lea","area":null,"county":"Freeborn County","state":"Minnesota","country":"us","formatted_address":"2500, Bridge Avenue, Albert Lea, Freeborn County, Minnesota, 56007, United States of America","place_id":"192038363","datatype":"locationiq"},{"latitude":"45.8614693","longitude":"-95.3801804","name":"DUNHAM'S SPORTS-Alexandria,MN","address":"3015 Highway 29 South [Viking Plaza], Alexandria,MN 56308, (320) 763-5005","street_number":"3015-#137","street_name":"30th Avenue West","zip":"56308","city":"Alexandria","area":null,"county":"Douglas County","state":"Minnesota","country":"us","formatted_address":"JCPenney, 3015-#137, 30th Avenue West, Alexandria, Douglas County, Minnesota, 56308, United States of America","place_id":"44269032","datatype":"locationiq"},{"latitude":"46.356884","longitude":"-94.2253342","name":"DUNHAM'S SPORTS-Baxter,MN","address":"14136 Baxter Drive [Westgate Mall], Baxter,MN 56425, (218) 829-2367","street_number":null,"street_name":"Excelsior Road North","zip":"56425","city":"Baxter","area":null,"county":"Crow Wing County","state":"Minnesota","country":"us","formatted_address":"Excelsior Road North, Baxter, Crow Wing County, Minnesota, 56425, United States of America","place_id":"70179092","datatype":"locationiq"},{"latitude":"46.8079196","longitude":"-92.1692224","name":"DUNHAM'S SPORTS-Duluth,MN","address":"5115 Burning Tree Rd [Burning Tree Plaza], Duluth,MN 55811, (218) 727-3099","street_number":null,"street_name":"Burning Tree Road","zip":"55811","city":"Duluth","area":null,"county":"Saint Louis County","state":"Minnesota","country":"us","formatted_address":"Burning Tree Rd - Best Bu, Burning Tree Road, Duluth, Saint Louis County, Minnesota, 55811, United States of America","place_id":"22215997","datatype":"locationiq"},{"latitude":"43.6498587","longitude":"-94.4474493","name":"DUNHAM'S SPORTS-Fairmont,MN","address":"400 S State Street [Five Lakes Center], Fairmont,MN 56031, (507) 238-9990","street_number":"598","street_name":"South State Street","zip":"56031","city":"Fairmont","area":null,"county":"Martin County","state":"Minnesota","country":"us","formatted_address":"598, South State Street, Fairmont, Martin County, Minnesota, 56031, United States of America","place_id":"192270940","datatype":"locationiq"},{"latitude":"46.2878533","longitude":"-96.109626","name":"DUNHAM'S SPORTS-Fergus Falls,MN","address":"2001 West Lincoln Avenue [Westridge Mall], Fergus Falls,MN 56537, (218) 739-5708","street_number":"2002","street_name":"West Lincoln Avenue","zip":"56537","city":"Fergus Falls","area":null,"county":"Otter Tail County","state":"Minnesota","country":"us","formatted_address":"2002, West Lincoln Avenue, Fergus Falls, Otter Tail County, Minnesota, 56537, United States of America","place_id":"192377935","datatype":"locationiq"},{"latitude":"44.8589592","longitude":"-94.3755722","name":"DUNHAM'S SPORTS-Hutchinson,MN","address":"1060 Highway 15 South [Hutchinson Mall], Hutchinson,MN 55350, (320) 587-7744","street_number":"16704","street_name":"MN 15","zip":"55350","city":null,"area":null,"county":"McLeod County","state":"Minnesota","country":"us","formatted_address":"16704, MN 15, Hutchinson, McLeod County, Minnesota, 55350, United States of America","place_id":"192255468","datatype":"locationiq"},{"latitude":"44.5682392","longitude":"-92.5849827","name":"DUNHAM'S SPORTS-Red Wing,MN","address":"140 Tyler Road North [Red Wing Mall], Red Wing,MN 55066, (651) 388-1402","street_number":null,"street_name":"North Service Drive","zip":"55066","city":"Red Wing","area":null,"county":"Goodhue County","state":"Minnesota","country":"us","formatted_address":"Super America, North Service Drive, Red Wing, Goodhue County, Minnesota, 55066, United States of America","place_id":"142364757","datatype":"locationiq"},{"latitude":"47.5119316","longitude":"-92.5519068","name":"DUNHAM'S SPORTS-Virginia,MN","address":"1444 S 12Th Avenue [Thunderbird Mall], Virginia,MN 55792, (218) 749-3810","street_number":null,"street_name":"South 12th Avenue West","zip":"55792","city":"Virginia","area":null,"county":"Saint Louis County","state":"Minnesota","country":"us","formatted_address":"Arby's, South 12th Avenue West, Virginia, Saint Louis County, Minnesota, 55792, United States of America","place_id":"165053861","datatype":"locationiq"},{"latitude":"45.5497292","longitude":"-94.2199165","name":"DUNHAM'S SPORTS-Waite Park,MN","address":"400 Second Street South [Quad Shopping Cnt], Waite Park,MN 56387, (320) 251-2511","street_number":null,"street_name":"6th ave s","zip":"56387","city":"Waite Park","area":null,"county":"Stearns County","state":"Minnesota","country":"us","formatted_address":"6th ave s, Waite Park, Stearns County, Minnesota, 56387, United States of America","place_id":"95950182","datatype":"locationiq"},{"latitude":"45.1067177","longitude":"-95.0426909","name":"DUNHAM'S SPORTS-Willmar,MN","address":"1605 S First Street [Kandi Mall], Willmar,MN 56201, (320) 235-1666","street_number":"1605","street_name":"1st Street South","zip":"56201","city":"Willmar","area":null,"county":"Kandiyohi County","state":"Minnesota","country":"us","formatted_address":"Verizon Wireless, 1605, 1st Street South, Willmar, Kandiyohi County, Minnesota, 56201, United States of America","place_id":"144684761","datatype":"locationiq"},{"latitude":"39.724583","longitude":"-91.3955929","name":"DUNHAM'S SPORTS-Hannibal,MO","address":"521 Huck Finn Shopping Center [Huck Finn Shopping Center], Hannibal,MO 63401, (573) 406-1502","street_number":"89","street_name":"Melgrove Lane","zip":"63401","city":"Hannibal","area":null,"county":"Marion County","state":"Missouri","country":"us","formatted_address":"89, Melgrove Lane, Hannibal, Marion County, Missouri, 63401, United States of America","place_id":"193789695","datatype":"locationiq"},{"latitude":"36.7635135","longitude":"-90.4116111","name":"DUNHAM'S SPORTS-Poplar Bluff,MO","address":"763 N Westwood Blvd [Valley Plaza], Poplar Bluff,MO 63901, (573) 727-9121","street_number":"763","street_name":"North Westwood Boulevard","zip":"63901","city":"Poplar Bluff","area":null,"county":"Butler County","state":"Missouri","country":"us","formatted_address":"763, North Westwood Boulevard, Poplar Bluff, Butler County, Missouri, 63901, United States of America","place_id":"193303904","datatype":"locationiq"},{"latitude":"35.33461","longitude":"-82.4452209","name":"DUNHAM'S SPORTS-Hendersonville,NC","address":"1800 Four Seasons Blvd [Blue Ridge Mall], Hendersonville,NC 28792, (828) 698-7730","street_number":null,"street_name":"Freeman Street","zip":"28738","city":null,"area":null,"county":"Henderson County","state":"North Carolina","country":"us","formatted_address":"Freeman Street, Hendersonville, Henderson County, North Carolina, 28738, United States of America","place_id":"69253717","datatype":"locationiq"},{"latitude":"35.9260467","longitude":"-81.526429","name":"DUNHAM'S SPORTS-Lenoir,NC","address":"847 Blowing Rock Blvd NW [North Hills Plaza Shopping Center], Lenoir,NC 28645, (828) 754-3882","street_number":"816","street_name":"Blowing Rock Boulevard","zip":"28645","city":null,"area":null,"county":"Caldwell County","state":"North Carolina","country":"us","formatted_address":"816, Blowing Rock Boulevard, Lenoir, Caldwell County, North Carolina, 28645, United States of America","place_id":"197299744","datatype":"locationiq"},{"latitude":"35.269515","longitude":"-81.482742","name":"DUNHAM'S SPORTS-Shelby,NC","address":"2001 53 E Dixon Blvd [Cleveland Mall], Shelby,NC 28152, (704) 482-4298","street_number":null,"street_name":"State Road 2091","zip":null,"city":"Shelby","area":null,"county":"Cleveland County","state":"North Carolina","country":"us","formatted_address":"State Road 2091, Shelby, Cleveland County, North Carolina, United States of America","place_id":"69076327","datatype":"locationiq"},{"latitude":"36.1484299","longitude":"-81.1981888","name":"DUNHAM'S SPORTS-Wilkesboro,NC","address":"1909 W US Highway 421, Wilkesboro,NC 28697, (336) 667-2240","street_number":null,"street_name":"Highway 421","zip":"28697","city":null,"area":null,"county":"Wilkes County","state":"North Carolina","country":"us","formatted_address":"Belk's, Highway 421, Wilkesboro, Wilkes County, North Carolina, 28697, United States of America","place_id":"41086155","datatype":"locationiq"},{"latitude":"40.6153802","longitude":"-98.3829828","name":"DUNHAM'S SPORTS-Hastings,NE","address":"3000 Tom Osborne Parkway East, Hastings,NE 68901, (402) 462-8847","street_number":"2993","street_name":"Tom Osborne Expressway","zip":"68901","city":"Hastings","area":null,"county":"Adams County","state":"Nebraska","country":"us","formatted_address":"2993, Tom Osborne Expressway, Hastings, Adams County, Nebraska, 68901, United States of America","place_id":"194416730","datatype":"locationiq"},{"latitude":"41.8713417","longitude":"-103.6504669","name":"DUNHAM'S SPORTS-Scottsbluff,NE","address":"2410 Frontage Road #64A [Monument Mall], Scottsbluff,NE 69361, (308) 220-0071","street_number":null,"street_name":"Frontage Road","zip":"69361","city":"Scottsbluff","area":null,"county":"Scotts Bluff County","state":"Nebraska","country":"us","formatted_address":"Frontage Road, Scottsbluff, Scotts Bluff County, Nebraska, 69361, United States of America","place_id":"67726443","datatype":"locationiq"},{"latitude":"40.89844","longitude":"-81.155707","name":"DUNHAM'S SPORTS-Alliance,OH","address":"2500 West State Street [Carnation Mall], Alliance,OH 44601, (330) 829-0740","street_number":null,"street_name":"Quality Drive","zip":"44650","city":"Alliance","area":null,"county":"Stark County","state":"Ohio","country":"us","formatted_address":"Cinemark, Quality Drive, Alliance, Stark County, Ohio, 44650, United States of America","place_id":"39523677","datatype":"locationiq"},{"latitude":"41.879306","longitude":"-80.757098","name":"DUNHAM'S SPORTS-Ashtabula,OH","address":"3315 N Ridge East 230 [Ashtabula Mall], Ashtabula,OH 44004, (440) 998-4200","street_number":null,"street_name":"North Ridge Road East","zip":"44004","city":null,"area":null,"county":"Ashtabula County","state":"Ohio","country":"us","formatted_address":"North Ridge Road East, North Kingsville, Ashtabula County, Ohio, 44004, United States of America","place_id":"84617705","datatype":"locationiq"},{"latitude":"39.3368964","longitude":"-82.0678196","name":"DUNHAM'S SPORTS-Athens,OH","address":"1006 East State Street [University Mall], Athens,OH 45701, (740) 592-1032","street_number":null,"street_name":"East State Street","zip":"45764","city":"Athens","area":null,"county":"Athens County","state":"Ohio","country":"us","formatted_address":"McDonald's, East State Street, Athens, Athens County, Ohio, 45764, United States of America","place_id":"53519901","datatype":"locationiq"},{"latitude":"40.33239","longitude":"-83.7615025","name":"DUNHAM'S SPORTS-Bellefontaine,OH","address":"2061 S Main Street [Highpoint Village], Bellefontaine,OH 43311, (937) 592-3888","street_number":"1843","street_name":"South Main Street","zip":"43311","city":"Bellefontaine","area":null,"county":"Logan County","state":"Ohio","country":"us","formatted_address":"1843, South Main Street, Bellefontaine, Lake Township, Logan County, Ohio, 43311, United States of America","place_id":"199467092","datatype":"locationiq"},{"latitude":"41.398138","longitude":"-83.647104","name":"DUNHAM'S SPORTS-Bowling Green,OH","address":"1234 N Main Street [Woodland Towne Center], Bowling Green,OH 43402, (419) 353-0470","street_number":null,"street_name":"Newton Road","zip":"43402","city":"Bowling Green","area":"Bellard Business Center","county":"Wood County","state":"Ohio","country":"us","formatted_address":"Woodland Mall, Newton Road, Bellard Business Center, Bowling Green, Wood County, Ohio, 43402, United States of America","place_id":"90303305","datatype":"locationiq"},{"latitude":"40.5587082","longitude":"-84.5395432","name":"DUNHAM'S SPORTS-Celina,OH","address":"1951 Havemann Road [Lakewood Village Center], Celina,OH 45822, (419) 268-0021","street_number":null,"street_name":"Irmscher Boulevard","zip":"45822","city":"Celina","area":null,"county":"Mercer County","state":"Ohio","country":"us","formatted_address":"Irmscher Boulevard, Celina, Mercer County, Ohio, 45822, United States of America","place_id":"113017705","datatype":"locationiq"},{"latitude":"39.3459216","longitude":"-82.9776773","name":"DUNHAM'S SPORTS-Chillicothe,OH","address":"110 Consumer Center Dr [Shawnee Square], Chillicothe,OH 45601, (740) 779-2330","street_number":"1","street_name":"Consumer Center Drive","zip":"45601","city":"Chillicothe","area":null,"county":"Ross County","state":"Ohio","country":"us","formatted_address":"Bob Evans, 1, Consumer Center Drive, Chillicothe, Ross County, Ohio, 45601, United States of America","place_id":"130008396","datatype":"locationiq"},{"latitude":"41.3028946","longitude":"-84.3628006","name":"DUNHAM'S SPORTS-Defiance,OH","address":"1500 N Clinton St [Northtowne Mall], Defiance,OH 43512, (419) 784-9844","street_number":null,"street_name":"North Clinton Street","zip":"43512","city":"Defiance","area":"Holgate Avenue Historic District","county":"Defiance County","state":"Ohio","country":"us","formatted_address":"North Clinton Street, Holgate Avenue Historic District, Defiance, Defiance County, Ohio, 43512, United States of America","place_id":"64252184","datatype":"locationiq"},{"latitude":"40.6731597","longitude":"-80.5779496","name":"DUNHAM'S SPORTS-East Liverpool,OH","address":"15765 St [Rte 170] [St Clair Plaza], East Liverpool,OH 43920, (330) 385-6154","street_number":null,"street_name":"SR 170","zip":"43920","city":null,"area":null,"county":"Columbiana County","state":"Ohio","country":"us","formatted_address":"Tim Hortons, SR 170, Calcutta, Columbiana County, Ohio, 43920, United States of America","place_id":"163095486","datatype":"locationiq"},{"latitude":"41.398195","longitude":"-82.1106248","name":"DUNHAM'S SPORTS-Elyria,OH","address":"4377 Midway Mall  [Midway Mall], Elyria,OH 44035, (440) 324-6642","street_number":null,"street_name":"Moran Avenue","zip":"44035","city":"Elyria","area":null,"county":"Lorain County","state":"Ohio","country":"us","formatted_address":"Moran Avenue, Elyria, Lorain County, Ohio, 44035, United States of America","place_id":"71299002","datatype":"locationiq"},{"latitude":"41.054932","longitude":"-83.614605","name":"DUNHAM'S SPORTS-Findlay,OH","address":"1800 Tiffin Avenue [Findlay Village Mall], Findlay,OH 45839, (419) 421-0554","street_number":null,"street_name":"Tiffin Avenue","zip":"45840","city":"Findlay","area":"Lantern Gate Condo 1","county":"Hancock County","state":"Ohio","country":"us","formatted_address":"Findlay Village Mall, Tiffin Avenue, Lantern Gate Condo 1, Findlay, Hancock County, Ohio, 45840, United States of America","place_id":"123613428","datatype":"locationiq"},{"latitude":"39.2516888","longitude":"-84.7926997","name":"DUNHAM'S SPORTS-Harrison,OH","address":"10515 B Harrison Ave [Harrison Center], Harrison,OH 45030, (513) 202-0502","street_number":"10613","street_name":"Harrison Avenue","zip":"45030","city":null,"area":null,"county":"Hamilton County","state":"Indiana","country":"us","formatted_address":"10613, Harrison Avenue, West Harrison, Harrison Township, Hamilton County, Indiana, 45030, United States of America","place_id":"199280872","datatype":"locationiq"},{"latitude":"40.0370561","longitude":"-82.4306357","name":"DUNHAM'S SPORTS-Heath,OH","address":"571 Hebron Road [Southgate Shopping Center], Heath,OH 43056, (740) 522-1490","street_number":"571","street_name":"Hebron Road","zip":"43056","city":"Heath","area":null,"county":"Licking County","state":"Ohio","country":"us","formatted_address":"571, Hebron Road, Heath, Licking County, Ohio, 43056, United States of America","place_id":"199462206","datatype":"locationiq"},{"latitude":"40.7617389","longitude":"-84.1468144","name":"DUNHAM'S SPORTS-Lima,OH","address":"2290 Elida Road [Lima Plaza], Lima,OH 45805, (419) 223-0002","street_number":"2293","street_name":"Elida Road","zip":"45805","city":null,"area":null,"county":"Allen County","state":"Ohio","country":"us","formatted_address":"2293, Elida Road, Elida, Allen County, Ohio, 45805, United States of America","place_id":"198764622","datatype":"locationiq"},{"latitude":"40.581008","longitude":"-83.0943681","name":"DUNHAM'S SPORTS-Marion,OH","address":"1296 Mt Vernon Ave [#28] [Marion Plaza], Marion,OH 43302, (740) 389-4554","street_number":"1340","street_name":"Mt Vernon Avenue","zip":"43302","city":"Marion","area":null,"county":"Marion County","state":"Ohio","country":"us","formatted_address":"1340, Mt Vernon Avenue, Marion, Marion County, Ohio, 43302, United States of America","place_id":"199560829","datatype":"locationiq"},{"latitude":"40.2394638","longitude":"-83.3400269","name":"DUNHAM'S SPORTS-Marysville,OH","address":"15715 Us Route 36, Marysville,OH 43040, (937) 578-0253","street_number":"15707","street_name":"Delaware Ave","zip":"43040","city":"Marysville","area":null,"county":"Union County","state":"Ohio","country":"us","formatted_address":"15707, Delaware Ave, Marysville, Union County, Ohio, 43040, United States of America","place_id":"199982897","datatype":"locationiq"},{"latitude":"40.798168","longitude":"-81.4903003","name":"DUNHAM'S SPORTS-Massillon,OH","address":"2366 Lincoln Way East [Massillon Commons], Massillon,OH 44646, (330) 830-1176","street_number":"2382","street_name":"Lincoln Way East","zip":"44646","city":"Massillon","area":"Fourth Street Historic District","county":"Stark County","state":"Ohio","country":"us","formatted_address":"2382, Lincoln Way East, Fourth Street Historic District, Massillon, Stark County, Ohio, 44646, United States of America","place_id":"199847923","datatype":"locationiq"},{"latitude":"40.4783","longitude":"-81.437819","name":"DUNHAM'S SPORTS-New Philadelphia,OH","address":"400 Mill Ave Se [Newtowne Mall], New Philadelphia,OH 44663, (330) 339-7999","street_number":"875","street_name":"Mill Avenue Southeast","zip":"44663","city":"New Philadelphia","area":null,"county":"Tuscarawas County","state":"Ohio","country":"us","formatted_address":"875, Mill Avenue Southeast, New Philadelphia, Tuscarawas County, Ohio, 44663, United States of America","place_id":"199980492","datatype":"locationiq"},{"latitude":"40.778262","longitude":"-82.5903346","name":"DUNHAM'S SPORTS-Ontario,OH","address":"939 N Lexington Springmill Rd [Village Square Shopping Center], Ontario,OH 44906, (419) 529-9690","street_number":"905","street_name":"North Lexington-Springmill Road","zip":"44906","city":"Ontario","area":null,"county":"Richland County","state":"Ohio","country":"us","formatted_address":"905, North Lexington-Springmill Road, Ontario, Springfield Township, Richland County, Ohio, 44906, United States of America","place_id":"199780738","datatype":"locationiq"},{"latitude":"40.1479149","longitude":"-84.2227478","name":"DUNHAM'S SPORTS-Piqua,OH","address":"987 E Ash St [Miami Valley Shopping Ctr], Piqua,OH 45356, (937) 778-1362","street_number":null,"street_name":"Centre Court","zip":"45356","city":"Piqua","area":null,"county":"Miami County","state":"Ohio","country":"us","formatted_address":"Centre Court, Miami Valley Centre Mall, Piqua, Miami County, Ohio, 45356, United States of America","place_id":"70709573","datatype":"locationiq"},{"latitude":"41.405704","longitude":"-82.657743","name":"DUNHAM'S SPORTS-Sandusky,OH","address":"5500 Milan Road [Park Place], Sandusky,OH 44870, (419) 625-6500","street_number":null,"street_name":"Westwind Drive","zip":"44870","city":null,"area":null,"county":"Erie County","state":"Ohio","country":"us","formatted_address":"Westwind Drive, Bogart, Erie County, Ohio, 44870, United States of America","place_id":"70743372","datatype":"locationiq"},{"latitude":"39.9489538","longitude":"-83.8509741","name":"DUNHAM'S SPORTS-Springfield,OH","address":"1600 Upper Valley Pike [Springfield Plaza], Springfield,OH 45504, (937) 325-3205","street_number":"1628","street_name":"Upper Valley Pike","zip":"45504","city":null,"area":null,"county":"Clark County","state":"Ohio","country":"us","formatted_address":"1628, Upper Valley Pike, Upper Valley Mall, Tremont City, Clark County, Ohio, 45504, United States of America","place_id":"198894175","datatype":"locationiq"},{"latitude":"41.0505676","longitude":"-81.7314835","name":"DUNHAM'S SPORTS-Wadsworth,OH","address":"180 Great Oaks Trail [Wadsworth Plaza], Wadsworth,OH 44281, (330) 334-3257","street_number":null,"street_name":"Freedom Drive","zip":"44281","city":"Wadsworth","area":null,"county":"Medina County","state":"Ohio","country":"us","formatted_address":"Freedom Drive, Wadsworth, Medina County, Ohio, 44281, United States of America","place_id":"70749510","datatype":"locationiq"},{"latitude":"40.8476297","longitude":"-81.9451986","name":"DUNHAM'S SPORTS-Wooster,OH","address":"3934 Burbank Rd, Wooster,OH 44691, (330) 345-1367","street_number":null,"street_name":"Burbank Road","zip":"44214","city":null,"area":null,"county":"Wayne County","state":"Ohio","country":"us","formatted_address":"Applebee's, Burbank Road, Burbank, Congress Township, Wayne County, Ohio, 44214, United States of America","place_id":"6899885","datatype":"locationiq"},{"latitude":"39.9872963","longitude":"-82.0224154","name":"DUNHAM'S SPORTS-Zanesville,OH","address":"3575 Maple Avenue [Colony Square Mall], Zanesville,OH 43701, (740) 588-9100","street_number":"3545","street_name":"Maple Avenue","zip":"43701","city":"Zanesville","area":"Fairmont Avenue Historic District","county":"Muskingum County","state":"Ohio","country":"us","formatted_address":"3545, Maple Avenue, Fairmont Avenue Historic District, Zanesville, Muskingum County, Ohio, 43701, United States of America","place_id":"199695377","datatype":"locationiq"},{"latitude":"35.3874245","longitude":"-96.9285736","name":"DUNHAM'S SPORTS-Shawnee,OK","address":"4901 N Kickapoo St [Shawnee Mall], Shawnee,OK 74804, (405) 214-0476","street_number":null,"street_name":"North Kickapoo Street","zip":"74804","city":"Shawnee","area":null,"county":"Pottawatomie County","state":"Oklahoma","country":"us","formatted_address":"North Kickapoo Street, Shawnee, Pottawatomie County, Oklahoma, 74804, United States of America","place_id":"93730091","datatype":"locationiq"},{"latitude":"40.7742432","longitude":"-80.3764373","name":"DUNHAM'S SPORTS-Beaver Falls,PA","address":"2556 Constitution Blvd [Chippewa Center], Beaver Falls,PA 15010, (724) 843-5705","street_number":"2538","street_name":"Constitution Boulevard","zip":"15010","city":null,"area":null,"county":"Beaver County","state":"Pennsylvania","country":"us","formatted_address":"2538, Constitution Boulevard, Riverview, Beaver County, Pennsylvania, 15010, United States of America","place_id":"201316552","datatype":"locationiq"},{"latitude":"40.367417","longitude":"-80.109","name":"DUNHAM'S SPORTS-Bridgeville,PA","address":"1025 Washington Pike [Chartiers Valley], Bridgeville,PA 15017, (412) 257-9100","street_number":null,"street_name":"Washington Pike","zip":"15017","city":null,"area":null,"county":"Allegheny County","state":"Pennsylvania","country":"us","formatted_address":"Giant Eagle, Washington Pike, Collier Township, Allegheny County, Pennsylvania, 15017, United States of America","place_id":"134353783","datatype":"locationiq"},{"latitude":"40.8747057","longitude":"-79.9519372","name":"DUNHAM'S SPORTS-Butler,PA","address":"602 Moraine Pointe Plaza [Temporarily Closed for Relocation], Butler,PA 16001, (724) 287-7899","street_number":null,"street_name":"Moraine Point Plaza","zip":"16001","city":null,"area":null,"county":"Butler County","state":"Pennsylvania","country":"us","formatted_address":"Moraine Point Plaza, Homeacre-Lyndora, Butler County, Pennsylvania, 16001, United States of America","place_id":"107095035","datatype":"locationiq"},{"latitude":"41.35331","longitude":"-79.716386","name":"DUNHAM'S SPORTS-Cranberry,PA","address":"6945 Us Route 322 [Cranberry Mall], Cranberry,PA 16319, (814) 676-5705","street_number":null,"street_name":"Twenty-Eighth Division Highway","zip":"16346","city":null,"area":null,"county":"Venango County","state":"Pennsylvania","country":"us","formatted_address":"Cranberry Mall, Twenty-Eighth Division Highway, Egypt Corners, Venango County, Pennsylvania, 16346, United States of America","place_id":"141166028","datatype":"locationiq"},{"latitude":"40.637904","longitude":"-79.942167","name":"DUNHAM'S SPORTS-Gibsonia,PA","address":"200 Northtowne Square [Northtowne Square Plaza], Gibsonia,PA 15044, (724) 444-0100","street_number":"200","street_name":"Northtowne Square","zip":"15044","city":null,"area":null,"county":"Allegheny County","state":"Pennsylvania","country":"us","formatted_address":"200, Northtowne Square, Richland Township, Allegheny County, Pennsylvania, 15044, United States of America","place_id":"36436638","datatype":"locationiq"},{"latitude":"41.2333945","longitude":"-80.4679147","name":"DUNHAM'S SPORTS-Hermitage,PA","address":"2267 E State St [Hermitage Towne Plaza], Hermitage,PA 16148, (724) 346-6182","street_number":"2269","street_name":"East State Street","zip":"16148","city":"Sharon","area":null,"county":"Mercer County","state":"Pennsylvania","country":"us","formatted_address":"2269, East State Street, Sharon, Mercer County, Pennsylvania, 16148, United States of America","place_id":"202056823","datatype":"locationiq"},{"latitude":"41.623408","longitude":"-80.1609714","name":"DUNHAM'S SPORTS-Meadville,PA","address":"18977 Park Avenue Plaza [Park Avenue Plaza], Meadville,PA 16335, (814) 333-8141","street_number":"19068","street_name":"Smock Highway","zip":"16335","city":null,"area":null,"county":"Crawford County","state":"Pennsylvania","country":"us","formatted_address":"19068, Smock Highway, Fredericksburg, Crawford County, Pennsylvania, 16335, United States of America","place_id":"201613942","datatype":"locationiq"},{"latitude":"40.434132","longitude":"-79.789543","name":"DUNHAM'S SPORTS-Monroeville,PA","address":"3700 William Penn Highway, Monroeville,PA 15146, (412) 856-5078","street_number":null,"street_name":"William Penn Highway","zip":"15146","city":"Monroeville","area":null,"county":"Allegheny County","state":"Pennsylvania","country":"us","formatted_address":"Babies R Us, William Penn Highway, Monroeville, Allegheny County, Pennsylvania, 15146, United States of America","place_id":"22898846","datatype":"locationiq"},{"latitude":"40.6462055","longitude":"-79.7101745","name":"DUNHAM'S SPORTS-Natrona Heights,PA","address":"40 Highlands Mall  [Highlands Mall], Natrona Heights,PA 15065, (724) 230-0102","street_number":null,"street_name":"Highlands Mall Drive","zip":"15065","city":null,"area":null,"county":"Allegheny County","state":"Pennsylvania","country":"us","formatted_address":"Tractor Supply Co., Highlands Mall Drive, Harrison Township, Allegheny County, Pennsylvania, 15065, United States of America","place_id":"171486091","datatype":"locationiq"},{"latitude":"41.0117993","longitude":"-80.393079","name":"DUNHAM'S SPORTS-New Castle,PA","address":"2522 A West State St [Union Plaza], New Castle,PA 16101, (724) 657-8833","street_number":"2533","street_name":"West State Street","zip":"16101","city":null,"area":null,"county":"Lawrence County","state":"Pennsylvania","country":"us","formatted_address":"2533, West State Street, Parkstown, Lawrence County, Pennsylvania, 16101, United States of America","place_id":"201933540","datatype":"locationiq"},{"latitude":"40.3706114","longitude":"-79.7862441","name":"DUNHAM'S SPORTS-North Versailles,PA","address":"1701 Lincoln Hwy [Pittsburgh Plaza East], North Versailles,PA 15137, (412) 829-8066","street_number":"1699","street_name":"Lincoln Highway","zip":"15137","city":null,"area":null,"county":"Allegheny County","state":"Pennsylvania","country":"us","formatted_address":"1699, Lincoln Highway, North Versailles, Allegheny County, Pennsylvania, 15137, United States of America","place_id":"201241181","datatype":"locationiq"},{"latitude":"40.5510223","longitude":"-80.0194283","name":"DUNHAM'S SPORTS-Pittsburgh,PA","address":"8070 Mcknight Rd [Mcintyre Square], Pittsburgh,PA 15237, (412) 364-0315","street_number":"7630","street_name":"McKnight Road","zip":"15237","city":null,"area":null,"county":"Allegheny County","state":"Pennsylvania","country":"us","formatted_address":"7630, McKnight Road, Ross Township, Allegheny County, Pennsylvania, 15237, United States of America","place_id":"201280338","datatype":"locationiq"},{"latitude":"40.5085872","longitude":"-79.851817","name":"DUNHAM'S SPORTS-Pittsburgh,PA","address":"972 Freeport Rd [Waterworks Center], Pittsburgh,PA 15238, (412) 784-0700","street_number":"916","street_name":"Freeport Road","zip":"15238","city":null,"area":null,"county":"Allegheny County","state":"Pennsylvania","country":"us","formatted_address":"916, Freeport Road, Harmar Township, Allegheny County, Pennsylvania, 15238, United States of America","place_id":"201275609","datatype":"locationiq"},{"latitude":"39.907345","longitude":"-79.7442536","name":"DUNHAM'S SPORTS-Uniontown,PA","address":"1700 Mall Run Road [Uniontown Mall], Uniontown,PA 15401, (724) 438-7200","street_number":"1713","street_name":"Mall Run Rd","zip":"15401","city":null,"area":null,"county":"Fayette County","state":"Pennsylvania","country":"us","formatted_address":"1713, Mall Run Rd, South Uniontown, Fayette County, Pennsylvania, 15401, United States of America","place_id":"201767804","datatype":"locationiq"},{"latitude":"40.3461501","longitude":"-79.943931","name":"DUNHAM'S SPORTS-West Mifflin,PA","address":"2315 Mountain View Dr  [Century Square Plaza], West Mifflin,PA 15122, (412) 655-0499","street_number":null,"street_name":"Century III Boulevard","zip":"15122","city":"West Mifflin","area":null,"county":"Allegheny County","state":"Pennsylvania","country":"us","formatted_address":"Chili's, Century III Boulevard, West Mifflin, Allegheny County, Pennsylvania, 15122, United States of America","place_id":"26299352","datatype":"locationiq"},{"latitude":"45.4591747","longitude":"-98.4424742","name":"DUNHAM'S SPORTS-Aberdeen,SD","address":"3315 6th Avenue [Lakewood Mall], Aberdeen,SD 57401, (605) 229-3023","street_number":"3311","street_name":"6th Avenue Southeast","zip":"57401","city":"Aberdeen","area":null,"county":"Brown County","state":"South Dakota","country":"us","formatted_address":"Pizza Hut + Wing Street, 3311, 6th Avenue Southeast, Aberdeen, Brown County, South Dakota, 57401, United States of America","place_id":"27218148","datatype":"locationiq"},{"latitude":"44.3114965","longitude":"-96.7761685","name":"DUNHAM'S SPORTS-Brookings,SD","address":"1721 Sixth Street [Village Square], Brookings,SD 57006, (605) 697-5520","street_number":null,"street_name":"6th Street","zip":"57006","city":"Brookings","area":null,"county":"Brookings County","state":"South Dakota","country":"us","formatted_address":"The Wash Stop, 6th Street, Brookings, Brookings County, South Dakota, 57006, United States of America","place_id":"126647794","datatype":"locationiq"},{"latitude":"44.8901781","longitude":"-97.1358102","name":"DUNHAM'S SPORTS-Watertown,SD","address":"1300 9Th Ave SE [Watertown Mall], Watertown,SD 57201, (605) 882-3478","street_number":null,"street_name":"9th Avenue Southwest","zip":"57201","city":"Watertown","area":null,"county":"Codington County","state":"South Dakota","country":"us","formatted_address":"9th Avenue Southwest, Watertown, Codington County, South Dakota, 57201, United States of America","place_id":"126780125","datatype":"locationiq"},{"latitude":"42.8907493","longitude":"-97.3972421","name":"DUNHAM'S SPORTS-Yankton,SD","address":"2101 Broadway [Yankton Mall], Yankton,SD 57078, (605) 665-0100","street_number":"2099","street_name":"Broadway Street","zip":"57078","city":"Yankton","area":null,"county":"Yankton County","state":"South Dakota","country":"us","formatted_address":"2099, Broadway Street, Yankton, Yankton County, South Dakota, 57078, United States of America","place_id":"203449911","datatype":"locationiq"},{"latitude":"35.4553163","longitude":"-84.628279","name":"DUNHAM'S SPORTS-Athens,TN","address":"1866 Decatur Pike [Congress Crossing], Athens,TN 37303, (423) 649-0336","street_number":null,"street_name":"Decatur Pike","zip":"37303","city":null,"area":null,"county":"McMinn County","state":"Tennessee","country":"us","formatted_address":"Decatur Pike, Athens, McMinn County, Tennessee, 37303, United States of America","place_id":"110820260","datatype":"locationiq"},{"latitude":"35.2042253","longitude":"-84.8491703","name":"DUNHAM'S SPORTS-Cleveland,TN","address":"200 Sgt Paul Huff Pkwy [Bradley Square Mall], Cleveland,TN 37312, (423) 339-9857","street_number":"241","street_name":"Sgt Paul B Huff Parkway","zip":"37312","city":"Cleveland","area":null,"county":"Bradley County","state":"Tennessee","country":"us","formatted_address":"241, Sgt Paul B Huff Parkway, Cleveland, Bradley County, Tennessee, 37312, United States of America","place_id":"203497196","datatype":"locationiq"},{"latitude":"35.594944","longitude":"-87.0523148","name":"DUNHAM'S SPORTS-Columbia,TN","address":"2101 Brookmeade Drive [Brookmeade Towne Center], Columbia,TN 38401, (931) 381-3053","street_number":null,"street_name":"James M Campbell Boulevard South","zip":"38401","city":null,"area":null,"county":"Maury County","state":"Tennessee","country":"us","formatted_address":"James M Campbell Boulevard South, Columbia, Maury County, Tennessee, 38401, United States of America","place_id":"70644197","datatype":"locationiq"},{"latitude":"36.1568756","longitude":"-85.5171432","name":"DUNHAM'S SPORTS-Cookeville,TN","address":"377 W Jackson [Jackson Plaza], Cookeville,TN 38501, (931) 525-2005","street_number":null,"street_name":"West Stevens Street","zip":"38501","city":null,"area":null,"county":"Putnam County","state":"Tennessee","country":"us","formatted_address":"West Stevens Street, Cookeville, Putnam County, Tennessee, 38501, United States of America","place_id":"70650980","datatype":"locationiq"},{"latitude":"35.9581903","longitude":"-85.0443667","name":"DUNHAM'S SPORTS-Crossville,TN","address":"141 Highland Square [Highland Square], Crossville,TN 38555, (931) 707-5001","street_number":"201","street_name":"Highland Square","zip":"38555","city":null,"area":null,"county":"Cumberland County","state":"Tennessee","country":"us","formatted_address":"201, Highland Square, Crossville, Cumberland County, Tennessee, 38555, United States of America","place_id":"203582737","datatype":"locationiq"},{"latitude":"35.3820953","longitude":"-86.228569","name":"DUNHAM'S SPORTS-Tullahoma,TN","address":"1802 N Jackson Street [Cherokee Square Mall], Tullahoma,TN 37388, (931) 454-0548","street_number":null,"street_name":"North Atlantic Street","zip":"37388","city":null,"area":null,"county":"Coffee County","state":"Tennessee","country":"us","formatted_address":"North Atlantic Street, Tullahoma, Coffee County, Tennessee, 37388, United States of America","place_id":"71002143","datatype":"locationiq"},{"latitude":"45.1623107","longitude":"-89.1316041","name":"DUNHAM'S SPORTS-Antigo,WI","address":"449 State Highway 64, Antigo,WI 54409, (715) 623-2418","street_number":null,"street_name":"State Highway 64","zip":"54491","city":"Antigo","area":null,"county":"Langlade County","state":"Wisconsin","country":"us","formatted_address":"State Highway 64, Antigo, Town of Antigo, Langlade County, Wisconsin, 54491, United States of America","place_id":"140027065","datatype":"locationiq"},{"latitude":"44.4750261","longitude":"-88.0749265","name":"DUNHAM'S SPORTS-Ashwaubenon,WI","address":"2779 South Oneida Street [Bayside Marketplace], Ashwaubenon,WI 54304, (920) 497-1333","street_number":null,"street_name":"Phoenix Way","zip":"54304","city":null,"area":null,"county":"Brown County","state":"Wisconsin","country":"us","formatted_address":"Hardee's, Phoenix Way, Ashwaubenon, Brown County, Wisconsin, 54304, United States of America","place_id":"121862445","datatype":"locationiq"},{"latitude":"43.475407","longitude":"-88.8207539","name":"DUNHAM'S SPORTS-Beaver Dam,WI","address":"1645 N Sprint St, Beaver Dam,WI 53916, (920) 356-9293","street_number":null,"street_name":"East Industrial Drive","zip":"53916","city":"Beaver Dam","area":null,"county":"Dodge County","state":"Wisconsin","country":"us","formatted_address":"East Industrial Drive, Beaver Dam, Dodge County, Wisconsin, 53916, United States of America","place_id":"79489130","datatype":"locationiq"},{"latitude":"43.0377922","longitude":"-88.1404419","name":"DUNHAM'S SPORTS-Brookfield,WI","address":"18200 W Bluemound Rd , Brookfield,WI 53045, (262) 797-9100","street_number":null,"street_name":"West Wisconsin Avenue","zip":"53045","city":"Brookfield","area":null,"county":"Waukesha County","state":"Wisconsin","country":"us","formatted_address":"K-Mart, West Wisconsin Avenue, Brookfield, Town of Brookfield, Waukesha County, Wisconsin, 53045, United States of America","place_id":"85237055","datatype":"locationiq"},{"latitude":"42.6931688","longitude":"-88.2642788","name":"DUNHAM'S SPORTS-Burlington,WI","address":"1120 Milwaukee Ave [Fox River Plaza], Burlington,WI 53105, (262) 763-2476","street_number":"1084","street_name":"Milwaukee Avenue","zip":"53105","city":"Burlington","area":null,"county":"Racine County","state":"Wisconsin","country":"us","formatted_address":"KFC, 1084, Milwaukee Avenue, Burlington, Racine County, Wisconsin, 53105, United States of America","place_id":"145542030","datatype":"locationiq"},{"latitude":"42.6308669","longitude":"-88.6256274","name":"DUNHAM'S SPORTS-Delavan,WI","address":"421 South Wright St [Delavan Plaza], Delavan,WI 53115, (262) 728-1992","street_number":"499","street_name":"South Wright Street","zip":"53184","city":"Delavan","area":null,"county":"Walworth County","state":"Wisconsin","country":"us","formatted_address":"499, South Wright Street, Delavan, Walworth County, Wisconsin, 53184, United States of America","place_id":"209733262","datatype":"locationiq"},{"latitude":"42.9256681","longitude":"-87.9497637","name":"DUNHAM'S SPORTS-Franklin,WI","address":"6525 S 27Th Street [Franklin Town Center], Franklin,WI 53132, (414) 563-0025","street_number":"6563","street_name":"South 27th Street","zip":"53132","city":null,"area":null,"county":"Milwaukee County","state":"Wisconsin","country":"us","formatted_address":"6563, South 27th Street, Franklin, Milwaukee County, Wisconsin, 53132, United States of America","place_id":"209555838","datatype":"locationiq"},{"latitude":"42.7213876","longitude":"-89.0016833","name":"DUNHAM'S SPORTS-Janesville,WI","address":"1800 Humes Road, Janesville,WI 53545, (608) 755-4935","street_number":"1816","street_name":"Humes Road","zip":"53545","city":"Janesville","area":null,"county":"Rock County","state":"Wisconsin","country":"us","formatted_address":"1816, Humes Road, Janesville, Rock County, Wisconsin, 53545, United States of America","place_id":"209675074","datatype":"locationiq"},{"latitude":"45.0791916","longitude":"-87.6582295","name":"DUNHAM'S SPORTS-Marinette,WI","address":"2500 Roosevelt [Pine Tree Mall], Marinette,WI 54143, (715) 732-3820","street_number":null,"street_name":"Woleske Road","zip":"54143","city":"Marinette","area":null,"county":"Marinette County","state":"Wisconsin","country":"us","formatted_address":"Pine Tree Mall, Woleske Road, Marinette, Marinette County, Wisconsin, 54143, United States of America","place_id":"148352614","datatype":"locationiq"},{"latitude":"44.685986","longitude":"-90.157735","name":"DUNHAM'S SPORTS-Marshfield,WI","address":"1819 North Central Avenue, Marshfield,WI 54449, (715) 387-3375","street_number":"854","street_name":"East McMillan Street","zip":"54449","city":"Marshfield","area":null,"county":"Wood County","state":"Wisconsin","country":"us","formatted_address":"854, East McMillan Street, Marshfield, Wood County, Wisconsin, 54449, United States of America","place_id":"209491948","datatype":"locationiq"},{"latitude":"44.8692548","longitude":"-91.9297823","name":"DUNHAM'S SPORTS-Menomonie,WI","address":"1501 Broadway St N [Shops Off Broadway], Menomonie,WI 54751, (715) 235-0750","street_number":"101","street_name":"15th Avenue West","zip":"54751","city":"Menomonie","area":null,"county":"Dunn County","state":"Wisconsin","country":"us","formatted_address":"101, 15th Avenue West, Menomonie, Dunn County, Wisconsin, 54751, United States of America","place_id":"209360798","datatype":"locationiq"},{"latitude":"42.9561292","longitude":"-88.1066635","name":"DUNHAM'S SPORTS-New Berlin,WI","address":"15470 W Beloit Rd [Moorland Commons], New Berlin,WI 53151, (262) 641-5263","street_number":"15468","street_name":"West Beloit Road","zip":"53151","city":"New Berlin","area":null,"county":"Waukesha County","state":"Wisconsin","country":"us","formatted_address":"15468, West Beloit Road, New Berlin, Waukesha County, Wisconsin, 53151, United States of America","place_id":"209757213","datatype":"locationiq"},{"latitude":"42.6974007","longitude":"-87.8477385","name":"DUNHAM'S SPORTS-Racine,WI","address":"5600 Durand Ave [Regency Mall], Racine,WI 53406, (262) 554-0075","street_number":"5612","street_name":"Durand Avenue","zip":"53405","city":"Racine","area":null,"county":"Racine County","state":"Wisconsin","country":"us","formatted_address":"Chuck E. Cheese's, 5612, Durand Avenue, Racine, Racine County, Wisconsin, 53405, United States of America","place_id":"152538186","datatype":"locationiq"},{"latitude":"45.6355362","longitude":"-89.3808899","name":"DUNHAM'S SPORTS-Rhinelander,WI","address":"2175 Lincoln Street [Lincoln Plaza Center], Rhinelander,WI 54501, (715) 369-1071","street_number":"4790","street_name":"Eisenhower Parkway","zip":"54501","city":"Rhinelander","area":null,"county":"Oneida County","state":"Wisconsin","country":"us","formatted_address":"4790, Eisenhower Parkway, Rhinelander, Oneida County, Wisconsin, 54501, United States of America","place_id":"209580713","datatype":"locationiq"},{"latitude":"45.471285","longitude":"-91.737105","name":"DUNHAM'S SPORTS-Rice Lake,WI","address":"2900 South Main, Rice Lake,WI 54868, (715) 736-1717","street_number":null,"street_name":"County Highway O","zip":"54868","city":"Rice Lake","area":null,"county":"Barron County","state":"Wisconsin","country":"us","formatted_address":"Cedar Mall, County Highway O, Rice Lake, Barron County, Wisconsin, 54868, United States of America","place_id":"95957770","datatype":"locationiq"},{"latitude":"44.7832069","longitude":"-88.5849838","name":"DUNHAM'S SPORTS-Shawano,WI","address":"1211A East Green Bay Street, Shawano,WI 54166, (715) 524-8370","street_number":null,"street_name":"East Green Bay Street","zip":"54166","city":"Shawano","area":null,"county":"Shawano County","state":"Wisconsin","country":"us","formatted_address":"East Green Bay Street, Shawano, Shawano County, Wisconsin, 54166, United States of America","place_id":"72328708","datatype":"locationiq"},{"latitude":"43.7562326","longitude":"-87.7554548","name":"DUNHAM'S SPORTS-Sheboygan,WI","address":"3506 Kohler Memorial, Sheboygan,WI 53081, (920) 452-8170","street_number":"3488","street_name":"Kohler Memorial Drive","zip":"53081","city":"Sheboygan","area":null,"county":"Sheboygan County","state":"Wisconsin","country":"us","formatted_address":"3488, Kohler Memorial Drive, Sheboygan, Sheboygan County, Wisconsin, 53081, United States of America","place_id":"209715704","datatype":"locationiq"},{"latitude":"44.5216","longitude":"-89.5078","name":"DUNHAM'S SPORTS-Stevens Point,WI","address":"5601 Highway 10 E [East Point Shopping Cntr], Stevens Point,WI 54482, (715) 342-1618","street_number":null,"street_name":"Brilowski Road","zip":null,"city":"Stevens Point","area":null,"county":"Portage County","state":"Wisconsin","country":"us","formatted_address":"Brilowski Road, Stevens Point, Portage County, Wisconsin, United States of America","place_id":"159611013","datatype":"locationiq"},{"latitude":"44.848882","longitude":"-87.3630359","name":"DUNHAM'S SPORTS-Sturgeon Bay,WI","address":"1300 Egg Harbor Road [Cherry Point Mall], Sturgeon Bay,WI 54235, (920) 746-4155","street_number":null,"street_name":"Egg Harbor Road","zip":"54235","city":null,"area":null,"county":"Door County","state":"Wisconsin","country":"us","formatted_address":"Egg Harbor Road, Sturgeon Bay, Door County, Wisconsin, 54235, United States of America","place_id":"63548597","datatype":"locationiq"},{"latitude":"44.9197245","longitude":"-89.651489","name":"DUNHAM'S SPORTS-Wausau,WI","address":"3806 Rib Mountain Drive [Mountain View Square], Wausau,WI 54401, (715) 359-9995","street_number":"4007","street_name":"Rib Mountain Drive","zip":"54401","city":null,"area":"Rib Mountain Heights","county":"Marathon County","state":"Wisconsin","country":"us","formatted_address":"Tires Plus, 4007, Rib Mountain Drive, Rib Mountain Heights, Rib Mountain, Town of Rib Mountain, Marathon County, Wisconsin, 54401, United States of America","place_id":"52277680","datatype":"locationiq"},{"latitude":"42.9980387","longitude":"-88.0468379","name":"DUNHAM'S SPORTS-West Allis,WI","address":"2550 S 108Th Street, West Allis,WI 53227, (414) 543-7650","street_number":"2546","street_name":"South 108th Street","zip":"53227","city":"West Allis","area":null,"county":"Milwaukee County","state":"Wisconsin","country":"us","formatted_address":"2546, South 108th Street, West Allis, Milwaukee County, Wisconsin, 53227, United States of America","place_id":"209517418","datatype":"locationiq"},{"latitude":"37.8149012","longitude":"-81.1861157","name":"DUNHAM'S SPORTS-Beckley,WV","address":"4301 Robert C Byrd Dr [Raleigh Mall], Beckley,WV 25801, (304) 252-5634","street_number":"4304","street_name":"Robert C Byrd Drive","zip":"25801","city":null,"area":null,"county":"Raleigh County","state":"West Virginia","country":"us","formatted_address":"4304, Robert C Byrd Drive, Beckley Plaza, Beckley, Raleigh County, West Virginia, 25801, United States of America","place_id":"209153011","datatype":"locationiq"},{"latitude":"39.6086388","longitude":"-79.9590912","name":"DUNHAM'S SPORTS-Morgantown,WV","address":"5000 Greenbag Road  [Mountaineer Mall Annex], Morgantown,WV 26505, (304) 292-4111","street_number":null,"street_name":"Green Bag Road","zip":"26508","city":null,"area":"Hopecrest","county":"Monongalia County","state":"West Virginia","country":"us","formatted_address":"Green Bag Road, Hopecrest, Morgantown, Monongalia County, West Virginia, 26508, United States of America","place_id":"92443491","datatype":"locationiq"},{"latitude":"39.913231","longitude":"-80.747569","name":"DUNHAM'S SPORTS-Moundsville,WV","address":"1224 S Lafayette [Moundsville Plaza], Moundsville,WV 26041, (304) 843-1980","street_number":"1488","street_name":"Lafayette Avenue","zip":"26041","city":"Moundsville","area":null,"county":"Marshall County","state":"West Virginia","country":"us","formatted_address":"1488, Lafayette Avenue, Moundsville, Marshall County, West Virginia, 26041, United States of America","place_id":"209084710","datatype":"locationiq"},{"latitude":"39.3010406","longitude":"-81.5498962","name":"DUNHAM'S SPORTS-Vienna,WV","address":"3 Grand Central Mall, Vienna,WV 26105, (304) 485-1370","street_number":null,"street_name":"Murdoch Avenue","zip":"26105","city":null,"area":null,"county":"Wood County","state":"West Virginia","country":"us","formatted_address":"Murdoch Avenue, Vienna, Wood County, West Virginia, 26105, United States of America","place_id":"78416471","datatype":"locationiq"}]