[{"latitude":"31.271993","longitude":"-85.449351","name":"Gander Mtn - Dothan","address":"5105 Montgomery Hwy Dothan AL 36303 334-984-0084","street_number":"5061","street_name":"Montgomery Highway","zip":"36303","city":"Dothan","area":null,"county":"Houston County","state":"Alabama","country":"us","formatted_address":"5061, Montgomery Highway, Dothan, Houston County, Alabama, 36303, United States of America","place_id":"176298764","datatype":"locationiq"},{"latitude":"34.837034","longitude":"-87.627202","name":"Gander Mtn - Florence","address":"340 Seville St Florence AL 35634 256-712-3067","street_number":"340","street_name":"Seville Street","zip":"35630","city":null,"area":null,"county":"Lauderdale County","state":"Alabama","country":"us","formatted_address":"Gander Mountain, 340, Seville Street, St. Florian, Lauderdale County, Alabama, 35630, United States of America","place_id":"167405047","datatype":"locationiq"},{"latitude":"34.769581","longitude":"-86.586308","name":"Gander Mtn - Huntsville","address":"3418 Memorial Pkwy NW Huntsville AL 35810 256-858-8045","street_number":"3380","street_name":"Memorial Parkway Northwest","zip":"35810","city":"Huntsville","area":null,"county":"Madison County","state":"Alabama","country":"us","formatted_address":"3380, Memorial Parkway Northwest, Huntsville, Madison County, Alabama, 35810, United States of America","place_id":"176468715","datatype":"locationiq"},{"latitude":"32.621539","longitude":"-85.400797","name":"Gander Mtn - Opelika","address":"1640 Parker Way Opelika AL 36801 334-363-3028","street_number":null,"street_name":"Frederick Road","zip":"36801","city":"Opelika","area":null,"county":"Lee County","state":"Alabama","country":"us","formatted_address":"Frederick Road, Opelika, Lee County, Alabama, 36801, United States of America","place_id":"101844933","datatype":"locationiq"},{"latitude":"33.178133","longitude":"-87.524559","name":"Gander Mtn - Tuscaloosa","address":"3325 McFarland Blvd East Tuscaloosa AL 35405 205-535-3990","street_number":"3101","street_name":"McFarland Boulevard East","zip":"35405","city":"Tuscaloosa","area":null,"county":"Tuscaloosa County","state":"Alabama","country":"us","formatted_address":"3101, McFarland Boulevard East, University Mall, West End, Tuscaloosa, Tuscaloosa County, Alabama, 35405, United States of America","place_id":"176745568","datatype":"locationiq"},{"latitude":"34.786739","longitude":"-92.230225","name":"Gander Mtn - Sherwood","address":"5450 Landers Rd Sherwood AR 72117 501-945-4070","street_number":null,"street_name":"Jacksonville Boulevard","zip":"72117","city":"North Little Rock","area":null,"county":"Pulaski County","state":"Arkansas","country":"us","formatted_address":"Jacksonville Boulevard, North Little Rock, Pulaski County, Arkansas, 72117, United States of America","place_id":"66563392","datatype":"locationiq"},{"latitude":"39.558521","longitude":"-104.774520","name":"Gander Mtn - Parker","address":"18420 Cottonwood Dr Parker CO 80138 303-317-4961","street_number":null,"street_name":"East Cottonwood Drive","zip":"80138","city":null,"area":null,"county":"Douglas County","state":"Colorado","country":"us","formatted_address":"East Cottonwood Drive, Parker, Douglas County, Colorado, 80138, United States of America","place_id":"158484921","datatype":"locationiq"},{"latitude":"30.474567","longitude":"-81.640472","name":"Gander Mtn - Jacksonville","address":"13075 City Square Dr Jacksonville FL 32218 904-714-3557","street_number":null,"street_name":"City Center Boulevard","zip":"32218","city":"Jacksonville","area":null,"county":"Duval County","state":"Florida","country":"us","formatted_address":"City Center Boulevard, Jacksonville, Duval County, Florida, 32218, United States of America","place_id":"100049720","datatype":"locationiq"},{"latitude":"28.754489","longitude":"-81.358856","name":"Gander Mtn - Lake Mary","address":"3750 Flagg Ln Lake Mary FL 32746 407-804-0514","street_number":"3952","street_name":"Flagg Lane","zip":"32746","city":null,"area":null,"county":"Seminole County","state":"Florida","country":"us","formatted_address":"3952, Flagg Lane, Lake Mary, Heathrow, Seminole County, Florida, 32746, United States of America","place_id":"183189636","datatype":"locationiq"},{"latitude":"29.183302","longitude":"-82.186983","name":"Gander Mtn - Ocala","address":"3970 SW 3rd St Ocala FL 34474  352-351-6186","street_number":null,"street_name":"Southwest 3rd Street","zip":"34474","city":"Ocala","area":null,"county":"Marion County","state":"Florida","country":"us","formatted_address":"Southwest 3rd Street, Ocala, Marion County, Florida, 34474, United States of America","place_id":"65359032","datatype":"locationiq"},{"latitude":"26.8038728","longitude":"-80.0962784","name":"Gander Mtn - Palm Beach Gardens","address":"100 Gander Way Palm Beach Gardens FL 33403 561-627-5642","street_number":"198","street_name":"Gander Way","zip":"33403","city":null,"area":null,"county":"Palm Beach County","state":"Florida","country":"us","formatted_address":"198, Gander Way, North Palm Beach, Palm Beach Gardens, Palm Beach County, Florida, 33403, United States of America","place_id":"182826300","datatype":"locationiq"},{"latitude":"30.480656","longitude":"-87.215457","name":"Gander Mtn - Pensacola","address":"1220 Airport Blvd Pensacola FL 32504 850-308-1289","street_number":"1230","street_name":"Airport Boulevard","zip":"32504","city":"Pensacola","area":null,"county":"Escambia County","state":"Florida","country":"us","formatted_address":"1230, Airport Boulevard, Pensacola, Escambia County, Florida, 32504, United States of America","place_id":"182008694","datatype":"locationiq"},{"latitude":"29.927734","longitude":"-81.416024","name":"Gander Mtn - St. Augustine","address":"550 Prime Outlets Blvd St. Augustine FL 32084 904-829-1946","street_number":null,"street_name":"Outlet Mall Boulevard","zip":"32092","city":null,"area":null,"county":"St. Johns County","state":"Florida","country":"us","formatted_address":"Nations Bus, Outlet Mall Boulevard, St. Johns County, Florida, 32092, United States of America","place_id":"150689652","datatype":"locationiq"},{"latitude":"28.017075","longitude":"-82.615127","name":"Gander Mtn - Tampa","address":"11655 W Hillsborough Av Tampa FL 33635 813-343-6010","street_number":null,"street_name":"Montague Street","zip":"33635","city":null,"area":"The Arbors","county":"Hillsborough County","state":"Florida","country":"us","formatted_address":"Montague Street, The Arbors, West Chase, Hillsborough County, Florida, 33635, United States of America","place_id":"113242001","datatype":"locationiq"},{"latitude":"31.619554","longitude":"-84.220633","name":"Gander Mtn - Albany","address":"832 N Westover Blvd Albany GA 31707 229-518-4090","street_number":"901","street_name":"North Westover Boulevard","zip":"31707","city":null,"area":"Pointe North","county":"Dougherty County","state":"Georgia","country":"us","formatted_address":"901, North Westover Boulevard, Pointe North, Albany, Dougherty County, Georgia, 31707, United States of America","place_id":"183667370","datatype":"locationiq"},{"latitude":"33.491294","longitude":"-82.105048","name":"Gander Mtn - Augusta","address":"145 Mason McKnight Jr Pkwy Augusta GA 30907 706-664-2013","street_number":null,"street_name":"Flowing Wells Road","zip":"30907","city":null,"area":null,"county":"Richmond County","state":"Georgia","country":"us","formatted_address":"Flowing Wells Road, Richmond County, Georgia, 30907, United States of America","place_id":"112865399","datatype":"locationiq"},{"latitude":"33.465763","longitude":"-84.218903","name":"Gander Mtn - McDonough","address":"1970 Jonesboro Rd McDonough GA 30253 678-604-8530","street_number":null,"street_name":"Jonesboro Road","zip":"30228","city":null,"area":null,"county":"Henry County","state":"Georgia","country":"us","formatted_address":"Jonesboro Road, Mount Carmel Estates, Henry County, Georgia, 30228, United States of America","place_id":"152103518","datatype":"locationiq"},{"latitude":"33.386497","longitude":"-84.762371","name":"Gander Mtn - Newnan","address":"361 Newnan Crossing Bypass Newnan GA 30265 678-854-8033","street_number":null,"street_name":"Newnan Crossing Bypass","zip":"30277","city":null,"area":null,"county":"Coweta County","state":"Georgia","country":"us","formatted_address":"Newnan Crossing Bypass, Newnan, Coweta County, Georgia, 30277, United States of America","place_id":"101633239","datatype":"locationiq"},{"latitude":"33.901841","longitude":"-84.002569","name":"Gander Mtn - Snellville","address":"1200 Scenic Hwy  Ste G Lawrenceville GA 30045 678-317-3097","street_number":"1300","street_name":"Essex Drive","zip":"30045","city":null,"area":"Bristol Downs","county":"Gwinnett County","state":"Georgia","country":"us","formatted_address":"1300, Essex Drive, Bristol Downs, Cotton Creek, Gwinnett County, Georgia, 30045, United States of America","place_id":"183856358","datatype":"locationiq"},{"latitude":"30.826687","longitude":"-83.317952","name":"Gander Mtn - Valdosta","address":"278 Norman Dr  Valdosta GA 31601 229-415-7023","street_number":"263","street_name":"Norman Drive","zip":"31601","city":"Valdosta","area":null,"county":"Lowndes County","state":"Georgia","country":"us","formatted_address":"263, Norman Drive, Valdosta, Lowndes County, Georgia, 31601, United States of America","place_id":"184032875","datatype":"locationiq"},{"latitude":"42.157081","longitude":"-88.339704","name":"Gander Mtn - Algonquin","address":"1400 S Randall Rd Algonquin IL 60102 847-915-3984","street_number":null,"street_name":"Becky Lynn Lane","zip":"60102","city":null,"area":null,"county":"McHenry County","state":"Illinois","country":"us","formatted_address":"Gander Mountain, Becky Lynn Lane, Algonquin, McHenry County, Illinois, 60102, United States of America","place_id":"45350312","datatype":"locationiq"},{"latitude":"41.865847","longitude":"-88.340458","name":"Gander Mtn - Geneva","address":"2100 S Randall Rd Geneva IL 60134 630-845-0505","street_number":"2177","street_name":"South Randall Road","zip":"60134","city":"Geneva","area":null,"county":"Kane County","state":"Illinois","country":"us","formatted_address":"2177, South Randall Road, Geneva, Kane County, Illinois, 60134, United States of America","place_id":"185273940","datatype":"locationiq"},{"latitude":"41.580264","longitude":"-88.161978","name":"Gander Mtn - Joliet","address":"3301 Essington Rd Joliet IL 60435 815-254-2264","street_number":null,"street_name":"Plainfield Road","zip":"60403","city":"Joliet","area":null,"county":"Will County","state":"Illinois","country":"us","formatted_address":"Shell, Plainfield Road, Lousi Joliet Mall, Joliet, Will County, Illinois, 60403, United States of America","place_id":"47331889","datatype":"locationiq"},{"latitude":"37.748303","longitude":"-88.956294","name":"Gander Mtn - Marion","address":"2480 Blue Heron Dr Marion IL 62959 618-964-9546","street_number":null,"street_name":"Blue Heron Drive","zip":"62959","city":"Marion","area":null,"county":"Williamson County","state":"Illinois","country":"us","formatted_address":"Blue Heron Drive, Marion, Williamson County, Illinois, 62959, United States of America","place_id":"90928861","datatype":"locationiq"},{"latitude":"38.578475","longitude":"-89.934500","name":"Gander Mtn - O'Fallon","address":"1230 Central Park Dr O'Fallon IL 62269 618-589-0078","street_number":null,"street_name":"I 64;US 50","zip":"62269","city":null,"area":null,"county":"Saint Clair County","state":"Illinois","country":"us","formatted_address":"16, I 64;US 50, Shiloh, Saint Clair County, Illinois, 62269, United States of America","place_id":"562834","datatype":"locationiq"},{"latitude":"40.774792","longitude":"-89.672839","name":"Gander Mtn - Peoria","address":"5114 Holiday Dr Peoria IL 61615 309-692-4110","street_number":null,"street_name":"West War Memorial Drive","zip":"61601","city":"Peoria","area":null,"county":"Peoria County","state":"Illinois","country":"us","formatted_address":"Hickory River Smokehouse, West War Memorial Drive, Peoria, Peoria County, Illinois, 61601, United States of America","place_id":"83346798","datatype":"locationiq"},{"latitude":"42.308667","longitude":"-88.978008","name":"Gander Mtn - Rockford","address":"3068 McFarland Rd Rockford IL 61114 815-637-9600","street_number":"3304","street_name":"North Perryville Road","zip":"61114","city":"Loves Park","area":"Harlem","county":"Winnebago County","state":"Illinois","country":"us","formatted_address":"Famous Dave's, 3304, North Perryville Road, Harlem, Loves Park, Winnebago County, Illinois, 61114, United States of America","place_id":"129602911","datatype":"locationiq"},{"latitude":"39.740267","longitude":"-89.697453","name":"Gander Mtn - Springfield","address":"2371 Chuckwagon Dr Springfield IL 62711 217-726-8219","street_number":"2376","street_name":"Chuckwagon Drive","zip":"62711","city":"Springfield","area":null,"county":"Sangamon County","state":"Illinois","country":"us","formatted_address":"2376, Chuckwagon Drive, Prairie Crossing, Springfield, Sangamon County, Illinois, 62711, United States of America","place_id":"185739209","datatype":"locationiq"},{"latitude":"39.765686","longitude":"-86.349711","name":"Gander Mtn - Avon","address":"216 Gable Crossing Dr Avon IN 46123 317-653-5154","street_number":null,"street_name":"Rockville Road","zip":"46123","city":null,"area":null,"county":"Hendricks County","state":"Indiana","country":"us","formatted_address":"Rockville Road, Avon, Hendricks County, Indiana, 46123, United States of America","place_id":"69675198","datatype":"locationiq"},{"latitude":"37.9745","longitude":"-87.5735","name":"Gander Mtn - Evansville","address":"5476 E Indiana St Evansville IN 47715 812-473-9117","street_number":null,"street_name":"Court Street","zip":"47708","city":"Evansville","area":null,"county":"Vanderburgh County","state":"Indiana","country":"us","formatted_address":"Soldiers and Sailors Memorial Coliseum, Court Street, Evansville, Vanderburgh County, Indiana, 47708, United States of America","place_id":"58842625","datatype":"locationiq"},{"latitude":"41.134997","longitude":"-85.16135","name":"Gander Mtn - Fort Wayne","address":"6043 Lima Rd Fort Wayne IN 46818 260-416-0943","street_number":null,"street_name":"Lima Road","zip":"46818; 46748; 46806; 46805","city":"Fort Wayne","area":null,"county":"Allen County","state":"Indiana","country":"us","formatted_address":"Chipotle, Lima Road, woodmont, Fort Wayne, Allen County, Indiana, 46818; 46748; 46806; 46805, United States of America","place_id":"166832023","datatype":"locationiq"},{"latitude":"39.817825","longitude":"-85.766707","name":"Gander Mtn - Greenfield","address":"2175 Barrett Dr Greenfield IN 46140 317-586-4436","street_number":null,"street_name":"East Martindale Drive","zip":"46140","city":"Greenfield","area":null,"county":"Hancock County","state":"Indiana","country":"us","formatted_address":"East Martindale Drive, Greenfield, Hancock County, Indiana, 46140, United States of America","place_id":"69740200","datatype":"locationiq"},{"latitude":"39.631889","longitude":"-86.082711","name":"Gander Mtn - Greenwood","address":"1049 N Emerson Av Greenwood IN 46143 317-865-1734","street_number":"1096","street_name":"North Emerson Avenue","zip":"46143","city":"Greenwood","area":null,"county":"Johnson County","state":"Indiana","country":"us","formatted_address":"1096, North Emerson Avenue, Greenwood, Johnson County, Indiana, 46143, United States of America","place_id":"186385041","datatype":"locationiq"},{"latitude":"39.912559","longitude":"-86.070862","name":"Gander Mtn - Indianapolis","address":"5702 E 86th St Indianapolis IN 46250 317-577-1114","street_number":"5762","street_name":"East 86th Street","zip":"46250","city":null,"area":null,"county":"Marion County","state":"Indiana","country":"us","formatted_address":"5762, East 86th Street, Allisonville, Marion County, Indiana, 46250, United States of America","place_id":"186599297","datatype":"locationiq"},{"latitude":"40.415555","longitude":"-86.837925","name":"Gander Mtn - Lafayette","address":"150 S Creasy Ln  Ste 1000 Lafayette IN 47905 765-237-3089","street_number":"143","street_name":"South Creasy Lane","zip":"47905","city":"Lafayette","area":null,"county":"Tippecanoe County","state":"Indiana","country":"us","formatted_address":"143, South Creasy Lane, Lafayette, Tippecanoe County, Indiana, 47905, United States of America","place_id":"186847130","datatype":"locationiq"},{"latitude":"41.468578","longitude":"-87.315792","name":"Gander Mtn - Merrillville","address":"1630 Southlake Mall Merrillville IN 46410 219-793-1700","street_number":"8301","street_name":"Mississippi Street","zip":"46410","city":null,"area":"Chapel Manor","county":"Lake County","state":"Indiana","country":"us","formatted_address":"8301, Mississippi Street, Chapel Manor, Merrillville, Lake County, Indiana, 46410, United States of America","place_id":"186443713","datatype":"locationiq"},{"latitude":"39.422931","longitude":"-87.416178","name":"Gander Mtn - Terre Haute","address":"3602 S US Hwy 41 Terre Haute IN 47802 812-237-0940","street_number":null,"street_name":"South 3rd Street","zip":"47809","city":"Terre Haute","area":null,"county":"Vigo County","state":"Indiana","country":"us","formatted_address":"Taco Bell, South 3rd Street, Terre Haute, Vigo County, Indiana, 47809, United States of America","place_id":"23533423","datatype":"locationiq"},{"latitude":"41.560792","longitude":"-90.5272","name":"Gander Mtn - Davenport","address":"3940 Elmore Av Davenport IA 52807 563-344-8880","street_number":"3930","street_name":"Elmore Avenue","zip":"52807","city":"Davenport","area":null,"county":"Scott County","state":"Iowa","country":"us","formatted_address":"3930, Elmore Avenue, Davenport, Scott County, Iowa, 52807, United States of America","place_id":"187553688","datatype":"locationiq"},{"latitude":"37.678819","longitude":"-97.340764","name":"Gander Mtn - Wichita","address":"605 S Wichita St Wichita KS 67202 316-303-9333","street_number":null,"street_name":"West Kellogg Street","zip":"67202","city":"Wichita","area":null,"county":"Sedgwick County","state":"Kansas","country":"us","formatted_address":"West Kellogg Street, Wichita, Sedgwick County, Kansas, 67202, United States of America","place_id":"79743466","datatype":"locationiq"},{"latitude":"36.925986","longitude":"-86.419639","name":"Gander Mtn - Bowling Green","address":"725 Bluegrass Farms Blvd  Ste 1 Bowling Green KY 42104 270-842-0855","street_number":"522","street_name":"Greenwood Lane","zip":"42104","city":"Bowling Green","area":null,"county":"Warren County","state":"Kentucky","country":"us","formatted_address":"522, Greenwood Lane, Bowling Green, Warren County, Kentucky, 42104, United States of America","place_id":"188809909","datatype":"locationiq"},{"latitude":"37.075447","longitude":"-88.683478","name":"Gander Mtn - Paducah","address":"3240 James Sanders Blvd Paducah KY 42001 270-538-0444","street_number":null,"street_name":"James Sanders Boulevard","zip":"42001","city":"Paducah","area":null,"county":"McCracken County","state":"Kentucky","country":"us","formatted_address":"Texas Roadhouse, James Sanders Boulevard, Paducah, McCracken County, Kentucky, 42001, United States of America","place_id":"41379467","datatype":"locationiq"},{"latitude":"38.404456","longitude":"-75.568669","name":"Gander Mtn - Salisbury","address":"2410 N Salisbury Blvd Salisbury MD 21801 410-334-2677","street_number":null,"street_name":"Henry Street","zip":"21804","city":"Salisbury","area":null,"county":"Wicomico County","state":"Maryland","country":"us","formatted_address":"Popeyes, Henry Street, Salisbury, Wicomico County, Maryland, 21804, United States of America","place_id":"103997681","datatype":"locationiq"},{"latitude":"41.940014","longitude":"-84.971258","name":"Gander Mtn - Coldwater","address":"373 N Willowbrook Rd  Ste Y Coldwater MI 49036 517-279-2900","street_number":"105","street_name":"North Willowbrook Road","zip":"49036","city":"Coldwater","area":null,"county":"Branch County","state":"Michigan","country":"us","formatted_address":"105, North Willowbrook Road, Coldwater, Branch County, Michigan, 49036, United States of America","place_id":"190711430","datatype":"locationiq"},{"latitude":"42.975589","longitude":"-83.77325","name":"Gander Mtn - Flint","address":"5038 Miller Rd  Ste A Flint MI 48507 810-230-1212","street_number":"5036","street_name":"Miller Road","zip":"48503","city":"Swartz Creek","area":null,"county":"Genesee County","state":"Michigan","country":"us","formatted_address":"5036, Miller Road, Swartz Creek, Genesee County, Michigan, 48503, United States of America","place_id":"190846953","datatype":"locationiq"},{"latitude":"43.026628","longitude":"-82.456006","name":"Gander Mtn - Fort Gratiot","address":"4055 24th Av Fort Gratiot MI 48059 810-385-6700","street_number":"4063","street_name":"24th Avenue","zip":"48059","city":null,"area":null,"county":"Saint Clair County","state":"Michigan","country":"us","formatted_address":"4063, 24th Avenue, Fort Gratiot Township, Saint Clair County, Michigan, 48059, United States of America","place_id":"191538089","datatype":"locationiq"},{"latitude":"42.879992","longitude":"-85.772325","name":"Gander Mtn - Grandville","address":"4655 Canal Av SW Grandville MI 49418 616-249-0400","street_number":null,"street_name":"Canal Avenue Southwest","zip":"49418","city":"Grandville","area":null,"county":"Kent County","state":"Michigan","country":"us","formatted_address":"Grandville High School Parking Lot, Canal Avenue Southwest, Grandville, Kent County, Michigan, 49418, United States of America","place_id":"148055078","datatype":"locationiq"},{"latitude":"42.910367","longitude":"-85.559528","name":"Gander Mtn - Kentwood","address":"2890 Acquest Av SE Kentwood MI 49512 616-975-1000","street_number":"2804","street_name":"Acquest Avenue Southeast","zip":"49512","city":"Kentwood","area":null,"county":"Kent County","state":"Michigan","country":"us","formatted_address":"2804, Acquest Avenue Southeast, Kentwood, Kent County, Michigan, 49512, United States of America","place_id":"191023125","datatype":"locationiq"},{"latitude":"42.738852","longitude":"-84.681655","name":"Gander Mtn - Lansing","address":"8757 Delta Market Dr Delta Twp MI  48917 517-622-4662","street_number":"11851","street_name":"Broadbent Road","zip":"48917","city":null,"area":null,"county":"Eaton County","state":"Michigan","country":"us","formatted_address":"11851, Broadbent Road, Delta Center, Eaton County, Michigan, 48917, United States of America","place_id":"190809185","datatype":"locationiq"},{"latitude":"46.50235","longitude":"-87.361886","name":"Gander Mtn - Marquette","address":"3465 US Hwy 41 W Marquette MI 49855 906-226-8300","street_number":"2324","street_name":"US 41;M 28","zip":"49855","city":null,"area":null,"county":"Marquette County","state":"Michigan","country":"us","formatted_address":"2324, US 41;M 28, Harvey, Marquette County, Michigan, 49855, United States of America","place_id":"191213784","datatype":"locationiq"},{"latitude":"42.491808","longitude":"-83.481289","name":"Gander Mtn - Novi","address":"43825 W Oaks Dr Novi MI 48377 248-380-4000","street_number":"43625","street_name":"West Oaks Drive","zip":"48377","city":"Novi","area":null,"county":"Oakland County","state":"Michigan","country":"us","formatted_address":"43625, West Oaks Drive, West Oaks, Novi, Oakland County, Michigan, 48377, United States of America","place_id":"191417158","datatype":"locationiq"},{"latitude":"42.2395","longitude":"-85.589611","name":"Gander Mtn - Portage","address":"5348 S Westnedge Av Portage MI 49024 269-388-9770","street_number":null,"street_name":"South Westnedge Avenue","zip":"49002","city":"Portage","area":null,"county":"Kalamazoo County","state":"Michigan","country":"us","formatted_address":"Admiral, South Westnedge Avenue, Portage, Kalamazoo County, Michigan, 49002, United States of America","place_id":"839316","datatype":"locationiq"},{"latitude":"43.479933","longitude":"-83.962883","name":"Gander Mtn - Saginaw","address":"2270 Tittabawassee Rd Saginaw MI 48604 989-791-3500","street_number":"2284","street_name":"Tittabawassee Road","zip":"48604","city":null,"area":null,"county":"Saginaw County","state":"Michigan","country":"us","formatted_address":"2284, Tittabawassee Road, Kochville Township, Saginaw County, Michigan, 48604, United States of America","place_id":"191517628","datatype":"locationiq"},{"latitude":"42.204297","longitude":"-83.257483","name":"Gander Mtn - Taylor","address":"14100 Pardee Rd Taylor MI 48180 734-287-7420","street_number":null,"street_name":"Superior Road","zip":"48180","city":"Taylor","area":null,"county":"Wayne County","state":"Michigan","country":"us","formatted_address":"Superior Road, Taylor, Wayne County, Michigan, 48180, United States of America","place_id":"164807946","datatype":"locationiq"},{"latitude":"44.732106","longitude":"-85.646192","name":"Gander Mtn - Traverse City","address":"3500 MarketPlace Cir Traverse City MI 49684 231-929-5590","street_number":null,"street_name":"Marketplace Circle","zip":"49684","city":null,"area":null,"county":"Grand Traverse County","state":"Michigan","country":"us","formatted_address":"Marketplace Circle, Brookside, Grand Traverse County, Michigan, 49684, United States of America","place_id":"70007742","datatype":"locationiq"},{"latitude":"42.627467","longitude":"-82.990783","name":"Gander Mtn - Utica","address":"13975 Hall Rd Utica MI 48315 586-247-9900","street_number":null,"street_name":"Hall Road","zip":"48313","city":"Sterling Heights","area":null,"county":"Macomb County","state":"Michigan","country":"us","formatted_address":"Hall Road, Sterling Heights, Macomb County, Michigan, 48313, United States of America","place_id":"172861474","datatype":"locationiq"},{"latitude":"46.361956","longitude":"-94.24505","name":"Gander Mtn - Baxter","address":"14275 Edgewood Dr  Ste 100 Baxter MN 56425 218-828-1736","street_number":"797","street_name":"Edgewood Drive North","zip":"56425","city":"Baxter","area":null,"county":"Crow Wing County","state":"Minnesota","country":"us","formatted_address":"797, Edgewood Drive North, Baxter, Crow Wing County, Minnesota, 56425, United States of America","place_id":"191955574","datatype":"locationiq"},{"latitude":"47.492225","longitude":"-94.898436","name":"Gander Mtn - Bemidji","address":"1313 Paul Bunyon Dr Bemidji MN 56601 218-755-6150","street_number":null,"street_name":"State Highway 197","zip":"56601","city":null,"area":null,"county":"Beltrami County","state":"Minnesota","country":"us","formatted_address":"McDonald's, State Highway 197, Bemidji, Beltrami County, Minnesota, 56601, United States of America","place_id":"154645396","datatype":"locationiq"},{"latitude":"45.163561","longitude":"-93.233103","name":"Gander Mtn - Blaine","address":"10650 Baltimore St NE Blaine MN 55449 763-783-7200","street_number":"10650","street_name":"Baltimore Street Northeast","zip":"55434","city":"Blaine","area":null,"county":"Anoka County","state":"Minnesota","country":"us","formatted_address":"Gander Mountain, 10650, Baltimore Street Northeast, Blaine, Anoka County, Minnesota, 55434, United States of America","place_id":"119546469","datatype":"locationiq"},{"latitude":"44.863556","longitude":"-93.433331","name":"Gander Mtn - Eden Prairie","address":"12160 Technology Dr Eden Prairie MN 55344 952-944-5422","street_number":null,"street_name":"Technology Drive","zip":"55344","city":"Eden Prairie","area":null,"county":"Hennepin County","state":"Minnesota","country":"us","formatted_address":"Gander Mountain, Technology Drive, Eden Prairie, Hennepin County, Minnesota, 55344, United States of America","place_id":"88396334","datatype":"locationiq"},{"latitude":"45.236517","longitude":"-93.029097","name":"Gander Mtn - Forest Lake","address":"14640 W Freeway Dr Forest Lake MN 55025 651-464-0707","street_number":"15191","street_name":"West Freeway Drive","zip":"55038","city":"Columbus","area":null,"county":"Anoka County","state":"Minnesota","country":"us","formatted_address":"15191, West Freeway Drive, Columbus, Anoka County, Minnesota, 55038, United States of America","place_id":"191828951","datatype":"locationiq"},{"latitude":"46.820486","longitude":"-92.174822","name":"Gander Mtn - Hermantown","address":"4275 Haines Rd Hermantown MN 55811 218-786-9800","street_number":null,"street_name":"Haines Road","zip":"55811","city":"Duluth","area":null,"county":"Saint Louis County","state":"Minnesota","country":"us","formatted_address":"Haines & Sundby Rd, Haines Road, Duluth, Saint Louis County, Minnesota, 55811, United States of America","place_id":"22075696","datatype":"locationiq"},{"latitude":"44.7041","longitude":"-93.28615","name":"Gander Mtn - Lakeville","address":"16861 Kenyon Av Lakeville MN 55044 952-435-3805","street_number":"16504","street_name":"Kenyon Avenue","zip":"55044","city":"Lakeville","area":null,"county":"Dakota County","state":"Minnesota","country":"us","formatted_address":"16504, Kenyon Avenue, Lakeville, Dakota County, Minnesota, 55044, United States of America","place_id":"191974269","datatype":"locationiq"},{"latitude":"44.170469","longitude":"-93.948375","name":"Gander Mtn - Mankato","address":"1940 Adams St Mankato MN 56001 507-345-3600","street_number":null,"street_name":"Adams Street","zip":"56001-6200","city":null,"area":null,"county":"Blue Earth County","state":"Minnesota","country":"us","formatted_address":"Adams Street, Mankato, Blue Earth County, Minnesota, 56001-6200, United States of America","place_id":"110677086","datatype":"locationiq"},{"latitude":"44.079539","longitude":"-92.520842","name":"Gander Mtn - Rochester","address":"3470 55th St NW Rochester MN 55901 507-252-2033","street_number":null,"street_name":null,"zip":"55901","city":"Rochester","area":null,"county":"Olmsted County","state":"Minnesota","country":"us","formatted_address":"White Oaks Tr, Rochester, Olmsted County, Minnesota, 55901, United States of America","place_id":"101017575","datatype":"locationiq"},{"latitude":"45.192116","longitude":"-93.545873","name":"Gander Mtn - Rogers","address":"20870 Rogers Dr  Rogers MN 55347 763-496-0919","street_number":"20966","street_name":"Rogers Drive","zip":"55374","city":"Rogers","area":null,"county":"Hennepin County","state":"Minnesota","country":"us","formatted_address":"20966, Rogers Drive, Rogers, Hennepin County, Minnesota, 55374, United States of America","place_id":"192066739","datatype":"locationiq"},{"latitude":"45.54955","longitude":"-94.222903","name":"Gander Mtn - Waite Park","address":"614 2nd St S Waite Park MN 56387 320-654-6600","street_number":"754","street_name":"6th ave s","zip":"56387","city":"Waite Park","area":null,"county":"Stearns County","state":"Minnesota","country":"us","formatted_address":"754, 6th ave s, Waite Park, Stearns County, Minnesota, 56387, United States of America","place_id":"192581972","datatype":"locationiq"},{"latitude":"44.944503","longitude":"-92.894322","name":"Gander Mtn - Woodbury","address":"10470 Hudson Rd Woodbury MN 55129 651-735-6101","street_number":null,"street_name":"Hudson Road","zip":"55125","city":"Woodbury","area":null,"county":"Washington County","state":"Minnesota","country":"us","formatted_address":"Hudson Road, Woodbury, Washington County, Minnesota, 55125, United States of America","place_id":"130481800","datatype":"locationiq"},{"latitude":"31.324453","longitude":"-89.357436","name":"Gander Mtn - Hattiesburg","address":"4501 Hardy St  Ste 100 Hattiesburg MS 39402 601-268-6845","street_number":"4503","street_name":"Hardy Street","zip":"39402","city":"Hattiesburg","area":"Kensington Woods","county":"Lamar County","state":"Mississippi","country":"us","formatted_address":"Longhorn Steakhouse, 4503, Hardy Street, Kensington Woods, Hattiesburg, Lamar County, Mississippi, 39402, United States of America","place_id":"142579330","datatype":"locationiq"},{"latitude":"38.673863","longitude":"-90.658937","name":"Gander Mtn - Chesterfield","address":"18491 Outlet Blvd Chesterfield MO 63005 636-237-8062","street_number":null,"street_name":"Outlet Boulevard","zip":"63005","city":"Chesterfield","area":null,"county":"St. Louis County","state":"Missouri","country":"us","formatted_address":"Outlet Boulevard, Chesterfield, St. Louis County, Missouri, 63005, United States of America","place_id":"147112026","datatype":"locationiq"},{"latitude":"38.507025","longitude":"-90.448460","name":"Gander Mtn - Fenton","address":"751 Gravois Bluffs Blvd Fenton MO 63026 636-203-4360","street_number":null,"street_name":"Gravois Bluffs Boulevard","zip":"63026","city":"Fenton","area":null,"county":"St. Louis County","state":"Missouri","country":"us","formatted_address":"Gravois Bluffs Boulevard, Fenton, St. Louis County, Missouri, 63026, United States of America","place_id":"80181226","datatype":"locationiq"},{"latitude":"42.123170","longitude":"-75.967780","name":"Gander Mtn - Binghamton","address":"528 Harry L Dr Johnson City NY 13790 607-240-4031","street_number":"446","street_name":"Harry L Drive","zip":"13790","city":null,"area":null,"county":"Broome County","state":"New York","country":"us","formatted_address":"446, Harry L Drive, Johnson City, Union Town, Broome County, New York, 13790, United States of America","place_id":"196131432","datatype":"locationiq"},{"latitude":"43.180686","longitude":"-76.109728","name":"Gander Mtn - Cicero","address":"5864 Carmenica Dr Cicero NY 13039 315-698-1100","street_number":null,"street_name":"Carmenica Drive","zip":"13039","city":null,"area":null,"county":"Onondaga County","state":"New York","country":"us","formatted_address":"Carmenica Drive, Cicero, Town of Cicero, Onondaga County, New York, 13039, United States of America","place_id":"71396641","datatype":"locationiq"},{"latitude":"41.970128","longitude":"-73.985206","name":"Gander Mtn - Kingston","address":"705 Frank Scottile Blvd Kingston NY 12401 845-382-2500","street_number":"491","street_name":"Frank Sottile Boulevard","zip":"12401","city":null,"area":null,"county":"Ulster County","state":"New York","country":"us","formatted_address":"491, Frank Sottile Boulevard, Hudson Valley Plaza, East Kingston, Town of Ulster, Ulster County, New York, 12401, United States of America","place_id":"197023106","datatype":"locationiq"},{"latitude":"41.462306","longitude":"-74.371994","name":"Gander Mtn - Middletown","address":"100 N Galleria Dr Middletown NY 10941 845-692-5600","street_number":null,"street_name":"North Galleria Drive","zip":"10941","city":null,"area":null,"county":"Orange County","state":"New York","country":"us","formatted_address":"North Galleria Drive, Scotchtown, Town of Wallkill, Orange County, New York, 10941, United States of America","place_id":"71324776","datatype":"locationiq"},{"latitude":"43.089925","longitude":"-75.315747","name":"Gander Mtn - New Hartford","address":"8635 Clinton St New Hartford NY 13413 315-768-8800","street_number":"8664","street_name":"Clinton Street","zip":"13413","city":null,"area":null,"county":"Oneida County","state":"New York","country":"us","formatted_address":"8664, Clinton Street, New Hartford, Town of New Hartford, Oneida County, New York, 13413, United States of America","place_id":"196608272","datatype":"locationiq"},{"latitude":"44.700733","longitude":"-73.493686","name":"Gander Mtn - Plattsburgh","address":"60 Smithfield Blvd Plattsburgh NY 12901 518-566-6100","street_number":"58","street_name":"Smithfield Boulevard","zip":"12901","city":"Plattsburgh","area":null,"county":"Clinton County","state":"New York","country":"us","formatted_address":"58, Smithfield Boulevard, Plattsburgh, Clinton County, New York, 12901, United States of America","place_id":"196199633","datatype":"locationiq"},{"latitude":"43.090625","longitude":"-77.629708","name":"Gander Mtn - Rochester","address":"300 Jay Scutti Blvd Rochester NY 14623 585-424-4100","street_number":"272","street_name":"Jay Scutti Boulevard","zip":"14623","city":null,"area":null,"county":"Monroe County","state":"New York","country":"us","formatted_address":"272, Jay Scutti Boulevard, Mortimer, Henrietta Town, Monroe County, New York, 14623, United States of America","place_id":"196424418","datatype":"locationiq"},{"latitude":"43.002256","longitude":"-78.856083","name":"Gander Mtn - Tonawanda","address":"880 Young St Tonawanda NY 14150 716-743-2300","street_number":null,"street_name":"Young Street","zip":"14150","city":"Tonawanda","area":null,"county":"Erie County","state":"New York","country":"us","formatted_address":"Wendy's, Young Street, Tonawanda, Erie County, New York, 14150, United States of America","place_id":"6786943","datatype":"locationiq"},{"latitude":"43.975628","longitude":"-75.95455","name":"Gander Mtn - Watertown","address":"21182 Salmon Run Mall Loop W Watertown NY 13601 315-779-1200","street_number":"21104","street_name":"Salmon Run Mall Loop West","zip":"13601","city":null,"area":null,"county":"Jefferson County","state":"New York","country":"us","formatted_address":"21104, Salmon Run Mall Loop West, East Hounsfield, Jefferson County, New York, 13601, United States of America","place_id":"196362843","datatype":"locationiq"},{"latitude":"35.868193","longitude":"-78.582086","name":"Gander Mtn - East Raleigh","address":"6101 Capital Blvd Raleigh NC 27616 919-322-3214","street_number":null,"street_name":"Capital Boulevard","zip":"27616","city":"Raleigh","area":null,"county":"Wake County","state":"North Carolina","country":"us","formatted_address":"Capital Boulevard, Mini City, Raleigh, Wake County, North Carolina, 27616, United States of America","place_id":"90638130","datatype":"locationiq"},{"latitude":"35.069403","longitude":"-78.96615","name":"Gander Mtn - Fayetteville","address":"1912 Skibo Rd Fayetteville NC 28314 910-487-4036","street_number":null,"street_name":"Skibo Road","zip":"28314","city":"Fayetteville","area":null,"county":"Cumberland County","state":"North Carolina","country":"us","formatted_address":"Boston Market, Skibo Road, Fayetteville, Cumberland County, North Carolina, 28314, United States of America","place_id":"18658840","datatype":"locationiq"},{"latitude":"35.258741","longitude":"-81.113863","name":"Gander Mtn - Gastonia","address":"3704 E Franklin Blvd Gastonia NC 28056 704-478-6008","street_number":null,"street_name":"East Franklin Boulevard","zip":"28506","city":"Lowell","area":null,"county":"Gaston County","state":"North Carolina","country":"us","formatted_address":"East Franklin Boulevard, Lowell, Gaston County, North Carolina, 28506, United States of America","place_id":"82042440","datatype":"locationiq"},{"latitude":"36.040414","longitude":"-79.833078","name":"Gander Mtn - Greensboro","address":"2223 Vanstory St Greensboro NC 27403 336-852-4224","street_number":"2221","street_name":"Vanstory Street","zip":"27427","city":"Greensboro","area":null,"county":"Guilford County","state":"North Carolina","country":"us","formatted_address":"Guitar Center, 2221, Vanstory Street, Greensboro, Guilford County, North Carolina, 27427, United States of America","place_id":"46817420","datatype":"locationiq"},{"latitude":"35.023756","longitude":"-80.582845","name":"Gander Mtn - Monroe","address":"3151 W US Hwy 74  Monroe NC 28110 704-218-3237","street_number":"3110","street_name":"West Roosevelt Boulevard","zip":"28110","city":"Monroe","area":null,"county":"Union County","state":"North Carolina","country":"us","formatted_address":"3110, West Roosevelt Boulevard, Monroe, Union County, North Carolina, 28110, United States of America","place_id":"198301934","datatype":"locationiq"},{"latitude":"35.590017","longitude":"-80.8569","name":"Gander Mtn - Mooresville","address":"236 Norman Station Blvd Mooresville NC 28117 704-658-0822","street_number":"169","street_name":"Norman Station Boulevard","zip":"28117","city":null,"area":null,"county":"Iredell County","state":"North Carolina","country":"us","formatted_address":"169, Norman Station Boulevard, Mooresville, Iredell County, North Carolina, 28117, United States of America","place_id":"197766178","datatype":"locationiq"},{"latitude":"35.808116","longitude":"-78.814818","name":"Gander Mtn - Raleigh","address":"2100 Village Market Pl Morrisville NC 27560 919-238-3935","street_number":"1017","street_name":"Market Center Drive","zip":"27560","city":null,"area":null,"county":"Wake County","state":"North Carolina","country":"us","formatted_address":"Zoes Kitchen, 1017, Market Center Drive, Park West Village, Morrisville, Wake County, North Carolina, 27560, United States of America","place_id":"27726180","datatype":"locationiq"},{"latitude":"36.064651","longitude":"-80.310467","name":"Gander Mtn - Winston-Salem","address":"1950 S Stratford Rd Winston-Salem NC 27103 336-231-3261","street_number":null,"street_name":"South Stratford Road","zip":"27103","city":null,"area":null,"county":"Forsyth County","state":"North Carolina","country":"us","formatted_address":"Gander Mountain : Gun Super Store, South Stratford Road, Clemmons, Forsyth County, North Carolina, 27103, United States of America","place_id":"36898962","datatype":"locationiq"},{"latitude":"46.790081","longitude":"-96.936964","name":"Gander Mtn - Fargo","address":"2121 43rd St SW Fargo ND 58104 701-277-9979","street_number":null,"street_name":"64th Avenue South","zip":"58047","city":"Horace","area":null,"county":"Cass County","state":"North Dakota","country":"us","formatted_address":"64th Avenue South, Horace, Cass County, North Dakota, 58047, United States of America","place_id":"135215200","datatype":"locationiq"},{"latitude":"39.984714","longitude":"-83.148217","name":"Gander Mtn - Columbus","address":"5388 Westpointe Plaza Dr Columbus OH 43228 614-921-2223","street_number":null,"street_name":"Westchester Woods Boulevard","zip":"43228","city":"Columbus","area":null,"county":"Franklin County","state":"Ohio","country":"us","formatted_address":"Westchester Woods Boulevard, Breckinridge, Columbus, Franklin County, Ohio, 43228, United States of America","place_id":"71803461","datatype":"locationiq"},{"latitude":"39.871009","longitude":"-84.144860","name":"Gander Mtn - Huber Heights","address":"8001 Old Troy Pike Huber Heights OH 45424 937-236-9786","street_number":null,"street_name":"I 70","zip":"45424","city":"Huber Heights","area":null,"county":"Montgomery County","state":"Ohio","country":"us","formatted_address":"I 70, Huber Heights, Montgomery County, Ohio, 45424, United States of America","place_id":"77724282","datatype":"locationiq"},{"latitude":"41.714659","longitude":"-81.292928","name":"Gander Mtn - Mentor","address":"9620 Diamond Centre Dr Mentor OH 44060 440-639-8545","street_number":"9692","street_name":"Diamond Centre Drive","zip":"44060","city":"Mentor","area":null,"county":"Lake County","state":"Ohio","country":"us","formatted_address":"9692, Diamond Centre Drive, Mentor, Lake County, Ohio, 44060, United States of America","place_id":"199417143","datatype":"locationiq"},{"latitude":"40.878213","longitude":"-81.441157","name":"Gander Mtn - North Canton","address":"4938 Portage St NW North Canton OH 44720 330-498-0995","street_number":"6704","street_name":"Frank Avenue Northwest","zip":"44720","city":null,"area":null,"county":"Stark County","state":"Ohio","country":"us","formatted_address":"6704, Frank Avenue Northwest, Lake Cable, Jackson Township, Stark County, Ohio, 44720, United States of America","place_id":"199847589","datatype":"locationiq"},{"latitude":"39.937197","longitude":"-82.788242","name":"Gander Mtn - Reynoldsburg","address":"2644 Taylor Rd SW Reynoldsburg OH 43068 614-856-0066","street_number":"2959","street_name":"Taylor Road","zip":"43068","city":"Reynoldsburg","area":null,"county":"Fairfield County","state":"Ohio","country":"us","formatted_address":"2959, Taylor Road, Reynoldsburg, Fairfield County, Ohio, 43068, United States of America","place_id":"199091531","datatype":"locationiq"},{"latitude":"41.615776","longitude":"-83.686762","name":"Gander Mtn - Toledo","address":"1320 Holland-Sylvania Rd Holland OH 43528 419-861-4800","street_number":null,"street_name":"Trust Drive","zip":"43528","city":"Toledo","area":"Hidden Creek Estates","county":"Lucas County","state":"Ohio","country":"us","formatted_address":"Gander Mountain, Trust Drive, Hidden Creek Estates, Toledo, Lucas County, Ohio, 43528, United States of America","place_id":"162025754","datatype":"locationiq"},{"latitude":"41.307607","longitude":"-81.437874","name":"Gander Mtn - Twinsburg","address":"2695 Creekside Dr Twinsburg OH 44087 330-405-2999","street_number":null,"street_name":"Creekside Drive","zip":"44087","city":"Twinsburg","area":null,"county":"Summit County","state":"Ohio","country":"us","formatted_address":"Brewsters, Creekside Drive, Twinsburg, Summit County, Ohio, 44087, United States of America","place_id":"24975796","datatype":"locationiq"},{"latitude":"41.210811","longitude":"-80.742178","name":"Gander Mtn - Niles","address":"2390 Niles Cortland Rd SE Warren OH 44484 330-544-5800","street_number":"6365","street_name":"Mines Road Southeast","zip":"44484","city":"Niles","area":null,"county":"Trumbull County","state":"Ohio","country":"us","formatted_address":"6365, Mines Road Southeast, Niles, Trumbull County, Ohio, 44484, United States of America","place_id":"199947094","datatype":"locationiq"},{"latitude":"36.043433","longitude":"-96.006870","name":"Gander Mtn - Tulsa Hills","address":"8310 S Olympia Av W Tulsa OK 74132 918-894-5700","street_number":null,"street_name":"Okmulgee Beeline","zip":"74132","city":"Tulsa","area":"Nickel Creek","county":"Tulsa County","state":"Oklahoma","country":"us","formatted_address":"Okmulgee Beeline, Nickel Creek, Tulsa, Tulsa County, Oklahoma, 74132, United States of America","place_id":"165806862","datatype":"locationiq"},{"latitude":"39.960524","longitude":"-77.577214","name":"Gander Mtn - Chambersburg","address":"3285 Black Gap Rd Chambersburg PA 17202 717-263-8433","street_number":null,"street_name":"Chambersburg Mall","zip":"17254","city":null,"area":null,"county":"Franklin County","state":"Pennsylvania","country":"us","formatted_address":"Chambersburg Mall, Smoketown, Franklin County, Pennsylvania, 17254, United States of America","place_id":"66967043","datatype":"locationiq"},{"latitude":"41.458664","longitude":"-75.651967","name":"Gander Mtn - Dickson City","address":"955 Viewmont Dr Dickson City PA 18519 570-347-9077","street_number":null,"street_name":"Viewmont Drive","zip":"18515","city":"Dickson City","area":null,"county":"Lackawanna County","state":"Pennsylvania","country":"us","formatted_address":"Viewmont Drive, Dickson City, Lackawanna County, Pennsylvania, 18515, United States of America","place_id":"167330946","datatype":"locationiq"},{"latitude":"42.0652","longitude":"-80.103086","name":"Gander Mtn - Erie","address":"2088 Interchange Rd Erie PA 16565 814-868-0880","street_number":"2076","street_name":"Interchange Road","zip":"16509","city":"Millcreek Township","area":null,"county":"Erie County","state":"Pennsylvania","country":"us","formatted_address":"Outback Steakhouse, 2076, Interchange Road, Millcreek Township, Erie County, Pennsylvania, 16509, United States of America","place_id":"21190524","datatype":"locationiq"},{"latitude":"40.289578","longitude":"-79.528392","name":"Gander Mtn - Greensburg","address":"1040 Towne Square Dr Greensburg PA 15601 724-834-2400","street_number":"898","street_name":"Towne Square Drive","zip":"15601","city":"Greensburg","area":null,"county":"Westmoreland County","state":"Pennsylvania","country":"us","formatted_address":"898, Towne Square Drive, Greensburg, Westmoreland County, Pennsylvania, 15601, United States of America","place_id":"202446461","datatype":"locationiq"},{"latitude":"40.30275","longitude":"-78.833094","name":"Gander Mtn - Johnstown","address":"600 Galleria Dr Johnstown PA 15904 814-266-1777","street_number":"557","street_name":"Galleria Drive","zip":"15904","city":null,"area":null,"county":"Cambria County","state":"Pennsylvania","country":"us","formatted_address":"557, Galleria Drive, Richland, Cambria County, Pennsylvania, 15904, United States of America","place_id":"201485565","datatype":"locationiq"},{"latitude":"40.439566","longitude":"-79.741228","name":"Gander Mtn - Monroeville","address":"4680 Old William Penn Hwy  Ste 100 Monroeville PA 15146 412-843-0033","street_number":"4699","street_name":"Old William Penn Highway","zip":"15146","city":"Monroeville","area":null,"county":"Allegheny County","state":"Pennsylvania","country":"us","formatted_address":"4699, Old William Penn Highway, Monroeville, Allegheny County, Pennsylvania, 15146, United States of America","place_id":"201224357","datatype":"locationiq"},{"latitude":"41.237933","longitude":"-76.828433","name":"Gander Mtn - Pensdale","address":"66 Mall Pkwy Pensdale PA 17756 570-546-1040","street_number":null,"street_name":"Lycoming Mall Drive","zip":null,"city":null,"area":null,"county":"Lycoming County","state":"Pennsylvania","country":"us","formatted_address":"Gander Mountain, Lycoming Mall Drive, Pennsdale, Lycoming County, Pennsylvania, United States of America","place_id":"78981748","datatype":"locationiq"},{"latitude":"40.214712","longitude":"-75.140886","name":"Gander Mtn - Warrington","address":"100 Easton Rd\t Warrington PA 18976 267-482-9102","street_number":null,"street_name":"Easton Road","zip":"18976","city":"Warrington Township","area":null,"county":"Bucks County","state":"Pennsylvania","country":"us","formatted_address":"Easton Road, Warrington Township, Bucks County, Pennsylvania, 18976, United States of America","place_id":"66478109","datatype":"locationiq"},{"latitude":"39.972033","longitude":"-76.774239","name":"Gander Mtn - York","address":"725 Town Center Dr York PA 17408 717-767-2002","street_number":"1880","street_name":"Loucks Road","zip":"17408","city":"Shiloh","area":"Fairway","county":"York County","state":"Pennsylvania","country":"us","formatted_address":"Gander Mountain, 1880, Loucks Road, Fairway, Shiloh, York County, Pennsylvania, 17408, United States of America","place_id":"47286397","datatype":"locationiq"},{"latitude":"33.752573","longitude":"-78.962219","name":"Gander Mtn - Myrtle Beach","address":"1049 Glenforest Rd Myrtle Beach SC 29579 843-236-6250","street_number":"4696","street_name":"Factory Stores Boulevard","zip":"29579","city":null,"area":null,"county":"Horry County","state":"South Carolina","country":"us","formatted_address":"4696, Factory Stores Boulevard, Tanger Outlets Myrtle Beach, Fantasy Harbour, Carolina Forest, Horry County, South Carolina, 29579, United States of America","place_id":"202951126","datatype":"locationiq"},{"latitude":"32.947612","longitude":"-80.038059","name":"Gander Mtn - North Charleston","address":"7800 Rivers Av  Ste 1500 North Charleston SC 29406 843-277-8586","street_number":null,"street_name":"Northbrook Boulevard","zip":"29406","city":"North Charleston","area":null,"county":"Charleston County","state":"South Carolina","country":"us","formatted_address":"North Rivers Market, Northbrook Boulevard, North Charleston, Charleston County, South Carolina, 29406, United States of America","place_id":"138462791","datatype":"locationiq"},{"latitude":"35.154070","longitude":"-85.248570","name":"Gander Mtn - Chattanooga","address":"5877 Grubb Rd Suite F Hixson TN 37343 423-800-7529","street_number":null,"street_name":"Wal-Mart Road","zip":"37343","city":"Chattanooga","area":null,"county":"Hamilton County","state":"Tennessee","country":"us","formatted_address":"AT&T, Wal-Mart Road, Chattanooga, Hamilton County, Tennessee, 37343, United States of America","place_id":"98949584","datatype":"locationiq"},{"latitude":"35.900703","longitude":"-84.156122","name":"Gander Mtn - Farragut","address":"11501 Parkside Dr NW Farragut TN 37934 865-671-2790","street_number":"11350","street_name":"Parkside Drive","zip":"37934","city":null,"area":null,"county":"Knox County","state":"Tennessee","country":"us","formatted_address":"11350, Parkside Drive, Farragut, Knox County, Tennessee, 37934, United States of America","place_id":"203852621","datatype":"locationiq"},{"latitude":"35.669794","longitude":"-88.850719","name":"Gander Mtn - Jackson","address":"1523 Vann Dr Jackson TN 38305 731-660-8059","street_number":"775","street_name":"Vann Drive","zip":"38305","city":"Jackson","area":null,"county":"Madison County","state":"Tennessee","country":"us","formatted_address":"775, Vann Drive, Jackson, Madison County, Tennessee, 38305, United States of America","place_id":"203926464","datatype":"locationiq"},{"latitude":"36.170646","longitude":"-86.506864","name":"Gander Mtn - Mount Juliet","address":"66 Belinda Pkwy Mount Juliet TN 37122 615-773-0550","street_number":"41","street_name":"Belinda Parkway","zip":"37122","city":"Mount Juliet","area":null,"county":"Wilson County","state":"Tennessee","country":"us","formatted_address":"41, Belinda Parkway, Mount Juliet, Wilson County, Tennessee, 37122, United States of America","place_id":"204295409","datatype":"locationiq"},{"latitude":"35.191672","longitude":"-101.956642","name":"Gander Mtn - Amarillo","address":"10300 W Interstate 40 Amarillo TX 79124 806-354-9095","street_number":"9744","street_name":"West Amarillo Boulevard","zip":"79124","city":"Amarillo","area":null,"county":"Potter County","state":"Texas","country":"us","formatted_address":"9744, West Amarillo Boulevard, Amarillo, Potter County, Texas, 79124, United States of America","place_id":"206128367","datatype":"locationiq"},{"latitude":"32.678454","longitude":"-97.101252","name":"Gander Mtn - Arlington","address":"459 E Interstate 20 Arlington TX 76018 682-323-0090","street_number":"694","street_name":"I-20 East","zip":"76018","city":"Arlington","area":null,"county":"Tarrant County","state":"Texas","country":"us","formatted_address":"694, I-20 East, Arlington, Tarrant County, Texas, 76018, United States of America","place_id":"206367692","datatype":"locationiq"},{"latitude":"30.125461","longitude":"-94.155775","name":"Gander Mtn - Beaumont","address":"5855 Eastex Freeway Beaumont TX 77706 409-347-3055","street_number":"5799","street_name":"Eastex Freeway Frontage Road","zip":"77706","city":null,"area":null,"county":"Jefferson County","state":"Texas","country":"us","formatted_address":"5799, Eastex Freeway Frontage Road, Helbig, Jefferson County, Texas, 77706, United States of America","place_id":"205722591","datatype":"locationiq"},{"latitude":"30.624747","longitude":"-96.298667","name":"Gander Mtn - College Station","address":"2301 Earl Rudder Fwy S College Station TX 77845 979-693-6412","street_number":null,"street_name":"North Earl Rudder Freeway Frontage Road","zip":"77845","city":null,"area":null,"county":"Brazos County","state":"Texas","country":"us","formatted_address":"North Earl Rudder Freeway Frontage Road, College Station, Brazos County, Texas, 77845, United States of America","place_id":"162755890","datatype":"locationiq"},{"latitude":"31.764494","longitude":"-106.264622","name":"Gander Mtn - El Paso","address":"2036 N Zaragoza Rd El Paso TX 79938 915-249-4686","street_number":"1948","street_name":"North Zaragoza Road","zip":"79938","city":"El Paso City","area":null,"county":"El Paso County","state":"Texas","country":"us","formatted_address":"1948, North Zaragoza Road, El Paso City, El Paso County, Texas, 79938, United States of America","place_id":"205061230","datatype":"locationiq"},{"latitude":"33.178499","longitude":"-96.843346","name":"Gander Mtn - Frisco","address":"12277 Dallas Pkwy Frisco TX 75034 214-305-2992","street_number":"12120","street_name":"Sunny Street","zip":"75033","city":"Frisco","area":null,"county":"Denton County","state":"Texas","country":"us","formatted_address":"12120, Sunny Street, Cobb Farm, Frisco, Denton County, Texas, 75033, United States of America","place_id":"48225588","datatype":"locationiq"},{"latitude":"29.913792","longitude":"-95.613608","name":"Gander Mtn - Houston","address":"19820 Hempstead Hwy Houston TX 77065 832-237-7900","street_number":null,"street_name":"Crossroads Park Drive","zip":"77065","city":null,"area":null,"county":"Harris County","state":"Texas","country":"us","formatted_address":"Luby's, Crossroads Park Drive, Satsuma, Harris County, Texas, 77065, United States of America","place_id":"13431904","datatype":"locationiq"},{"latitude":"31.095938","longitude":"-97.734179","name":"Gander Mtn - Killeen","address":"701 E Central Texas Expy Killeen TX 76541 254-781-3707","street_number":null,"street_name":"Central Texas Expressway Frontage Road","zip":"76541","city":"Killeen","area":null,"county":"Bell County","state":"Texas","country":"us","formatted_address":"Central Texas Expressway Frontage Road, Killeen, Bell County, Texas, 76541, United States of America","place_id":"109515869","datatype":"locationiq"},{"latitude":"32.805056","longitude":"-97.426831","name":"Gander Mtn - Lake Worth","address":"6001 Quebec St Fort Worth TX 76135 817-231-6848","street_number":"5941","street_name":"Quebec Street","zip":"76135","city":"Fort Worth","area":null,"county":"Tarrant County","state":"Texas","country":"us","formatted_address":"5941, Quebec Street, Fort Worth, Tarrant County, Texas, 76135, United States of America","place_id":"206335202","datatype":"locationiq"},{"latitude":"33.010118","longitude":"-96.968725","name":"Gander Mtn - Lewisville","address":"723 Hebron Pkwy Lewisville TX 75057 469-444-6072","street_number":null,"street_name":"Hebron Parkway","zip":"75057","city":"Lewisville","area":null,"county":"Denton County","state":"Texas","country":"us","formatted_address":"Hebron Parkway, Lewisville, Denton County, Texas, 75057, United States of America","place_id":"65316952","datatype":"locationiq"},{"latitude":"33.558667","longitude":"-101.942283","name":"Gander Mtn - Lubbock","address":"4006 W Loop 289 Lubbock TX 79407 806-785-1591","street_number":null,"street_name":"Camelot Mobile Home Park","zip":"79407","city":"Lubbock","area":null,"county":"Lubbock County","state":"Texas","country":"us","formatted_address":"EcoWater Systems of Lubbock, Camelot Mobile Home Park, Lubbock, Lubbock County, Texas, 79407, United States of America","place_id":"167229334","datatype":"locationiq"},{"latitude":"32.815535","longitude":"-96.627004","name":"Gander Mtn - Mesquite","address":"3777 Childress Av Mesquite TX 75150 214-377-2354","street_number":"3743","street_name":"Childress Avenue","zip":"75150","city":"Mesquite","area":null,"county":"Dallas County","state":"Texas","country":"us","formatted_address":"3743, Childress Avenue, Mesquite, Dallas County, Texas, 75150, United States of America","place_id":"204864625","datatype":"locationiq"},{"latitude":"30.475892","longitude":"-97.671998","name":"Gander Mtn - Round Rock","address":"3203 South I-35 Round Rock TX 78664 512-368-2133","street_number":"3151","street_name":"South Interstate Highway 35 Service Road","zip":"78664","city":"Round Rock","area":null,"county":"Travis County","state":"Texas","country":"us","formatted_address":"3151, South Interstate Highway 35 Service Road, Round Rock Crossing, Round Rock, Travis County, Texas, 78664, United States of America","place_id":"137137623","datatype":"locationiq"},{"latitude":"29.439331","longitude":"-98.646594","name":"Gander Mtn - San Antonio","address":"8203 State Hwy 151 San Antonio TX 78245 210-202-2822","street_number":null,"street_name":"Southwest Loop 410","zip":"78227","city":"San Antonio","area":null,"county":"Bexar County","state":"Texas","country":"us","formatted_address":"Southwest Loop 410, San Antonio, Bexar County, Texas, 78227, United States of America","place_id":"82156556","datatype":"locationiq"},{"latitude":"33.610383","longitude":"-96.608689","name":"Gander Mtn - Sherman","address":"2725 N US Hwy 75 Sherman TX 75090 903-891-8585","street_number":null,"street_name":"US 75","zip":"75090","city":"Sherman","area":null,"county":"Grayson County","state":"Texas","country":"us","formatted_address":"57, US 75, Sherman, Grayson County, Texas, 75090, United States of America","place_id":"161732","datatype":"locationiq"},{"latitude":"30.048333","longitude":"-95.429408","name":"Gander Mtn - Spring","address":"19302 Interstate 45 Spring TX 77373 281-288-2620","street_number":null,"street_name":"North Freeway Frontage Road","zip":"77373:77388","city":null,"area":"Cypresswood Crossing","county":"Harris County","state":"Texas","country":"us","formatted_address":"Gringo's Mexican Food, North Freeway Frontage Road, Cypresswood Crossing, Old Town Spring, Harris County, Texas, 77373:77388, United States of America","place_id":"170476883","datatype":"locationiq"},{"latitude":"29.59615","longitude":"-95.625539","name":"Gander Mtn - Sugar Land","address":"19890 SW Freeway Sugar Land TX 77479 281-239-6720","street_number":null,"street_name":"Southwest Freeway Frontage Road","zip":"77479","city":"Sugar Land","area":null,"county":"Fort Bend County","state":"Texas","country":"us","formatted_address":"Southwest Freeway Frontage Road, Sugar Land, Fort Bend County, Texas, 77479, United States of America","place_id":"71846251","datatype":"locationiq"},{"latitude":"33.452053","longitude":"-94.109008","name":"Gander Mtn - Texarkana","address":"2301 University Av Texarcana TX 75503 903-832-3607","street_number":null,"street_name":"Saint Michael Drive","zip":"75503","city":"Texarkana","area":null,"county":"Bowie County","state":"Texas","country":"us","formatted_address":"Saint Michael Drive, Texarkana, Bowie County, Texas, 75503, United States of America","place_id":"88666117","datatype":"locationiq"},{"latitude":"32.247637","longitude":"-95.306707","name":"Gander Mtn - Tyler","address":"151 Market Square Blvd Tyler TX 75703 903-839-8205","street_number":"178","street_name":"Market Square Boulevard","zip":"75703","city":"Tyler","area":null,"county":"Smith County","state":"Texas","country":"us","formatted_address":"178, Market Square Boulevard, Tyler, Smith County, Texas, 75703, United States of America","place_id":"206231342","datatype":"locationiq"},{"latitude":"38.091796","longitude":"-78.467772","name":"Gander Mtn - Charlottesville","address":"440 Gander Dr Charlottesville VA 22901 434-326-0007","street_number":null,"street_name":"Seminole Trail","zip":"22901","city":null,"area":null,"county":"Albemarle County","state":"Virginia","country":"us","formatted_address":"Seminole Trail, Berkmar, Albemarle County, Virginia, 22901, United States of America","place_id":"149371651","datatype":"locationiq"},{"latitude":"38.292222","longitude":"-77.524131","name":"Gander Mtn - Fredericksburg","address":"3708 Plank Rd Fredericksburg VA 22407 540-548-1330","street_number":"3829","street_name":"Plank Road","zip":"22407","city":"Fredericksburg","area":null,"county":"Spotsylvania County","state":"Virginia","country":"us","formatted_address":"3829, Plank Road, Fredericksburg, Spotsylvania County, Virginia, 22407, United States of America","place_id":"207873988","datatype":"locationiq"},{"latitude":"37.359333","longitude":"-79.957678","name":"Gander Mtn - Roanoke","address":"8195 Gander Way Roanoke VA 24019 540-362-3658","street_number":"8112","street_name":"Plantation Road","zip":"24019","city":null,"area":null,"county":"Roanoke County","state":"Virginia","country":"us","formatted_address":"8112, Plantation Road, Hollins, Roanoke County, Virginia, 24019, United States of America","place_id":"207800547","datatype":"locationiq"},{"latitude":"39.130047","longitude":"-78.191925","name":"Gander Mtn - Winchester","address":"251 Commonwealth Ct Winchester VA 22602 540-868-9312","street_number":"3502","street_name":"Valley Pike","zip":"22602","city":null,"area":null,"county":"Frederick County","state":"Virginia","country":"us","formatted_address":"3502, Valley Pike, Plainfield Heights, Frederick County, Virginia, 22602, United States of America","place_id":"207456146","datatype":"locationiq"},{"latitude":"38.647744","longitude":"-77.294477","name":"Gander Mtn - Woodbridge","address":"14011 Worth Av Woodbridge VA 22192 571-409-5365","street_number":"13345","street_name":"Worth Avenue","zip":"22192","city":null,"area":null,"county":"Prince William County","state":"Virginia","country":"us","formatted_address":"13345, Worth Avenue, Potomac MIlls, Potomac Mills, Prince William County, Virginia, 22192, United States of America","place_id":"207767907","datatype":"locationiq"},{"latitude":"38.322886","longitude":"-81.712478","name":"Gander Mtn - Charleston","address":"2600 Mountaineer Blvd Charleston WV 25309 304-746-6130","street_number":null,"street_name":"Mountaineer Boulevard","zip":"25309","city":"South Charleston","area":null,"county":"Kanawha County","state":"West Virginia","country":"us","formatted_address":"Penn Station East Coast Subs, Mountaineer Boulevard, South Charleston, Kanawha County, West Virginia, 25309, United States of America","place_id":"21616726","datatype":"locationiq"},{"latitude":"44.2656","longitude":"-88.460997","name":"Gander Mtn - Appleton","address":"535 N Westhill Blvd Appleton WI 54914 920-731-9400","street_number":"598","street_name":"North Westhill Boulevard","zip":"54914","city":null,"area":null,"county":"Outagamie County","state":"Wisconsin","country":"us","formatted_address":"598, North Westhill Boulevard, Grand Chute, Town of Grand Chute, Outagamie County, Wisconsin, 54914, United States of America","place_id":"209591771","datatype":"locationiq"},{"latitude":"43.186286","longitude":"-89.328831","name":"Gander Mtn - De Forest","address":"6199 Metro Dr De Forest WI 53532 608-242-9532","street_number":null,"street_name":"Token Creek Lane","zip":"53532","city":null,"area":null,"county":"Dane County","state":"Wisconsin","country":"us","formatted_address":"Token Creek Lane, Token Creek, Town of Burke, Dane County, Wisconsin, 53532, United States of America","place_id":"63754589","datatype":"locationiq"},{"latitude":"44.761780","longitude":"-91.414338","name":"Gander Mtn - Eau Claire","address":"6440 Sculy Dr Eau Claire WI 54701 715-834-4594","street_number":null,"street_name":"US 53","zip":"54720","city":null,"area":null,"county":"Eau Claire County","state":"Wisconsin","country":"us","formatted_address":"US 53, Town of Washington, Eau Claire County, Wisconsin, 54720, United States of America","place_id":"78882534","datatype":"locationiq"},{"latitude":"42.918547","longitude":"-87.94995","name":"Gander Mtn - Franklin","address":"6939 S 27th St Franklin WI 53132 414-761-1500","street_number":"7015","street_name":"South 27th Street","zip":"53132","city":null,"area":null,"county":"Milwaukee County","state":"Wisconsin","country":"us","formatted_address":"7015, South 27th Street, Franklin, Milwaukee County, Wisconsin, 53132, United States of America","place_id":"209537569","datatype":"locationiq"},{"latitude":"43.213176","longitude":"-88.145720","name":"Gander Mtn - Germantown","address":"W190 N10768 Commerce Cir Germantown WI 53022 262-250-0600","street_number":null,"street_name":"Commerce Circle","zip":"53022","city":null,"area":null,"county":"Washington County","state":"Wisconsin","country":"us","formatted_address":"Commerce Circle, Village of Germantown, Washington County, Wisconsin, 53022, United States of America","place_id":"71512765","datatype":"locationiq"},{"latitude":"44.546592","longitude":"-88.071944","name":"Gander Mtn - Green Bay","address":"2323 Woodman Dr Green Bay WI 54303 920-491-9110","street_number":null,"street_name":"Woodman Drive","zip":"54303","city":null,"area":null,"county":"Brown County","state":"Wisconsin","country":"us","formatted_address":"Woodman Drive, Howard, Brown County, Wisconsin, 54303, United States of America","place_id":"72226512","datatype":"locationiq"},{"latitude":"42.716317","longitude":"-88.979722","name":"Gander Mtn - Janesville","address":"2900 Deerfield Dr #8 Janesville WI 53546 608-757-2010","street_number":"3026","street_name":"Deerfield Drive","zip":"53546","city":"Janesville","area":null,"county":"Rock County","state":"Wisconsin","country":"us","formatted_address":"3026, Deerfield Drive, Janesville, Rock County, Wisconsin, 53546, United States of America","place_id":"209681231","datatype":"locationiq"},{"latitude":"42.571383","longitude":"-87.952286","name":"Gander Mtn - Kenosha","address":"6801 120th Av Kenosha WI 53140 262-857-3757","street_number":"11801","street_name":"71st Street","zip":"53142","city":"Kenosha","area":null,"county":"Kenosha County","state":"Wisconsin","country":"us","formatted_address":"11801, 71st Street, Kenosha, Kenosha County, Wisconsin, 53142, United States of America","place_id":"209425044","datatype":"locationiq"},{"latitude":"43.883553","longitude":"-91.170678","name":"Gander Mtn - Onalaska","address":"9519 State Hwy 16 Onalaska WI 54650 608-783-2820","street_number":null,"street_name":"WI 16","zip":"54601","city":"Onalaska","area":null,"county":"La Crosse County","state":"Wisconsin","country":"us","formatted_address":"WI 16, Onalaska, La Crosse County, Wisconsin, 54601, United States of America","place_id":"161932781","datatype":"locationiq"},{"latitude":"44.858275","longitude":"-89.634947","name":"Gander Mtn - Rothschild","address":"1560 County Rd XX Rothschild WI 54474 715-355-5500","street_number":"1125","street_name":"County Highway XX","zip":"54455","city":null,"area":null,"county":"Marathon County","state":"Wisconsin","country":"us","formatted_address":"1125, County Highway XX, Rothschild, Marathon County, Wisconsin, 54455, United States of America","place_id":"209490904","datatype":"locationiq"},{"latitude":"43.789939","longitude":"-87.763256","name":"Gander Mtn - Sheboygan","address":"4308 County Rd J Sheboygan WI 53083 920-208-0800","street_number":"4140","street_name":"County Road J","zip":"53083","city":null,"area":null,"county":"Sheboygan County","state":"Wisconsin","country":"us","formatted_address":"4140, County Road J, Johnsonville, Sheboygan County, Wisconsin, 53083, United States of America","place_id":"209712952","datatype":"locationiq"},{"latitude":"43.033806","longitude":"-88.173889","name":"Gander Mtn - Waukesha","address":"2440 E Moreland Blvd Waukesha WI 53186 262-798-0424","street_number":null,"street_name":"East Moreland Boulevard","zip":"53045","city":null,"area":null,"county":"Waukesha County","state":"Wisconsin","country":"us","formatted_address":"East Moreland Boulevard, Goerkes Corner, Town of Brookfield, Waukesha County, Wisconsin, 53045, United States of America","place_id":"153284250","datatype":"locationiq"},{"latitude":"43.472344","longitude":"-89.768836","name":"Gander Mtn - West Baraboo","address":"315 W Pine West Baraboo WI 53913 608-356-9800 ","street_number":"314","street_name":"West Pine Street","zip":"53913","city":null,"area":null,"county":"Sauk County","state":"Wisconsin","country":"us","formatted_address":"McDonald's, 314, West Pine Street, West Baraboo, Sauk County, Wisconsin, 53913, United States of America","place_id":"173800616","datatype":"locationiq"}]