[{"latitude":"41.468795","longitude":"-81.771390","name":"117th & I90 Giant Eagle","address":"\n\t\t\t3050 W. 117th Street<br>\nCleveland, OH 44111<br>\n\n\t\t\t(216) 941-5012 (Main)<br>\n(216) 941-5109 (Pharmacy)<br>\n(216) 941-5284 (Main Fax)<br>\n(216) 941-5158 (Pharmacy Fax)<br>\n(216) 941-5649 (State Liquor Agency)<br>\n\n\t\t\tSun-Sat: Open 24 hours<br>\n\n\t\t\t","street_number":null,"street_name":"West 121st Street","zip":"44111","city":"Lakewood","area":null,"county":"Cuyahoga County","state":"Ohio","country":"us","formatted_address":"Giant Eagle, West 121st Street, Jefferson, Lakewood, Cuyahoga County, Ohio, 44111, United States of America","place_id":"20534504","datatype":"locationiq"},{"latitude":"40.598240","longitude":"-80.305710","name":"Aliquippa Giant Eagle","address":"\n\t\t\t3113 Green Garden Road<br>\nGreen Garden Shopping Center<br>\nAliquippa, PA 15001<br>\n\n\t\t\t(724) 378-8896 (Main)<br>\n(724) 378-9170 (Pharmacy)<br>\n(724) 378-3290 (Main Fax)<br>\n(724) 378-4207 (Pharmacy Fax)<br>\n\n\t\t\tSun: 7:00 AM - 9:00 PM<br>\nMon-Sat: 7:00 AM - 10:00 PM<br>\n\n\t\t\t","street_number":null,"street_name":"Service Creek Road","zip":"15001","city":null,"area":null,"county":"Beaver County","state":"Pennsylvania","country":"us","formatted_address":"Service Creek Road, Arrow, Beaver County, Pennsylvania, 15001, United States of America","place_id":"70454425","datatype":"locationiq"},{"latitude":"40.608333","longitude":"-79.610973","name":"Allegheny Towne Center Giant Eagle","address":"\n\t\t\t41 Towne Center Drive<br>\nLeechburg, PA 15656<br>\n\n\t\t\t(724) 845-9298 (Main)<br>\n(724) 845-1077 (Pharmacy)<br>\n(724) 845-4347 (Main Fax)<br>\n(724) 845-4355 (Pharmacy Fax)<br>\n\n\t\t\tSun-Sat: 6:00 AM - 1:00 AM<br>\n\n\t\t\t","street_number":null,"street_name":"PA 56","zip":"15690","city":"Vandergrift","area":null,"county":"Westmoreland County","state":"Pennsylvania","country":"us","formatted_address":"PA 56, Vandergrift, Westmoreland County, Pennsylvania, 15690, United States of America","place_id":"121797502","datatype":"locationiq"},{"latitude":"40.901346","longitude":"-81.130603","name":"Alliance Giant Eagle","address":"\n\t\t\t1800 W. State <br>\nAlliance, OH 44601<br>\n\n\t\t\t(330) 821-9015 (Main)<br>\n(330) 829-3192 (Pharmacy)<br>\n(330) 829-3185 (Main Fax)<br>\n(330) 829-3196 (Pharmacy Fax)<br>\n(330) 829-3191 (State Liquor Agency)<br>\n\n\t\t\tSun-Sat: 7:00 AM - 11:00 PM<br>\n\n\t\t\t","street_number":"1686","street_name":"West State Street","zip":"44601","city":"Alliance","area":null,"county":"Stark County","state":"Ohio","country":"us","formatted_address":"1686, West State Street, Alliance, Washington Township, Stark County, Ohio, 44601, United States of America","place_id":"199886745","datatype":"locationiq"},{"latitude":"40.484320","longitude":"-78.387142","name":"Altoona Giant Eagle","address":"\n\t\t\t181 Sophira Lane<br>\nLogan Town Center<br>\nAltoona, PA 16602<br>\n\n\t\t\t(814) 946-1845 (Main)<br>\n(814) 946-4267 (Pharmacy)<br>\n(814) 946-4025 (Main Fax)<br>\n(814) 946-5324 (Pharmacy Fax)<br>\n\n\t\t\tSun-Sat: 6:00 AM - 12:00 AM<br>\n\n\t\t\t","street_number":null,"street_name":"Falon Lane","zip":"16602","city":null,"area":null,"county":"Blair County","state":"Pennsylvania","country":"us","formatted_address":"Giant Eagle, Falon Lane, Hileman Heights, Blair County, Pennsylvania, 16602, United States of America","place_id":"136974661","datatype":"locationiq"},{"latitude":"40.439533","longitude":"-79.741047","name":"Ames Plaza Giant Eagle","address":"\n\t\t\t4680 Old William Penn Hwy<br>\nMonroeville, PA 15146<br>\n\n\t\t\t(412) 373-8299 (Main)<br>\n(412) 373-4158 (Main Fax)<br>\n\n\t\t\tSun-Sat: 6:00 AM - 11:00 PM<br>\n\n\t\t\t","street_number":null,"street_name":"William Penn Highway","zip":"15146","city":"Monroeville","area":null,"county":"Allegheny County","state":"Pennsylvania","country":"us","formatted_address":"Giant Eagle, William Penn Highway, Monroeville, Allegheny County, Pennsylvania, 15146, United States of America","place_id":"51865117","datatype":"locationiq"},{"latitude":"41.416420","longitude":"-82.203394","name":"Amherst Giant Eagle","address":"\n\t\t\t2201 Kresge Drive<br>\nAmherst, OH 44001<br>\n\n\t\t\t(440) 282-7614 (Main)<br>\n(440) 282-7651 (Pharmacy)<br>\n(440) 282-5769 (Main Fax)<br>\n(440) 282-7663 (Pharmacy Fax)<br>\n(440) 960-9127 (State Liquor Agency)<br>\n\n\t\t\tSun-Sat: 6:00 AM - 12:00 AM<br>\n\n\t\t\t","street_number":"969","street_name":"Amchester Street","zip":"44001","city":"Amherst","area":null,"county":"Lorain County","state":"Ohio","country":"us","formatted_address":"969, Amchester Street, Amherst, Lorain County, Ohio, 44001, United States of America","place_id":"199483204","datatype":"locationiq"},{"latitude":"41.854377","longitude":"-80.817174","name":"Ashtabula Giant Eagle","address":"\n\t\t\t2390 Prospect Avenue<br>\nAshtabula, OH 44004<br>\n\n\t\t\t(440) 992-6881 (Main)<br>\n(440) 992-6165 (Pharmacy)<br>\n(440) 998-6258 (Main Fax)<br>\n(440) 992-6046 (Pharmacy Fax)<br>\n\n\t\t\tSun: 6:00 AM - 10:00 PM<br>\nMon-Sat: 6:00 AM - 11:00 PM<br>\n\n\t\t\t","street_number":"2515","street_name":"North Ridge Road West","zip":"44004","city":"Ashtabula","area":null,"county":"Ashtabula County","state":"Ohio","country":"us","formatted_address":"2515, North Ridge Road West, Ashtabula, Ashtabula County, Ohio, 44004, United States of America","place_id":"198789314","datatype":"locationiq"},{"latitude":"41.101044","longitude":"-80.756940","name":"Austintown Giant Eagle","address":"\n\t\t\t5220 Mahoning Avenue<br>\nYoungstown, OH 44515<br>\n\n\t\t\t(330) 793-2994 (Main)<br>\n(330) 793-9345 (Pharmacy)<br>\n(330) 793-2726 (Main Fax)<br>\n(330) 793-8659 (Pharmacy Fax)<br>\n\n\t\t\tSun-Sat: 6:00 AM - 1:00 AM<br>\n\n\t\t\t","street_number":"5220","street_name":"Mahoning Avenue","zip":"44515","city":null,"area":null,"county":"Mahoning County","state":"Ohio","country":"us","formatted_address":"Giant Eagle, 5220, Mahoning Avenue, West Austintown, Mahoning County, Ohio, 44515, United States of America","place_id":"135883268","datatype":"locationiq"},{"latitude":"41.493500","longitude":"-81.985994","name":"Avon Lake Giant Eagle","address":"\n\t\t\t31990 Walker Road<br>\nAvon Lake, OH 44012<br>\n\n\t\t\t(440) 933-5078 (Main)<br>\n(440) 933-9598 (Pharmacy)<br>\n(440) 930-8891 (Main Fax)<br>\n(440) 933-7571 (Pharmacy Fax)<br>\n\n\t\t\tSun-Sat: 6:00 AM - 1:00 AM<br>\n\n\t\t\t","street_number":"31990","street_name":"Walker Road","zip":"44012","city":"Avon Lake","area":null,"county":"Lorain County","state":"Ohio","country":"us","formatted_address":"Giant Eagle, 31990, Walker Road, Avon Lake, Lorain County, Ohio, 44012, United States of America","place_id":"172458154","datatype":"locationiq"},{"latitude":"40.657765","longitude":"-80.236568","name":"Baden Giant Eagle","address":"\n\t\t\t1600 West State Street<br>\nNorthern Lights Shopping Ctr.<br>\nBaden, PA 15005<br>\n\n\t\t\t(724) 869-8420 (Main)<br>\n(724) 869-7220 (Pharmacy)<br>\n(724) 869-3170 (Main Fax)<br>\n(724) 869-7408 (Pharmacy Fax)<br>\n\n\t\t\tSun: 8:00 AM - 9:00 PM<br>\nMon-Sat: 7:00 AM - 10:00 PM<br>\n\n\t\t\t","street_number":null,"street_name":"1st Avenue","zip":"15027","city":"Conway","area":null,"county":"Beaver County","state":"Pennsylvania","country":"us","formatted_address":"Giant Eagle, 1st Avenue, Conway, Beaver County, Pennsylvania, 15027, United States of America","place_id":"33547609","datatype":"locationiq"},{"latitude":"41.009310","longitude":"-81.588002","name":"Barberton Giant Eagle","address":"\n\t\t\t41 5th Street S.E.<br>\nBarberton, OH 44203<br>\n\n\t\t\t(330) 745-9200 (Main)<br>\n(330) 861-0849 (Pharmacy)<br>\n(330) 745-7131 (Main Fax)<br>\n(330) 861-0872 (Pharmacy Fax)<br>\n\n\t\t\tSun-Sat: 6:00 AM - 12:00 AM<br>\n\n\t\t\t","street_number":null,"street_name":"Robinson Avenue","zip":"44203","city":"Barberton","area":"Austin Estates","county":"Summit County","state":"Ohio","country":"us","formatted_address":"Giant Eagle, Robinson Avenue, Austin Estates, Barberton, Summit County, Ohio, 44203, United States of America","place_id":"20893215","datatype":"locationiq"},{"latitude":"41.465584","longitude":"-81.506038","name":"Beachwood Giant Eagle","address":"\n\t\t\t24601 Chagrin Blvd.<br>\nBeachwood, OH 44122<br>\n\n\t\t\t(216) 831-3535 (Main)<br>\n(216) 831-8080 (Pharmacy)<br>\n(216) 831-5750 (Main Fax)<br>\n(216) 831-5330 (Pharmacy Fax)<br>\n(216) 755-8002 (State Liquor Agency)<br>\n\n\t\t\tSun-Sat: 7:00 AM - 12:00 AM<br>\n\n\t\t\t","street_number":null,"street_name":"Fire Station Drive","zip":"44122","city":null,"area":null,"county":"Cuyahoga County","state":"Ohio","country":"us","formatted_address":"Giant Eagle, Fire Station Drive, Beachwood, Cuyahoga County, Ohio, 44122, United States of America","place_id":"138396503","datatype":"locationiq"},{"latitude":"41.389117","longitude":"-81.526029","name":"Bedford OH Giant Eagle","address":"\n\t\t\t900 Northfield Road<br>\nBedford, OH 44146<br>\n\n\t\t\t(440) 439-1800 (Main)<br>\n(440) 439-1416 (Pharmacy)<br>\n(440) 439-6602 (Main Fax)<br>\n(440) 439-1796 (Pharmacy Fax)<br>\n\n\t\t\tSun: 7:00 AM - 9:00 PM<br>\nMon-Sat: 7:00 AM - 11:00 PM<br>\n\n\t\t\t","street_number":"111","street_name":"Solon Road","zip":"44146","city":null,"area":null,"county":"Cuyahoga County","state":"Ohio","country":"us","formatted_address":"111, Solon Road, Bedford, Cuyahoga County, Ohio, 44146, United States of America","place_id":"199007294","datatype":"locationiq"},{"latitude":"40.019312","longitude":"-78.495060","name":"Bedford PA Giant Eagle","address":"\n\t\t\t510 East Pitt Street<br>\nBedford, PA 15522<br>\n\n\t\t\t(814) 623-2775 (Main)<br>\n(814) 623-1188 (Pharmacy)<br>\n(814) 623-5665 (Main Fax)<br>\n(814) 623-1143 (Pharmacy Fax)<br>\n\n\t\t\tSun: 6:30 AM - 7:00 PM<br>\nMon-Sat: 6:30 AM - 9:00 PM<br>\n\n\t\t\t","street_number":"570","street_name":"East Pitt Street","zip":"15522","city":"Bedford","area":null,"county":"Bedford County","state":"Pennsylvania","country":"us","formatted_address":"570, East Pitt Street, Bedford, Bedford County, Pennsylvania, 15522, United States of America","place_id":"201324812","datatype":"locationiq"},{"latitude":"40.137428","longitude":"-79.840528","name":"Belle Vernon Giant Eagle","address":"\n\t\t\t300 Tri County Lane<br>\nBelle Vernon, PA 15012<br>\n\n\t\t\t(724) 929-6750 (Main)<br>\n(724) 929-3789 (Pharmacy)<br>\n(724) 929-8809 (Main Fax)<br>\n(724) 929-6034 (Pharmacy Fax)<br>\n\n\t\t\tSun-Sat: 6:00 AM - 11:00 PM<br>\n\n\t\t\t","street_number":null,"street_name":"Finley Road","zip":"15012","city":null,"area":null,"county":"Westmoreland County","state":"Pennsylvania","country":"us","formatted_address":"Giant Eagle, Finley Road, Tri County Plaza, Allens Crossroads, Westmoreland County, Pennsylvania, 15012, United States of America","place_id":"15846256","datatype":"locationiq"},{"latitude":"40.129194","longitude":"-80.001976","name":"Bentleyville Giant Eagle","address":"\n\t\t\t155 Wilson Road<br>\nBentleyville, PA 15314<br>\n\n\t\t\t(724) 239-2300 (Main)<br>\n(724) 239-2305 (Main Fax)<br>\n\n\t\t\tSun-Sat: 8:00 AM - 10:00 PM<br>\n\n\t\t\t","street_number":null,"street_name":"Wilson Road","zip":"15314","city":"Bentleyville","area":null,"county":"Washington County","state":"Pennsylvania","country":"us","formatted_address":"Burger King, Wilson Road, Bentleyville, Washington County, Pennsylvania, 15314, United States of America","place_id":"145869706","datatype":"locationiq"},{"latitude":"41.367601","longitude":"-81.855903","name":"Berea Giant Eagle","address":"\n\t\t\t50 West Bridge Street<br>\nBerea, OH 44017<br>\n\n\t\t\t(440) 234-6616 (Main)<br>\n(440) 826-9104 (Pharmacy)<br>\n(440) 826-9110 (Main Fax)<br>\n(440) 826-9107 (Pharmacy Fax)<br>\n\n\t\t\tSun-Sat: 7:00 AM - 11:00 PM<br>\n\n\t\t\t","street_number":"72","street_name":"West Center Street","zip":"44017","city":null,"area":null,"county":"Cuyahoga County","state":"Ohio","country":"us","formatted_address":"72, West Center Street, Berea, Cuyahoga County, Ohio, 44017, United States of America","place_id":"198999144","datatype":"locationiq"},{"latitude":"40.338725","longitude":"-80.024388","name":"Bethel Park Giant Eagle","address":"\n\t\t\t5055 Library Road, Suite 5<br>\nBethel Park, PA 15102-4215<br>\n\n\t\t\t(412) 833-8575 (Main)<br>\n(412) 831-7727 (Pharmacy)<br>\n(412) 833-4526 (Main Fax)<br>\n(412) 833-0606 (Pharmacy Fax)<br>\n\n\t\t\tSun-Sat: Open 24 hours<br>\n\n\t\t\t","street_number":null,"street_name":"Paxton Drive","zip":"15102","city":"Bethel Park","area":null,"county":"Allegheny County","state":"Pennsylvania","country":"us","formatted_address":"Redbox, Paxton Drive, Bethel Park, Allegheny County, Pennsylvania, 15102, United States of America","place_id":"57745723","datatype":"locationiq"},{"latitude":"41.431776","longitude":"-81.730471","name":"Biddulph Plaza Giant Eagle","address":"\n\t\t\t6300 Biddulph Road<br>\nBrooklyn, OH 44144<br>\n\n\t\t\t(216) 351-5180 (Main)<br>\n(216) 739-4125 (Pharmacy)<br>\n(216) 398-5771 (Main Fax)<br>\n(216) 739-4128 (Pharmacy Fax)<br>\n\n\t\t\tSun-Sat: 6:00 AM - 1:00 AM<br>\n\n\t\t\t","street_number":null,"street_name":"Dawning Drive","zip":"44144","city":null,"area":null,"county":"Cuyahoga County","state":"Ohio","country":"us","formatted_address":"Giant Eagle, Dawning Drive, Brooklyn Acres Copperative, Brooklyn, Cuyahoga County, Ohio, 44144, United States of America","place_id":"23349343","datatype":"locationiq"},{"latitude":"39.980836","longitude":"-82.820606","name":"Blacklick Giant Eagle","address":"\n\t\t\t6867 East Broad Street<br>\nColumbus, OH 43213<br>\n\n\t\t\t(614) 866-1468 (Main)<br>\n(614) 866-3079 (Pharmacy)<br>\n(614) 866-6372 (Main Fax)<br>\n(614) 866-5654 (Pharmacy Fax)<br>\n(614) 866-5226 (State Liquor Agency)<br>\n(614) 866-6084 (State Liquor Agency Fax)<br>\n\n\t\t\tSun-Sat: 6:00 AM - 11:00 PM<br>\n\n\t\t\t","street_number":null,"street_name":"East Broad Street","zip":"43004","city":"Columbus","area":null,"county":"Franklin County","state":"Ohio","country":"us","formatted_address":"Giant Eagle, East Broad Street, Columbus, Franklin County, Ohio, 43004, United States of America","place_id":"13217190","datatype":"locationiq"},{"latitude":"41.025709","longitude":"-80.678954","name":"Boardman Giant Eagle","address":"\n\t\t\t476 Boardman-Canfield Road<br>\nYoungstown, OH 44512<br>\n\n\t\t\t(330) 758-5367 (Main)<br>\n(330) 726-9518 (Pharmacy)<br>\n(330) 758-0002 (Main Fax)<br>\n(330) 726-5957 (Pharmacy Fax)<br>\n(330) 758-3767 (State Liquor Agency)<br>\n\n\t\t\tSun-Sat: 6:00 AM - 1:00 AM<br>\n\n\t\t\t","street_number":null,"street_name":"Boardman Canfield Road","zip":"44512","city":null,"area":null,"county":"Mahoning County","state":"Ohio","country":"us","formatted_address":"Giant Eagle, Boardman Canfield Road, Boardman, Mahoning County, Ohio, 44512, United States of America","place_id":"137010213","datatype":"locationiq"},{"latitude":"40.640510","longitude":"-81.442326","name":"Bolivar Giant Eagle","address":"\n\t\t\t11031 State Rt. 212 - N.E.<br>\nBolivar, OH 44612-8744<br>\n\n\t\t\t(330) 874-3511 (Main)<br>\n(330) 874-3723 (Pharmacy)<br>\n(330) 874-4112 (Main Fax)<br>\n(330) 874-1184 (Pharmacy Fax)<br>\n\n\t\t\tSun-Sat: 7:00 AM - 10:00 PM<br>\n\n\t\t\t","street_number":null,"street_name":"SR 212","zip":"44612","city":null,"area":"Zoar Historic District","county":"Tuscarawas County","state":"Ohio","country":"us","formatted_address":"Giant Eagle, SR 212, Zoar Historic District, Zoar, Tuscarawas County, Ohio, 44612, United States of America","place_id":"107142685","datatype":"locationiq"},{"latitude":"40.414427","longitude":"-79.855306","name":"Braddock Hills Giant Eagle","address":"\n\t\t\t254 Yost Boulevard-Braddock<br>\nPittsburgh, PA 15221<br>\n\n\t\t\t(412) 271-3505 (Main)<br>\n(412) 271-4445 (Pharmacy)<br>\n(412) 271-0826 (Main Fax)<br>\n(412) 351-6112 (Pharmacy Fax)<br>\n\n\t\t\tSun: 7:00 AM - 10:00 PM<br>\nMon-Sat: 6:00 AM - 10:00 PM<br>\n\n\t\t\t","street_number":null,"street_name":"Yost Boulevard","zip":"15221","city":"Braddock Hills","area":null,"county":"Allegheny County","state":"Pennsylvania","country":"us","formatted_address":"Yost Boulevard, Braddock Hills, Allegheny County, Pennsylvania, 15221, United States of America","place_id":"167202999","datatype":"locationiq"},{"latitude":"40.365482","longitude":"-79.982512","name":"Brentwood Giant Eagle","address":"\n\t\t\t600 Towne Square Way<br>\nPittsburgh, PA 15227<br>\n\n\t\t\t(412) 881-4075 (Main)<br>\n(412) 881-5120 (Pharmacy)<br>\n(412) 881-0170 (Main Fax)<br>\n(412) 885-0693 (Pharmacy Fax)<br>\n\n\t\t\tSun-Sat: 5:00 AM - 12:00 AM<br>\n\n\t\t\t","street_number":"4116","street_name":"Brownsville Road","zip":"15227","city":"Brentwood","area":null,"county":"Allegheny County","state":"Pennsylvania","country":"us","formatted_address":"4116, Brownsville Road, Carrick, Brentwood, Allegheny County, Pennsylvania, 15227, United States of America","place_id":"201259545","datatype":"locationiq"},{"latitude":"40.367495","longitude":"-80.109102","name":"Bridgeville Giant Eagle","address":"\n\t\t\t1025 Washington Pike<br>\nBridgeville, PA 15017<br>\n\n\t\t\t(412) 221-1422 (Main)<br>\n(412) 257-3050 (Pharmacy)<br>\n(412) 221-3760 (Main Fax)<br>\n(412) 220-0352 (Pharmacy Fax)<br>\n\n\t\t\tSun-Sat: 7:00 AM - 10:00 PM<br>\n\n\t\t\t","street_number":null,"street_name":"Washington Pike","zip":"15017","city":null,"area":null,"county":"Allegheny County","state":"Pennsylvania","country":"us","formatted_address":"Giant Eagle, Washington Pike, Collier Township, Allegheny County, Pennsylvania, 15017, United States of America","place_id":"134353783","datatype":"locationiq"},{"latitude":"40.489719","longitude":"-80.044245","name":"Brighton Heights Giant Eagle","address":"\n\t\t\t4110 Brighton Road<br>\nBrighton Road &amp; Bascom Street<br>\nPittsburgh, PA 15212<br>\n\n\t\t\t(412) 761-2240 (Main)<br>\n(412) 761-1133 (Pharmacy)<br>\n(412) 761-1293 (Main Fax)<br>\n(412) 761-7788 (Pharmacy Fax)<br>\n\n\t\t\tSun-Sat: 6:00 AM - 11:00 PM<br>\n\n\t\t\t","street_number":"4110","street_name":"Brighton Road","zip":"15212","city":null,"area":null,"county":"Allegheny County","state":"Pennsylvania","country":"us","formatted_address":"Giant Eagle, 4110, Brighton Road, Brighton Heights, Ross Township, Allegheny County, Pennsylvania, 15212, United States of America","place_id":"146719965","datatype":"locationiq"},{"latitude":"40.035731","longitude":"-83.133502","name":"Britton Parkway Giant Eagle","address":"\n\t\t\t4001 Britton Parkway<br>\nHilliard, OH 43026<br>\n\n\t\t\t(614) 921-8196 (Main)<br>\n(614) 921-8260 (Pharmacy)<br>\n(614) 921-8301 (Main Fax)<br>\n(614) 921-8285 (Pharmacy Fax)<br>\n(614) 921-8250 (Curbside Express)<br>\n\n\t\t\tSun-Sat: 6:00 AM - 11:00 PM<br>\n\n\t\t\t","street_number":null,"street_name":"Britton Parkway","zip":"43026","city":"Hilliard","area":null,"county":"Franklin County","state":"Ohio","country":"us","formatted_address":"Britton Parkway, Hilliard, Franklin County, Ohio, 43026, United States of America","place_id":"75745832","datatype":"locationiq"},{"latitude":"40.345432","longitude":"-78.939527","name":"Broad Street Giant Eagle","address":"\n\t\t\t1233 Broad Street<br>\nJohnstown, PA 15906<br>\n\n\t\t\t(814) 535-6711 (Main)<br>\n(814) 535-4496 (Pharmacy)<br>\n(814) 535-6712 (Main Fax)<br>\n(814) 536-6968 (Pharmacy Fax)<br>\n\n\t\t\tSun: 8:00 AM - 9:00 PM<br>\nMon-Sat: 6:00 AM - 10:00 PM<br>\n\n\t\t\t","street_number":null,"street_name":"Broad Street","zip":"15906","city":"Johnstown","area":null,"county":"Cambria County","state":"Pennsylvania","country":"us","formatted_address":"Broad Street, Johnstown, Cambria County, Pennsylvania, 15906, United States of America","place_id":"83198412","datatype":"locationiq"},{"latitude":"41.364794","longitude":"-81.687774","name":"Broadview Heights Giant Eagle","address":"\n\t\t\t7400 Broadview Road<br>\nParma, OH 44134<br>\n\n\t\t\t(216) 328-8095 (Main)<br>\n(216) 328-8263 (Pharmacy)<br>\n(216) 328-9541 (Main Fax)<br>\n(216) 328-8267 (Pharmacy Fax)<br>\n(216) 328-8266 (State Liquor Agency)<br>\n\n\t\t\tSun-Sat: 6:00 AM - 12:00 AM<br>\n\n\t\t\t","street_number":null,"street_name":"Thorncliffe Boulevard","zip":"44134","city":null,"area":null,"county":"Cuyahoga County","state":"Ohio","country":"us","formatted_address":"Giant Eagle, Thorncliffe Boulevard, Parma, Cuyahoga County, Ohio, 44134, United States of America","place_id":"54794003","datatype":"locationiq"},{"latitude":"41.235553","longitude":"-80.557637","name":"Brookfield Giant Eagle","address":"\n\t\t\t7229 Warren-Sharon Road<br>\nBrookfield, OH 44403<br>\n\n\t\t\t(330) 448-6480 (Pharmacy)<br>\n(330) 448-5291 (Pharmacy Fax)<br>\n\n\t\t\tSun: 9:00 AM - 5:00 PM<br>\nMon-Fri: 9:00 AM - 9:00 PM<br>\nSat: 9:00 AM - 7:00 PM<br>\n\n\t\t\t","street_number":null,"street_name":"Warren-Sharon Road","zip":"44438","city":null,"area":"Brookfield Center Historic District","county":"Trumbull County","state":"Ohio","country":"us","formatted_address":"Warren-Sharon Road, Brookfield Center Historic District, Yankee Hills, Trumbull County, Ohio, 44438, United States of America","place_id":"83155271","datatype":"locationiq"},{"latitude":"41.405556","longitude":"-81.798135","name":"Brookpark Giant Eagle","address":"\n\t\t\t14650 Snow Road<br>\nBrook Park, OH 44142<br>\n\n\t\t\t(216) 267-0404 (Main)<br>\n(216) 267-2185 (Pharmacy)<br>\n(216) 267-2177 (Main Fax)<br>\n(216) 267-2392 (Pharmacy Fax)<br>\n\n\t\t\tSun-Sat: 6:00 AM - 1:00 AM<br>\n\n\t\t\t","street_number":"5782","street_name":"Gateway Lane","zip":"44142","city":null,"area":null,"county":"Cuyahoga County","state":"Ohio","country":"us","formatted_address":"5782, Gateway Lane, Brook Park, Cuyahoga County, Ohio, 44142, United States of America","place_id":"199019898","datatype":"locationiq"},{"latitude":"41.159513","longitude":"-79.083259","name":"Brookville Giant Eagle","address":"\n\t\t\t40 White Street<br>\nBrookville, PA 15825<br>\n\n\t\t\t(814) 849-2356 (Main)<br>\n(814) 849-7548 (Pharmacy)<br>\n(814) 849-7792 (Main Fax)<br>\n(814) 849-9650 (Pharmacy Fax)<br>\n\n\t\t\tSun-Sat: 7:00 AM - 10:00 PM<br>\n\n\t\t\t","street_number":null,"street_name":"Madison Avenue","zip":"15825","city":"Brookville","area":null,"county":"Jefferson County","state":"Pennsylvania","country":"us","formatted_address":"Giant Eagle, Madison Avenue, Brookville, Jefferson County, Pennsylvania, 15825, United States of America","place_id":"165529860","datatype":"locationiq"},{"latitude":"41.237051","longitude":"-81.809364","name":"Brunswick Giant Eagle","address":"\n\t\t\t3440 Center Road<br>\nBrunswick, OH 44212<br>\n\n\t\t\t(330) 225-0616 (Main)<br>\n(330) 225-1159 (Pharmacy)<br>\n(330) 220-0756 (Main Fax)<br>\n(330) 220-1917 (Pharmacy Fax)<br>\n(330) 220-7778 (State Liquor Agency)<br>\n(330) 220-7617 (Curbside Express)<br>\n\n\t\t\tSun-Sat: 6:00 AM - 1:00 AM<br>\n\n\t\t\t","street_number":null,"street_name":"Brunswick Lake Parkway","zip":"44212","city":"Brunswick","area":null,"county":"Medina County","state":"Ohio","country":"us","formatted_address":"Giant Eagle, Brunswick Lake Parkway, Brunswick, Medina County, Ohio, 44212, United States of America","place_id":"173582816","datatype":"locationiq"},{"latitude":"40.706112","longitude":"-79.724103","name":"Buffalo Twp. Giant Eagle","address":"\n\t\t\t100 Buffalo Plaza<br>\nSarver, PA 16055<br>\n\n\t\t\t(724) 294-2882 (Main)<br>\n(724) 294-2802 (Pharmacy)<br>\n(724) 294-2426 (Main Fax)<br>\n(724) 294-2820 (Pharmacy Fax)<br>\n\n\t\t\tSun: 7:00 AM - 10:00 PM<br>\nMon-Sat: 6:00 AM - 11:00 PM<br>\n\n\t\t\t","street_number":null,"street_name":"South Pike Road","zip":"16055","city":"Buffalo Township","area":null,"county":"Butler County","state":"Pennsylvania","country":"us","formatted_address":"King's Family Restaurant, South Pike Road, Buffalo Township, Butler County, Pennsylvania, 16055, United States of America","place_id":"170785897","datatype":"locationiq"},{"latitude":"40.984684","longitude":"-80.313425","name":"Butler Road Giant Eagle","address":"\n\t\t\t1700 New Butler Road<br>\nNew Castle, PA 16101<br>\n\n\t\t\t(724) 652-3822 (Main)<br>\n(724) 654-9051 (Pharmacy)<br>\n(724) 652-3262 (Entertainment)<br>\n(724) 652-8058 (Main Fax)<br>\n(724) 657-8225 (Pharmacy Fax)<br>\n\n\t\t\tSun-Sat: 6:00 AM - 1:00 AM<br>\n\n\t\t\t","street_number":null,"street_name":"Service Street","zip":"16101","city":null,"area":null,"county":"Lawrence County","state":"Pennsylvania","country":"us","formatted_address":"Service Street, East New Castle, Lawrence County, Pennsylvania, 16101, United States of America","place_id":"71422369","datatype":"locationiq"},{"latitude":"40.671915","longitude":"-80.584995","name":"Calcutta Giant Eagle","address":"\n\t\t\t15937 State Route 170<br>\nEast Liverpool, OH 43920<br>\n\n\t\t\t(330) 385-5313 (Main)<br>\n(330) 385-2327 (Pharmacy)<br>\n(330) 385-1730 (Main Fax)<br>\n(330) 385-3150 (Pharmacy Fax)<br>\n\n\t\t\tSun-Sat: Open 24 hours<br>\n\n\t\t\t","street_number":null,"street_name":"SR 170","zip":"43920","city":null,"area":null,"county":"Columbiana County","state":"Ohio","country":"us","formatted_address":"Giant Eagle, SR 170, Calcutta, Columbiana County, Ohio, 43920, United States of America","place_id":"162782195","datatype":"locationiq"},{"latitude":"40.521951","longitude":"-80.070888","name":"Camp Horne Giant Eagle","address":"\n\t\t\t132 Ben Avon Heights Road<br>\nPittsburgh, PA 15237<br>\n\n\t\t\t(412) 364-2390 (Main)<br>\n(412) 364-2671 (Pharmacy)<br>\n(412) 364-3847 (Entertainment)<br>\n(412) 364-3743 (Main Fax)<br>\n(412) 364-3883 (Pharmacy Fax)<br>\n\n\t\t\tSun-Sat: Open 24 hours<br>\n\n\t\t\t","street_number":null,"street_name":"Home Depot Drive","zip":"15202","city":null,"area":null,"county":"Allegheny County","state":"Pennsylvania","country":"us","formatted_address":"Home Depot Drive, Ohio Township, Allegheny County, Pennsylvania, 15202, United States of America","place_id":"66169567","datatype":"locationiq"},{"latitude":"40.881256","longitude":"-81.569973","name":"Canal Fulton Giant Eagle","address":"\n\t\t\t2275 Locust Street<br>\nCanal Fulton, OH 44614<br>\n\n\t\t\t(330) 854-2239 (Main)<br>\n(330) 854-7816 (Main Fax)<br>\n\n\t\t\tSun-Sat: 6:00 AM - 12:00 AM<br>\n\n\t\t\t","street_number":"2423","street_name":"Locust Street South","zip":"44614","city":"Canal Fulton","area":"Canal Fulton Historic District","county":"Stark County","state":"Ohio","country":"us","formatted_address":"2423, Locust Street South, Canal Fulton Historic District, Canal Fulton, Lawrence Township, Stark County, Ohio, 44614, United States of America","place_id":"199853319","datatype":"locationiq"},{"latitude":"41.024552","longitude":"-80.744485","name":"Canfield Giant Eagle","address":"\n\t\t\t525 East Main Street<br>\nCanfield, OH 44406<br>\n\n\t\t\t(330) 702-0522 (Main)<br>\n(330) 286-0012 (Pharmacy)<br>\n(330) 702-0626 (Entertainment)<br>\n(330) 702-0637 (Main Fax)<br>\n(330) 286-0025 (Pharmacy Fax)<br>\n(330) 702-1317 (State Liquor Agency)<br>\n(330) 702-1326 (State Liquor Agency Fax)<br>\n\n\t\t\tSun-Sat: 6:00 AM - 1:00 AM<br>\n\n\t\t\t","street_number":null,"street_name":"East Main Street","zip":"44406","city":"Canfield","area":null,"county":"Mahoning County","state":"Ohio","country":"us","formatted_address":"East Main Street, Canfield, Mahoning County, Ohio, 44406, United States of America","place_id":"96390138","datatype":"locationiq"},{"latitude":"40.833801","longitude":"-81.382733","name":"Canton Giant Eagle","address":"\n\t\t\t3100 Cromer Avenue, N.W.<br>\nCanton, OH 44709<br>\n\n\t\t\t(330) 492-5160 (Main)<br>\n(330) 493-9404 (Pharmacy)<br>\n(330) 492-0530 (Main Fax)<br>\n(330) 493-3127 (Pharmacy Fax)<br>\n(330) 493-9469 (State Liquor Agency)<br>\n(330) 493-9476 (State Liquor Agency Fax)<br>\n\n\t\t\tSun-Sat: 6:00 AM - 12:00 AM<br>\n\n\t\t\t","street_number":"3136","street_name":"Cromer Avenue Northwest","zip":"44709","city":"Canton","area":null,"county":"Stark County","state":"Ohio","country":"us","formatted_address":"3136, Cromer Avenue Northwest, Canton, Stark County, Ohio, 44709, United States of America","place_id":"199865727","datatype":"locationiq"},{"latitude":"40.357901","longitude":"-80.001370","name":"Caste Village Giant Eagle","address":"\n\t\t\t5260 Grove Road<br>\nBaptist &amp; Grove Roads<br>\nPittsburgh, PA 15236<br>\n\n\t\t\t(412) 881-4601 (Main)<br>\n(412) 881-4602 (Pharmacy)<br>\n(412) 881-0920 (Main Fax)<br>\n(412) 881-2887 (Pharmacy Fax)<br>\n\n\t\t\tSun-Sat: 6:00 AM - 12:00 AM<br>\n\n\t\t\t","street_number":"5272","street_name":"Grove Road","zip":"15236","city":"Castle Shannon","area":null,"county":"Allegheny County","state":"Pennsylvania","country":"us","formatted_address":"5272, Grove Road, Caste Village Shoppes, Castle Shannon, Allegheny County, Pennsylvania, 15236, United States of America","place_id":"201244731","datatype":"locationiq"},{"latitude":"40.451427","longitude":"-79.999854","name":"Cedar Avenue Giant Eagle","address":"\n\t\t\t318-320 Cedar Avenue<br>\nPittsburgh, PA 15212<br>\n\n\t\t\t(412) 321-3551 (Main)<br>\n(412) 321-3553 (Pharmacy)<br>\n(412) 321-7141 (Main Fax)<br>\n(412) 321-8828 (Pharmacy Fax)<br>\n\n\t\t\tSun: 8:00 AM - 9:00 PM<br>\nMon-Sat: 7:00 AM - 10:00 PM<br>\n\n\t\t\t","street_number":"744","street_name":"Moravian Way","zip":"15212","city":"Pittsburgh","area":null,"county":"Allegheny County","state":"Pennsylvania","country":"us","formatted_address":"744, Moravian Way, East Allegheny, Pittsburgh, Allegheny County, Pennsylvania, 15212, United States of America","place_id":"201181446","datatype":"locationiq"},{"latitude":"40.339126","longitude":"-79.949774","name":"Century Plaza Giant Eagle","address":"\n\t\t\t9901 Mountainview Drive<br>\nWest Mifflin, PA 15122<br>\n\n\t\t\t(412) 655-7344 (Main)<br>\n(412) 655-7333 (Pharmacy)<br>\n(412) 650-4040 (Entertainment)<br>\n(412) 655-1363 (Main Fax)<br>\n(412) 655-4874 (Pharmacy Fax)<br>\n(412) 655-9720 (Curbside Express)<br>\n\n\t\t\tSun-Sat: 6:00 AM - 1:00 AM<br>\n\n\t\t\t","street_number":null,"street_name":"Mall Drive","zip":"15236","city":"West Mifflin","area":null,"county":"Allegheny County","state":"Pennsylvania","country":"us","formatted_address":"Giant Eagle, Mall Drive, West Mifflin, Allegheny County, Pennsylvania, 15236, United States of America","place_id":"14037343","datatype":"locationiq"},{"latitude":"41.583274","longitude":"-81.217691","name":"Chardon Giant Eagle","address":"\n\t\t\t351 Center Street<br>\nChardon, OH 44024<br>\n\n\t\t\t(440) 286-4949 (Main)<br>\n(440) 286-8680 (Pharmacy)<br>\n(440) 286-6208 (Main Fax)<br>\n(440) 285-9734 (Pharmacy Fax)<br>\n(440) 286-8786 (State Liquor Agency)<br>\n\n\t\t\tSun-Sat: 7:00 AM - 11:00 PM<br>\n\n\t\t\t","street_number":"351","street_name":"Center Street","zip":"44024","city":"Chardon","area":null,"county":"Geauga County","state":"Ohio","country":"us","formatted_address":"Giant Eagle, 351, Center Street, Meadowland Town Center, Chardon, Chardon Township, Geauga County, Ohio, 44024, United States of America","place_id":"139468241","datatype":"locationiq"},{"latitude":"41.523627","longitude":"-81.340134","name":"Chesterland Giant Eagle","address":"\n\t\t\t12692 Chillicothe Road<br>\nChesterland, OH 44026<br>\n\n\t\t\t(440) 729-9587 (Main)<br>\n(440) 729-5457 (Pharmacy)<br>\n(440) 729-2610 (Main Fax)<br>\n(440) 729-5454 (Pharmacy Fax)<br>\n\n\t\t\tSun: 7:00 AM - 9:00 PM<br>\nMon-Sat: 7:00 AM - 11:00 PM<br>\n\n\t\t\t","street_number":null,"street_name":"Ward Drive","zip":"44026","city":null,"area":null,"county":"Geauga County","state":"Ohio","country":"us","formatted_address":"Giant Eagle, Ward Drive, Chesterland, Chester Township, Geauga County, Ohio, 44026, United States of America","place_id":"165427616","datatype":"locationiq"},{"latitude":"40.775666","longitude":"-80.379374","name":"Chippewa Giant Eagle","address":"\n\t\t\t2650 Constitution Boulevard<br>\nBeaver Falls, PA 15010<br>\n\n\t\t\t(724) 843-9034 (Main)<br>\n(724) 843-3922 (Pharmacy)<br>\n(724) 846-1752 (Main Fax)<br>\n(724) 891-6535 (Pharmacy Fax)<br>\n\n\t\t\tSun-Sat: 6:00 AM - 12:00 AM<br>\n\n\t\t\t","street_number":"2650","street_name":"Constitution Boulevard","zip":"15010","city":null,"area":null,"county":"Beaver County","state":"Pennsylvania","country":"us","formatted_address":"2650, Constitution Boulevard, Riverview, Beaver County, Pennsylvania, 15010, United States of America","place_id":"201316552","datatype":"locationiq"},{"latitude":"41.165900","longitude":"-80.666776","name":"Churchill Commons Giant Eagle","address":"\n\t\t\t4700 Belmont Avenue<br>\nYoungstown, OH 44505<br>\n\n\t\t\t(330) 759-9502 (Main)<br>\n(330) 759-9348 (Pharmacy)<br>\n(330) 759-9504 (Main Fax)<br>\n(330) 759-1517 (Pharmacy Fax)<br>\n\n\t\t\tSun-Sat: Open 24 hours<br>\n\n\t\t\t","street_number":null,"street_name":"Belmont Avenue","zip":"44505","city":null,"area":null,"county":"Trumbull County","state":"Ohio","country":"us","formatted_address":"Belmont Avenue, Churchill, Trumbull County, Ohio, 44505, United States of America","place_id":"71381800","datatype":"locationiq"},{"latitude":"41.404966","longitude":"-81.612563","name":"City View Giant Eagle","address":"\n\t\t\t5744 Transportation Blvd<br>\nGarfield Heights, OH 44125<br>\n\n\t\t\t(216) 662-8419 (Main)<br>\n(216) 662-8466 (Pharmacy)<br>\n(216) 662-8435 (Main Fax)<br>\n(216) 662-8539 (Pharmacy Fax)<br>\n(216) 865-4760 (State Liquor Agency)<br>\n\n\t\t\tSun-Sat: 6:00 AM - 11:00 PM<br>\n\n\t\t\t","street_number":null,"street_name":"East 98th Street","zip":"44125","city":null,"area":null,"county":"Cuyahoga County","state":"Ohio","country":"us","formatted_address":"Giant Eagle, East 98th Street, Garfield Heights, Cuyahoga County, Ohio, 44125, United States of America","place_id":"52084312","datatype":"locationiq"},{"latitude":"40.899596","longitude":"-79.904850","name":"Clearview Mall Giant Eagle","address":"\n\t\t\t1521 North Main Street<br>\nButler, PA 16001<br>\n\n\t\t\t(724) 285-5761 (Main)<br>\n(724) 282-9160 (Pharmacy)<br>\n(724) 285-2155 (Main Fax)<br>\n(724) 282-1648 (Pharmacy Fax)<br>\n\n\t\t\tSun: 7:00 AM - 9:00 PM<br>\nMon-Sat: 7:00 AM - 10:00 PM<br>\n\n\t\t\t","street_number":"113","street_name":"Clearview Circle","zip":"16001","city":null,"area":null,"county":"Butler County","state":"Pennsylvania","country":"us","formatted_address":"113, Clearview Circle, Shanor-Northvue, Butler County, Pennsylvania, 16001, United States of America","place_id":"201451408","datatype":"locationiq"},{"latitude":"40.392342","longitude":"-80.068411","name":"Cochran Road Giant Eagle","address":"\n\t\t\t1717 Cochran Road<br>\nGreentree &amp; Cochran Rd<br>\nPittsburgh, PA 15220<br>\n\n\t\t\t(412) 343-8020 (Main)<br>\n(412) 343-8217 (Pharmacy)<br>\n(412) 343-8254 (Main Fax)<br>\n(412) 343-6886 (Pharmacy Fax)<br>\n\n\t\t\tSun-Sat: 6:00 AM - 12:00 AM<br>\n\n\t\t\t","street_number":"2070","street_name":"Greentree Road","zip":"15220","city":null,"area":null,"county":"Allegheny County","state":"Pennsylvania","country":"us","formatted_address":"Rita's Italian Ice, 2070, Greentree Road, Scott Township, Allegheny County, Pennsylvania, 15220, United States of America","place_id":"55481590","datatype":"locationiq"},{"latitude":"41.027315","longitude":"-80.632855","name":"Community Center Giant Eagle","address":"\n\t\t\t1201 Doral Drive<br>\nBoardman Community SC<br>\nYoungstown, OH 44514<br>\n\n\t\t\t(330) 726-4991 (Main)<br>\n(330) 726-7142 (Pharmacy)<br>\n(330) 726-8657 (Main Fax)<br>\n(330) 726-1381 (Pharmacy Fax)<br>\n(330) 729-9479 (State Liquor Agency)<br>\n(330) 726-7111 (Curbside Express)<br>\n\n\t\t\tSun-Sat: 6:00 AM - 1:00 AM<br>\n\n\t\t\t","street_number":"1147","street_name":"Doral Drive","zip":"44514","city":null,"area":"South Main Street Historic District","county":"Mahoning County","state":"Ohio","country":"us","formatted_address":"1147, Doral Drive, South Main Street Historic District, McKays Corners, Mahoning County, Ohio, 44514, United States of America","place_id":"199557832","datatype":"locationiq"},{"latitude":"40.453511","longitude":"-80.082736","name":"Crafton CNG","address":"\n\t\t\t755 Beechnut Dr<br>\nCrafton, PA 15205<br>\n\n\t\t\t(412) 963-6200 (Main)<br>\n\n\t\t\t\n\t\t\t","street_number":"1951","street_name":"Old Orchard Circle","zip":"15204","city":"Pittsburgh","area":null,"county":"Allegheny County","state":"Pennsylvania","country":"us","formatted_address":"1951, Old Orchard Circle, Fairywood, Pittsburgh, Allegheny County, Pennsylvania, 15204, United States of America","place_id":"201266775","datatype":"locationiq"},{"latitude":"40.440751","longitude":"-80.072051","name":"Crafton Giant Eagle","address":"\n\t\t\t51 Walsh Road<br>\nCrafton-Ingram Shopping Center<br>\nPittsburgh, PA 15205<br>\n\n\t\t\t(412) 921-4504 (Main)<br>\n(412) 921-7250 (Pharmacy)<br>\n(412) 921-1741 (Main Fax)<br>\n(412) 920-0743 (Pharmacy Fax)<br>\n\n\t\t\tSun: 8:00 AM - 9:00 PM<br>\nMon-Sat: 6:00 AM - 11:00 PM<br>\n\n\t\t\t","street_number":null,"street_name":"Maxwell Street","zip":"15205","city":"Crafton","area":null,"county":"Allegheny County","state":"Pennsylvania","country":"us","formatted_address":"Maxwell Street, Crafton Ingram Shopping Center, Crafton, Allegheny County, Pennsylvania, 15205, United States of America","place_id":"149480046","datatype":"locationiq"},{"latitude":"40.681815","longitude":"-80.100628","name":"Cranberry Giant Eagle","address":"\n\t\t\t20111 Route 19<br>\nCranberry Mall SC<br>\nCranberry Township, PA 16066<br>\n\n\t\t\t(724) 772-1030 (Main)<br>\n(724) 772-7420 (Pharmacy)<br>\n(724) 779-4390 (Main Fax)<br>\n(724) 772-7471 (Pharmacy Fax)<br>\n\n\t\t\tSun-Sat: 6:00 AM - 12:00 AM<br>\n\n\t\t\t","street_number":null,"street_name":"Perry Highway","zip":"16066","city":"Cranberry Township","area":null,"county":"Butler County","state":"Pennsylvania","country":"us","formatted_address":"Wendy's, Perry Highway, Cranberry Mall, Cranberry Township, Butler County, Pennsylvania, 16066, United States of America","place_id":"151129836","datatype":"locationiq"},{"latitude":"41.378435","longitude":"-81.739633","name":"Day Drive Giant Eagle","address":"\n\t\t\t7939 Day Drive<br>\nCleveland, OH 44129<br>\n\n\t\t\t(440) 888-7316 (Main)<br>\n(440) 888-7392 (Pharmacy)<br>\n(440) 888-7510 (Main Fax)<br>\n(440) 888-7546 (State Liquor Agency)<br>\n(440) 888-7367 (Curbside Express)<br>\n\n\t\t\tSun-Sat: Open 24 hours<br>\n\n\t\t\t","street_number":null,"street_name":"Ridge Road Annex","zip":"44129","city":null,"area":null,"county":"Cuyahoga County","state":"Ohio","country":"us","formatted_address":"Giant Eagle, Ridge Road Annex, Parma, Cuyahoga County, Ohio, 44129, United States of America","place_id":"162210189","datatype":"locationiq"},{"latitude":"40.270759","longitude":"-80.128031","name":"Donaldsons Crossroads Giant Eagle","address":"\n\t\t\t4007 Washington Road<br>\nMcMurray, PA 15317-2520<br>\n\n\t\t\t(724) 941-7220 (Main)<br>\n(724) 941-0788 (Pharmacy)<br>\n(724) 941-6047 (Main Fax)<br>\n(724) 942-1531 (Pharmacy Fax)<br>\n(724) 941-1595 (Curbside Express)<br>\n\n\t\t\tSun-Sat: Open 24 hours<br>\n\n\t\t\t","street_number":null,"street_name":"Washington Road","zip":"15301","city":null,"area":null,"county":"Washington County","state":"Pennsylvania","country":"us","formatted_address":"The UPS Store, Washington Road, Donaldsons Crossroads, Washington County, Pennsylvania, 15301, United States of America","place_id":"28871646","datatype":"locationiq"},{"latitude":"40.506875","longitude":"-81.463565","name":"Dover Giant Eagle","address":"\n\t\t\t515 Union Avenue<br>\nDover, OH 44622<br>\n\n\t\t\t(330) 364-5301 (Main)<br>\n(330) 602-8490 (Pharmacy)<br>\n(330) 364-7562 (Main Fax)<br>\n(330) 602-8523 (Pharmacy Fax)<br>\n(330) 343-4856 (State Liquor Agency)<br>\n(330) 602-8489 (State Liquor Agency Fax)<br>\n\n\t\t\tSun-Sat: 6:00 AM - 12:00 AM<br>\n\n\t\t\t","street_number":null,"street_name":"Bowers Avenue Northwest","zip":"44663","city":"New Philadelphia","area":null,"county":"Tuscarawas County","state":"Ohio","country":"us","formatted_address":"Bowers Avenue Northwest, New Philadelphia, Tuscarawas County, Ohio, 44663, United States of America","place_id":"71396797","datatype":"locationiq"},{"latitude":"41.123946","longitude":"-78.766565","name":"DuBois Giant Eagle","address":"\n\t\t\t100 N Main Street<br>\nDuBois, PA 15801<br>\n\n\t\t\t(814) 375-3708 (Main)<br>\n(814) 371-9000 (Pharmacy)<br>\n(814) 371-3268 (Main Fax)<br>\n(814) 375-9704 (Pharmacy Fax)<br>\n\n\t\t\tSun-Sat: 6:00 AM - 10:00 PM<br>\n\n\t\t\t","street_number":"200","street_name":"Dubois Street","zip":"15801","city":"DuBois","area":null,"county":"Clearfield County","state":"Pennsylvania","country":"us","formatted_address":"200, Dubois Street, DuBois, Clearfield County, Pennsylvania, 15801, United States of America","place_id":"201593883","datatype":"locationiq"},{"latitude":"40.620783","longitude":"-80.574786","name":"East Liverpool Giant Eagle","address":"\n\t\t\t619 Bradshaw Avenue<br>\nEast Liverpool, OH 43920<br>\n\n\t\t\t(330) 385-9845 (Main)<br>\n(330) 385-7554 (Pharmacy)<br>\n(330) 385-7087 (Main Fax)<br>\n(330) 385-7462 (Pharmacy Fax)<br>\n\n\t\t\tSun-Sat: 6:00 AM - 12:00 AM<br>\n\n\t\t\t","street_number":"619","street_name":"Bradshaw Avenue","zip":"43920","city":"East Liverpool","area":"East Fifth Street Historic District","county":"Columbiana County","state":"Ohio","country":"us","formatted_address":"Giant Eagle, 619, Bradshaw Avenue, East Fifth Street Historic District, East Liverpool, Columbiana County, Ohio, 43920, United States of America","place_id":"174923818","datatype":"locationiq"},{"latitude":"39.945236","longitude":"-82.989478","name":"East Whittier Street Giant Eagle","address":"\n\t\t\t280 E. Whittier Street<br>\nColumbus, OH 43206<br>\n\n\t\t\t(614) 443-6575 (Main)<br>\n(614) 443-5234 (Pharmacy)<br>\n(614) 443-2587 (Main Fax)<br>\n(614) 443-5239 (Pharmacy Fax)<br>\n\n\t\t\tSun-Sat: 6:00 AM - 11:00 PM<br>\n\n\t\t\t","street_number":"280","street_name":"East Whittier Street","zip":"43206","city":"Columbus","area":"Schlee Brewery Historic District","county":"Franklin County","state":"Ohio","country":"us","formatted_address":"Giant Eagle, 280, East Whittier Street, Schlee Brewery Historic District, Columbus, Franklin County, Ohio, 43206, United States of America","place_id":"155710325","datatype":"locationiq"},{"latitude":"40.300957","longitude":"-79.497599","name":"Eastgate Plaza Giant Eagle","address":"\n\t\t\t5142 Route 30, Suite 140<br>\nEastgate Plaza <br>\nGreensburg, PA 15601<br>\n\n\t\t\t(724) 836-7541 (Main)<br>\n(724) 836-7613 (Pharmacy)<br>\n(724) 836-5327 (Main Fax)<br>\n(724) 850-7993 (Pharmacy Fax)<br>\n\n\t\t\tSun-Sat: 6:00 AM - 12:00 AM<br>\n\n\t\t\t","street_number":null,"street_name":"Lincoln Highway","zip":"15601","city":null,"area":null,"county":"Westmoreland County","state":"Pennsylvania","country":"us","formatted_address":"Eastgate Plaza, Lincoln Highway, Stonevilla, Westmoreland County, Pennsylvania, 15601, United States of America","place_id":"104751137","datatype":"locationiq"},{"latitude":"40.469212","longitude":"-78.759120","name":"Ebensburg Giant Eagle","address":"\n\t\t\t881 College Plaza<br>\nRt. 22W &amp; Rt. 219<br>\nEbensburg, PA 15931<br>\n\n\t\t\t(814) 472-4710 (Main)<br>\n(814) 472-0614 (Pharmacy)<br>\n(814) 472-4553 (Main Fax)<br>\n(814) 472-7088 (Pharmacy Fax)<br>\n\n\t\t\tSun: 7:00 AM - 9:00 PM<br>\nMon-Sat: 7:00 AM - 10:00 PM<br>\n\n\t\t\t","street_number":"889","street_name":"Hills Plaza","zip":"15931","city":null,"area":null,"county":"Cambria County","state":"Pennsylvania","country":"us","formatted_address":"889, Hills Plaza, Beula, Cambria County, Pennsylvania, 15931, United States of America","place_id":"201479278","datatype":"locationiq"},{"latitude":"41.463424","longitude":"-81.803378","name":"Edgecliff Giant Eagle","address":"\n\t\t\t15325 Edgecliff Avenue<br>\nCleveland, OH 44111<br>\n\n\t\t\t(216) 476-2292 (Main)<br>\n(216) 671-6550 (Pharmacy)<br>\n(216) 476-2402 (Main Fax)<br>\n(216) 671-6553 (Pharmacy Fax)<br>\n\n\t\t\tSun-Sat: 7:00 AM - 10:00 PM<br>\n\n\t\t\t","street_number":null,"street_name":"Edgecliff Avenue","zip":"44111","city":"Cleveland","area":null,"county":"Cuyahoga County","state":"Ohio","country":"us","formatted_address":"Giant Eagle, Edgecliff Avenue, Kamms Corners, Cleveland, Cuyahoga County, Ohio, 44111, United States of America","place_id":"161294355","datatype":"locationiq"},{"latitude":"40.425552","longitude":"-79.886988","name":"Edgewood Giant Eagle","address":"\n\t\t\t1705 South Braddock Avenue<br>\nPittsburgh, PA 15218<br>\n\n\t\t\t(412) 371-4614 (Main)<br>\n(412) 371-4456 (Pharmacy)<br>\n(412) 371-7846 (Main Fax)<br>\n(412) 242-6239 (Pharmacy Fax)<br>\n\n\t\t\tSun-Sat: 6:00 AM - 11:00 PM<br>\n\n\t\t\t","street_number":"1705","street_name":"South Braddock Avenue","zip":"15218","city":"Swissvale","area":null,"county":"Allegheny County","state":"Pennsylvania","country":"us","formatted_address":"Giant Eagle, 1705, South Braddock Avenue, Swissvale, Allegheny County, Pennsylvania, 15218, United States of America","place_id":"130859198","datatype":"locationiq"},{"latitude":"41.888840","longitude":"-80.126737","name":"Edinboro Giant Eagle","address":"\n\t\t\t606 Erie Street<br>\nEdinboro, PA 16412<br>\n\n\t\t\t(814) 734-7236 (Main)<br>\n(814) 734-5036 (Pharmacy)<br>\n(814) 734-2610 (Main Fax)<br>\n(814) 734-7299 (Pharmacy Fax)<br>\n\n\t\t\tSun-Sat: 6:00 AM - 10:00 PM<br>\n\n\t\t\t","street_number":"52","street_name":"Walker Drive","zip":"16412","city":"Washington Township","area":null,"county":"Erie County","state":"Pennsylvania","country":"us","formatted_address":"52, Walker Drive, Washington Township, Erie County, Pennsylvania, 16412, United States of America","place_id":"201736651","datatype":"locationiq"},{"latitude":"40.279841","longitude":"-79.875493","name":"Elizabeth Giant Eagle","address":"\n\t\t\t800 McKeesport Rd<br>\nElizabeth, PA 15037<br>\n\n\t\t\t(412) 384-3884 (Main)<br>\n(412) 384-3939 (Pharmacy)<br>\n(412) 384-5802 (Main Fax)<br>\n(412) 384-5314 (Pharmacy Fax)<br>\n\n\t\t\tSun: 8:00 AM - 9:00 PM<br>\nMon-Sat: 7:00 AM - 10:00 PM<br>\n\n\t\t\t","street_number":null,"street_name":"Atlantic Avenue","zip":"15025","city":"Lincoln","area":null,"county":"Allegheny County","state":"Pennsylvania","country":"us","formatted_address":"Giant Eagle Pharmacy, Atlantic Avenue, Lincoln, Allegheny County, Pennsylvania, 15025, United States of America","place_id":"146382589","datatype":"locationiq"},{"latitude":"40.847190","longitude":"-80.258850","name":"Ellwood City Plaza Giant Eagle","address":"\n\t\t\t289 State Route 288<br>\nEllwood City, PA 16117<br>\n\n\t\t\t(724) 752-1100 (Main)<br>\n(724) 752-2101 (Pharmacy)<br>\n(724) 752-1500 (Main Fax)<br>\n(724) 752-9146 (Pharmacy Fax)<br>\n\n\t\t\tSun: 8:00 AM - 7:00 PM<br>\nMon-Sat: 8:00 AM - 10:00 PM<br>\n\n\t\t\t","street_number":null,"street_name":"Ellwood-Zelienople Road","zip":"16123","city":null,"area":null,"county":"Beaver County","state":"Pennsylvania","country":"us","formatted_address":"Ellwood-Zelienople Road, Lillyville, Beaver County, Pennsylvania, 16123, United States of America","place_id":"83011454","datatype":"locationiq"},{"latitude":"41.125911","longitude":"-81.602144","name":"Fairlawn Giant Eagle","address":"\n\t\t\t2775 West Market Street<br>\nFairlawn, OH 44333<br>\n\n\t\t\t(330) 836-1504 (Main)<br>\n(330) 836-2036 (Pharmacy)<br>\n(330) 836-2505 (Main Fax)<br>\n(330) 836-2289 (Pharmacy Fax)<br>\n\n\t\t\tSun-Thu: 6:00 AM - 11:00 PM<br>\nFri-Sat: 6:00 AM - 12:00 AM<br>\n\n\t\t\t","street_number":null,"street_name":"Mackinaw Avenue","zip":"44333","city":"Fairlawn","area":null,"county":"Summit County","state":"Ohio","country":"us","formatted_address":"Giant Eagle, Mackinaw Avenue, Fairlawn, Bath Township, Summit County, Ohio, 44333, United States of America","place_id":"142345413","datatype":"locationiq"},{"latitude":"41.441186","longitude":"-81.861344","name":"Fairview Park Giant Eagle","address":"\n\t\t\t21593 Lorain Road<br>\nFairview Park, OH 44126<br>\n\n\t\t\t(440) 356-3666 (Main)<br>\n(440) 356-3677 (Pharmacy)<br>\n(440) 356-3690 (Main Fax)<br>\n(440) 356-3680 (Pharmacy Fax)<br>\n\n\t\t\tSun-Sat: 7:00 AM - 11:00 PM<br>\n\n\t\t\t","street_number":null,"street_name":"Hillsdale Avenue","zip":"44126","city":"Fairview Park","area":null,"county":"Cuyahoga County","state":"Ohio","country":"us","formatted_address":"Options Salon & Spa, Hillsdale Avenue, Fairview Park, Cuyahoga County, Ohio, 44126, United States of America","place_id":"13692894","datatype":"locationiq"},{"latitude":"40.248326","longitude":"-80.004405","name":"Finleyville Giant Eagle","address":"\n\t\t\t3701 Route 88<br>\nFinleyville, PA 15332<br>\n\n\t\t\t(724) 348-4051 (Main)<br>\n(724) 348-6229 (Pharmacy)<br>\n(724) 348-4321 (Main Fax)<br>\n(724) 348-8079 (Pharmacy Fax)<br>\n\n\t\t\tSun-Sat: 7:00 AM - 10:00 PM<br>\n\n\t\t\t","street_number":null,"street_name":"Stonebridge Drive","zip":"15332","city":null,"area":null,"county":"Washington County","state":"Pennsylvania","country":"us","formatted_address":"Giant Eagle, Stonebridge Drive, Gastonville, Washington County, Pennsylvania, 15332, United States of America","place_id":"143461035","datatype":"locationiq"},{"latitude":"40.171990","longitude":"-79.915914","name":"Fisher Heights Giant Eagle","address":"\n\t\t\t1300 Country Club Road<br>\nMonongahela, PA 15063<br>\n\n\t\t\t(724) 258-5011 (Main)<br>\n(724) 258-6101 (Pharmacy)<br>\n(724) 258-2813 (Main Fax)<br>\n(724) 258-6640 (Pharmacy Fax)<br>\n\n\t\t\tSun-Sat: 7:00 AM - 10:00 PM<br>\n\n\t\t\t","street_number":null,"street_name":"PA 837","zip":"15062","city":null,"area":null,"county":"Washington County","state":"Pennsylvania","country":"us","formatted_address":"Leadbitter Spine & Sports, PA 837, Fisher, Washington County, Pennsylvania, 15062, United States of America","place_id":"170494481","datatype":"locationiq"},{"latitude":"41.401579","longitude":"-79.810601","name":"Franklin Giant Eagle","address":"\n\t\t\t541 Allegheny Boulevard<br>\nFranklin, PA 16323<br>\n\n\t\t\t(814) 437-1878 (Main)<br>\n(814) 432-2024 (Pharmacy)<br>\n(814) 432-2488 (Main Fax)<br>\n(814) 437-6760 (Pharmacy Fax)<br>\n\n\t\t\tSun-Sat: 7:00 AM - 9:00 PM<br>\n\n\t\t\t","street_number":null,"street_name":"Allegheny Boulevard","zip":"16323","city":"Sugarcreek","area":null,"county":"Venango County","state":"Pennsylvania","country":"us","formatted_address":"Allegheny Boulevard, Sugarcreek, Venango County, Pennsylvania, 16323, United States of America","place_id":"168174012","datatype":"locationiq"},{"latitude":"40.462268","longitude":"-79.865225","name":"Frankstown Rd. Giant Eagle","address":"\n\t\t\t9001 Frankstown Road<br>\nPittsburgh, PA 15235<br>\n\n\t\t\t(412) 371-0858 (Main)<br>\n(412) 371-0040 (Pharmacy)<br>\n(412) 371-1281 (Main Fax)<br>\n(412) 371-0065 (Pharmacy Fax)<br>\n\n\t\t\tSun-Sat: 7:00 AM - 11:00 PM<br>\n\n\t\t\t","street_number":"30","street_name":"Verona Road","zip":"15147","city":null,"area":"Eastwood","county":"Allegheny County","state":"Pennsylvania","country":"us","formatted_address":"30, Verona Road, Eastwood, Penn Hills, Allegheny County, Pennsylvania, 15147, United States of America","place_id":"201239645","datatype":"locationiq"},{"latitude":"40.051814","longitude":"-82.863622","name":"Gahanna Giant Eagle","address":"\n\t\t\t1250 North Hamilton Road<br>\nColumbus, OH 43230<br>\n\n\t\t\t(614) 939-5559 (Main)<br>\n(614) 939-5280 (Pharmacy)<br>\n(614) 939-5185 (Entertainment)<br>\n(614) 939-5607 (Main Fax)<br>\n(614) 939-5316 (Pharmacy Fax)<br>\n(614) 855-3872 (State Liquor Agency)<br>\n(614) 939-5261 (Curbside Express)<br>\n\n\t\t\tSun-Thu: 6:00 AM - 11:00 PM<br>\nFri-Sat: 6:00 AM - 12:00 AM<br>\n\n\t\t\t","street_number":null,"street_name":"Hamilton Road","zip":"43230","city":"Gahanna","area":null,"county":"Franklin County","state":"Ohio","country":"us","formatted_address":"Hamilton Road, Gahanna, Franklin County, Ohio, 43230, United States of America","place_id":"114824923","datatype":"locationiq"},{"latitude":"41.795152","longitude":"-80.947320","name":"Geneva Giant Eagle","address":"\n\t\t\t755 South Broadway Avenue<br>\nGeneva, OH 44041<br>\n\n\t\t\t(440) 466-5100 (Main)<br>\n(440) 466-3005 (Pharmacy)<br>\n(440) 466-0486 (Main Fax)<br>\n(440) 466-3052 (Pharmacy Fax)<br>\n\n\t\t\tSun-Sat: 7:00 AM - 10:00 PM<br>\n\n\t\t\t","street_number":"785","street_name":"South Broadway Street","zip":"44041","city":"Geneva","area":null,"county":"Ashtabula County","state":"Ohio","country":"us","formatted_address":"785, South Broadway Street, Geneva, Ashtabula County, Ohio, 44041, United States of America","place_id":"198791567","datatype":"locationiq"},{"latitude":"40.636391","longitude":"-79.941920","name":"Gibsonia Giant Eagle","address":"\n\t\t\t5600 William Flynn Highway<br>\n400 Northtowne Square<br>\nGibsonia, PA 15044<br>\n\n\t\t\t(724) 443-7400 (Main)<br>\n(724) 443-7979 (Pharmacy)<br>\n(724) 443-9790 (Main Fax)<br>\n(724) 443-0150 (Pharmacy Fax)<br>\n\n\t\t\tSun-Sat: 7:00 AM - 11:00 PM<br>\n\n\t\t\t","street_number":null,"street_name":"Gibsonia Road","zip":"15024","city":null,"area":null,"county":"Allegheny County","state":"Pennsylvania","country":"us","formatted_address":"Giant Eagle, Gibsonia Road, Richland Township, Allegheny County, Pennsylvania, 15024, United States of America","place_id":"59920524","datatype":"locationiq"},{"latitude":"42.009827","longitude":"-80.302371","name":"Girard Giant Eagle","address":"\n\t\t\t9125 West Ridge Road<br>\nBox 162<br>\nGirard, PA 16417<br>\n\n\t\t\t(814) 774-2656 (Main)<br>\n(814) 774-2467 (Pharmacy)<br>\n(814) 774-9608 (Main Fax)<br>\n(814) 774-7216 (Pharmacy Fax)<br>\n\n\t\t\tSun-Sat: 6:00 AM - 12:00 PM<br>\n\n\t\t\t","street_number":null,"street_name":"Ridge Road","zip":"16417","city":null,"area":null,"county":"Erie County","state":"Pennsylvania","country":"us","formatted_address":"Mission Pond, Ridge Road, Fairplain, Girard Township, Erie County, Pennsylvania, 16417, United States of America","place_id":"145295511","datatype":"locationiq"},{"latitude":"40.291525","longitude":"-78.929244","name":"Goucher Street Giant Eagle","address":"\n\t\t\t344 Goucher Street<br>\nJohnstown, PA 15905<br>\n\n\t\t\t(814) 288-6918 (Main)<br>\n(814) 288-5843 (Pharmacy)<br>\n(814) 288-2283 (Main Fax)<br>\n(814) 288-6784 (Pharmacy Fax)<br>\n\n\t\t\tSun-Sat: 6:00 AM - 11:00 PM<br>\n\n\t\t\t","street_number":"312","street_name":"Goucher Street","zip":"15905","city":null,"area":null,"county":"Cambria County","state":"Pennsylvania","country":"us","formatted_address":"312, Goucher Street, Elim, Cambria County, Pennsylvania, 15905, United States of America","place_id":"201485537","datatype":"locationiq"},{"latitude":"41.654658","longitude":"-81.366279","name":"Great Lakes Mall Giant Eagle","address":"\n\t\t\t7960 Plaza Boulevard<br>\nMentor, OH 44060<br>\n\n\t\t\t(440) 946-1346 (Main)<br>\n(440) 602-4013 (Pharmacy)<br>\n(440) 946-5435 (Main Fax)<br>\n(440) 602-4051 (Pharmacy Fax)<br>\n\n\t\t\tSun-Sat: 7:00 AM - 11:00 AM<br>\n\n\t\t\t","street_number":null,"street_name":"Plaza Boulevard","zip":"44060","city":"Mentor","area":null,"county":"Lake County","state":"Ohio","country":"us","formatted_address":"Plaza Boulevard, Mentor, Lake County, Ohio, 44060, United States of America","place_id":"72325473","datatype":"locationiq"},{"latitude":"40.422606","longitude":"-79.928566","name":"Greenfield Giant Eagle","address":"\n\t\t\t4250 Murray Avenue<br>\nPittsburgh, PA 15217<br>\n\n\t\t\t(412) 421-6472 (Main)<br>\n(412) 421-1340 (Pharmacy)<br>\n(412) 421-8597 (Main Fax)<br>\n(412) 521-3716 (Pharmacy Fax)<br>\n\n\t\t\tSun-Sat: 6:00 AM - 12:00 AM<br>\n\n\t\t\t","street_number":null,"street_name":"Lilac Street","zip":"15217","city":"Pittsburgh","area":"Four Mile Run","county":"Allegheny County","state":"Pennsylvania","country":"us","formatted_address":"USPS, Lilac Street, Four Mile Run, Greenfield, Pittsburgh, Allegheny County, Pennsylvania, 15217, United States of America","place_id":"35886923","datatype":"locationiq"},{"latitude":"41.412252","longitude":"-80.360783","name":"Greenville Giant Eagle","address":"\n\t\t\t50 Hadley Road<br>\nGreenville, PA 16125<br>\n\n\t\t\t(724) 588-4553 (Main)<br>\n(724) 588-1381 (Pharmacy)<br>\n(724) 588-8478 (Main Fax)<br>\n(724) 588-7351 (Pharmacy Fax)<br>\n\n\t\t\tSun: 7:00 AM - 8:00 PM<br>\nMon-Sat: 7:00 AM - 9:00 PM<br>\n\n\t\t\t","street_number":"16","street_name":"Hadley Road","zip":"16125","city":null,"area":null,"county":"Mercer County","state":"Pennsylvania","country":"us","formatted_address":"16, Hadley Road, Hadley, Mercer County, Pennsylvania, 16125, United States of America","place_id":"202055885","datatype":"locationiq"},{"latitude":"39.876774","longitude":"-83.061396","name":"Grove City Giant Eagle","address":"\n\t\t\t2173 Stringtown Road<br>\nGrove City, OH 43123<br>\n\n\t\t\t(614) 875-5879 (Main)<br>\n(614) 875-8591 (Pharmacy)<br>\n(614) 875-8479 (Main Fax)<br>\n(614) 875-8407 (Pharmacy Fax)<br>\n(614) 875-8539 (State Liquor Agency)<br>\n(614) 594-0070 (Curbside Express)<br>\n\n\t\t\tSun-Thu: 6:00 AM - 11:00 PM<br>\nFri-Sat: 6:00 AM - 12:00 AM<br>\n\n\t\t\t","street_number":"2173","street_name":"Stringtown Road","zip":"43123","city":"Grove City","area":null,"county":"Franklin County","state":"Ohio","country":"us","formatted_address":"Giant Eagle, 2173, Stringtown Road, Grove City, Franklin County, Ohio, 43123, United States of America","place_id":"170135549","datatype":"locationiq"},{"latitude":"39.896665","longitude":"-82.884116","name":"Hamilton & Route 33 Giant Eagle","address":"\n\t\t\t3841 S. Hamilton Road<br>\nGroveport, OH 43125<br>\n\n\t\t\t(614) 836-8258 (Main)<br>\n(614) 836-8420 (Pharmacy)<br>\n(614) 836-9071 (Main Fax)<br>\n(614) 836-8532 (Pharmacy Fax)<br>\n(614) 836-5065 (State Liquor Agency)<br>\n\n\t\t\tSun-Thu: 6:00 AM - 11:00 PM<br>\nFri-Sat: 6:00 AM - 12:00 AM<br>\n\n\t\t\t","street_number":null,"street_name":"Bayleap Drive","zip":"43125","city":"Columbus","area":null,"county":"Franklin County","state":"Ohio","country":"us","formatted_address":"Bayleap Drive, Columbus, Franklin County, Ohio, 43125, United States of America","place_id":"124212733","datatype":"locationiq"},{"latitude":"42.143535","longitude":"-80.004951","name":"Harborcreek Giant Eagle","address":"\n\t\t\t4265 Buffalo Road<br>\nErie, PA 16510<br>\n\n\t\t\t(814) 899-2730 (Main)<br>\n(814) 899-6063 (Pharmacy)<br>\n(814) 899-8361 (Main Fax)<br>\n(814) 898-1553 (Pharmacy Fax)<br>\n\n\t\t\tSun-Sat: Open 24 hours<br>\n\n\t\t\t","street_number":null,"street_name":"Buffalo Road","zip":"16421","city":null,"area":null,"county":"Erie County","state":"Pennsylvania","country":"us","formatted_address":"Buffalo Road, Northwest Harborcreek, Erie County, Pennsylvania, 16421, United States of America","place_id":"144336424","datatype":"locationiq"},{"latitude":"40.537800","longitude":"-79.838727","name":"Harmar Giant Eagle","address":"\n\t\t\t2611 Freeport Road<br>\nPittsburgh, PA 15238<br>\n\n\t\t\t(412) 828-3766 (Main)<br>\n(412) 828-2277 (Pharmacy)<br>\n(412) 828-2093 (Pharmacy Fax)<br>\n\n\t\t\tSun-Sat: Open 24 hours<br>\n\n\t\t\t","street_number":null,"street_name":"Anchor Drive","zip":"15238","city":null,"area":"River Valley","county":"Allegheny County","state":"Pennsylvania","country":"us","formatted_address":"Giant Eagle Express, Anchor Drive, River Valley, Harmar Township, Allegheny County, Pennsylvania, 15238, United States of America","place_id":"124240705","datatype":"locationiq"},{"latitude":"40.968590","longitude":"-81.347110","name":"Hartville Giant Eagle","address":"\n\t\t\t907 West Maple Street<br>\nHartville, OH 44632<br>\n\n\t\t\t(330) 877-3664 (Main)<br>\n(330) 877-0221 (Pharmacy)<br>\n(330) 877-3571 (Main Fax)<br>\n(330) 877-0787 (Pharmacy Fax)<br>\n\n\t\t\tSun-Sat: 7:00 AM - 12:00 AM<br>\n\n\t\t\t","street_number":"913","street_name":"West Maple Street","zip":"44632","city":null,"area":null,"county":"Stark County","state":"Ohio","country":"us","formatted_address":"913, West Maple Street, Hartville, Lake Township, Stark County, Ohio, 44632, United States of America","place_id":"199867641","datatype":"locationiq"},{"latitude":"40.061293","longitude":"-83.180318","name":"Hayden & Cosgray Giant Eagle","address":"\n\t\t\t6700 Hayden Run Road<br>\nHilliard, OH 43026<br>\n\n\t\t\t(614) 529-5327 (Main)<br>\n(614) 529-6685 (Pharmacy)<br>\n(614) 529-9056 (Main Fax)<br>\n(614) 529-9511 (State Liquor Agency)<br>\n\n\t\t\tSun-Thu: 6:00 AM - 11:00 PM<br>\nFri-Sat: 6:00 AM - 12:00 AM<br>\n\n\t\t\t","street_number":null,"street_name":"Holly River Avenue","zip":"43002","city":"Columbus","area":null,"county":"Franklin County","state":"Ohio","country":"us","formatted_address":"Giant Eagle, Holly River Avenue, Columbus, Franklin County, Ohio, 43002, United States of America","place_id":"153056930","datatype":"locationiq"},{"latitude":"40.037232","longitude":"-82.430081","name":"Heath Giant Eagle","address":"\n\t\t\t553 Hebron Road<br>\nNewark, OH 43056<br>\n\n\t\t\t(740) 522-1138 (Main)<br>\n(740) 522-6168 (Pharmacy)<br>\n(740) 522-4489 (Main Fax)<br>\n(740) 522-6312 (Pharmacy Fax)<br>\n\n\t\t\tSun-Thu: 6:00 AM - 11:00 PM<br>\nFri-Sat: 6:00 AM - 12:00 AM<br>\n\n\t\t\t","street_number":"558","street_name":"Hebron Road","zip":"43056","city":"Heath","area":null,"county":"Licking County","state":"Ohio","country":"us","formatted_address":"558, Hebron Road, Heath, Licking County, Ohio, 43056, United States of America","place_id":"199462206","datatype":"locationiq"},{"latitude":"40.302995","longitude":"-79.594604","name":"Hempfield Giant Eagle","address":"\n\t\t\t6204 Route 30<br>\nHempfield Square SC<br>\nGreensburg, PA 15601<br>\n\n\t\t\t(724) 836-5121 (Main)<br>\n(724) 836-6756 (Pharmacy)<br>\n(724) 836-2937 (Main Fax)<br>\n(724) 836-4392 (Pharmacy Fax)<br>\n\n\t\t\tSun-Sat: 6:00 AM - 12:00 AM<br>\n\n\t\t\t","street_number":null,"street_name":"Hempfield Square Boulevard","zip":"15634","city":null,"area":null,"county":"Westmoreland County","state":"Pennsylvania","country":"us","formatted_address":"Giant Eagle, Hempfield Square Boulevard, Hempfield Square, Radebaugh, Westmoreland County, Pennsylvania, 15634, United States of America","place_id":"26510345","datatype":"locationiq"},{"latitude":"41.233389","longitude":"-80.465838","name":"Hermitage Giant Eagle","address":"\n\t\t\t2365 East State Street<br>\nHickory Plaza<br>\nHermitage, PA 16148<br>\n\n\t\t\t(724) 981-1662 (Main)<br>\n(724) 981-0271 (Pharmacy)<br>\n(724) 981-3853 (Main Fax)<br>\n(724) 981-2162 (Pharmacy Fax)<br>\n\n\t\t\tSun-Sat: Open 24 hours<br>\n\n\t\t\t","street_number":"2399","street_name":"East State Street","zip":"16148","city":"Sharon","area":null,"county":"Mercer County","state":"Pennsylvania","country":"us","formatted_address":"2399, East State Street, Sharon, Mercer County, Pennsylvania, 16148, United States of America","place_id":"202069246","datatype":"locationiq"},{"latitude":"41.117302","longitude":"-81.481771","name":"Howe Avenue Giant Eagle","address":"\n\t\t\t230 Howe Avenue<br>\nCuyahoga Falls, OH 44221<br>\n\n\t\t\t(330) 922-0131 (Main)<br>\n(330) 929-6372 (Pharmacy)<br>\n(330) 475-0023 (Main Fax)<br>\n\n\t\t\tSun-Sat: 6:00 AM - 12:00 AM<br>\n\n\t\t\t","street_number":null,"street_name":"Success Road","zip":"44310","city":"Akron","area":null,"county":"Summit County","state":"Ohio","country":"us","formatted_address":"Success Road, Chapel Hill, Akron, Summit County, Ohio, 44310, United States of America","place_id":"148293501","datatype":"locationiq"},{"latitude":"41.238341","longitude":"-80.743445","name":"Howland Giant Eagle","address":"\n\t\t\t8202 East Market Street<br>\nWarren, OH 44484<br>\n\n\t\t\t(330) 856-1521 (Main)<br>\n(330) 856-1324 (Pharmacy)<br>\n(330) 856-3744 (Main Fax)<br>\n(330) 856-1498 (Pharmacy Fax)<br>\n\n\t\t\tSun-Sat: 6:00 AM - 1:00 AM<br>\n\n\t\t\t","street_number":null,"street_name":"East Market Street","zip":"44484","city":"Warren","area":null,"county":"Trumbull County","state":"Ohio","country":"us","formatted_address":"Arby's Parking Lot, East Market Street, Warren, Trumbull County, Ohio, 44484, United States of America","place_id":"17075106","datatype":"locationiq"},{"latitude":"40.613008","longitude":"-79.190480","name":"Indiana Giant Eagle","address":"\n\t\t\t475 Ben Franklin Rd S<br>\nIndiana, PA 15701<br>\n\n\t\t\t(724) 349-9376 (Main)<br>\n(724) 464-2108 (Pharmacy)<br>\n(724) 349-2104 (Main Fax)<br>\n(724) 463-1994 (Pharmacy Fax)<br>\n\n\t\t\tSun-Sat: 6:00 AM - 12:00 AM<br>\n\n\t\t\t","street_number":null,"street_name":"Ben Franklin Road South","zip":"15701","city":null,"area":null,"county":"Indiana County","state":"Pennsylvania","country":"us","formatted_address":"Ben Franklin Road South, Claypoole Heights, Indiana County, Pennsylvania, 15701, United States of America","place_id":"165359324","datatype":"locationiq"},{"latitude":"41.259812","longitude":"-80.833598","name":"Jamestown Giant Eagle","address":"\n\t\t\t2700 Mahoning Avenue N.W.<br>\nWarren, OH 44483<br>\n\n\t\t\t(330) 399-4175 (Main)<br>\n(330) 395-0505 (Pharmacy)<br>\n(330) 393-0337 (Main Fax)<br>\n(330) 399-1395 (Pharmacy Fax)<br>\n\n\t\t\tSun-Sat: Open 24 hours<br>\n\n\t\t\t","street_number":"2788","street_name":"Mahoning Avenue Northwest","zip":"44483","city":"Warren","area":"Mahoning Avenue Historic District","county":"Trumbull County","state":"Ohio","country":"us","formatted_address":"2788, Mahoning Avenue Northwest, Mahoning Avenue Historic District, Warren, Trumbull County, Ohio, 44483, United States of America","place_id":"199948228","datatype":"locationiq"},{"latitude":"40.467698","longitude":"-80.097087","name":"Kennedy Township Giant Eagle","address":"\n\t\t\t1800 McKees Rocks Road<br>\nMcKees Rocks, PA 15136<br>\n\n\t\t\t(412) 771-7707 (Main)<br>\n(412) 771-8366 (Pharmacy)<br>\n(412) 771-9654 (Main Fax)<br>\n(412) 771-8757 (Pharmacy Fax)<br>\n\n\t\t\tSun-Sat: 6:00 AM - 1:00 AM<br>\n\n\t\t\t","street_number":null,"street_name":"McKees Rocks Road","zip":"15136","city":null,"area":null,"county":"Allegheny County","state":"Pennsylvania","country":"us","formatted_address":"McKees Rocks Road, Kennedy Township, Allegheny County, Pennsylvania, 15136, United States of America","place_id":"66165269","datatype":"locationiq"},{"latitude":"41.486501","longitude":"-81.790770","name":"Lakewood Giant Eagle","address":"\n\t\t\t14100 Detroit Ave.<br>\nLakewood, OH 44107<br>\n\n\t\t\t(216) 226-2698 (Main)<br>\n(216) 226-1600 (Pharmacy)<br>\n(216) 228-1089 (Pharmacy Fax)<br>\n\n\t\t\tSun-Sat: 7:00 AM - 11:00 AM<br>\n\n\t\t\t","street_number":null,"street_name":"Merl Avenue","zip":"44107","city":"Lakewood","area":"Gold Coast","county":"Cuyahoga County","state":"Ohio","country":"us","formatted_address":"Giant Eagle, Merl Avenue, Gold Coast, Lakewood, Cuyahoga County, Ohio, 44107, United States of America","place_id":"119096298","datatype":"locationiq"},{"latitude":"39.741539","longitude":"-82.635909","name":"Lancaster Giant Eagle","address":"\n\t\t\t1394 Ety Shops Way<br>\nLancaster, OH 43130<br>\n\n\t\t\t(740) 654-4765 (Main)<br>\n(740) 654-5219 (Pharmacy)<br>\n(740) 654-4818 (Main Fax)<br>\n(740) 654-5502 (Pharmacy Fax)<br>\n(740) 654-5027 (State Liquor Agency)<br>\n\n\t\t\tSun-Thu: 6:00 AM - 11:00 PM<br>\nFri-Sat: 6:00 AM - 12:00 AM<br>\n\n\t\t\t","street_number":"2586","street_name":"North Columbus Street","zip":"43130","city":"Lancaster","area":"Lancaster Methodist Episcopal Camp Ground Historic District","county":"Fairfield County","state":"Ohio","country":"us","formatted_address":"2586, North Columbus Street, Lancaster Methodist Episcopal Camp Ground Historic District, Lancaster, Fairfield County, Ohio, 43130, United States of America","place_id":"199106435","datatype":"locationiq"},{"latitude":"40.283485","longitude":"-79.389812","name":"Latrobe Giant Eagle","address":"\n\t\t\t1050 Mt. Laurel Plaza<br>\nRoute 30<br>\nLatrobe, PA 15650<br>\n\n\t\t\t(724) 537-0610 (Main)<br>\n(724) 537-4995 (Pharmacy)<br>\n(724) 539-2266 (Main Fax)<br>\n(724) 537-5197 (Pharmacy Fax)<br>\n\n\t\t\tSun-Sat: 6:00 AM - 12:00 AM<br>\n\n\t\t\t","street_number":"591","street_name":"Mountain Laurel Plaza","zip":"15650","city":null,"area":null,"county":"Westmoreland County","state":"Pennsylvania","country":"us","formatted_address":"591, Mountain Laurel Plaza, Lawson Heights, Westmoreland County, Pennsylvania, 15650, United States of America","place_id":"202459554","datatype":"locationiq"},{"latitude":"40.559192","longitude":"-80.202928","name":"Leetsdale Giant Eagle","address":"\n\t\t\t5 Quaker Village S.C.<br>\nLeetsdale, PA 15056<br>\n\n\t\t\t(412) 741-6040 (Main)<br>\n(412) 259-1021 (Pharmacy)<br>\n(412) 741-6839 (Main Fax)<br>\n(412) 259-1025 (Pharmacy Fax)<br>\n\n\t\t\tSun-Sat: 6:00 AM - 11:00 PM<br>\n\n\t\t\t","street_number":"182","street_name":"Ohio River Boulevard","zip":"15056","city":"Leetsdale","area":null,"county":"Allegheny County","state":"Pennsylvania","country":"us","formatted_address":"Asian Star, 182, Ohio River Boulevard, Leetsdale, Allegheny County, Pennsylvania, 15056, United States of America","place_id":"17929974","datatype":"locationiq"},{"latitude":"41.504323","longitude":"-81.497766","name":"Legacy Village Giant Eagle","address":"\n\t\t\t25105 Cedar Road<br>\nLyndhurst, OH 44124<br>\n\n\t\t\t(216) 920-3300 (Main)<br>\n(216) 920-3320 (Pharmacy)<br>\n(216) 920-3325 (Main Fax)<br>\n(216) 920-3323 (Pharmacy Fax)<br>\n(216) 382-4250 (State Liquor Agency)<br>\n(216) 920-3305 (Curbside Express)<br>\n\n\t\t\tSun-Sat: 6:00 AM - 12:00 AM<br>\n\n\t\t\t","street_number":"2048","street_name":"Richmond Road","zip":"44124","city":null,"area":null,"county":"Cuyahoga County","state":"Ohio","country":"us","formatted_address":"2048, Richmond Road, Lyndhurst, Cuyahoga County, Ohio, 44124, United States of America","place_id":"198977390","datatype":"locationiq"},{"latitude":"40.246451","longitude":"-79.245030","name":"Ligonier Giant Eagle","address":"\n\t\t\t117 South Walnut Street<br>\nLigonier, PA 15658<br>\n\n\t\t\t(724) 238-5490 (Main)<br>\n(724) 238-0342 (Pharmacy)<br>\n(724) 238-8406 (Main Fax)<br>\n(724) 238-0363 (Pharmacy Fax)<br>\n\n\t\t\tSun-Sat: 7:00 AM - 9:00 PM<br>\n\n\t\t\t","street_number":null,"street_name":"Lincoln Highway","zip":"15658","city":"Ligonier","area":null,"county":"Westmoreland County","state":"Pennsylvania","country":"us","formatted_address":"Giant Eagle, Lincoln Highway, Ligonier, Westmoreland County, Pennsylvania, 15658, United States of America","place_id":"148999489","datatype":"locationiq"},{"latitude":"39.952775","longitude":"-83.128635","name":"Lincoln Village Giant Eagle","address":"\n\t\t\t4780 West Broad Street<br>\nColumbus, OH 43228<br>\n\n\t\t\t(614) 878-8710 (Main)<br>\n(614) 878-8942 (Pharmacy)<br>\n(614) 878-8923 (Main Fax)<br>\n(614) 878-8942 (Pharmacy Fax)<br>\n\n\t\t\tSun-Sat: 6:00 AM - 11:00 PM<br>\n\n\t\t\t","street_number":"4778","street_name":"West Broad Street","zip":"43228","city":null,"area":null,"county":"Franklin County","state":"Ohio","country":"us","formatted_address":"4778, West Broad Street, Lincoln Village Plaza, Lincoln Village, Franklin County, Ohio, 43228, United States of America","place_id":"199119684","datatype":"locationiq"},{"latitude":"40.837035","longitude":"-81.260612","name":"Louisville Giant Eagle","address":"\n\t\t\t108 West Main Street<br>\nLouisville, OH 44641<br>\n\n\t\t\t(330) 875-1451 (Main)<br>\n(330) 875-1135 (Pharmacy)<br>\n(330) 875-5143 (Main Fax)<br>\n(330) 875-4862 (State Liquor Agency Fax)<br>\n\n\t\t\tSun-Sat: 7:00 AM - 11:00 PM<br>\n\n\t\t\t","street_number":null,"street_name":"West Gorgas Street","zip":"44641","city":"Louisville","area":null,"county":"Stark County","state":"Ohio","country":"us","formatted_address":"Giant Eagle, West Gorgas Street, Louisville, Stark County, Ohio, 44641, United States of America","place_id":"42409271","datatype":"locationiq"},{"latitude":"41.313284","longitude":"-81.528819","name":"Macedonia Giant Eagle","address":"\n\t\t\t290 East Aurora Road<br>\nNorthfield, OH 44067<br>\n\n\t\t\t(330) 468-0100 (Main)<br>\n(330) 468-3263 (Pharmacy)<br>\n(330) 468-2749 (Main Fax)<br>\n(330) 468-3370 (Pharmacy Fax)<br>\n\n\t\t\tSun-Sat: 6:00 AM - 12:00 AM<br>\n\n\t\t\t","street_number":"290","street_name":"East Aurora Road","zip":"44067","city":"Macedonia","area":null,"county":"Summit County","state":"Ohio","country":"us","formatted_address":"Giant Eagle, 290, East Aurora Road, Macedonia, Northfield Center Township, Summit County, Ohio, 44067, United States of America","place_id":"82246013","datatype":"locationiq"},{"latitude":"39.420743","longitude":"-81.447401","name":"Marietta Giant Eagle","address":"\n\t\t\t128 Gross Street<br>\nFrontier Shopping Center<br>\nMarietta, OH 45750<br>\n\n\t\t\t(740) 373-5567 (Main)<br>\n(740) 374-3127 (Pharmacy)<br>\n(740) 376-7444 (Main Fax)<br>\n(740) 374-3296 (Pharmacy Fax)<br>\n\n\t\t\tSun-Sat: 6:00 AM - 11:00 PM<br>\n\n\t\t\t","street_number":"701","street_name":"Glendale Road","zip":"45750","city":null,"area":"Ruraldale","county":"Washington County","state":"Ohio","country":"us","formatted_address":"701, Glendale Road, Ruraldale, Harmar, Marietta, Washington County, Ohio, 45750, United States of America","place_id":"200023319","datatype":"locationiq"},{"latitude":"40.800839","longitude":"-81.495206","name":"Massillon Giant Eagle","address":"\n\t\t\t2032 Lincoln Way East<br>\nMeadows Plaza<br>\nMassillon, OH 44646<br>\n\n\t\t\t(330) 833-2733 (Main)<br>\n(330) 833-4890 (Pharmacy)<br>\n(330) 833-3698 (Main Fax)<br>\n(330) 833-5276 (Pharmacy Fax)<br>\n(330) 833-2493 (State Liquor Agency)<br>\n\n\t\t\tSun-Sat: 6:00 AM - 12:00 AM<br>\n\n\t\t\t","street_number":null,"street_name":"Colonial Parkway Northeast","zip":"44646","city":"Massillon","area":null,"county":"Stark County","state":"Ohio","country":"us","formatted_address":"Colonial Parkway Northeast, Massillon, Stark County, Ohio, 44646, United States of America","place_id":"70880123","datatype":"locationiq"},{"latitude":"41.520760","longitude":"-81.452424","name":"Mayfield Heights Giant Eagle","address":"\n\t\t\t6259 Mayfield Road<br>\nMayfield Heights, OH 44124<br>\n\n\t\t\t(440) 446-1628 (Main)<br>\n(440) 449-8566 (Main Fax)<br>\n\n\t\t\tSun-Sat: 7:00 AM - 12:00 AM<br>\n\n\t\t\t","street_number":null,"street_name":"Mayfield Road","zip":"44040","city":null,"area":null,"county":"Cuyahoga County","state":"Ohio","country":"us","formatted_address":"Panini's, Mayfield Road, Mayfield Heights, Cuyahoga County, Ohio, 44040, United States of America","place_id":"28862074","datatype":"locationiq"},{"latitude":"40.032266","longitude":"-82.910262","name":"McCutcheon & Stelzer Giant Eagle","address":"\n\t\t\t2900 Stelzer Road<br>\nColumbus, OH 43219<br>\n\n\t\t\t(614) 337-0245 (Main)<br>\n(614) 337-0397 (Pharmacy)<br>\n(614) 337-1241 (Main Fax)<br>\n(614) 337-1060 (Pharmacy Fax)<br>\n(614) 471-8904 (State Liquor Agency)<br>\n(614) 471-8908 (State Liquor Agency Fax)<br>\n(614) 337-0365 (Curbside Express)<br>\n\n\t\t\tSun-Thu: 6:00 AM - 11:00 PM<br>\nFri-Sat: 6:00 AM - 12:00 AM<br>\n\n\t\t\t","street_number":"2940","street_name":"Stelzer Road","zip":"43219","city":"Columbus","area":null,"county":"Franklin County","state":"Ohio","country":"us","formatted_address":"2940, Stelzer Road, Columbus, Franklin County, Ohio, 43219, United States of America","place_id":"199172058","datatype":"locationiq"},{"latitude":"40.367237","longitude":"-80.235872","name":"McDonald Giant Eagle","address":"\n\t\t\t200 Station Street<br>\nMcDonald, PA 15057<br>\n\n\t\t\t(724) 926-2830 (Main)<br>\n(724) 926-2201 (Pharmacy)<br>\n(724) 926-0197 (Main Fax)<br>\n(724) 926-4360 (Pharmacy Fax)<br>\n\n\t\t\tSun: 7:30 AM - 8:00 PM<br>\nMon-Sat: 7:30 AM - 9:00 PM<br>\n\n\t\t\t","street_number":null,"street_name":null,"zip":"15057","city":"McDonald","area":null,"county":"Washington County","state":"Pennsylvania","country":"us","formatted_address":"Panhandle Trail, McDonald, Washington County, Pennsylvania, 15057, United States of America","place_id":"170989830","datatype":"locationiq"},{"latitude":"40.555343","longitude":"-80.018151","name":"McIntyre Square Giant Eagle","address":"\n\t\t\t8080 McIntyre Square Drive<br>\nPittsburgh, PA 15237<br>\n\n\t\t\t(412) 366-6534 (Main)<br>\n(412) 364-8747 (Pharmacy)<br>\n(412) 366-9338 (Entertainment)<br>\n(412) 366-0975 (Main Fax)<br>\n(412) 366-9824 (Pharmacy Fax)<br>\n(412) 366-9338 (Curbside Express)<br>\n\n\t\t\tSun-Sat: Open 24 hours<br>\n\n\t\t\t","street_number":"8080","street_name":"McKnight Road","zip":"15237","city":null,"area":null,"county":"Allegheny County","state":"Pennsylvania","country":"us","formatted_address":"Giant Eagle, 8080, McKnight Road, Ross Township, Allegheny County, Pennsylvania, 15237, United States of America","place_id":"7552968","datatype":"locationiq"},{"latitude":"40.347696","longitude":"-79.832122","name":"McKeesport Giant Eagle","address":"\n\t\t\t3812 O'Neil Boulevard<br>\nMcKeesport, PA 15132<br>\n\n\t\t\t(412) 672-7392 (Main)<br>\n(412) 672-9036 (Pharmacy)<br>\n(412) 672-4208 (Main Fax)<br>\n(412) 672-1951 (Pharmacy Fax)<br>\n\n\t\t\tSun-Sat: 6:00 AM - 11:00 PM<br>\n\n\t\t\t","street_number":null,"street_name":"Eden Park Boulevard","zip":"15132","city":"McKeesport","area":null,"county":"Allegheny County","state":"Pennsylvania","country":"us","formatted_address":"Donut Connection, Eden Park Boulevard, McKeesport, Allegheny County, Pennsylvania, 15132, United States of America","place_id":"165017215","datatype":"locationiq"},{"latitude":"41.620228","longitude":"-80.166305","name":"Meadville Giant Eagle","address":"\n\t\t\t18511 Smock Highway<br>\nMeadville, PA 16335<br>\n\n\t\t\t(814) 724-1119 (Main)<br>\n(814) 724-6292 (Pharmacy)<br>\n(814) 336-1553 (Main Fax)<br>\n(814) 333-9101 (Pharmacy Fax)<br>\n\n\t\t\tSun-Sat: 6:00 AM - 10:00 PM<br>\n\n\t\t\t","street_number":"18448","street_name":"Smock Highway","zip":"16335","city":null,"area":null,"county":"Crawford County","state":"Pennsylvania","country":"us","formatted_address":"18448, Smock Highway, Fredericksburg, Crawford County, Pennsylvania, 16335, United States of America","place_id":"201620406","datatype":"locationiq"},{"latitude":"41.150553","longitude":"-81.861776","name":"Medina Giant Eagle","address":"\n\t\t\t870 N. Court <br>\nMedina, OH 44256<br>\n\n\t\t\t(330) 723-8873 (Main)<br>\n(330) 721-8028 (Pharmacy)<br>\n(330) 725-3464 (Main Fax)<br>\n(330) 723-8914 (Pharmacy Fax)<br>\n\n\t\t\tSun-Sat: 5:30 AM - 1:00 AM<br>\n\n\t\t\t","street_number":"240","street_name":"Forest Meadows Drive","zip":"44256","city":"Medina","area":"Medina Public Square Historic District","county":"Medina County","state":"Ohio","country":"us","formatted_address":"240, Forest Meadows Drive, Medina Public Square Historic District, Medina, Medina County, Ohio, 44256, United States of America","place_id":"199573340","datatype":"locationiq"},{"latitude":"41.707333","longitude":"-81.360920","name":"Mentor Convenience","address":"\n\t\t\t6045 Andrews Road<br>\nMentor On The Lake, OH 44060<br>\n\n\t\t\t(440) 209-9582 (Main)<br>\n(440) 209-9653 (Main Fax)<br>\n\n\t\t\tSun-Sat: 5:00 AM - 11:00 PM<br>\n\n\t\t\t","street_number":"6044","street_name":"Andrews Road","zip":"44060","city":"Mentor-on-the-Lake","area":null,"county":"Lake County","state":"Ohio","country":"us","formatted_address":"6044, Andrews Road, Mentor-on-the-Lake, Lake County, Ohio, 44060, United States of America","place_id":"199423352","datatype":"locationiq"},{"latitude":"41.707000","longitude":"-81.360135","name":"Mentor on the Lake Giant Eagle","address":"\n\t\t\t6079 Andrew Road<br>\nMentor On The Lake, OH 44060<br>\n\n\t\t\t(440) 257-7271 (Main)<br>\n(440) 306-0011 (Pharmacy)<br>\n(440) 257-8706 (Main Fax)<br>\n(440) 306-0022 (Pharmacy Fax)<br>\n(440) 306-0025 (State Liquor Agency)<br>\n\n\t\t\tSun-Sat: Open 24 hours<br>\n\n\t\t\t","street_number":null,"street_name":"Plains Road","zip":"44060","city":"Mentor-on-the-Lake","area":null,"county":"Lake County","state":"Ohio","country":"us","formatted_address":"Giant Eagle, Plains Road, Mentor-on-the-Lake, Lake County, Ohio, 44060, United States of America","place_id":"4697524","datatype":"locationiq"},{"latitude":"41.463995","longitude":"-81.091147","name":"Middlefield Giant Eagle","address":"\n\t\t\t15400 West High Street<br>\nMiddlefield, OH 44062<br>\n\n\t\t\t(440) 632-1200 (Main)<br>\n(440) 632-5587 (Pharmacy)<br>\n(440) 632-0653 (Pharmacy Fax)<br>\n\n\t\t\tSun-Sat: 7:00 AM - 10:00 PM<br>\n\n\t\t\t","street_number":null,"street_name":"West High Street","zip":"44062","city":null,"area":null,"county":"Geauga County","state":"Ohio","country":"us","formatted_address":"GetGo, West High Street, Middlefield, Middlefield Township, Geauga County, Ohio, 44062, United States of America","place_id":"165154136","datatype":"locationiq"},{"latitude":"41.390506","longitude":"-82.109379","name":"Midway Mall Giant Eagle","address":"\n\t\t\t320 Market Drive<br>\nElyria, OH 44035<br>\n\n\t\t\t(440) 366-5110 (Main)<br>\n(440) 324-1742 (Pharmacy)<br>\n(440) 366-1977 (Main Fax)<br>\n(440) 324-1794 (Pharmacy Fax)<br>\n(440) 324-5148 (State Liquor Agency)<br>\n\n\t\t\tSun-Sat: 6:00 AM - 12:00 AM<br>\n\n\t\t\t","street_number":null,"street_name":"Potomac Lane","zip":"44035","city":"Elyria","area":"Washington Avenue Historic District","county":"Lorain County","state":"Ohio","country":"us","formatted_address":"Giant Eagle, Potomac Lane, Washington Avenue Historic District, Elyria, Lorain County, Ohio, 44035, United States of America","place_id":"36792139","datatype":"locationiq"},{"latitude":"42.062821","longitude":"-80.102016","name":"Millcreek Marketplace Giant Eagle","address":"\n\t\t\t2067 Interchange Rd<br>\nErie, PA 16509<br>\n\n\t\t\t(814) 866-1089 (Main)<br>\n(814) 868-7923 (Pharmacy)<br>\n(814) 866-1824 (Main Fax)<br>\n(814) 864-3698 (Pharmacy Fax)<br>\n(814) 844-6398 (Curbside Express)<br>\n\n\t\t\tSun-Sat: 6:00 AM - 1:00 AM<br>\n\n\t\t\t","street_number":"2230","street_name":"Rinderle Drive","zip":"16509","city":"Millcreek Township","area":null,"county":"Erie County","state":"Pennsylvania","country":"us","formatted_address":"2230, Rinderle Drive, Millcreek Township, Erie County, Pennsylvania, 16509, United States of America","place_id":"201757331","datatype":"locationiq"},{"latitude":"40.432370","longitude":"-79.772186","name":"Monroeville Giant Eagle","address":"\n\t\t\t4010 Monroeville Boulevard<br>\nMonroeville, PA 15146<br>\n\n\t\t\t(412) 372-1220 (Main)<br>\n(412) 372-1224 (Pharmacy)<br>\n(412) 372-6745 (Main Fax)<br>\n(412) 374-1880 (Pharmacy Fax)<br>\n(412) 372-1221 (Curbside Express)<br>\n\n\t\t\tSun-Sat: Open 24 hours<br>\n\n\t\t\t","street_number":null,"street_name":"Cedar Ridge Drive","zip":"15146","city":"Monroeville","area":null,"county":"Allegheny County","state":"Pennsylvania","country":"us","formatted_address":"Giant Eagle, Cedar Ridge Drive, Monroeville, Allegheny County, Pennsylvania, 15146, United States of America","place_id":"88796756","datatype":"locationiq"},{"latitude":"40.521743","longitude":"-80.219987","name":"Moon Township Giant Eagle","address":"\n\t\t\t5990 University Blvd<br>\nSuite 4<br>\nCoraopolis, PA 15108<br>\n\n\t\t\t(412) 264-3856 (Main)<br>\n(412) 269-0254 (Pharmacy)<br>\n(412) 264-3654 (Main Fax)<br>\n(412) 299-5673 (Pharmacy Fax)<br>\n(412) 264-1300 (Curbside Express)<br>\n\n\t\t\tSun-Sat: 6:00 AM - 11:00 PM<br>\n\n\t\t\t","street_number":null,"street_name":"Grant Drive","zip":"15108","city":null,"area":null,"county":"Allegheny County","state":"Pennsylvania","country":"us","formatted_address":"Giant Eagle, Grant Drive, Moon Township, Allegheny County, Pennsylvania, 15108, United States of America","place_id":"13717715","datatype":"locationiq"},{"latitude":"40.874893","longitude":"-79.949763","name":"Moraine Point Giant Eagle","address":"\n\t\t\t700 Moraine Pointe Plaza<br>\nButler, PA 16001<br>\n\n\t\t\t(724) 287-5001 (Main)<br>\n(724) 283-3779 (Pharmacy)<br>\n(724) 287-2172 (Main Fax)<br>\n(724) 283-8707 (Pharmacy Fax)<br>\n\n\t\t\tSun: 7:00 AM - 9:00 PM<br>\nMon-Sat: 7:00 AM - 10:00 PM<br>\n\n\t\t\t","street_number":null,"street_name":"Moraine Point Plaza","zip":"16001","city":null,"area":null,"county":"Butler County","state":"Pennsylvania","country":"us","formatted_address":"Giant Eagle, Moraine Point Plaza, Homeacre-Lyndora, Butler County, Pennsylvania, 16001, United States of America","place_id":"116570885","datatype":"locationiq"},{"latitude":"39.607221","longitude":"-79.964384","name":"Morgantown Giant Eagle","address":"\n\t\t\t130 Greenbag Road<br>\nMountaineer Mall<br>\nMorgantown, WV 26505<br>\n\n\t\t\t(304) 292-6066 (Main)<br>\n(304) 292-0385 (Pharmacy)<br>\n(304) 296-7402 (Main Fax)<br>\n(304) 292-6081 (Pharmacy Fax)<br>\n\n\t\t\tSun-Sat: 6:00 AM - 12:00 AM<br>\n\n\t\t\t","street_number":"300","street_name":"Green Bag Road","zip":"26505","city":null,"area":"Hopecrest","county":"Monongalia County","state":"West Virginia","country":"us","formatted_address":"300, Green Bag Road, Hopecrest, Morgantown, Monongalia County, West Virginia, 26505, United States of America","place_id":"209105719","datatype":"locationiq"},{"latitude":"40.424216","longitude":"-79.661703","name":"Murrysville Giant Eagle","address":"\n\t\t\t4810 Old William Penn Hwy<br>\nExport, PA 15632<br>\n\n\t\t\t(724) 327-7866 (Main)<br>\n(724) 327-5493 (Pharmacy)<br>\n(724) 733-8068 (Main Fax)<br>\n(724) 733-0691 (Pharmacy Fax)<br>\n\n\t\t\tSun: 6:00 AM - 9:00 PM<br>\nMon-Sat: 6:00 AM - 11:00 PM<br>\n\n\t\t\t","street_number":null,"street_name":"Warner Drive","zip":"15668","city":"Murrysville","area":null,"county":"Westmoreland County","state":"Pennsylvania","country":"us","formatted_address":"Giant Eagle, Warner Drive, Murrysville, Westmoreland County, Pennsylvania, 15668, United States of America","place_id":"143011545","datatype":"locationiq"},{"latitude":"40.094000","longitude":"-82.825200","name":"New Albany Giant Eagle","address":"\n\t\t\t5461 New Albany Road West<br>\nNew Albany, OH 43054<br>\n\n\t\t\t(614) 939-4039 (Main)<br>\n(614) 939-4102 (Pharmacy)<br>\n(614) 939-4116 (Main Fax)<br>\n(614) 939-4107 (Pharmacy Fax)<br>\n(614) 939-4069 (State Liquor Agency)<br>\n\n\t\t\tSun-Thu: 6:00 AM - 11:00 PM<br>\nFri-Sat: 6:00 AM - 12:00 AM<br>\n\n\t\t\t","street_number":null,"street_name":"New Albany Road West","zip":"43054","city":"Columbus","area":null,"county":"Franklin County","state":"Ohio","country":"us","formatted_address":"New Albany Road West, Columbus, Franklin County, Ohio, 43054, United States of America","place_id":"72095641","datatype":"locationiq"},{"latitude":"40.592871","longitude":"-79.750459","name":"New Kensington Giant Eagle","address":"\n\t\t\t200 Tarentum Bridge Road<br>\nNew Kensington, PA 15068<br>\n\n\t\t\t(724) 339-4940 (Main)<br>\n(724) 339-4943 (Pharmacy)<br>\n(724) 339-8526 (Main Fax)<br>\n(724) 334-3238 (Pharmacy Fax)<br>\n(724) 889-0114 (Curbside Express)<br>\n\n\t\t\tSun-Sat: Open 24 hours<br>\n\n\t\t\t","street_number":null,"street_name":"Craigdell Road","zip":"15014","city":"New Kensington","area":null,"county":"Westmoreland County","state":"Pennsylvania","country":"us","formatted_address":"Craigdell Road, New Kensington, Westmoreland County, Pennsylvania, 15014, United States of America","place_id":"136561156","datatype":"locationiq"},{"latitude":"41.183946","longitude":"-80.759069","name":"Niles Giant Eagle","address":"\n\t\t\t48 Vienna Avenue<br>\nNiles, OH 44446<br>\n\n\t\t\t(330) 652-2519 (Main)<br>\n(330) 652-2158 (Pharmacy)<br>\n(330) 652-3430 (Main Fax)<br>\n(330) 652-1260 (Pharmacy Fax)<br>\n\n\t\t\tSun: 8:00 AM - 8:00 PM<br>\nMon-Sat: 8:00 AM - 9:00 PM<br>\n\n\t\t\t","street_number":"98","street_name":"Vienna Avenue","zip":"44446","city":"Niles","area":null,"county":"Trumbull County","state":"Ohio","country":"us","formatted_address":"98, Vienna Avenue, Niles, Trumbull County, Ohio, 44446, United States of America","place_id":"199943335","datatype":"locationiq"},{"latitude":"40.036655","longitude":"-79.075266","name":"North Center Avenue Giant Eagle","address":"\n\t\t\t1606 North Center Avenue<br>\nSomerset, PA 15501<br>\n\n\t\t\t(814) 443-4300 (Main)<br>\n(814) 443-0544 (Pharmacy)<br>\n(814) 445-7960 (Main Fax)<br>\n(814) 445-7125 (Pharmacy Fax)<br>\n\n\t\t\tSun-Sat: 6:00 AM - 11:00 PM<br>\n\n\t\t\t","street_number":"1615","street_name":"North Center Avenue","zip":"15501","city":null,"area":null,"county":"Somerset County","state":"Pennsylvania","country":"us","formatted_address":"1615, North Center Avenue, Husband, Somerset County, Pennsylvania, 15501, United States of America","place_id":"202335319","datatype":"locationiq"},{"latitude":"40.019421","longitude":"-83.013470","name":"North High Street Giant Eagle","address":"\n\t\t\t2801 N. High Street<br>\nColumbus, OH 43202<br>\n\n\t\t\t(614) 268-0976 (Main)<br>\n(614) 268-3223 (Pharmacy)<br>\n(614) 268-1743 (Main Fax)<br>\n(614) 784-2391 (Pharmacy Fax)<br>\n\n\t\t\tSun-Sat: Open 24 hours<br>\n\n\t\t\t","street_number":null,"street_name":"North High Street","zip":"43235","city":"Columbus","area":"Iuka Ravine Historic District","county":"Franklin County","state":"Ohio","country":"us","formatted_address":"Giant Eagle Supermarket, North High Street, Iuka Ravine Historic District, Columbus, Franklin County, Ohio, 43235, United States of America","place_id":"168902164","datatype":"locationiq"},{"latitude":"40.319948","longitude":"-79.687263","name":"North Huntingdon Giant Eagle","address":"\n\t\t\t8901 Route 30<br>\nNorth Huntingdon Square<br>\nNorth Huntingdon, PA 15642<br>\n\n\t\t\t(724) 864-0100 (Main)<br>\n(724) 864-7481 (Pharmacy)<br>\n(724) 864-7449 (Entertainment)<br>\n(724) 864-1593 (Main Fax)<br>\n(724) 864-7604 (Pharmacy Fax)<br>\n(724) 864-2063 (Curbside Express)<br>\n\n\t\t\tSun-Sat: Open 24 hours<br>\n\n\t\t\t","street_number":null,"street_name":"Pennsylvania Avenue","zip":"15642","city":"Irwin","area":null,"county":"Westmoreland County","state":"Pennsylvania","country":"us","formatted_address":"Giant Eagle, Pennsylvania Avenue, Irwin, Westmoreland County, Pennsylvania, 15642, United States of America","place_id":"26304154","datatype":"locationiq"},{"latitude":"41.801562","longitude":"-81.056289","name":"North Madison Giant Eagle","address":"\n\t\t\t6556 North Ridge Road<br>\nNorth Madison, OH 44057<br>\n\n\t\t\t(440) 428-1156 (Main)<br>\n(440) 428-7905 (Main Fax)<br>\n(440) 428-6256 (State Liquor Agency)<br>\n\n\t\t\tSun-Thu: 6:00 AM - 10:00 PM<br>\nFri-Sat: 6:00 AM - 11:00 PM<br>\n\n\t\t\t","street_number":null,"street_name":"North Ridge Road","zip":"44057","city":null,"area":null,"county":"Lake County","state":"Ohio","country":"us","formatted_address":"North Ridge Road, North Madison, Lake County, Ohio, 44057, United States of America","place_id":"133930976","datatype":"locationiq"},{"latitude":"41.397510","longitude":"-81.997412","name":"North Ridgeville Giant Eagle","address":"\n\t\t\t34325 Center Ridge Road<br>\nNorth Ridgeville, OH 44039<br>\n\n\t\t\t(440) 327-1901 (Main)<br>\n(440) 327-8085 (Pharmacy)<br>\n(440) 327-5218 (Main Fax)<br>\n(440) 327-8151 (Pharmacy Fax)<br>\n(440) 327-3730 (State Liquor Agency)<br>\n\n\t\t\tSun-Sat: 7:00 AM - 11:00 PM<br>\n\n\t\t\t","street_number":"34373","street_name":"Center Ridge Road","zip":"44039","city":"North Ridgeville","area":null,"county":"Cuyahoga County","state":"Ohio","country":"us","formatted_address":"34373, Center Ridge Road, North Ridgeville, Cuyahoga County, Ohio, 44039, United States of America","place_id":"199484091","datatype":"locationiq"},{"latitude":"41.314737","longitude":"-81.726485","name":"North Royalton Giant Eagle","address":"\n\t\t\t6000 Royalton Road<br>\nNorth Royalton, OH 44133<br>\n\n\t\t\t(440) 237-3061 (Main)<br>\n(440) 582-6430 (Pharmacy)<br>\n(440) 237-1284 (Entertainment)<br>\n(440) 582-6243 (Main Fax)<br>\n(440) 582-6701 (Pharmacy Fax)<br>\n\n\t\t\tSun-Sat: 6:00 AM - 1:00 AM<br>\n\n\t\t\t","street_number":"6060","street_name":"Royalton Road","zip":"44133","city":null,"area":null,"county":"Cuyahoga County","state":"Ohio","country":"us","formatted_address":"6060, Royalton Road, North Royalton, Cuyahoga County, Ohio, 44133, United States of America","place_id":"199016060","datatype":"locationiq"},{"latitude":"40.370387","longitude":"-79.786149","name":"North Versailles Giant Eagle","address":"\n\t\t\t1701 Lincoln Highway<br>\nNorth Versailles, PA 15137<br>\n\n\t\t\t(412) 823-3133 (Main)<br>\n(412) 824-3221 (Pharmacy)<br>\n(412) 823-6834 (Main Fax)<br>\n(412) 825-4615 (Pharmacy Fax)<br>\n\n\t\t\tSun: 7:00 AM - 9:00 PM<br>\nMon-Sat: 7:00 AM - 10:00 PM<br>\n\n\t\t\t","street_number":"1700","street_name":"Lincoln Highway","zip":"15137","city":null,"area":null,"county":"Allegheny County","state":"Pennsylvania","country":"us","formatted_address":"1700, Lincoln Highway, North Versailles, Allegheny County, Pennsylvania, 15137, United States of America","place_id":"201255684","datatype":"locationiq"},{"latitude":"40.661551","longitude":"-78.782972","name":"Northern Cambria Giant Eagle","address":"\n\t\t\t7 Cottonwood Street<br>\nNorthern Cambria, PA 15714<br>\n\n\t\t\t(814) 948-8360 (Main)<br>\n(814) 948-9732 (Pharmacy)<br>\n(814) 948-9152 (Main Fax)<br>\n(814) 951-0163 (Pharmacy Fax)<br>\n\n\t\t\tSun-Sat: 7:00 AM - 9:00 PM<br>\n\n\t\t\t","street_number":null,"street_name":"River Street","zip":"15714","city":"Northern Cambria","area":null,"county":"Cambria County","state":"Pennsylvania","country":"us","formatted_address":"River Street, Northern Cambria, Cambria County, Pennsylvania, 15714, United States of America","place_id":"148604821","datatype":"locationiq"},{"latitude":"41.426395","longitude":"-79.704418","name":"Oil City Giant Eagle","address":"\n\t\t\t602 East 2nd Street<br>\nOil City, PA 16301<br>\n\n\t\t\t(814) 676-6121 (Main)<br>\n(814) 677-3396 (Main Fax)<br>\n\n\t\t\tSun: 7:00 AM - 9:00 PM<br>\nMon-Sat: 7:00 AM - 10:00 PM<br>\n\n\t\t\t","street_number":"742","street_name":"East 2nd Street","zip":"16301","city":"Oil City","area":null,"county":"Venango County","state":"Pennsylvania","country":"us","formatted_address":"742, East 2nd Street, Oil City, Venango County, Pennsylvania, 16301, United States of America","place_id":"202360695","datatype":"locationiq"},{"latitude":"41.705957","longitude":"-81.267296","name":"Painesville Giant Eagle","address":"\n\t\t\t1201 Mentor Avenue<br>\nPainesville, OH 44077<br>\n\n\t\t\t(440) 358-1300 (Main)<br>\n(440) 358-7769 (Pharmacy)<br>\n(440) 358-7778 (Entertainment)<br>\n(440) 358-7777 (Main Fax)<br>\n(440) 358-7772 (Pharmacy Fax)<br>\n(440) 358-7782 (State Liquor Agency)<br>\n(440) 358-7768 (Curbside Express)<br>\n\n\t\t\tSun-Sat: Open 24 hours<br>\n\n\t\t\t","street_number":null,"street_name":"Mentor Avenue","zip":"44077","city":"Painesville","area":null,"county":"Lake County","state":"Ohio","country":"us","formatted_address":"Mentor Avenue, Painesville, Lake County, Ohio, 44077, United States of America","place_id":"86163430","datatype":"locationiq"},{"latitude":"40.422457","longitude":"-80.035588","name":"Parkway Center Giant Eagle","address":"\n\t\t\t1165 McKinney Lane<br>\nParkway Center Mall<br>\nPittsburgh, PA 15220<br>\n\n\t\t\t(412) 921-1276 (Main)<br>\n(412) 921-1610 (Pharmacy)<br>\n(412) 922-1228 (Main Fax)<br>\n(412) 921-1864 (Pharmacy Fax)<br>\n\n\t\t\tSun-Sat: 7:00 AM - 11:00 PM<br>\n\n\t\t\t","street_number":null,"street_name":"McKinney Lane","zip":"15220","city":"Pittsburgh","area":null,"county":"Allegheny County","state":"Pennsylvania","country":"us","formatted_address":"Giant Eagle, McKinney Lane, Parkway Center, Ridgemont, Pittsburgh, Allegheny County, Pennsylvania, 15220, United States of America","place_id":"23480586","datatype":"locationiq"},{"latitude":"40.365578","longitude":"-79.642058","name":"Penn Township Giant Eagle","address":"\n\t\t\t2000 Penny Lane Drive<br>\nJeannette, PA 15644<br>\n\n\t\t\t(724) 744-6113 (Main)<br>\n(724) 744-1901 (Pharmacy)<br>\n(724) 744-6135 (Main Fax)<br>\n(724) 744-1908 (Pharmacy Fax)<br>\n\n\t\t\tSun-Sat: 7:00 AM - 10:00 PM<br>\n\n\t\t\t","street_number":null,"street_name":"Penny Lane","zip":"15636","city":null,"area":null,"county":"Westmoreland County","state":"Pennsylvania","country":"us","formatted_address":"Jeanette District Memorial Hospital, Penny Lane, McCullough, Westmoreland County, Pennsylvania, 15636, United States of America","place_id":"3001410","datatype":"locationiq"},{"latitude":"39.908694","longitude":"-82.776305","name":"Pickerington Giant Eagle","address":"\n\t\t\t873 Refugee Road<br>\nPickerington, OH 43147<br>\n\n\t\t\t(614) 866-3693 (Main)<br>\n(614) 866-3756 (Pharmacy)<br>\n(614) 522-0052 (Curbside Express)<br>\n\n\t\t\tSun-Fri: 6:00 AM - 11:00 PM<br>\nSat: 6:00 AM - 12:00 AM<br>\n\n\t\t\t","street_number":"873","street_name":"Refugee Road","zip":"43147","city":"Pickerington","area":null,"county":"Fairfield County","state":"Ohio","country":"us","formatted_address":"Giant Eagle, 873, Refugee Road, Pickerington, Fairfield County, Ohio, 43147, United States of America","place_id":"168657879","datatype":"locationiq"},{"latitude":"41.024015","longitude":"-80.593475","name":"Poland Giant Eagle","address":"\n\t\t\t3130 Center Road<br>\nPoland, OH 44514<br>\n\n\t\t\t(330) 757-3735 (Main)<br>\n(330) 757-4099 (Pharmacy)<br>\n(330) 757-6045 (Main Fax)<br>\n(330) 757-3774 (Pharmacy Fax)<br>\n\n\t\t\tSun: 7:00 AM - 9:00 PM<br>\nMon-Sat: 7:00 AM - 10:00 PM<br>\n\n\t\t\t","street_number":"3074","street_name":"Center Road","zip":"44514","city":null,"area":"South Main Street Historic District","county":"Mahoning County","state":"Ohio","country":"us","formatted_address":"3074, Center Road, South Main Street Historic District, Poland, Mahoning County, Ohio, 44514, United States of America","place_id":"199559303","datatype":"locationiq"},{"latitude":"40.162852","longitude":"-83.017879","name":"Polaris Giant Eagle","address":"\n\t\t\t55 Meadow Park Ave.<br>\nLewis Center, OH 43035<br>\n\n\t\t\t(740) 657-8912 (Main)<br>\n(740) 657-1344 (Pharmacy)<br>\n(740) 657-1795 (Entertainment)<br>\n(740) 657-8366 (Main Fax)<br>\n(740) 657-1484 (Pharmacy Fax)<br>\n(740) 888-1206 (Curbside Express)<br>\n\n\t\t\tSun-Fri: 6:00 AM - 11:00 PM<br>\nSat: 6:00 AM - 12:00 AM<br>\n\n\t\t\t","street_number":"8681","street_name":"Columbus Pike","zip":"43081","city":null,"area":null,"county":"Delaware County","state":"Ohio","country":"us","formatted_address":"Chase, 8681, Columbus Pike, Orange, Delaware County, Ohio, 43081, United States of America","place_id":"20327048","datatype":"locationiq"},{"latitude":"40.158459","longitude":"-83.098772","name":"Powell Giant Eagle","address":"\n\t\t\t4000 West Powell Road<br>\nPowell, OH 43065<br>\n\n\t\t\t(614) 889-8073 (Main)<br>\n(614) 889-8438 (Pharmacy)<br>\n(614) 889-8315 (Main Fax)<br>\n(614) 889-8415 (Curbside Express)<br>\n\n\t\t\tSun-Sat: 6:00 AM - 11:00 PM<br>\n\n\t\t\t","street_number":"3857","street_name":"West Powell Road","zip":"43065","city":"Powell","area":null,"county":"Delaware County","state":"Ohio","country":"us","formatted_address":"3857, West Powell Road, Powell, Delaware County, Ohio, 43065, United States of America","place_id":"199068805","datatype":"locationiq"},{"latitude":"40.796288","longitude":"-81.415791","name":"Raff Road Giant Eagle","address":"\n\t\t\t608 Raff Road, SW<br>\nCanton, OH 44710<br>\n\n\t\t\t(330) 456-5757 (Main)<br>\n(330) 452-5905 (Pharmacy)<br>\n(330) 580-8055 (Main Fax)<br>\n(330) 452-7016 (Pharmacy Fax)<br>\n(330) 454-5758 (State Liquor Agency)<br>\n\n\t\t\tSun-Sat: 6:00 AM - 12:00 AM<br>\n\n\t\t\t","street_number":"3585","street_name":"7th Street Southwest","zip":"44710","city":"Canton","area":"Downtown Canton Arts District","county":"Stark County","state":"Ohio","country":"us","formatted_address":"3585, 7th Street Southwest, Downtown Canton Arts District, Canton, Stark County, Ohio, 44710, United States of America","place_id":"199864975","datatype":"locationiq"},{"latitude":"41.158923","longitude":"-81.228049","name":"Ravenna Giant Eagle","address":"\n\t\t\t909 East Main Street<br>\nRavenna, OH 44266<br>\n\n\t\t\t(330) 296-7115 (Main)<br>\n(330) 297-7366 (Pharmacy)<br>\n(330) 296-7930 (Entertainment)<br>\n(330) 296-0631 (Main Fax)<br>\n(330) 297-8936 (Pharmacy Fax)<br>\n\n\t\t\tSun-Sat: 6:00 AM - 12:00 AM<br>\n\n\t\t\t","street_number":null,"street_name":"Grove","zip":"44266","city":"Ravenna","area":"East Main Street Historic District","county":"Portage County","state":"Ohio","country":"us","formatted_address":"Grove, East Main Street Historic District, Ravenna, Portage County, Ohio, 44266, United States of America","place_id":"70401070","datatype":"locationiq"},{"latitude":"39.943000","longitude":"-80.015000","name":"Rices Landing Giant Eagle","address":"\n\t\t\t999 North Eighty Eight Road<br>\nRices Landing, PA 15357<br>\n\n\t\t\t(724) 592-5565 (Main)<br>\n(724) 592-6057 (Pharmacy)<br>\n(724) 592-5316 (Main Fax)<br>\n(724) 592-7494 (Pharmacy Fax)<br>\n\n\t\t\tSun-Sat: 7:00 AM - 10:00 PM<br>\n\n\t\t\t","street_number":null,"street_name":"PA 88","zip":"15357","city":"Jefferson Township","area":null,"county":"Greene County","state":"Pennsylvania","country":"us","formatted_address":"PA 88, Jefferson Township, Greene County, Pennsylvania, 15357, United States of America","place_id":"65825104","datatype":"locationiq"},{"latitude":"41.250708","longitude":"-81.664320","name":"Richfield Giant Eagle","address":"\n\t\t\t4428 Broadview Road<br>\nWest Richfield, OH 44286<br>\n\n\t\t\t(330) 659-6134 (Main)<br>\n(330) 659-4564 (Main Fax)<br>\n\n\t\t\tSun: 7:00 AM - 9:00 PM<br>\nMon-Sat: 7:00 AM - 10:00 PM<br>\n\n\t\t\t","street_number":null,"street_name":"Broadview Road","zip":"44286","city":null,"area":null,"county":"Summit County","state":"Ohio","country":"us","formatted_address":"Giant Eagle, Broadview Road, Richfield, Richfield Township, Summit County, Ohio, 44286, United States of America","place_id":"61942173","datatype":"locationiq"},{"latitude":"40.329550","longitude":"-78.391691","name":"Roaring Spring Giant Eagle","address":"\n\t\t\t510 S Route 36<br>\nRoaring Spring, PA 16673-1629<br>\n\n\t\t\t(814) 224-5128 (Main)<br>\n(814) 224-4201 (Pharmacy)<br>\n(814) 224-4454 (Main Fax)<br>\n(814) 224-0067 (Pharmacy Fax)<br>\n\n\t\t\tSun-Sat: 7:00 AM - 12:00 AM<br>\n\n\t\t\t","street_number":null,"street_name":"Williams Street","zip":"16673","city":"Roaring Spring","area":null,"county":"Blair County","state":"Pennsylvania","country":"us","formatted_address":"Williams Street, Roaring Spring, Blair County, Pennsylvania, 16673, United States of America","place_id":"131628937","datatype":"locationiq"},{"latitude":"40.702013","longitude":"-80.289354","name":"Rochester Giant Eagle","address":"\n\t\t\t111 West Madison Street<br>\nRochester, PA 15074<br>\n\n\t\t\t(724) 775-0551 (Main)<br>\n(724) 775-1820 (Pharmacy)<br>\n(724) 775-4104 (Main Fax)<br>\n(724) 775-0892 (Pharmacy Fax)<br>\n\n\t\t\tSun-Sat: 6:00 AM - 12:00 AM<br>\n\n\t\t\t","street_number":null,"street_name":"West Madison Street","zip":"15074","city":"Rochester","area":null,"county":"Beaver County","state":"Pennsylvania","country":"us","formatted_address":"Giant Eagle, West Madison Street, Rochester, Beaver County, Pennsylvania, 15074, United States of America","place_id":"32961100","datatype":"locationiq"},{"latitude":"41.459594","longitude":"-81.863720","name":"Rocky River Giant Eagle","address":"\n\t\t\t22160 Center Ridge Road<br>\nRocky River, OH 44116<br>\n\n\t\t\t(440) 333-2733 (Main)<br>\n(440) 356-3287 (Pharmacy)<br>\n(440) 356-3292 (Main Fax)<br>\n(440) 356-3290 (Pharmacy Fax)<br>\n(440) 333-5209 (State Liquor Agency)<br>\n(440) 356-3291 (State Liquor Agency Fax)<br>\n(440) 356-3279 (Curbside Express)<br>\n\n\t\t\tSun-Sat: 6:00 AM - 1:00 AM<br>\n\n\t\t\t","street_number":"22096","street_name":"Center Ridge Road","zip":"44116","city":null,"area":null,"county":"Cuyahoga County","state":"Ohio","country":"us","formatted_address":"22096, Center Ridge Road, Westlake, Cuyahoga County, Ohio, 44116, United States of America","place_id":"199036107","datatype":"locationiq"},{"latitude":"40.461698","longitude":"-79.825044","name":"Rodi Road Giant Eagle","address":"\n\t\t\t230 Rodi Road<br>\nPittsburgh, PA 15235<br>\n\n\t\t\t(412) 241-7744 (Main)<br>\n(412) 241-6134 (Pharmacy)<br>\n(412) 241-3391 (Main Fax)<br>\n(412) 242-1193 (Pharmacy Fax)<br>\n\n\t\t\tSun-Sat: 6:00 AM - 12:00 AM<br>\n\n\t\t\t","street_number":null,"street_name":"Rodi Road","zip":"15235","city":null,"area":"Shadow Shuttle","county":"Allegheny County","state":"Pennsylvania","country":"us","formatted_address":"Rodi Road, Shadow Shuttle, Penn Hills, Allegheny County, Pennsylvania, 15235, United States of America","place_id":"125206845","datatype":"locationiq"},{"latitude":"41.105604","longitude":"-81.241358","name":"Rootstown Giant Eagle","address":"\n\t\t\t4260 State Route 44<br>\nRootstown, OH 44272<br>\n\n\t\t\t(330) 325-7965 (Main)<br>\n(330) 325-7967 (Pharmacy)<br>\n(330) 325-3204 (Main Fax)<br>\n(330) 325-3004 (Pharmacy Fax)<br>\n(330) 325-0882 (State Liquor Agency)<br>\n\n\t\t\tSun-Sat: 6:00 AM - 11:00 PM<br>\n\n\t\t\t","street_number":null,"street_name":"SR 44","zip":"44272","city":null,"area":null,"county":"Portage County","state":"Ohio","country":"us","formatted_address":"Giant Eagle, SR 44, Rootstown, Rootstown Township, Portage County, Ohio, 44272, United States of America","place_id":"52537143","datatype":"locationiq"},{"latitude":"41.315483","longitude":"-81.655022","name":"Route 82 and I-77 Giant Eagle","address":"\n\t\t\t4343 Royalton Road<br>\nBroadview Heights, OH 44147<br>\n\n\t\t\t(440) 526-1547 (Main)<br>\n(440) 526-1584 (Pharmacy)<br>\n(440) 526-1884 (Main Fax)<br>\n(440) 526-1695 (Pharmacy Fax)<br>\n(440) 526-4486 (State Liquor Agency)<br>\n\n\t\t\tSun-Sat: Open 24 hours<br>\n\n\t\t\t","street_number":null,"street_name":"Royalton Road","zip":"44147","city":null,"area":null,"county":"Cuyahoga County","state":"Ohio","country":"us","formatted_address":"Royalton Road, Broadview Heights, Cuyahoga County, Ohio, 44147, United States of America","place_id":"127197184","datatype":"locationiq"},{"latitude":"40.703635","longitude":"-80.103700","name":"Rowan Rd","address":"\n\t\t\t20570 Route 19<br>\nCranberry Twp, PA 16066<br>\n\n\t\t\t(724) 776-7544 (Main)<br>\n(724) 776-7590 (Main Fax)<br>\n\n\t\t\tSun-Sat: Open 24 hours<br>\n\n\t\t\t","street_number":null,"street_name":"Rowan Road","zip":"16066","city":"Cranberry Township","area":null,"county":"Butler County","state":"Pennsylvania","country":"us","formatted_address":"GetGo, Rowan Road, Cranberry Township, Butler County, Pennsylvania, 16066, United States of America","place_id":"20855808","datatype":"locationiq"},{"latitude":"40.900918","longitude":"-80.827346","name":"Salem Giant Eagle","address":"\n\t\t\t2401 East State Street<br>\nSalem, OH 44460<br>\n\n\t\t\t(330) 337-6378 (Main)<br>\n(330) 332-0141 (Pharmacy)<br>\n(330) 337-0261 (Main Fax)<br>\n(330) 332-9734 (Pharmacy Fax)<br>\n\n\t\t\tSun-Sat: 7:00 AM - 10:00 PM<br>\n\n\t\t\t","street_number":"2403","street_name":"East State Street","zip":"44460","city":"Salem","area":null,"county":"Mahoning County","state":"Ohio","country":"us","formatted_address":"2403, East State Street, Salem, Mahoning County, Ohio, 44460, United States of America","place_id":"198944234","datatype":"locationiq"},{"latitude":"40.689518","longitude":"-80.057716","name":"Seven Fields Giant Eagle","address":"\n\t\t\t206 Seven Fields Blvd<br>\nSeven Fields, PA 16046<br>\n\n\t\t\t(724) 779-3030 (Main)<br>\n(724) 779-3232 (Pharmacy)<br>\n(724) 779-3054 (Main Fax)<br>\n(724) 779-3073 (Pharmacy Fax)<br>\n(724) 779-3034 (Curbside Express)<br>\n\n\t\t\tSun-Sat: Open 24 hours<br>\n\n\t\t\t","street_number":null,"street_name":"Seven Fields Boulevard","zip":"16046","city":"Seven Fields","area":null,"county":"Butler County","state":"Pennsylvania","country":"us","formatted_address":"GetGo, Seven Fields Boulevard, Seven Fields, Butler County, Pennsylvania, 16046, United States of America","place_id":"17470442","datatype":"locationiq"},{"latitude":"40.458996","longitude":"-79.921222","name":"Shakespeare Street Giant Eagle","address":"\n\t\t\t6320 Shakespeare Street<br>\nPittsburgh, PA 15206<br>\n\n\t\t\t(412) 361-6220 (Main)<br>\n(412) 361-5248 (Pharmacy)<br>\n(412) 363-3073 (Main Fax)<br>\n(412) 361-2006 (Pharmacy Fax)<br>\n\n\t\t\tSun-Sat: 6:00 AM - 11:00 PM<br>\n\n\t\t\t","street_number":null,"street_name":"Aurelia Street","zip":"15206","city":"Pittsburgh","area":null,"county":"Allegheny County","state":"Pennsylvania","country":"us","formatted_address":"Giant Eagle, Aurelia Street, The Village of Shadyside, Shadyside, Pittsburgh, Allegheny County, Pennsylvania, 15206, United States of America","place_id":"98414457","datatype":"locationiq"},{"latitude":"40.537260","longitude":"-79.963781","name":"Shaler Giant Eagle","address":"\n\t\t\t1671 Butler Plank Road<br>\nGlenshaw, PA 15116<br>\n\n\t\t\t(412) 492-2730 (Main)<br>\n(412) 492-2737 (Pharmacy)<br>\n(412) 492-8468 (Main Fax)<br>\n(412) 492-2742 (Pharmacy Fax)<br>\n(412) 492-2734 (Curbside Express)<br>\n\n\t\t\tSun-Sat: Open 24 hours<br>\n\n\t\t\t","street_number":null,"street_name":"Butler Plank Road","zip":"15116","city":null,"area":null,"county":"Allegheny County","state":"Pennsylvania","country":"us","formatted_address":"Butler Plank Road, Shaler Township, Allegheny County, Pennsylvania, 15116, United States of America","place_id":"97093782","datatype":"locationiq"},{"latitude":"41.427097","longitude":"-82.077591","name":"Sheffield Village Giant Eagle","address":"\n\t\t\t5231 Detroit Road<br>\nSheffield Lake, OH 44054<br>\n\n\t\t\t(440) 934-5271 (Main)<br>\n(440) 934-5377 (Pharmacy)<br>\n(440) 934-5461 (Main Fax)<br>\n(440) 934-1841 (Pharmacy Fax)<br>\n(440) 934-5357 (State Liquor Agency)<br>\n(440) 934-5356 (State Liquor Agency Fax)<br>\n\n\t\t\tSun-Sat: 6:00 AM - 12:00 AM<br>\n\n\t\t\t","street_number":null,"street_name":"Parkhurst Drive","zip":"44054","city":null,"area":null,"county":"Lorain County","state":"Ohio","country":"us","formatted_address":"Parkhurst Drive, Sheffield, Lorain County, Ohio, 44054, United States of America","place_id":"70822705","datatype":"locationiq"},{"latitude":"41.070856","longitude":"-80.053879","name":"Slippery Rock Giant Eagle","address":"\n\t\t\t223 Grove City Rd.<br>\nSlippery Rock, PA 16057<br>\n\n\t\t\t(724) 794-5040 (Main)<br>\n(724) 794-0100 (Pharmacy)<br>\n(724) 794-6378 (Main Fax)<br>\n(724) 794-1046 (Pharmacy Fax)<br>\n\n\t\t\tSun-Sat: 7:00 AM - 10:00 PM<br>\n\n\t\t\t","street_number":null,"street_name":"Kelly Drive","zip":"16057","city":"Slippery Rock","area":null,"county":"Butler County","state":"Pennsylvania","country":"us","formatted_address":"Giant Eagle Plaza, Kelly Drive, Slippery Rock, Butler County, Pennsylvania, 16057, United States of America","place_id":"101467945","datatype":"locationiq"},{"latitude":"41.403681","longitude":"-81.695301","name":"Snow Road Giant Eagle","address":"\n\t\t\t1825 Snow Road<br>\nParma, OH 44134<br>\n\n\t\t\t(216) 398-2980 (Main)<br>\n(216) 739-4120 (Pharmacy)<br>\n(216) 398-5451 (Main Fax)<br>\n(216) 739-4123 (Pharmacy Fax)<br>\n\n\t\t\tSun: 7:00 AM - 10:00 PM<br>\nMon-Sat: 7:00 AM - 12:00 AM<br>\n\n\t\t\t","street_number":null,"street_name":"Vinewood Drive","zip":"44134","city":null,"area":"Ukrainian Village","county":"Cuyahoga County","state":"Ohio","country":"us","formatted_address":"Giant Eagle, Vinewood Drive, Ukrainian Village, Parma, Cuyahoga County, Ohio, 44134, United States of America","place_id":"54552959","datatype":"locationiq"},{"latitude":"40.011482","longitude":"-79.108037","name":"Somerset Giant Eagle","address":"\n\t\t\t4192 Glades Pike<br>\nSomerset, PA 15501<br>\n\n\t\t\t(814) 443-6558 (Main)<br>\n(814) 443-3152 (Pharmacy)<br>\n(814) 445-6384 (Main Fax)<br>\n(814) 443-0566 (Pharmacy Fax)<br>\n\n\t\t\tSun-Sat: 7:00 AM - 11:00 PM<br>\n\n\t\t\t","street_number":null,"street_name":"Glades Pike","zip":"15501","city":null,"area":null,"county":"Somerset County","state":"Pennsylvania","country":"us","formatted_address":"Glades Pike, Lavansville, Somerset County, Pennsylvania, 15501, United States of America","place_id":"68306444","datatype":"locationiq"},{"latitude":"41.521318","longitude":"-81.520763","name":"South Euclid Giant Eagle","address":"\n\t\t\t4401 Mayfield Road<br>\nSouth Euclid, OH 44121<br>\n\n\t\t\t(216) 382-6500 (Main)<br>\n(216) 297-2001 (Pharmacy)<br>\n(216) 297-2000 (Main Fax)<br>\n(216) 297-2003 (Pharmacy Fax)<br>\n\n\t\t\tSun-Sat: Open 24 hours<br>\n\n\t\t\t","street_number":null,"street_name":"Victory Drive","zip":"44121","city":null,"area":null,"county":"Cuyahoga County","state":"Ohio","country":"us","formatted_address":"Giant Eagle, Victory Drive, South Euclid, Cuyahoga County, Ohio, 44121, United States of America","place_id":"16294625","datatype":"locationiq"},{"latitude":"40.341605","longitude":"-80.118269","name":"South Fayette Giant Eagle","address":"\n\t\t\t3239 Washington Pike<br>\nBridgeville, PA 15017<br>\n\n\t\t\t(412) 914-0830 (Main)<br>\n(412) 914-0752 (Pharmacy)<br>\n(412) 914-0762 (Main Fax)<br>\n(412) 914-0749 (Pharmacy Fax)<br>\n\n\t\t\tSun-Sat: 6:00 AM - 1:00 AM<br>\n\n\t\t\t","street_number":null,"street_name":"Twin Ponds Lane","zip":"15017","city":null,"area":null,"county":"Allegheny County","state":"Pennsylvania","country":"us","formatted_address":"Shop 'N Save, Twin Ponds Lane, South Fayette Township, Allegheny County, Pennsylvania, 15017, United States of America","place_id":"26250798","datatype":"locationiq"},{"latitude":"41.415939","longitude":"-81.535977","name":"Southgate Giant Eagle","address":"\n\t\t\t5321 Warrensville Center Road<br>\nMaple Heights, OH 44137<br>\n\n\t\t\t(216) 714-7700 (Main)<br>\n(216) 714-7709 (Main Fax)<br>\n(216) 332-9615 (Pharmacy Fax)<br>\n(216) 714-7706 (State Liquor Agency)<br>\n\n\t\t\tSun-Sat: 7:00 AM - 11:00 AM<br>\n\n\t\t\t","street_number":null,"street_name":"Libby Road","zip":"44146","city":null,"area":null,"county":"Cuyahoga County","state":"Ohio","country":"us","formatted_address":"Giant Eagle, Libby Road, Maple Heights, Cuyahoga County, Ohio, 44146, United States of America","place_id":"51546543","datatype":"locationiq"},{"latitude":"41.376664","longitude":"-81.787848","name":"Southland Giant Eagle","address":"\n\t\t\t6869 Southland Drive<br>\nMiddleburg Heights, OH 44130<br>\n\n\t\t\t(440) 842-0060 (Main)<br>\n(440) 885-3019 (Pharmacy)<br>\n(440) 842-5641 (Main Fax)<br>\n(440) 842-5187 (Pharmacy Fax)<br>\n(440) 842-5078 (State Liquor Agency)<br>\n\n\t\t\tSun-Sat: Open 24 hours<br>\n\n\t\t\t","street_number":null,"street_name":"West 130th Street","zip":"44133","city":null,"area":null,"county":"Cuyahoga County","state":"Ohio","country":"us","formatted_address":"West 130th Street, Southland, Parma Heights, Cuyahoga County, Ohio, 44133, United States of America","place_id":"163363037","datatype":"locationiq"},{"latitude":"40.430606","longitude":"-79.977388","name":"Southside Giant Eagle","address":"\n\t\t\t2021 Wharton Avenue<br>\nPittsburgh, PA 15203<br>\n\n\t\t\t(412) 488-1816 (Main)<br>\n(412) 488-1802 (Pharmacy)<br>\n(412) 488-0520 (Main Fax)<br>\n(412) 488-1169 (Pharmacy Fax)<br>\n\n\t\t\tSun-Sat: 6:00 AM - 12:00 AM<br>\n\n\t\t\t","street_number":"1927","street_name":"Wharton Street","zip":"15203","city":"Pittsburgh","area":"South Side Flats","county":"Allegheny County","state":"Pennsylvania","country":"us","formatted_address":"1927, Wharton Street, South Side Flats, Pittsburgh, Allegheny County, Pennsylvania, 15203, United States of America","place_id":"116850744","datatype":"locationiq"},{"latitude":"41.032049","longitude":"-81.426779","name":"Springfield Giant Eagle","address":"\n\t\t\t2801 East Waterloo Road<br>\nAkron, OH 44312<br>\n\n\t\t\t(330) 475-1478 (Main)<br>\n(330) 628-6067 (Pharmacy)<br>\n(330) 475-1825 (Main Fax)<br>\n(330) 628-6374 (Pharmacy Fax)<br>\n\n\t\t\tSun-Sat: 6:00 AM - 12:00 AM<br>\n\n\t\t\t","street_number":null,"street_name":"East Waterloo Road","zip":"44250","city":null,"area":null,"county":"Summit County","state":"Ohio","country":"us","formatted_address":"Chase, East Waterloo Road, Sawyerwood, Springfield Township, Summit County, Ohio, 44250, United States of America","place_id":"150445385","datatype":"locationiq"},{"latitude":"40.435529","longitude":"-79.922927","name":"Squirrel Hill Giant Eagle","address":"\n\t\t\t1901 Murray Avenue<br>\nPittsburgh, PA 15217<br>\n\n\t\t\t(412) 421-8161 (Main)<br>\n(412) 421-2903 (Pharmacy)<br>\n(412) 422-3128 (Main Fax)<br>\n(412) 421-2961 (Pharmacy Fax)<br>\n\n\t\t\tSun-Sat: 6:00 AM - 1:00 AM<br>\n\n\t\t\t","street_number":"1916","street_name":"Murray Avenue","zip":"15217","city":"Pittsburgh","area":null,"county":"Allegheny County","state":"Pennsylvania","country":"us","formatted_address":"Murray Avenue Kosher, 1916, Murray Avenue, Squirrel Hill South, Pittsburgh, Allegheny County, Pennsylvania, 15217, United States of America","place_id":"46603941","datatype":"locationiq"},{"latitude":"41.153474","longitude":"-81.408240","name":"Stow Giant Eagle","address":"\n\t\t\t4300 Kent Road<br>\nState Rd. #59<br>\nStow, OH 44224<br>\n\n\t\t\t(330) 686-7829 (Main)<br>\n(330) 686-9121 (Pharmacy)<br>\n(330) 686-0987 (Entertainment)<br>\n(330) 686-9387 (Main Fax)<br>\n(330) 686-9417 (Pharmacy Fax)<br>\n(330) 686-5896 (State Liquor Agency)<br>\n\n\t\t\tSun-Sat: 6:00 AM - 12:00 AM<br>\n\n\t\t\t","street_number":null,"street_name":"Whit Avenue","zip":"44224","city":"Stow","area":null,"county":"Summit County","state":"Ohio","country":"us","formatted_address":"Giant Eagle, Whit Avenue, Stow, Summit County, Ohio, 44224, United States of America","place_id":"10338490","datatype":"locationiq"},{"latitude":"41.202600","longitude":"-81.440300","name":"Stow Towne Center Giant Eagle","address":"\n\t\t\t1700 Norton Road<br>\nStow, OH 44224<br>\n\n\t\t\t(330) 342-9995 (Main)<br>\n(330) 650-4093 (Pharmacy)<br>\n(330) 342-7474 (Main Fax)<br>\n(330) 650-4367 (Pharmacy Fax)<br>\n(330) 342-7465 (State Liquor Agency)<br>\n(330) 342-7468 (Curbside Express)<br>\n\n\t\t\tSun-Sat: 6:00 AM - 12:00 AM<br>\n\n\t\t\t","street_number":null,"street_name":"Norton Road","zip":"44224","city":"Stow","area":null,"county":"Summit County","state":"Ohio","country":"us","formatted_address":"Arby's, Norton Road, Stow, Summit County, Ohio, 44224, United States of America","place_id":"171375067","datatype":"locationiq"},{"latitude":"41.239517","longitude":"-81.349626","name":"Streetsboro Giant Eagle","address":"\n\t\t\t1280 State Route 303<br>\nStreetsboro, OH 44241<br>\n\n\t\t\t(330) 626-1085 (Main)<br>\n(330) 626-2407 (Pharmacy)<br>\n(330) 626-1702 (Main Fax)<br>\n\n\t\t\tSun-Sat: 6:00 AM - 12:00 AM<br>\n\n\t\t\t","street_number":null,"street_name":"SR 303","zip":"44241","city":"Streetsboro","area":null,"county":"Portage County","state":"Ohio","country":"us","formatted_address":"SR 303, Streetsboro, Portage County, Ohio, 44241, United States of America","place_id":"94377967","datatype":"locationiq"},{"latitude":"40.876842","longitude":"-81.434760","name":"Strip Giant Eagle","address":"\n\t\t\t6493 Strip Avenue N.W.<br>\nNorth Canton, OH 44720<br>\n\n\t\t\t(330) 497-7902 (Main)<br>\n(330) 497-1385 (Pharmacy)<br>\n(330) 497-0582 (Entertainment)<br>\n(330) 497-2846 (Main Fax)<br>\n(330) 497-2973 (Pharmacy Fax)<br>\n\n\t\t\tSun-Sat: 6:00 AM - 12:00 AM<br>\n\n\t\t\t","street_number":null,"street_name":"Mega Street Northwest","zip":"44720","city":null,"area":null,"county":"Stark County","state":"Ohio","country":"us","formatted_address":"Mega Street Northwest, The Strip, Marchand, Jackson Township, Stark County, Ohio, 44720, United States of America","place_id":"70898546","datatype":"locationiq"},{"latitude":"41.101140","longitude":"-81.450082","name":"Tallmadge Giant Eagle","address":"\n\t\t\t205 West Avenue<br>\nTallmadge, OH 44278<br>\n\n\t\t\t(330) 633-7088 (Main)<br>\n(330) 634-0688 (Pharmacy)<br>\n(330) 630-6653 (Main Fax)<br>\n(330) 634-0691 (Pharmacy Fax)<br>\n\n\t\t\tSun-Sat: 6:00 AM - 12:00 AM<br>\n\n\t\t\t","street_number":"271","street_name":"West Avenue","zip":"44278","city":"Tallmadge","area":"Tallmadge Town Square Historic District","county":"Summit County","state":"Ohio","country":"us","formatted_address":"271, West Avenue, Tallmadge Town Square Historic District, Tallmadge, Summit County, Ohio, 44278, United States of America","place_id":"199933140","datatype":"locationiq"},{"latitude":"41.389879","longitude":"-81.337407","name":"Tanglewood Giant Eagle","address":"\n\t\t\t8515 Tanglewood Square<br>\nBainbridge Township, OH 44023<br>\n\n\t\t\t(440) 543-5144 (Main)<br>\n(440) 708-1277 (Pharmacy)<br>\n(440) 543-0832 (Main Fax)<br>\n(440) 708-1280 (Pharmacy Fax)<br>\n\n\t\t\tSun-Sat: 6:00 AM - 1:00 AM<br>\n\n\t\t\t","street_number":null,"street_name":"Tanglewood Square","zip":"44023","city":null,"area":null,"county":"Geauga County","state":"Ohio","country":"us","formatted_address":"Tanglewood Square, Bainbridge, Bainbridge Township, Geauga County, Ohio, 44023, United States of America","place_id":"71783728","datatype":"locationiq"},{"latitude":"41.625821","longitude":"-79.670534","name":"Titusville Giant Eagle","address":"\n\t\t\t110 S Martin Street<br>\nTitusville, PA 16354<br>\n\n\t\t\t(814) 827-6066 (Main)<br>\n(814) 827-2386 (Pharmacy)<br>\n(814) 827-1364 (Main Fax)<br>\n(814) 827-3518 (Pharmacy Fax)<br>\n\n\t\t\tSun-Sat: 7:00 AM - 10:00 PM<br>\n\n\t\t\t","street_number":"110","street_name":"South Martin Street","zip":"16354","city":"Titusville","area":null,"county":"Crawford County","state":"Pennsylvania","country":"us","formatted_address":"Giant Eagle, 110, South Martin Street, Titusville, Crawford County, Pennsylvania, 16354, United States of America","place_id":"147141637","datatype":"locationiq"},{"latitude":"41.309818","longitude":"-81.440117","name":"Twinsburg Giant Eagle","address":"\n\t\t\t8960 Darrow Road<br>\nTwinsburg, OH 44087<br>\n\n\t\t\t(330) 405-1900 (Main)<br>\n(330) 405-7105 (Pharmacy)<br>\n(330) 405-2910 (Main Fax)<br>\n(330) 405-7901 (Pharmacy Fax)<br>\n\n\t\t\tSun-Sat: 6:00 AM - 12:00 AM<br>\n\n\t\t\t","street_number":"8957","street_name":"Darrow Road","zip":"44087","city":"Twinsburg","area":null,"county":"Summit County","state":"Ohio","country":"us","formatted_address":"8957, Darrow Road, Twinsburg, Summit County, Ohio, 44087, United States of America","place_id":"199924004","datatype":"locationiq"},{"latitude":"39.923933","longitude":"-79.727153","name":"Uniontown Giant Eagle","address":"\n\t\t\t581 Pittsburgh Road<br>\nFayette Plaza, Route 51<br>\nUniontown, PA 15401<br>\n\n\t\t\t(724) 438-4600 (Main)<br>\n(724) 438-2570 (Pharmacy)<br>\n(724) 438-6758 (Main Fax)<br>\n(724) 437-7774 (Pharmacy Fax)<br>\n\n\t\t\tSun-Sat: 7:00 AM - 10:00 PM<br>\n\n\t\t\t","street_number":null,"street_name":"Pittsburgh Road","zip":"15401","city":null,"area":null,"county":"Fayette County","state":"Pennsylvania","country":"us","formatted_address":"Pittsburgh Road, Oliver, Fayette County, Pennsylvania, 15401, United States of America","place_id":"110884081","datatype":"locationiq"},{"latitude":"40.270250","longitude":"-78.854768","name":"University Park Giant Eagle","address":"\n\t\t\t1451 Scalp Avenue<br>\nUniversity Park Center<br>\nJohnstown, PA 15904<br>\n\n\t\t\t(814) 266-9591 (Main)<br>\n(814) 269-3630 (Pharmacy)<br>\n(814) 269-3009 (Main Fax)<br>\n(814) 269-3846 (Pharmacy Fax)<br>\n\n\t\t\tSun-Sat: 6:00 AM - 12:00 AM<br>\n\n\t\t\t","street_number":"1324","street_name":"Eisenhower Boulevard","zip":"15904","city":null,"area":null,"county":"Cambria County","state":"Pennsylvania","country":"us","formatted_address":"1324, Eisenhower Boulevard, Richland, Cambria County, Pennsylvania, 15904, United States of America","place_id":"201486608","datatype":"locationiq"},{"latitude":"39.649617","longitude":"-80.002731","name":"University Town Center Giant Eagle","address":"\n\t\t\t208 Giant Street<br>\nMorgantown, WV 26501<br>\n\n\t\t\t(304) 599-2301 (Main)<br>\n(304) 599-2369 (Pharmacy)<br>\n(304) 599-2472 (Main Fax)<br>\n(304) 599-2520 (Pharmacy Fax)<br>\n(304) 598-2273 (Walk-in Care)<br>\n\n\t\t\tSun-Sat: 6:00 AM - 12:00 AM<br>\n\n\t\t\t","street_number":null,"street_name":"University Town Centre Drive","zip":"26534","city":null,"area":null,"county":"Monongalia County","state":"West Virginia","country":"us","formatted_address":"GetGo, University Town Centre Drive, Granville, Monongalia County, West Virginia, 26534, United States of America","place_id":"15979381","datatype":"locationiq"},{"latitude":"40.064066","longitude":"-83.095422","name":"Upper Arlington Giant Eagle","address":"\n\t\t\t4747 Sawmill Road<br>\nColumbus, OH 43220<br>\n\n\t\t\t(614) 923-0475 (Main)<br>\n(614) 923-0481 (Pharmacy)<br>\n(614) 923-0489 (Entertainment)<br>\n(614) 923-0508 (Main Fax)<br>\n(614) 923-0484 (Pharmacy Fax)<br>\n(614) 459-5358 (State Liquor Agency)<br>\n\n\t\t\tSun-Fri: 6:00 AM - 11:00 PM<br>\nSat: 6:00 AM - 12:00 AM<br>\n\n\t\t\t","street_number":null,"street_name":"Shiloh Drive","zip":"43220","city":"Columbus","area":null,"county":"Franklin County","state":"Ohio","country":"us","formatted_address":"Giant Eagle, Shiloh Drive, Columbus, Franklin County, Ohio, 43220, United States of America","place_id":"151265947","datatype":"locationiq"},{"latitude":"41.423645","longitude":"-82.343116","name":"Vermilion Giant Eagle","address":"\n\t\t\t4453 Liberty Avenue<br>\nVermilion, OH 44089<br>\n\n\t\t\t(440) 967-2920 (Main)<br>\n(440) 967-1220 (Pharmacy)<br>\n(440) 967-1705 (Main Fax)<br>\n(440) 967-1253 (Pharmacy Fax)<br>\n(440) 967-2901 (State Liquor Agency)<br>\n\n\t\t\tSun: 7:00 AM - 9:00 PM<br>\nMon-Sat: 7:00 AM - 11:00 PM<br>\n\n\t\t\t","street_number":null,"street_name":"Liberty Avenue","zip":"44089","city":"Vermilion","area":null,"county":"Lorain County","state":"Ohio","country":"us","formatted_address":"Liberty Avenue, Vermilion, Lorain County, Ohio, 44089, United States of America","place_id":"159198790","datatype":"locationiq"},{"latitude":"40.499116","longitude":"-79.844449","name":"Verona Giant Eagle","address":"\n\t\t\t200 Allegheny River Boulevard<br>\nVerona, PA 15147<br>\n\n\t\t\t(412) 828-1271 (Main)<br>\n(412) 828-1256 (Pharmacy)<br>\n(412) 828-0742 (Main Fax)<br>\n(412) 828-6379 (Pharmacy Fax)<br>\n\n\t\t\tSun: 7:00 AM - 10:00 PM<br>\nMon-Sat: 7:00 AM - 11:00 PM<br>\n\n\t\t\t","street_number":"200","street_name":"Allegheny River Boulevard","zip":"15147","city":"Verona","area":null,"county":"Allegheny County","state":"Pennsylvania","country":"us","formatted_address":"Giant Eagle, 200, Allegheny River Boulevard, Verona, Allegheny County, Pennsylvania, 15147, United States of America","place_id":"58985600","datatype":"locationiq"},{"latitude":"41.043618","longitude":"-81.696243","name":"Wadsworth Giant Eagle","address":"\n\t\t\t825 Ambassador Drive<br>\nWadsworth, OH 44281<br>\n\n\t\t\t(330) 336-8733 (Main)<br>\n(330) 336-8990 (Pharmacy)<br>\n(330) 334-5795 (Main Fax)<br>\n(330) 334-5673 (Pharmacy Fax)<br>\n(330) 334-0274 (State Liquor Agency)<br>\n(330) 334-0156 (Curbside Express)<br>\n\n\t\t\tSun-Sat: Open 24 hours<br>\n\n\t\t\t","street_number":null,"street_name":"Akron Road","zip":"44281","city":"Wadsworth","area":null,"county":"Medina County","state":"Ohio","country":"us","formatted_address":"Akron Road, Wadsworth, Wadsworth Township, Medina County, Ohio, 44281, United States of America","place_id":"70840168","datatype":"locationiq"},{"latitude":"41.254496","longitude":"-80.793411","name":"Warren Plaza Giant Eagle","address":"\n\t\t\t2061 Elm Road<br>\nWarren Plaza<br>\nWarren, OH 44483<br>\n\n\t\t\t(330) 372-6020 (Main)<br>\n(330) 372-7003 (Pharmacy)<br>\n(330) 372-6167 (Main Fax)<br>\n(330) 372-7818 (Pharmacy Fax)<br>\n\n\t\t\tSun-Sat: 6:00 AM - 11:00 PM<br>\n\n\t\t\t","street_number":null,"street_name":"Plaza Avenue Northeast","zip":"44483","city":"Warren","area":null,"county":"Trumbull County","state":"Ohio","country":"us","formatted_address":"Giant Eagle, Plaza Avenue Northeast, Warren, Trumbull County, Ohio, 44483, United States of America","place_id":"159510484","datatype":"locationiq"},{"latitude":"40.186485","longitude":"-80.228471","name":"Washington Giant Eagle","address":"\n\t\t\t331 Washington Road<br>\nWashington, PA 15301<br>\n\n\t\t\t(724) 225-2848 (Main)<br>\n(724) 228-2865 (Pharmacy)<br>\n(724) 228-6537 (Entertainment)<br>\n(724) 225-7617 (Main Fax)<br>\n(724) 228-8255 (Pharmacy Fax)<br>\n(724) 228-6537 (Curbside Express)<br>\n\n\t\t\tSun-Sat: Open 24 hours<br>\n\n\t\t\t","street_number":null,"street_name":"I 70;I 79","zip":"15301","city":null,"area":null,"county":"Washington County","state":"Pennsylvania","country":"us","formatted_address":"PetSmart, I 70;I 79, Tylerdale, Washington County, Pennsylvania, 15301, United States of America","place_id":"166779045","datatype":"locationiq"},{"latitude":"40.875969","longitude":"-81.368024","name":"Washington Square Giant Eagle","address":"\n\t\t\t1955 East Maple Street<br>\nNorth Canton, OH 44720<br>\n\n\t\t\t(330) 966-1739 (Main)<br>\n(330) 497-0963 (Pharmacy)<br>\n(330) 966-4893 (Entertainment)<br>\n(330) 966-3819 (Main Fax)<br>\n(330) 497-1993 (Pharmacy Fax)<br>\n(330) 244-9012 (State Liquor Agency)<br>\n(330) 966-2781 (Curbside Express)<br>\n\n\t\t\tSun-Sat: 6:00 AM - 12:00 AM<br>\n\n\t\t\t","street_number":null,"street_name":"East Maple Street","zip":"44720","city":"North Canton","area":null,"county":"Stark County","state":"Ohio","country":"us","formatted_address":"Giant Eagle, East Maple Street, North Canton, Stark County, Ohio, 44720, United States of America","place_id":"31665830","datatype":"locationiq"},{"latitude":"40.411484","longitude":"-79.908770","name":"Waterfront Giant Eagle","address":"\n\t\t\t420 East Waterfront Drive<br>\nHomestead, PA 15120<br>\n\n\t\t\t(412) 464-6600 (Main)<br>\n(412) 462-5359 (Pharmacy)<br>\n(412) 464-9975 (Main Fax)<br>\n(412) 462-5389 (Pharmacy Fax)<br>\n(412) 462-5026 (Curbside Express)<br>\n\n\t\t\tSun-Sat: 6:00 AM - 12:00 AM<br>\n\n\t\t\t","street_number":"420","street_name":"Waterfront Drive East","zip":"15120","city":"Homestead","area":null,"county":"Allegheny County","state":"Pennsylvania","country":"us","formatted_address":"Giant Eagle, 420, Waterfront Drive East, The Waterfront, Homestead, Allegheny County, Pennsylvania, 15120, United States of America","place_id":"136878880","datatype":"locationiq"},{"latitude":"41.027773","longitude":"-81.509766","name":"Waterloo Road Giant Eagle","address":"\n\t\t\t484 East Waterloo Road<br>\nAkron, OH 44319<br>\n\n\t\t\t(330) 773-7322 (Main)<br>\n(330) 773-7772 (Pharmacy)<br>\n(330) 773-7361 (Main Fax)<br>\n(330) 773-1440 (Pharmacy Fax)<br>\n(330) 773-0088 (State Liquor Agency)<br>\n\n\t\t\tSun-Sat: 7:00 AM - 11:00 PM<br>\n\n\t\t\t","street_number":"2098","street_name":"Redwood Avenue","zip":"44301","city":"Akron","area":null,"county":"Summit County","state":"Ohio","country":"us","formatted_address":"2098, Redwood Avenue, Coventry Crossing, Akron, Summit County, Ohio, 44301, United States of America","place_id":"199932699","datatype":"locationiq"},{"latitude":"41.416864","longitude":"-81.925410","name":"Watertower Giant Eagle","address":"\n\t\t\t27264 Lorain Road<br>\nNorth Olmsted, OH 44070<br>\n\n\t\t\t(440) 777-3100 (Main)<br>\n(440) 777-6148 (Pharmacy)<br>\n(440) 777-6095 (Main Fax)<br>\n(440) 777-8410 (Pharmacy Fax)<br>\n(440) 617-5807 (State Liquor Agency)<br>\n(440) 777-6007 (Curbside Express)<br>\n\n\t\t\tSun-Sat: Open 24 hours<br>\n\n\t\t\t","street_number":null,"street_name":"Mill Road","zip":"44070","city":null,"area":null,"county":"Cuyahoga County","state":"Ohio","country":"us","formatted_address":"Mill Road, North Olmsted, Cuyahoga County, Ohio, 44070, United States of America","place_id":"66183176","datatype":"locationiq"},{"latitude":"39.894993","longitude":"-80.169371","name":"Waynesburg Giant Eagle","address":"\n\t\t\t100 Sugar Run Road<br>\nWaynesburg, PA 15370<br>\n\n\t\t\t(724) 627-5556 (Main)<br>\n(724) 627-5456 (Pharmacy)<br>\n(724) 627-9964 (Main Fax)<br>\n(724) 627-8462 (Pharmacy Fax)<br>\n\n\t\t\tSun-Sat: 6:00 AM - 10:00 PM<br>\n\n\t\t\t","street_number":"43","street_name":"Sugar Run Road","zip":"15370","city":null,"area":null,"county":"Greene County","state":"Pennsylvania","country":"us","formatted_address":"43, Sugar Run Road, Morrisville, Greene County, Pennsylvania, 15370, United States of America","place_id":"201808507","datatype":"locationiq"},{"latitude":"41.133426","longitude":"-81.636983","name":"West Market Street Giant Eagle","address":"\n\t\t\t3750 W Market Street<br>\nAkron, OH 44333<br>\n\n\t\t\t(330) 665-5332 (Main)<br>\n(330) 668-6605 (Pharmacy)<br>\n(330) 668-6083 (Pharmacy Fax)<br>\n\n\t\t\tSun-Sat: 7:00 AM - 12:00 AM<br>\n\n\t\t\t","street_number":"75","street_name":"South Cleveland Massillon Road","zip":"44333","city":"Fairlawn","area":null,"county":"Summit County","state":"Ohio","country":"us","formatted_address":"75, South Cleveland Massillon Road, Fairlawn, Copley Township, Summit County, Ohio, 44333, United States of America","place_id":"199910505","datatype":"locationiq"},{"latitude":"40.383909","longitude":"-79.868202","name":"West Mifflin Giant Eagle","address":"\n\t\t\t1356 Hoffman Boulevard<br>\nWest Mifflin, PA 15122<br>\n\n\t\t\t(412) 461-3230 (Main)<br>\n(412) 461-4295 (Pharmacy)<br>\n(412) 461-3738 (Main Fax)<br>\n(412) 476-0106 (Pharmacy Fax)<br>\n\n\t\t\tSun-Sat: 6:00 AM - 11:00 PM<br>\n\n\t\t\t","street_number":null,"street_name":"Shady Lane","zip":"15122","city":"West Mifflin","area":null,"county":"Allegheny County","state":"Pennsylvania","country":"us","formatted_address":"Giant Eagle, Shady Lane, West Mifflin, Allegheny County, Pennsylvania, 15122, United States of America","place_id":"46226446","datatype":"locationiq"},{"latitude":"40.218723","longitude":"-79.763862","name":"West Newton Giant Eagle","address":"\n\t\t\t105 Robertson Street<br>\nWest Newton, PA 15089<br>\n\n\t\t\t(724) 872-5443 (Main)<br>\n(724) 872-3350 (Pharmacy)<br>\n(724) 872-1210 (Main Fax)<br>\n(724) 872-7824 (Pharmacy Fax)<br>\n\n\t\t\tSun-Sat: 8:00 AM - 9:00 PM<br>\n\n\t\t\t","street_number":null,"street_name":"Robertson Street","zip":"15089","city":"West Newton","area":null,"county":"Westmoreland County","state":"Pennsylvania","country":"us","formatted_address":"Giant Eagle, Robertson Street, West Newton, Westmoreland County, Pennsylvania, 15089, United States of America","place_id":"161101173","datatype":"locationiq"},{"latitude":"39.419388","longitude":"-77.447796","name":"West Patrick Street Giant Eagle","address":"\n\t\t\t1275 West Patrick Street<br>\nFrederick, MD 21702<br>\n\n\t\t\t(301) 668-8712 (Main)<br>\n(301) 668-8716 (Pharmacy)<br>\n(301) 668-8722 (Main Fax)<br>\n(301) 360-0513 (Pharmacy Fax)<br>\n\n\t\t\tSun-Sat: Open 24 hours<br>\n\n\t\t\t","street_number":null,"street_name":"Key Parkway","zip":"21702","city":"Frederick","area":"Taskers Chance","county":"Frederick County","state":"Maryland","country":"us","formatted_address":"Giant Eagle, Key Parkway, Taskers Chance, Frederick, Frederick County, Maryland, 21702, United States of America","place_id":"150519493","datatype":"locationiq"},{"latitude":"39.431484","longitude":"-77.418458","name":"West Seventh Street Giant Eagle","address":"\n\t\t\t1305 West 7th Street<br>\nFrederick, MD 21702<br>\n\n\t\t\t(301) 631-3822 (Main)<br>\n(301) 631-3828 (Pharmacy)<br>\n(301) 631-3830 (Main Fax)<br>\n(301) 631-3827 (Pharmacy Fax)<br>\n\n\t\t\tSun-Sat: Open 24 hours<br>\n\n\t\t\t","street_number":null,"street_name":"West 11th Street","zip":"21702","city":"Frederick","area":null,"county":"Frederick County","state":"Maryland","country":"us","formatted_address":"Giant Eagle, West 11th Street, Frederick Shopping Center, Frederick, Frederick County, Maryland, 21702, United States of America","place_id":"107126750","datatype":"locationiq"},{"latitude":"40.516427","longitude":"-80.036415","name":"West View Giant Eagle","address":"\n\t\t\t1029 West View Park Drive<br>\nWest View Park SC<br>\nWest View, PA 15229<br>\n\n\t\t\t(412) 931-0148 (Main)<br>\n(412) 931-0393 (Pharmacy)<br>\n(412) 931-5396 (Main Fax)<br>\n(412) 931-2534 (Pharmacy Fax)<br>\n\n\t\t\tSun-Sat: 6:00 AM - 1:00 AM<br>\n\n\t\t\t","street_number":null,"street_name":"West View Park Drive","zip":"15229","city":"West View","area":null,"county":"Allegheny County","state":"Pennsylvania","country":"us","formatted_address":"West View Park, West View Park Drive, West View Park, West View, Allegheny County, Pennsylvania, 15229, United States of America","place_id":"146284503","datatype":"locationiq"},{"latitude":"40.142280","longitude":"-82.927223","name":"Westerville Giant Eagle","address":"\n\t\t\t650 North State Street<br>\nWesterville, OH 43082<br>\n\n\t\t\t(614) 865-0357 (Main)<br>\n(614) 865-0487 (Pharmacy)<br>\n(614) 865-0761 (Main Fax)<br>\n(614) 865-0686 (Pharmacy Fax)<br>\n(614) 865-0577 (Curbside Express)<br>\n\n\t\t\tSun-Thu: 6:00 AM - 11:00 PM<br>\nFri-Sat: 6:00 AM - 12:00 AM<br>\n\n\t\t\t","street_number":"688","street_name":"North State Street","zip":"43082","city":"Westerville","area":null,"county":"Delaware County","state":"Ohio","country":"us","formatted_address":"688, North State Street, Westerville, Delaware County, Ohio, 43082, United States of America","place_id":"199075990","datatype":"locationiq"},{"latitude":"41.461788","longitude":"-81.955589","name":"Westlake Giant Eagle","address":"\n\t\t\t30275 Detroit Road<br>\nWestlake, OH 44145<br>\n\n\t\t\t(440) 835-4880 (Main)<br>\n(440) 871-5710 (Pharmacy)<br>\n(440) 835-5464 (Main Fax)<br>\n(440) 871-8014 (Pharmacy Fax)<br>\n\n\t\t\tSun-Sat: 6:00 AM - 1:00 AM<br>\n\n\t\t\t","street_number":"30275","street_name":"Detroit Road","zip":"44145","city":null,"area":null,"county":"Cuyahoga County","state":"Ohio","country":"us","formatted_address":"Giant Eagle, 30275, Detroit Road, Westlake, Cuyahoga County, Ohio, 44145, United States of America","place_id":"173681550","datatype":"locationiq"},{"latitude":"41.462026","longitude":"-81.959466","name":"Westlake Liquor Agency","address":"\n\t\t\t30664 Detroit Rd<br>\nWestlake, OH 44145<br>\n\n\t\t\t(440) 892-2110 (Main)<br>\n(440) 892-7984 (Main Fax)<br>\n\n\t\t\tSun: 11:00 AM - 7:00 PM<br>\nMon-Sat: 9:00 AM - 9:00 PM<br>\n\n\t\t\t","street_number":null,"street_name":"Detroit Road","zip":"44145","city":null,"area":null,"county":"Cuyahoga County","state":"Ohio","country":"us","formatted_address":"State Liquor Agency, Detroit Road, Westlake, Cuyahoga County, Ohio, 44145, United States of America","place_id":"55586057","datatype":"locationiq"},{"latitude":"40.585267","longitude":"-80.037493","name":"Wexford Giant Eagle","address":"\n\t\t\t9805 McKnight Road<br>\nPittsburgh, PA 15237<br>\n\n\t\t\t(412) 366-6828 (Main)<br>\n(412) 366-3214 (Pharmacy)<br>\n(412) 366-5368 (Main Fax)<br>\n(412) 366-4107 (Pharmacy Fax)<br>\n\n\t\t\tSun-Sat: 6:00 AM - 1:00 AM<br>\n\n\t\t\t","street_number":null,"street_name":"Blazier Drive","zip":"15090","city":null,"area":null,"county":"Allegheny County","state":"Pennsylvania","country":"us","formatted_address":"Taco Bell \/ KFC, Blazier Drive, Pine Creek Shopping Center, McCandless Township, Allegheny County, Pennsylvania, 15090, United States of America","place_id":"148079667","datatype":"locationiq"},{"latitude":"40.337317","longitude":"-79.805394","name":"White Oak Giant Eagle","address":"\n\t\t\t2001 Lincoln Way<br>\nOak Park Mall<br>\nWhite Oak, PA 15131<br>\n\n\t\t\t(412) 664-3500 (Main)<br>\n(412) 673-1870 (Pharmacy)<br>\n(412) 664-6361 (Main Fax)<br>\n(412) 673-1874 (Pharmacy Fax)<br>\n\n\t\t\tSun-Sat: 7:00 AM - 11:00 PM<br>\n\n\t\t\t","street_number":null,"street_name":"Jacks Run Road","zip":"15131","city":"White Oak","area":null,"county":"Allegheny County","state":"Pennsylvania","country":"us","formatted_address":"Giant Eagle, Jacks Run Road, White Oak, Allegheny County, Pennsylvania, 15131, United States of America","place_id":"21614656","datatype":"locationiq"},{"latitude":"41.630089","longitude":"-81.427340","name":"Willoughby Commons Giant Eagle","address":"\n\t\t\t36475 Euclid Avenue<br>\nWilloughby, OH 44094<br>\n\n\t\t\t(440) 946-1875 (Main)<br>\n(440) 946-7714 (Pharmacy)<br>\n(440) 946-8295 (Main Fax)<br>\n(440) 946-7943 (Pharmacy Fax)<br>\n(440) 527-7718 (State Liquor Agency)<br>\n(440) 946-7661 (Curbside Express)<br>\n\n\t\t\tSun-Sat: Open 24 hours<br>\n\n\t\t\t","street_number":null,"street_name":"Avondale Road","zip":"44094","city":"Willoughby","area":null,"county":"Lake County","state":"Ohio","country":"us","formatted_address":"Avondale Road, Willoughby, Lake County, Ohio, 44094, United States of America","place_id":"72137206","datatype":"locationiq"},{"latitude":"41.583011","longitude":"-81.486333","name":"Willoughby Hills Giant Eagle","address":"\n\t\t\t27505 Chardon Road<br>\nWilloughby Hills, OH 44092<br>\n\n\t\t\t(440) 944-9820 (Main)<br>\n(440) 944-9387 (Pharmacy)<br>\n(440) 944-9385 (Main Fax)<br>\n(440) 944-9821 (Pharmacy Fax)<br>\n\n\t\t\tSun: 7:00 AM - 9:00 PM<br>\nMon-Sat: 7:00 AM - 10:00 PM<br>\n\n\t\t\t","street_number":"27626","street_name":"Chardon Road","zip":"44092","city":"Willoughby Hills","area":null,"county":"Lake County","state":"Ohio","country":"us","formatted_address":"27626, Chardon Road, Willoughby Hills, Lake County, Ohio, 44092, United States of America","place_id":"199423827","datatype":"locationiq"},{"latitude":"41.636966","longitude":"-81.476114","name":"Willowick","address":"\n\t\t\t30200 Lakeshore Boulevard<br>\nWillowick, OH 44095<br>\n\n\t\t\t(440) 516-0854 (Main)<br>\n\n\t\t\tSun-Sat: 6:00 AM - 11:00 PM<br>\n\n\t\t\t","street_number":"30160","street_name":"Lake Shore Boulevard","zip":"44095","city":"Willowick","area":null,"county":"Lake County","state":"Ohio","country":"us","formatted_address":"Fifth Third Bank, 30160, Lake Shore Boulevard, Willowick, Lake County, Ohio, 44095, United States of America","place_id":"53927480","datatype":"locationiq"},{"latitude":"41.636450","longitude":"-81.474864","name":"Willowick Giant Eagle","address":"\n\t\t\t30320 Lakeshore Boulevard<br>\nWillowick, OH 44095<br>\n\n\t\t\t(440) 944-8900 (Main)<br>\n(440) 944-6963 (Pharmacy)<br>\n(440) 944-3013 (Main Fax)<br>\n(440) 944-5098 (Pharmacy Fax)<br>\n\n\t\t\tSun-Sat: 6:00 AM - 11:00 PM<br>\n\n\t\t\t","street_number":null,"street_name":"Eagle Street","zip":"44095","city":"Willowick","area":null,"county":"Lake County","state":"Ohio","country":"us","formatted_address":"Giant Eagle, Eagle Street, Shoregate, Willowick, Lake County, Ohio, 44095, United States of America","place_id":"54136908","datatype":"locationiq"},{"latitude":"41.053454","longitude":"-80.355626","name":"Wilmington Road Giant Eagle","address":"\n\t\t\t3230 Wilmington Road<br>\nNew Castle, PA 16105<br>\n\n\t\t\t(724) 652-5595 (Main)<br>\n(724) 652-3706 (Pharmacy)<br>\n(724) 652-6586 (Main Fax)<br>\n(724) 657-1214 (Pharmacy Fax)<br>\n\n\t\t\tSun-Sat: 6:00 AM - 1:00 AM<br>\n\n\t\t\t","street_number":null,"street_name":"Ashberry Lane","zip":"16105","city":null,"area":null,"county":"Lawrence County","state":"Pennsylvania","country":"us","formatted_address":"Giant Eagle, Ashberry Lane, Clover, Lawrence County, Pennsylvania, 16105, United States of America","place_id":"4941825","datatype":"locationiq"},{"latitude":"42.100913","longitude":"-80.135607","name":"Yorktown Centre Giant Eagle","address":"\n\t\t\t2501 West 12th Street<br>\nErie, PA 16505<br>\n\n\t\t\t(814) 838-6990 (Main)<br>\n(814) 838-7710 (Pharmacy)<br>\n(814) 838-9841 (Main Fax)<br>\n(814) 835-2122 (Pharmacy Fax)<br>\n\n\t\t\tSun-Sat: 6:00 AM - 1:00 AM<br>\n\n\t\t\t","street_number":"2501","street_name":"West 12th Street","zip":"16596","city":"Millcreek Township","area":null,"county":"Erie County","state":"Pennsylvania","country":"us","formatted_address":"Panera Bread, 2501, West 12th Street, Millcreek Township, Erie County, Pennsylvania, 16596, United States of America","place_id":"23716072","datatype":"locationiq"}]