[{"latitude":"49.19079","longitude":"-123.0826","name":"IKEA Richmond","address":"6042732051","street_number":null,"street_name":"Sweden Way","zip":"V6V 0B2","city":null,"area":null,"county":"Greater Vancouver Regional District","state":"British Columbia","country":"ca","formatted_address":"Sweden Way, Crestwood Industrial Park, Richmond, Greater Vancouver Regional District, British Columbia, V6V 0B2, Canada","place_id":"73150089","datatype":"locationiq"},{"latitude":"49.23567","longitude":"-122.8675","name":"IKEA Coquitlam","address":"6046361000","street_number":"1035","street_name":"Lougheed Highway","zip":"V3K 3T5","city":"Coquitlam","area":null,"county":"Greater Vancouver Regional District","state":"British Columbia","country":"ca","formatted_address":"Boston Pizza, 1035, Lougheed Highway, Maillardville, Coquitlam, Greater Vancouver Regional District, British Columbia, V3K 3T5, Canada","place_id":"86954214","datatype":"locationiq"},{"latitude":"45.57182","longitude":"-122.55647","name":"IKEA Portland","address":" (503) 282-4532","street_number":"10243","street_name":"Northeast Cascades Parkway","zip":"97220","city":"Portland","area":null,"county":"Multnomah County","state":"Oregon","country":"us","formatted_address":"Carhartt, 10243, Northeast Cascades Parkway, Parkrose, Portland, Multnomah County, Oregon, 97220, United States of America","place_id":"94378742","datatype":"locationiq"},{"latitude":"37.83058","longitude":"-122.29188","name":"IKEA Emeryville","address":" (510)-420-4532","street_number":null,"street_name":null,"zip":"94626","city":"Oakland","area":"Lower Bottoms","county":"Alameda County","state":"California","country":"us","formatted_address":"Ikea Parking Lot, Alexander Zuckermann Bike Path, Lower Bottoms, Oakland, Alameda County, California, 94626, United States of America","place_id":"73015590","datatype":"locationiq"},{"latitude":"47.4433","longitude":"-122.22579","name":"IKEA Seattle ","address":"(425)-656-2980","street_number":"539","street_name":"Southwest 41st Street","zip":"98057","city":"Renton","area":null,"county":"King County","state":"Washington","country":"us","formatted_address":"539, Southwest 41st Street, Renton, King County, Washington, 98057, United States of America","place_id":"208421507","datatype":"locationiq"},{"latitude":"37.45714","longitude":"-122.13437","name":"IKEA East Palo Alto ","address":"(650)-323-4532","street_number":"1801","street_name":"East Bayshore Road","zip":"94303","city":"East Palo Alto","area":null,"county":"San Mateo County","state":"California","country":"us","formatted_address":"1801, East Bayshore Road, East Palo Alto, San Mateo County, California, 94303, United States of America","place_id":"180099609","datatype":"locationiq"},{"latitude":"38.59198","longitude":"-121.54912","name":"IKEA West Sacramento ","address":"(916)-371-4532","street_number":null,"street_name":"Reed Avenue","zip":"95691","city":"West Sacramento","area":null,"county":"Yolo County","state":"California","country":"us","formatted_address":"Shell, Reed Avenue, Riverpoint Marketplace, West Sacramento, Yolo County, California, 95691, United States of America","place_id":"115557817","datatype":"locationiq"},{"latitude":"34.18434","longitude":"-118.31367","name":"IKEA Burbank","address":" (818) 842-4532","street_number":null,"street_name":null,"zip":"91502","city":"Burbank","area":null,"county":"Los Angeles County","state":"California","country":"us","formatted_address":"Macy's, US 6;US 99, Burbank, Los Angeles County, California, 91502, United States of America","place_id":"76810856","datatype":"locationiq"},{"latitude":"33.84379","longitude":"-118.26317","name":"IKEA Carson","address":"(310)527 4532","street_number":null,"street_name":"Avalon Boulevard","zip":"90746","city":"Carson","area":null,"county":"Los Angeles County","state":"California","country":"us","formatted_address":"Avalon Boulevard, Keystone, Carson, Los Angeles County, California, 90746, United States of America","place_id":"152263130","datatype":"locationiq"},{"latitude":"33.69153","longitude":"-117.91842","name":"IKEA Orange County Costa Mesa ","address":"714) 444-4532","street_number":null,"street_name":"South Coast Drive","zip":"92626","city":"Costa Mesa","area":null,"county":"Orange County","state":"California","country":"us","formatted_address":"South Coast Drive, Costa Mesa, Orange County, California, 92626, United States of America","place_id":"157030806","datatype":"locationiq"},{"latitude":"34.12775","longitude":"-117.88133","name":"IKEA Covina ","address":"626) 732-4532","street_number":null,"street_name":"West Alosta Avenue","zip":"91702","city":"Azusa","area":null,"county":"Los Angeles County","state":"California","country":"us","formatted_address":"Chase, West Alosta Avenue, Azusa, Los Angeles County, California, 91702, United States of America","place_id":"112051913","datatype":"locationiq"},{"latitude":"32.77928","longitude":"-117.12745","name":"IKEA San Diego ","address":"619)-563-4532","street_number":"2123","street_name":"North Misson Parkway","zip":"92108","city":"San Diego","area":null,"county":"San Diego County","state":"California","country":"us","formatted_address":"2123, North Misson Parkway, Normal Heights, San Diego, San Diego County, California, 92108, United States of America","place_id":"6136155","datatype":"locationiq"},{"latitude":"50.98862","longitude":"-114.0394","name":"IKEA Calgary","address":"4032734338","street_number":null,"street_name":"11 Street SE","zip":"T2H 2X1","city":"Calgary","area":null,"county":"Calgary","state":"Alberta","country":"ca","formatted_address":"11 Street SE, East Fairview Industrial, Calgary, Alberta, T2H 2X1, Canada","place_id":"168091533","datatype":"locationiq"},{"latitude":"53.44715","longitude":"-113.4882","name":"IKEA Edmonton","address":"7804336000","street_number":null,"street_name":"19 Avenue NW","zip":"R3R3C2","city":"Edmonton","area":"South Edmonton Common","county":null,"state":"Alberta","country":"ca","formatted_address":"Best Buy, 19 Avenue NW, South Edmonton Common, Ellerslie, Edmonton, Alberta, R3R3C2, Canada","place_id":"80213990","datatype":"locationiq"},{"latitude":"33.34331","longitude":"-111.96582","name":"IKEA Tempe ","address":"480)-496-5658","street_number":"1648","street_name":"West Autoplex Loop","zip":"85284","city":null,"area":null,"county":"Maricopa County","state":"Arizona","country":"us","formatted_address":"1648, West Autoplex Loop, Ahwatukee, Desert Villas, Maricopa County, Arizona, 85284, United States of America","place_id":"177111718","datatype":"locationiq"},{"latitude":"40.51138","longitude":"-111.89281","name":"IKEA Draper ","address":"801) 572-4532","street_number":"129","street_name":"Ikea Way","zip":"84020","city":"Draper","area":null,"county":"Salt Lake County","state":"Utah","country":"us","formatted_address":"129, Ikea Way, Draper, Salt Lake County, Utah, 84020, United States of America","place_id":"206792278","datatype":"locationiq"},{"latitude":"30.55643","longitude":"-97.69197","name":"IKEA Round Rock ","address":"512) 828-4532","street_number":"4023","street_name":"Interstate Highway 35 Service Road","zip":"78664","city":"Round Rock","area":null,"county":"Williamson County","state":"Texas","country":"us","formatted_address":"4023, Interstate Highway 35 Service Road, Round Rock, Williamson County, Texas, 78664, United States of America","place_id":"206664443","datatype":"locationiq"},{"latitude":"33.10035","longitude":"-96.82237","name":"IKEA Frisco","address":"972)-712-4532","street_number":"2600","street_name":"Dallas Parkway","zip":"75024","city":"Frisco","area":null,"county":"Collin County","state":"Texas","country":"us","formatted_address":"2600, Dallas Parkway, Frisco, Collin County, Texas, 75024, United States of America","place_id":"48029483","datatype":"locationiq"},{"latitude":"29.87815","longitude":"-95.47391","name":"IKEA Houston ","address":"713)-688-7867","street_number":"7765","street_name":"Antoine Drive","zip":"77088","city":null,"area":null,"county":"Harris County","state":"Texas","country":"us","formatted_address":"7765, Antoine Drive, Hudson, Harris County, Texas, 77088, United States of America","place_id":"205548995","datatype":"locationiq"},{"latitude":"44.85804","longitude":"-93.24352","name":"IKEA Twin Cities","address":"952) 858-8088","street_number":null,"street_name":"IKEA Way","zip":"55425","city":"Bloomington","area":null,"county":"Hennepin County","state":"Minnesota","country":"us","formatted_address":"IKEA Way, Mall of America, Bloomington, Hennepin County, Minnesota, 55425, United States of America","place_id":"89158383","datatype":"locationiq"},{"latitude":"41.72238","longitude":"-88.04026","name":"IKEA Bolingbrook","address":"630)-972-7900","street_number":null,"street_name":"East Boughton Road","zip":"60440","city":null,"area":null,"county":"Will County","state":"Illinois","country":"us","formatted_address":"Mobil, East Boughton Road, Bolingbrook, Will County, Illinois, 60440, United States of America","place_id":"147862026","datatype":"locationiq"},{"latitude":"42.05316","longitude":"-88.02944","name":"IKEA Schaumburg","address":"847)-969-9700","street_number":null,"street_name":"East McConnor Parkway","zip":"60173","city":null,"area":null,"county":"Cook County","state":"Illinois","country":"us","formatted_address":"East McConnor Parkway, Schaumburg, Cook County, Illinois, 60173, United States of America","place_id":"163236695","datatype":"locationiq"},{"latitude":"39.31784","longitude":"-84.43379","name":"IKEA West Chester","address":"513) 779-7100","street_number":"5296","street_name":"Mulhauser Road","zip":"45011","city":null,"area":null,"county":"Butler County","state":"Ohio","country":"us","formatted_address":"5296, Mulhauser Road, Rialto, West Chester Township, Butler County, Ohio, 45011, United States of America","place_id":"198855567","datatype":"locationiq"},{"latitude":"33.79002","longitude":"-84.3998","name":"IKEA Atlanta","address":"404)-745-4532","street_number":"1275","street_name":"Mecaslin Street Northwest","zip":"30318","city":"Atlanta","area":"Atlantic Station","county":"Fulton County","state":"Georgia","country":"us","formatted_address":"1275, Mecaslin Street Northwest, Atlantic Station, Rockdale, Atlanta, Fulton County, Georgia, 30318, United States of America","place_id":"174597071","datatype":"locationiq"},{"latitude":"26.12103","longitude":"-80.33021","name":"IKEA Sunrise","address":"954) 838-9292","street_number":null,"street_name":"Northwest 136th Avenue","zip":"33323","city":null,"area":null,"county":"Broward County","state":"Florida","country":"us","formatted_address":"Starbucks, Northwest 136th Avenue, Sunrise, Broward County, Florida, 33323, United States of America","place_id":"44976203","datatype":"locationiq"},{"latitude":"27.95506","longitude":"-82.43349","name":"IKEA Tampa","address":"813) 623-5454","street_number":null,"street_name":"Adamo Drive","zip":"33605","city":"Tampa","area":null,"county":"Hillsborough County","state":"Florida","country":"us","formatted_address":"Adamo Dr @ 22nd St, Adamo Drive, East Ybor, Tampa, Hillsborough County, Florida, 33605, United States of America","place_id":"8328496","datatype":"locationiq"},{"latitude":"28.48425","longitude":"-81.42826","name":"IKEA Orlando","address":"407) 355-3155","street_number":null,"street_name":"Shrimp Street","zip":"32839","city":null,"area":null,"county":"Orange County","state":"Florida","country":"us","formatted_address":"Shrimp Street, Winter Run, Oak Ridge, Orange County, Florida, 32839, United States of America","place_id":"65428824","datatype":"locationiq"},{"latitude":"35.29004","longitude":"-80.76581","name":"IKEA Charlotte ","address":"704) 549-4532","street_number":null,"street_name":"City Boulevard","zip":"28213","city":"Charlotte","area":null,"county":"Mecklenburg County","state":"North Carolina","country":"us","formatted_address":"City Boulevard, Charlotte, Mecklenburg County, North Carolina, 28213, United States of America","place_id":"146418213","datatype":"locationiq"},{"latitude":"38.6445","longitude":"-77.2999","name":"IKEA Woodbridge","address":"703)-494-4532","street_number":null,"street_name":"Potomac Mills Circle","zip":"2192","city":null,"area":null,"county":"Prince William County","state":"Virginia","country":"us","formatted_address":"TJ Maxx, Potomac Mills Circle, Potomac MIlls, Potomac Mills, Prince William County, Virginia, 2192, United States of America","place_id":"23699466","datatype":"locationiq"},{"latitude":"39.02082","longitude":"-76.92571","name":"IKEA College Park","address":"301)-345-6552","street_number":"10000","street_name":"Baltimore Avenue","zip":"20705;20740","city":null,"area":null,"county":"Prince George's County","state":"Maryland","country":"us","formatted_address":"Moose Creek Steakhouse, 10000, Baltimore Avenue, Cherry Hill, College Park, Prince George's County, Maryland, 20705;20740, United States of America","place_id":"12609268","datatype":"locationiq"},{"latitude":"39.37459","longitude":"-76.46138","name":"IKEA Baltimore ","address":"410)931-5400","street_number":null,"street_name":"Honeygo Boulevard","zip":"21236","city":null,"area":"Burnam Woods","county":"Baltimore County","state":"Maryland","country":"us","formatted_address":"Honeygo Boulevard, Burnam Woods, White Marsh, Baltimore County, Maryland, 21236, United States of America","place_id":"121111477","datatype":"locationiq"},{"latitude":"39.91992","longitude":"-75.14084","name":"IKEA South Philadelphia","address":"215)551-4532","street_number":null,"street_name":"South Christopher Columbus Boulevard","zip":"19148","city":"Philadelphia","area":"Pennsport","county":"Philadelphia County","state":"Pennsylvania","country":"us","formatted_address":"Longhorn Steakhouse, South Christopher Columbus Boulevard, Pennsport, Philadelphia, Philadelphia County, Pennsylvania, 19148, United States of America","place_id":"122425114","datatype":"locationiq"},{"latitude":"40.09521","longitude":"-75.3078","name":"IKEA Conshohocken","address":"610)834-1520","street_number":null,"street_name":null,"zip":"19428","city":"Conshohocken","area":null,"county":"Montgomery County","state":"Pennsylvania","country":"us","formatted_address":"Cross County Trail, Marketplace at Plymouth, Conshohocken, Montgomery County, Pennsylvania, 19428, United States of America","place_id":"99605570","datatype":"locationiq"},{"latitude":"40.39317","longitude":"-79.99237","name":"IKEA Pittsburgh ","address":"412)747-0747","street_number":"1999","street_name":"Park Boulevard","zip":"15210","city":"Pittsburgh","area":null,"county":"Allegheny County","state":"Pennsylvania","country":"us","formatted_address":"1999, Park Boulevard, Carrick, Pittsburgh, Allegheny County, Pennsylvania, 15210, United States of America","place_id":"201201531","datatype":"locationiq"},{"latitude":"40.67222","longitude":"-74.01103","name":"IKEA Brooklyn","address":"718) 246-4532","street_number":"1","street_name":"Beard Street","zip":"11231","city":"New York City","area":"Red Hook","county":"Kings County","state":"New York","country":"us","formatted_address":"IKEA, 1, Beard Street, Red Hook, Kings County, New York City, New York, 11231, United States of America","place_id":"127258627","datatype":"locationiq"},{"latitude":"40.67386","longitude":"-74.16986","name":"IKEA Elizabeth","address":"908)-289-4488","street_number":"1038","street_name":"IKEA Drive","zip":"07201","city":"Elizabeth","area":null,"county":"Union County","state":"New Jersey","country":"us","formatted_address":"1038, IKEA Drive, PANYNJ, Elizabeth, Union County, New Jersey, 07201, United States of America","place_id":"195798284","datatype":"locationiq"},{"latitude":"40.7601","longitude":"-73.55946","name":"IKEA Hicksville","address":"516)681-4532","street_number":"1060","street_name":"Broadway","zip":"11590","city":null,"area":null,"county":"Nassau","state":"New York","country":"us","formatted_address":"1060, Broadway, New Cassel, Nassau, New York, 11590, United States of America","place_id":"196541332","datatype":"locationiq"},{"latitude":"40.77422","longitude":"-73.53055","name":"IKEA Hicksville","address":"516) 681-4532","street_number":null,"street_name":"Middle Island Boulevard","zip":"11801","city":null,"area":null,"county":"Nassau","state":"New York","country":"us","formatted_address":"Middle Island Boulevard, Broadway Mall, Hicksville, Nassau, New York, 11801, United States of America","place_id":"73105319","datatype":"locationiq"},{"latitude":"40.92372","longitude":"-74.07638","name":"IKEA Paramus","address":"201)-843-1881","street_number":"198","street_name":"Ikea Drive","zip":"07652","city":"Paramus","area":null,"county":"Bergen County","state":"New Jersey","country":"us","formatted_address":"198, Ikea Drive, Paramus, Bergen County, New Jersey, 07652, United States of America","place_id":"195248699","datatype":"locationiq"},{"latitude":"41.29582","longitude":"-72.91855","name":"IKEA New Haven","address":"203)-865-4532","street_number":"462","street_name":"Sargent Drive","zip":"06511","city":"New Haven","area":"Long Wharf","county":"New Haven County","state":"Connecticut","country":"us","formatted_address":"462, Sargent Drive, Long Wharf, New Haven, New Haven County, Connecticut, 06511, United States of America","place_id":"181389571","datatype":"locationiq"},{"latitude":"42.1367","longitude":"-71.07615","name":"IKEA Stoughton","address":"781) 344-4532","street_number":"1073","street_name":"Turnpike Street","zip":"02072","city":null,"area":null,"county":"Norfolk County","state":"Massachusetts","country":"us","formatted_address":"1073, Turnpike Street, Stoughton, Norfolk County, Massachusetts, 02072, United States of America","place_id":"190466811","datatype":"locationiq"},{"latitude":"42.32276","longitude":"-83.45125","name":"IKEA Canton","address":"734)-981-6300","street_number":null,"street_name":"Ford Road","zip":"48187","city":null,"area":null,"county":"Wayne County","state":"Michigan","country":"us","formatted_address":"Dunkin' Donuts, Ford Road, Canton, Wayne County, Michigan, 48187, United States of America","place_id":"139106817","datatype":"locationiq"},{"latitude":"43.32622","longitude":"-79.82763","name":"IKEA Burlington","address":"9056814532","street_number":"1059","street_name":"Plains Road East","zip":"L7T 4K1","city":"Burlington","area":"La Salle","county":"Halton Region","state":"Ontario","country":"ca","formatted_address":"1059, Plains Road East, La Salle, Nelson, Burlington, Halton Region, Ontario, L7T 4K1, Canada","place_id":"2661891","datatype":"locationiq"},{"latitude":"43.61859","longitude":"-79.53115","name":"IKEA Etobicoke","address":"4166464532","street_number":null,"street_name":"Wickman Road","zip":"M8Z 5J3","city":"Toronto","area":"Alderwood","county":null,"state":"Ontario","country":"ca","formatted_address":"Wickman Road, Alderwood, Etobicoke, Toronto, Ontario, M8Z 5J3, Canada","place_id":"74852871","datatype":"locationiq"},{"latitude":"43.76846","longitude":"-79.36907","name":"IKEA North York","address":"4162224532","street_number":"147","street_name":"Esther Shiner Boulevard","zip":"M2K 2X9","city":"Toronto","area":"Concord Park Place","county":null,"state":"Ontario","country":"ca","formatted_address":"147, Esther Shiner Boulevard, Concord Park Place, North York, Toronto, Ontario, M2K 2X9, Canada","place_id":"11435481","datatype":"locationiq"},{"latitude":"43.7888","longitude":"-79.52899","name":"IKEA Vaughan","address":"905) 695-5075","street_number":"34","street_name":"Interchange Way","zip":"L4K 5R6","city":"Vaughan","area":"Vaughan Corporate Centre","county":"York Region","state":"Ontario","country":"ca","formatted_address":"34, Interchange Way, Vaughan Corporate Centre, Vaughan, York Region, Ontario, L4K 5R6, Canada","place_id":"3344068","datatype":"locationiq"},{"latitude":"45.35064","longitude":"-75.78258","name":"IKEA Ottawa","address":"6138294530","street_number":"1096","street_name":"Baxter Road","zip":"K2C 1M1","city":"Ottawa","area":null,"county":null,"state":"Ontario","country":"ca","formatted_address":"1096, Baxter Road, Pinecrest Shopping Centre, Nepean, College, Ottawa, Ontario, K2C 1M1, Canada","place_id":"1381314","datatype":"locationiq"},{"latitude":"45.59905","longitude":"-73.41508","name":"IKEA Boucherville","address":"4504496755","street_number":null,"street_name":"Rue De Montbrun","zip":"H7N0A9","city":null,"area":null,"county":"Longueuil (agglomeration)","state":"Quebec","country":"ca","formatted_address":"Rue De Montbrun, Boucherville, Longueuil (agglomeration), Quebec, H7N0A9, Canada","place_id":"84328716","datatype":"locationiq"},{"latitude":"44.71008","longitude":"-63.56197","name":"Countryview Drive","address":"","street_number":"360","street_name":"Countryview Drive","zip":"B3B","city":"Dartmouth","area":null,"county":"Halifax Regional Municipality","state":"Nova Scotia","country":"ca","formatted_address":"360, Countryview Drive, Dartmouth Crossing, Burnside, Dartmouth, Halifax Regional Municipality, Halifax County, Nova Scotia, B3B, Canada","place_id":"12837260","datatype":"locationiq"},{"latitude":"35.18999","longitude":"-89.7993","name":"Ikea memphis","address":"","street_number":null,"street_name":"Ikea Way","zip":"38133","city":"Memphis","area":null,"county":"Shelby County","state":"Tennessee","country":"us","formatted_address":"Ikea Way, IKEA Memphis, Memphis, Shelby County, Tennessee, 38133, United States of America","place_id":"161615392","datatype":"locationiq"},{"latitude":"39.57195","longitude":"-104.87504","name":"Ikea Centennial","address":"","street_number":null,"street_name":"South Dayton Street","zip":"80112","city":null,"area":null,"county":"Arapahoe County","state":"Colorado","country":"us","formatted_address":"IKEA, South Dayton Street, Centennial, Arapahoe County, Colorado, 80112, United States of America","place_id":"111623286","datatype":"locationiq"}]