[{"latitude":"34.80474","longitude":"-86.95045","name":"Kmart-Athens,AL","address":"104 Us 31 N, Athens,AL, (256) 233-1551","street_number":null,"street_name":null,"zip":"35611","city":"Athens","area":null,"county":"Limestone County","state":"Alabama","country":"us","formatted_address":"Golden Eagle Trail, Athens, Limestone County, Alabama, 35611, United States of America","place_id":"169805073","datatype":"locationiq"},{"latitude":"31.25417","longitude":"-85.38911","name":"Kmart-Dothan,AL","address":"2185 Reeves St, Dothan,AL, (334) 794-8756","street_number":"2151","street_name":"Reeves Street","zip":"36303","city":null,"area":null,"county":"Houston County","state":"Alabama","country":"us","formatted_address":"2151, Reeves Street, Kinsey, Houston County, Alabama, 36303, United States of America","place_id":"176296142","datatype":"locationiq"},{"latitude":"34.72993","longitude":"-87.66766","name":"Kmart-Muscle Shoals,AL","address":"3401 Woodward Ave, Muscle Shoals,AL, (256) 383-7716","street_number":null,"street_name":"West 6th Street","zip":"35661","city":"Muscle Shoals","area":null,"county":"Colbert County","state":"Alabama","country":"us","formatted_address":"Texaco, West 6th Street, Muscle Shoals, Colbert County, Alabama, 35661, United States of America","place_id":"121003360","datatype":"locationiq"},{"latitude":"33.16507","longitude":"-87.54605","name":"Kmart-Tuscaloosa,AL","address":"635 Skyland Blvd, Tuscaloosa,AL, (205) 759-4461","street_number":"127","street_name":"Skyland Boulevard East","zip":"35405","city":"Tuscaloosa","area":"Dixon Manor","county":"Tuscaloosa County","state":"Alabama","country":"us","formatted_address":"127, Skyland Boulevard East, Dixon Manor, West End, Tuscaloosa, Tuscaloosa County, Alabama, 35405, United States of America","place_id":"176738608","datatype":"locationiq"},{"latitude":"34.27573","longitude":"-86.20307","name":"Kmart-Albertville,AL","address":"7200 Us 431, Albertville,AL, (256) 878-9030","street_number":"7118","street_name":"Florida Short Rte","zip":"35950","city":"Guntersville","area":null,"county":"Marshall County","state":"Alabama","country":"us","formatted_address":"7118, Florida Short Rte, Guntersville, Marshall County, Alabama, 35950, United States of America","place_id":"176527006","datatype":"locationiq"},{"latitude":"33.5762","longitude":"-86.27303","name":"Kmart-Pell City,AL","address":"803 Martin St S, Pell City,AL, (205) 884-2900","street_number":"1358","street_name":"Martin Street South","zip":"35128","city":"Pell City","area":"Forest Hills","county":"St. Clair County","state":"Alabama","country":"us","formatted_address":"1358, Martin Street South, Forest Hills, Pell City, St. Clair County, Alabama, 35128, United States of America","place_id":"176658241","datatype":"locationiq"},{"latitude":"34.77103","longitude":"-92.39496","name":"Kmart-Little Rock,AR","address":"10901 N Rodney Parham Rd, Little Rock,AR, (501) 227-6460","street_number":null,"street_name":"North Rodney Parham Road","zip":"72227","city":"Little Rock","area":null,"county":"Pulaski County","state":"Arkansas","country":"us","formatted_address":"Central Arkansas Christian School, North Rodney Parham Road, Little Rock, Pulaski County, Arkansas, 72227, United States of America","place_id":"3650381","datatype":"locationiq"},{"latitude":"35.27819","longitude":"-93.10085","name":"Kmart-Russellville,AR","address":"2821 E Main St, Russellville,AR, (479) 968-4133","street_number":"2781","street_name":"East Main Street","zip":"72802","city":"Russellville","area":null,"county":"Pope County","state":"Arkansas","country":"us","formatted_address":"2781, East Main Street, Valley Park Centre, Russellville, Pope County, Arkansas, 72802, United States of America","place_id":"177893321","datatype":"locationiq"},{"latitude":"34.93659","longitude":"-92.0088","name":"Kmart-Cabot,AR","address":"State Highway 89, Cabot,AR, (501) 843-2206","street_number":"3123","street_name":"South Pine Street","zip":"72023","city":"Cabot","area":null,"county":"Lonoke County","state":"Arkansas","country":"us","formatted_address":"3123, South Pine Street, Cabot, Lonoke County, Arkansas, 72023, United States of America","place_id":"177823283","datatype":"locationiq"},{"latitude":"32.87971","longitude":"-111.735","name":"Kmart-Casa Grande,AZ","address":"1214 E Florence Blvd, Casa Grande,AZ, (520) 836-3466","street_number":"1205","street_name":"East Florence Boulevard","zip":"85122","city":"Casa Grande","area":null,"county":"Pinal County","state":"Arizona","country":"us","formatted_address":"1205, East Florence Boulevard, Casa Grande, Pinal County, Arizona, 85122, United States of America","place_id":"177455203","datatype":"locationiq"},{"latitude":"33.3893","longitude":"-111.68452","name":"Kmart-Mesa,AZ","address":"1445 S Power Rd, Mesa,AZ, (480) 985-8448","street_number":null,"street_name":"South Power Road","zip":"85206","city":"Mesa","area":null,"county":"Maricopa County","state":"Arizona","country":"us","formatted_address":"Chili's, South Power Road, Mesa, Maricopa County, Arizona, 85206, United States of America","place_id":"147335280","datatype":"locationiq"},{"latitude":"34.47738","longitude":"-114.33578","name":"Kmart-Lake Havasu City,AZ","address":"1870 Mcculloch Blvd N, Lake Havasu City,AZ, (928) 453-5919","street_number":null,"street_name":"McCulloch Boulevard North","zip":"86403","city":"Lake Havasu City","area":null,"county":"Mohave County","state":"Arizona","country":"us","formatted_address":"Chase Bank, McCulloch Boulevard North, Lake Havasu City, Mohave County, Arizona, 86403, United States of America","place_id":"58176962","datatype":"locationiq"},{"latitude":"35.10579","longitude":"-114.59788","name":"Kmart-Bullhead City,AZ","address":"2250 Highway 95, Bullhead City,AZ, (928) 763-7878","street_number":"2220","street_name":"Topock-Davis Dam Road","zip":"86442","city":"Bullhead City","area":null,"county":"Mohave County","state":"Arizona","country":"us","formatted_address":"2220, Topock-Davis Dam Road, Riviera, Bullhead City, Mohave County, Arizona, 86442, United States of America","place_id":"177306642","datatype":"locationiq"},{"latitude":"33.55325","longitude":"-112.1135","name":"Kmart-Phoenix,AZ","address":"2526 W Northern Ave, Phoenix,AZ, (602) 995-8867","street_number":null,"street_name":"West Northern Avenue","zip":"85021","city":"Phoenix","area":null,"county":"Maricopa County","state":"Arizona","country":"us","formatted_address":"West Northern Avenue, Alhambra, Phoenix, Maricopa County, Arizona, 85021, United States of America","place_id":"128016234","datatype":"locationiq"},{"latitude":"35.22141","longitude":"-114.00701","name":"Kmart-Kingman,AZ","address":"3340 E Andy Devine Ave, Kingman,AZ, (928) 757-3202","street_number":null,"street_name":"Townsend Street","zip":"86401","city":"Kingman","area":null,"county":"Mohave County","state":"Arizona","country":"us","formatted_address":"Motel 6 Kingman East, Townsend Street, Kingman, Mohave County, Arizona, 86401, United States of America","place_id":"142850091","datatype":"locationiq"},{"latitude":"32.221262","longitude":"-110.842259","name":"Kmart-Tucson,AZ","address":"7055 East Broadway, Tucson,AZ 85710, (520) 546-6565","street_number":null,"street_name":"East Broadway Boulevard","zip":"85710-1408","city":"Tucson","area":null,"county":"Pima County","state":"Arizona","country":"us","formatted_address":"Broadway\/Kolb, East Broadway Boulevard, Cloud Ridge, Broadway Northeast, Tucson, Pima County, Arizona, 85710-1408, United States of America","place_id":"59376660","datatype":"locationiq"},{"latitude":"34.24669","longitude":"-110.04978","name":"Kmart-Show Low,AZ","address":"750 W Deuce Of Clubs, Show Low,AZ, (928) 537-3192","street_number":"563","street_name":"West Deuce of Clubs","zip":"85901","city":null,"area":null,"county":"Navajo County","state":"Arizona","country":"us","formatted_address":"563, West Deuce of Clubs, Show Low, Navajo County, Arizona, 85901, United States of America","place_id":"177323163","datatype":"locationiq"},{"latitude":"33.464465","longitude":"-112.247572","name":"Kmart-Tolleson,AZ","address":"8701 West Mcdowell, Tolleson,AZ, (623) 936-1284","street_number":null,"street_name":"West McDowell Road","zip":"85353","city":"Tolleson","area":null,"county":"Maricopa County","state":"Arizona","country":"us","formatted_address":"West McDowell Road, Maryvale, Tolleson, Maricopa County, Arizona, 85353, United States of America","place_id":"75471565","datatype":"locationiq"},{"latitude":"34.18758","longitude":"-118.31766","name":"Kmart-Burbank,CA","address":"1000 N San Fernando Blvd, Burbank,CA, (818) 843-4221","street_number":"1037","street_name":"San Fernando Boulevard","zip":"91504","city":"Burbank","area":null,"county":"Los Angeles County","state":"California","country":"us","formatted_address":"1037, San Fernando Boulevard, Burbank, Los Angeles County, California, 91504, United States of America","place_id":"178801643","datatype":"locationiq"},{"latitude":"33.90196","longitude":"-118.11205","name":"Kmart-Bellflower,CA","address":"10400 Rosecrans Ave, Bellflower,CA, (562) 925-9561","street_number":"10420","street_name":"Rosecrans Avenue","zip":"90706","city":null,"area":null,"county":"Los Angeles County","state":"California","country":"us","formatted_address":"10420, Rosecrans Avenue, Bellflower, Los Angeles County, California, 90706, United States of America","place_id":"178835425","datatype":"locationiq"},{"latitude":"36.696294","longitude":"-121.668642","name":"Kmart-Salinas,CA","address":"1050 North Davis Rd, Salinas,CA 93907, (831) 757-3601","street_number":null,"street_name":"North Davis Road","zip":"93901","city":"Salinas","area":null,"county":"Monterey County","state":"California","country":"us","formatted_address":"Sonic, North Davis Road, Salinas, Monterey County, California, 93901, United States of America","place_id":"159117011","datatype":"locationiq"},{"latitude":"38.35858","longitude":"-120.804047","name":"Kmart-Jackson,CA","address":"10500 Wicklow Way, Jackson,CA, (209) 223-4910","street_number":"10502","street_name":"Wicklow Way","zip":"95642","city":null,"area":null,"county":"Amador County","state":"California","country":"us","formatted_address":"10502, Wicklow Way, Martell, Amador County, California, 95642, United States of America","place_id":"178174748","datatype":"locationiq"},{"latitude":"38.911869","longitude":"-120.003922","name":"Kmart-South Lake Tahoe,CA","address":"1056 Emerald Bay Rd, South Lake Tahoe,CA, (530) 541-8971","street_number":null,"street_name":"US 50;CA 89","zip":"96152","city":"South Lake Tahoe","area":null,"county":"El Dorado County","state":"California","country":"us","formatted_address":"Starbucks, US 50;CA 89, South Lake Tahoe, El Dorado County, California, 96152, United States of America","place_id":"54022329","datatype":"locationiq"},{"latitude":"36.808704","longitude":"-119.695969","name":"Kmart-Clovis,CA","address":"1075 Shaw Ave, Clovis,CA, (559) 298-9772","street_number":null,"street_name":"Shaw Avenue","zip":"93612","city":"Clovis","area":null,"county":"Fresno County","state":"California","country":"us","formatted_address":"Golden 1 Credit Union, Shaw Avenue, Clovis, Fresno County, California, 93612, United States of America","place_id":"52337187","datatype":"locationiq"},{"latitude":"39.199684","longitude":"-121.060547","name":"Kmart-Grass Valley,CA","address":"111 W McKnight Way, Grass Valley,CA, (530) 272-9611","street_number":null,"street_name":"Taylorville Road","zip":"95949","city":null,"area":null,"county":"Nevada County","state":"California","country":"us","formatted_address":"Grass Valley Service Center Heliport, Taylorville Road, Boston Ravine, Nevada County, California, 95949, United States of America","place_id":"3990213","datatype":"locationiq"},{"latitude":"37.489799","longitude":"-122.223068","name":"Kmart-Redwood City,CA","address":"1155 Veterans Blvd, Redwood City,CA, (650) 364-7640","street_number":"1135","street_name":"Veterans Boulevard","zip":"94063","city":"Redwood City","area":null,"county":"San Mateo County","state":"California","country":"us","formatted_address":"Applebee's, 1135, Veterans Boulevard, Redwood City, San Mateo County, California, 94063, United States of America","place_id":"96475905","datatype":"locationiq"},{"latitude":"38.720581","longitude":"-121.290564","name":"Kmart-Bishop,CA","address":"1200 N Main St, Bishop,CA 93514, (760) 872-7030","street_number":"8517","street_name":"Auburn Boulevard","zip":"95610","city":"Citrus Heights","area":null,"county":"Sacramento County","state":"California","country":"us","formatted_address":"8517, Auburn Boulevard, Citrus Heights, Sacramento County, California, 95610, United States of America","place_id":"179545182","datatype":"locationiq"},{"latitude":"34.20133","longitude":"-118.41609","name":"Kmart-North Hollywood,CA","address":"13007 Sherman Way, North Hollywood,CA, (818) 764-0250","street_number":"13043","street_name":"Sherman Way","zip":"91605","city":"Los Angeles","area":null,"county":"Los Angeles County","state":"California","country":"us","formatted_address":"13043, Sherman Way, Van Nuys, Los Angeles, Los Angeles County, California, 91605, United States of America","place_id":"178788884","datatype":"locationiq"},{"latitude":"37.609428","longitude":"-120.974907","name":"Kmart-Modesto,CA","address":"1351 E Hatch Rd, Modesto,CA, (209) 521-9610","street_number":null,"street_name":"East Hatch Road","zip":"CA 95307","city":null,"area":"Bystrom","county":"Stanislaus County","state":"California","country":"us","formatted_address":"Taco Bell, East Hatch Road, Bystrom, Hughson, Stanislaus County, California, CA 95307, United States of America","place_id":"18410655","datatype":"locationiq"},{"latitude":"33.9466","longitude":"-116.50146","name":"Kmart-Desert Hot Springs,CA","address":"14011 Palm Dr, Desert Hot Springs,CA, (760) 329-1093","street_number":"14297","street_name":"Palm Drive","zip":"92240","city":"Desert Hot Springs","area":null,"county":"Riverside County","state":"California","country":"us","formatted_address":"14297, Palm Drive, Desert Hot Springs, Riverside County, California, 92240, United States of America","place_id":"179463020","datatype":"locationiq"},{"latitude":"33.61025","longitude":"-114.61349","name":"Kmart-Blythe,CA","address":"1455 W Hobsonway, Blythe,CA, (760) 921-8442","street_number":"1775","street_name":"West Hobsonway","zip":"92225","city":null,"area":null,"county":"Riverside County","state":"California","country":"us","formatted_address":"1775, West Hobsonway, Blythe, Riverside County, California, 92225, United States of America","place_id":"179447414","datatype":"locationiq"},{"latitude":"40.932655","longitude":"-124.101761","name":"Kmart-McKinleyville,CA","address":"1500 Anna Sparks Way, McKinleyville,CA, (707) 839-5063","street_number":null,"street_name":"Anna Sparks Way","zip":"95519","city":null,"area":null,"county":"Humboldt County","state":"California","country":"us","formatted_address":"McDonald's, Anna Sparks Way, McKinleyville, Humboldt County, California, 95519, United States of America","place_id":"7545051","datatype":"locationiq"},{"latitude":"37.990871","longitude":"-122.306328","name":"Kmart-Pinole,CA","address":"1500 Fitzgerald Dr, Pinole,CA, (510) 222-5280","street_number":null,"street_name":"Fitzgerald Drive","zip":"94564","city":null,"area":null,"county":"Contra Costa County","state":"California","country":"us","formatted_address":"Best Buy, Fitzgerald Drive, Pinole, Contra Costa County, California, 94564, United States of America","place_id":"76480419","datatype":"locationiq"},{"latitude":"35.1305","longitude":"-120.60534","name":"Kmart-Arroyo Grande,CA","address":"1570 W Branch St, Arroyo Grande,CA, (805) 481-8484","street_number":"1590","street_name":"West Branch Street","zip":"93433","city":"Arroyo Grande","area":null,"county":"San Luis Obispo County","state":"California","country":"us","formatted_address":"Carl's Jr.\/ Green Burrito, 1590, West Branch Street, Arroyo Grande, San Luis Obispo County, California, 93433, United States of America","place_id":"106527879","datatype":"locationiq"},{"latitude":"34.06276","longitude":"-117.21046","name":"Kmart-Redlands,CA","address":"1625 W Redlands Blvd, Redlands,CA, (909) 793-0711","street_number":null,"street_name":"Redlands Boulevard","zip":"92403","city":"Redlands","area":null,"county":"San Bernardino County","state":"California","country":"us","formatted_address":"Nicks Burgers, Redlands Boulevard, Redlands, San Bernardino County, California, 92403, United States of America","place_id":"52902610","datatype":"locationiq"},{"latitude":"34.07747","longitude":"-117.61761","name":"Kmart-Ontario,CA","address":"1670 E 4th St, Ontario,CA, (909) 984-6119","street_number":"1664","street_name":"4th Street","zip":"91764","city":"Ontario","area":null,"county":"San Bernardino County","state":"California","country":"us","formatted_address":"1664, 4th Street, Ontario, San Bernardino County, California, 91764, United States of America","place_id":"179761059","datatype":"locationiq"},{"latitude":"34.42047","longitude":"-117.29331","name":"Kmart-Hesperia,CA","address":"16968 Main St, Hesperia,CA, (760) 244-7800","street_number":"16896","street_name":"Main Street","zip":"92345","city":null,"area":null,"county":"San Bernardino County","state":"California","country":"us","formatted_address":"16896, Main Street, Hesperia, San Bernardino County, California, 92345, United States of America","place_id":"179604549","datatype":"locationiq"},{"latitude":"36.933067","longitude":"-121.77079","name":"Kmart-Freedom,CA","address":"1702 Freedom Blvd, Freedom,CA, (831) 728-9771","street_number":null,"street_name":"Freedom Boulevard","zip":"95076","city":"Watsonville","area":null,"county":"Santa Cruz County","state":"California","country":"us","formatted_address":"Jack in the Box, Freedom Boulevard, Watsonville, Santa Cruz County, California, 95076, United States of America","place_id":"4953125","datatype":"locationiq"},{"latitude":"37.770809","longitude":"-120.82975","name":"Kmart-Oakdale,CA","address":"175 South Maag Ave, Oakdale,CA, (209) 847-7091","street_number":null,"street_name":"South Maag Avenue","zip":"95361","city":"Oakdale","area":null,"county":"Stanislaus County","state":"California","country":"us","formatted_address":"KMart, South Maag Avenue, Oakdale, Stanislaus County, California, 95361, United States of America","place_id":"61246364","datatype":"locationiq"},{"latitude":"33.03444","longitude":"-116.88181","name":"Kmart-Ramona,CA","address":"1855 Main St, Ramona,CA, (760) 788-7886","street_number":null,"street_name":"Vermont Street","zip":"92065","city":null,"area":null,"county":"San Diego County","state":"California","country":"us","formatted_address":"Day Street Park And Ride, Vermont Street, Ramona, San Diego County, California, 92065, United States of America","place_id":"92111430","datatype":"locationiq"},{"latitude":"39.02763","longitude":"-122.916237","name":"Kmart-Lakeport,CA","address":"2019 S Main, Lakeport,CA, (707) 263-9305","street_number":"2016","street_name":"South Main Street","zip":"95453","city":"Lakeport","area":null,"county":"Lake County","state":"California","country":"us","formatted_address":"2016, South Main Street, Lakeport, Lake County, California, 95453, United States of America","place_id":"178522126","datatype":"locationiq"},{"latitude":"34.47127","longitude":"-117.21028","name":"Kmart-Apple Valley,CA","address":"20777 Bear Valley Rd, Apple Valley,CA, (760) 240-1488","street_number":null,"street_name":"Bear Valley Road","zip":"92308","city":null,"area":null,"county":"San Bernardino County","state":"California","country":"us","formatted_address":"Mega Toms Burgers, Bear Valley Road, Apple Valley, San Bernardino County, California, 92308, United States of America","place_id":"58489648","datatype":"locationiq"},{"latitude":"36.30101","longitude":"-119.786369","name":"Kmart-Lemoore,CA","address":"215 West Hanford\/Arm, Lemoore,CA, (209) 924-8896","street_number":null,"street_name":"West D Street","zip":"93245","city":"Lemoore","area":null,"county":"Kings County","state":"California","country":"us","formatted_address":"Veterans Memorial Building, West D Street, Lemoore, Kings County, California, 93245, United States of America","place_id":"3663020","datatype":"locationiq"},{"latitude":"39.757858","longitude":"-121.845734","name":"Kmart-Chico,CA","address":"2155 Pillsbury Rd, Chico,CA, (530) 345-9461","street_number":"2015","street_name":"Pillsbury Road","zip":"95926","city":"Chico","area":null,"county":"Butte County","state":"California","country":"us","formatted_address":"2015, Pillsbury Road, Chico, Butte County, California, 95926, United States of America","place_id":"178197673","datatype":"locationiq"},{"latitude":"37.93763","longitude":"-121.241211","name":"Kmart-Stockton,CA","address":"2180 E Mariposa Rd, Stockton,CA, (209) 948-8205","street_number":"2187","street_name":"East Mariposa Road","zip":"95215","city":"Stockton","area":null,"county":"San Joaquin County","state":"California","country":"us","formatted_address":"2187, East Mariposa Road, Stockton, San Joaquin County, California, 95215, United States of America","place_id":"135505599","datatype":"locationiq"},{"latitude":"33.6541","longitude":"-117.91893","name":"Kmart-Costa Mesa,CA","address":"2200 Harbor Blvd, Costa Mesa,CA, (949) 646-7701","street_number":null,"street_name":"Center Street","zip":"92627","city":"Costa Mesa","area":null,"county":"Orange County","state":"California","country":"us","formatted_address":"Office Depot, Center Street, Harbor Shopping Center, Costa Mesa, Orange County, California, 92627, United States of America","place_id":"84895183","datatype":"locationiq"},{"latitude":"33.83928","longitude":"-117.88584","name":"Kmart-Anaheim,CA","address":"2222 E Lincoln Ave, Anaheim,CA, (714) 991-6111","street_number":"2234","street_name":"Lincoln Avenue","zip":"92806","city":"Anaheim","area":null,"county":"Orange County","state":"California","country":"us","formatted_address":"2234, Lincoln Avenue, Anaheim Resort District, Anaheim, Orange County, California, 92806, United States of America","place_id":"179234184","datatype":"locationiq"},{"latitude":"34.42278","longitude":"-118.54418","name":"Kmart-Valencia,CA","address":"23222 Valencia Blvd, Valencia,CA, (661) 255-7610","street_number":"23598","street_name":"Valencia Boulevard","zip":"91355","city":"Santa Clarita","area":null,"county":"Los Angeles County","state":"California","country":"us","formatted_address":"23598, Valencia Boulevard, Valencia, Santa Clarita, Los Angeles County, California, 91355, United States of America","place_id":"178952923","datatype":"locationiq"},{"latitude":"38.942295","longitude":"-121.091698","name":"Kmart-Auburn,CA","address":"2505 Bell Rd, Auburn,CA, (530) 823-6943","street_number":null,"street_name":"Bell Road","zip":"95603","city":null,"area":null,"county":"Placer County","state":"California","country":"us","formatted_address":"Applebee's Neighborhood Bar & Grill, Bell Road, Crossroads Shopping Center, North Auburn, Placer County, California, 95603, United States of America","place_id":"87287433","datatype":"locationiq"},{"latitude":"34.02764","longitude":"-117.65118","name":"Kmart-Ontario,CA","address":"2530 S Euclid Ave, Ontario,CA, (909) 983-2291","street_number":"2406","street_name":"Euclid Avenue","zip":"91762","city":"Ontario","area":null,"county":"San Bernardino County","state":"California","country":"us","formatted_address":"2406, Euclid Avenue, Ontario, San Bernardino County, California, 91762, United States of America","place_id":"179574040","datatype":"locationiq"},{"latitude":"37.819225","longitude":"-121.220352","name":"Kmart-Manteca,CA","address":"255 Northgate Dr, Manteca,CA, (209) 825-3033","street_number":"296","street_name":"Northgate Drive","zip":"95336","city":"Manteca","area":null,"county":"San Joaquin County","state":"California","country":"us","formatted_address":"Northgate Veterinary Hospital, 296, Northgate Drive, Manteca, San Joaquin County, California, 95336, United States of America","place_id":"141685621","datatype":"locationiq"},{"latitude":"38.25185","longitude":"-122.630653","name":"Kmart-Petaluma,CA","address":"261 N McDowell Blvd, Petaluma,CA, (707) 778-6234","street_number":null,"street_name":"North McDowell Boulevard","zip":"94954","city":"Petaluma","area":"East Petaluma","county":"Sonoma County","state":"California","country":"us","formatted_address":"Redwood Credit Union, North McDowell Boulevard, East Petaluma, Petaluma, Sonoma County, California, 94954, United States of America","place_id":"18147871","datatype":"locationiq"},{"latitude":"37.649525","longitude":"-122.065857","name":"Kmart-Hayward,CA","address":"26231 Mission Blvd, Hayward,CA, (510) 582-3884","street_number":"26281","street_name":"Mission Boulevard","zip":"94544","city":"Hayward","area":null,"county":"Alameda County","state":"California","country":"us","formatted_address":"26281, Mission Boulevard, Hayward, Alameda County, California, 94544, United States of America","place_id":"178141885","datatype":"locationiq"},{"latitude":"33.52126","longitude":"-117.15711","name":"Kmart-Temecula,CA","address":"26471 Ynez Rd, Temecula,CA, (951) 296-1570","street_number":"26493","street_name":"Ynez Road","zip":"92591","city":"Temecula","area":"Solana Ridge","county":"Riverside County","state":"California","country":"us","formatted_address":"26493, Ynez Road, Solana Ridge, Winchester Highlands, Temecula, Riverside County, California, 92591, United States of America","place_id":"179347132","datatype":"locationiq"},{"latitude":"40.568054","longitude":"-122.358742","name":"Kmart-Redding,CA","address":"2685 Hilltop Dr, Redding,CA, (530) 221-8055","street_number":"2685","street_name":"Hilltop Drive","zip":"96002","city":"Redding","area":null,"county":"Shasta County","state":"California","country":"us","formatted_address":"2685, Hilltop Drive, Redding, Shasta County, California, 96002, United States of America","place_id":"180263171","datatype":"locationiq"},{"latitude":"37.047562","longitude":"-122.031639","name":"Kmart-Scotts Valley,CA","address":"270 Mt Hermon Rd, Scotts Valley,CA, (831) 438-0545","street_number":null,"street_name":"Mount Hermon Road","zip":"95066-4024","city":"Scotts Valley","area":null,"county":"Santa Cruz County","state":"California","country":"us","formatted_address":"Chubby's, Mount Hermon Road, King's Village Shopping Center, Scotts Valley, Santa Cruz County, California, 95066-4024, United States of America","place_id":"5099948","datatype":"locationiq"},{"latitude":"34.90793","longitude":"-120.43334","name":"Kmart-Santa Maria,CA","address":"2875 Santa Maria Way, Santa Maria,CA, (805) 937-6351","street_number":null,"street_name":"Santa Maria Way","zip":"93455","city":"Santa Maria","area":null,"county":"Santa Barbara County","state":"California","country":"us","formatted_address":"Santa Maria Way, Santa Maria, Santa Barbara County, California, 93455, United States of America","place_id":"68972431","datatype":"locationiq"},{"latitude":"33.80904","longitude":"-118.12502","name":"Kmart-Long Beach,CA","address":"2900 N Bellflower Blvd, Long Beach,CA, (562) 377-0618","street_number":null,"street_name":"Bellflower Boulevard","zip":"90808","city":"Long Beach","area":null,"county":"Los Angeles County","state":"California","country":"us","formatted_address":"Carl's Jr., Bellflower Boulevard, Los Altos, Long Beach, Los Angeles County, California, 90808, United States of America","place_id":"164650155","datatype":"locationiq"},{"latitude":"35.13674","longitude":"-119.44695","name":"Kmart-Taft,CA","address":"301 Gardner Field Rd, Taft,CA, (661) 763-5949","street_number":"391","street_name":"Gardner Field Road","zip":"93268","city":"Taft","area":null,"county":"Kern County","state":"California","country":"us","formatted_address":"391, Gardner Field Road, Taft, Kern County, California, 93268, United States of America","place_id":"178474507","datatype":"locationiq"},{"latitude":"36.326618","longitude":"-119.327164","name":"Kmart-Visalia,CA","address":"3247 Noble Ave, Visalia,CA, (559) 739-8491","street_number":null,"street_name":"West Noble Avenue","zip":"93291","city":"Visalia","area":null,"county":"Tulare County","state":"California","country":"us","formatted_address":"West Noble Avenue, Visalia, Tulare County, California, 93291, United States of America","place_id":"65096217","datatype":"locationiq"},{"latitude":"38.005087","longitude":"-121.755533","name":"Kmart-Antioch,CA","address":"3625 East 18th St, Antioch,CA 94509, (925) 777-0145","street_number":null,"street_name":"East 18th Street","zip":"94561","city":"Antioch","area":null,"county":"Contra Costa County","state":"California","country":"us","formatted_address":"Bridgehead, East 18th Street, Antioch, Contra Costa County, California, 94561, United States of America","place_id":"332696","datatype":"locationiq"},{"latitude":"33.91616","longitude":"-117.32533","name":"Kmart-Riverside,CA","address":"375 E Alessandro Blvd, Riverside,CA, (951) 789-1076","street_number":null,"street_name":"Alessandro Boulevard","zip":"92508","city":"Riverside","area":null,"county":"Riverside County","state":"California","country":"us","formatted_address":"First Baptist Preschool, Alessandro Boulevard, Riverside, Riverside County, California, 92508, United States of America","place_id":"3473750","datatype":"locationiq"},{"latitude":"38.479576","longitude":"-122.734497","name":"Kmart-Santa Rosa,CA","address":"3771 Cleveland Ave, Santa Rosa,CA, (707) 544-2245","street_number":"3791","street_name":"Cleveland Avenue","zip":"95403","city":"Santa Rosa","area":null,"county":"Sonoma County","state":"California","country":"us","formatted_address":"3791, Cleveland Avenue, Santa Rosa, Sonoma County, California, 95403, United States of America","place_id":"180346617","datatype":"locationiq"},{"latitude":"38.705544","longitude":"-120.829147","name":"Kmart-Placerville,CA","address":"3968 A Missouri Flat, Placerville,CA, (530) 626-7080","street_number":null,"street_name":"Missouri Flat Road","zip":"95619","city":null,"area":null,"county":"El Dorado County","state":"California","country":"us","formatted_address":"Missouri Flat Road, Perks Corner, El Dorado County, California, 95619, United States of America","place_id":"167162964","datatype":"locationiq"},{"latitude":"35.49932","longitude":"-120.68323","name":"Kmart-Atascadero,CA","address":"3980 El Camino Real, Atascadero,CA, (805) 466-7700","street_number":"4005","street_name":"El Camino Real","zip":"93422","city":"Atascadero","area":null,"county":"San Luis Obispo County","state":"California","country":"us","formatted_address":"4005, El Camino Real, Atascadero, San Luis Obispo County, California, 93422, United States of America","place_id":"107441207","datatype":"locationiq"},{"latitude":"34.2484","longitude":"-116.88305","name":"Kmart-Big Bear Lake,CA","address":"42126 Big Bear Blvd, Big Bear Lake,CA, (909) 866-9200","street_number":null,"street_name":"Big Bear Boulevard","zip":"92314","city":"Big Bear Lake","area":null,"county":"San Bernardino County","state":"California","country":"us","formatted_address":"Fox Farms Auto Spa Serve, Big Bear Boulevard, Big Bear Lake, San Bernardino County, California, 92314, United States of America","place_id":"16714081","datatype":"locationiq"},{"latitude":"40.766247","longitude":"-124.191368","name":"Kmart-Eureka,CA","address":"4325 Broadway, Eureka,CA, (707) 444-9605","street_number":null,"street_name":"Broadway Street","zip":"95564","city":"Eureka","area":null,"county":"Humboldt County","state":"California","country":"us","formatted_address":"Broadway Street, Eureka, Humboldt County, California, 95564, United States of America","place_id":"141966807","datatype":"locationiq"},{"latitude":"32.54555","longitude":"-117.04147","name":"Kmart-San Ysidro,CA","address":"4330 Camino De La Plz, San Ysidro,CA, (619) 428-0303","street_number":"4291","street_name":"Camino de la Plaza","zip":"92173","city":"San Diego","area":"Park Haven","county":"San Diego County","state":"California","country":"us","formatted_address":"International House of Pancakes, 4291, Camino de la Plaza, Park Haven, San Ysidro, San Diego, San Diego County, California, 92173, United States of America","place_id":"137273618","datatype":"locationiq"},{"latitude":"36.839264","longitude":"-121.392952","name":"Kmart-Hollister,CA","address":"491 Tres Pinos Rd, Hollister,CA, (831) 637-5730","street_number":null,"street_name":"Tres Pinos Road","zip":"95023-6824","city":null,"area":null,"county":"San Benito County","state":"California","country":"us","formatted_address":"Chase, Tres Pinos Road, Hollister, San Benito County, California, 95023-6824, United States of America","place_id":"75459390","datatype":"locationiq"},{"latitude":"33.84025","longitude":"-118.28371","name":"Kmart-Carson,CA","address":"500 Carson Town Ctr, Carson,CA, (310) 533-0285","street_number":"419","street_name":"Carson Town Center","zip":"90745","city":"Carson","area":null,"county":"Los Angeles County","state":"California","country":"us","formatted_address":"419, Carson Town Center, Keystone, Carson, Los Angeles County, California, 90745, United States of America","place_id":"178792413","datatype":"locationiq"},{"latitude":"37.956032","longitude":"-121.968941","name":"Kmart-Concord,CA","address":"5100 Clayton Rd, Concord,CA, (925) 671-2000","street_number":null,"street_name":"Ayers Road","zip":"94521","city":"Concord","area":null,"county":"Contra Costa County","state":"California","country":"us","formatted_address":"Ayers Road, Concord, Contra Costa County, California, 94521, United States of America","place_id":"76184496","datatype":"locationiq"},{"latitude":"38.529099","longitude":"-121.444649","name":"Kmart-Sacramento,CA","address":"5100 Stockton Blvd, Sacramento,CA, (916) 452-7681","street_number":"5120","street_name":"Stockton Boulevard","zip":"95820","city":"Sacramento","area":"Oak Park","county":"Sacramento County","state":"California","country":"us","formatted_address":"5120, Stockton Boulevard, Oak Park, Sacramento, Sacramento County, California, 95820, United States of America","place_id":"179497066","datatype":"locationiq"},{"latitude":"34.10266","longitude":"-118.07378","name":"Kmart-Temple City,CA","address":"5665 Rosemead Blvd, Temple City,CA, (626) 287-9646","street_number":null,"street_name":"Rosemead Boulevard","zip":"91778","city":"Temple City","area":null,"county":"Los Angeles County","state":"California","country":"us","formatted_address":"Chevron, Rosemead Boulevard, Temple City, Los Angeles County, California, 91778, United States of America","place_id":"1642957","datatype":"locationiq"},{"latitude":"34.07121","longitude":"-118.35941","name":"Kmart-Los Angeles,CA","address":"6310 W 3rd St, Los Angeles,CA, (323) 933-7306","street_number":null,"street_name":"South Ogden Drive","zip":"90036","city":"Los Angeles","area":null,"county":"Los Angeles County","state":"California","country":"us","formatted_address":"Kmart, South Ogden Drive, The Grove, Hollywood, Los Angeles, Los Angeles County, California, 90036, United States of America","place_id":"38367951","datatype":"locationiq"},{"latitude":"39.775551","longitude":"-121.592491","name":"Kmart-Paradise,CA","address":"6600 Clark Rd, Paradise,CA, (530) 877-0733","street_number":"6578","street_name":"Clark Road","zip":"95969","city":null,"area":null,"county":"Butte County","state":"California","country":"us","formatted_address":"6578, Clark Road, Paradise, Butte County, California, 95969, United States of America","place_id":"178180848","datatype":"locationiq"},{"latitude":"34.43002","longitude":"-119.86746","name":"Kmart-Goleta,CA","address":"6865 Hollister Ave, Goleta,CA, (805) 968-4462","street_number":"6831","street_name":"Hollister Avenue","zip":"93117","city":null,"area":"El Encanto Heights","county":"Santa Barbara County","state":"California","country":"us","formatted_address":"6831, Hollister Avenue, El Encanto Heights, Goleta, Santa Barbara County, California, 93117, United States of America","place_id":"82304284","datatype":"locationiq"},{"latitude":"35.1315","longitude":"-118.46072","name":"Kmart-Tehachapi,CA","address":"710 W Tehachapi Blvd, Tehachapi,CA, (661) 822-7496","street_number":"787","street_name":"West Tehachapi Boulevard","zip":"93561","city":null,"area":null,"county":"Kern County","state":"California","country":"us","formatted_address":"All American Automotive Service Center, 787, West Tehachapi Boulevard, Tehachapi, Kern County, California, 93561, United States of America","place_id":"58333952","datatype":"locationiq"},{"latitude":"33.94561","longitude":"-117.45139","name":"Kmart-Riverside,CA","address":"7200 Arlington Ave, Riverside,CA, (951) 687-6920","street_number":null,"street_name":"Arlington Avenue","zip":"92503","city":"Riverside","area":null,"county":"Riverside County","state":"California","country":"us","formatted_address":"Arlington Avenue, Riverside, Riverside County, California, 92503, United States of America","place_id":"170102885","datatype":"locationiq"},{"latitude":"34.07081","longitude":"-117.94414","name":"Kmart-West Covina,CA","address":"730 S Orange Ave, West Covina,CA, (626) 960-3756","street_number":"730","street_name":"South Orange Avenue","zip":"91790","city":"West Covina","area":null,"county":"Los Angeles County","state":"California","country":"us","formatted_address":"730, South Orange Avenue, West Covina, Los Angeles County, California, 91790, United States of America","place_id":"178668794","datatype":"locationiq"},{"latitude":"33.97829","longitude":"-117.45493","name":"Kmart-Riverside,CA","address":"7840 Limonite Ave, Riverside,CA, (951) 681-3391","street_number":"7834","street_name":"Limonite Avenue","zip":"92509","city":"Jurupa Valley","area":null,"county":"Riverside County","state":"California","country":"us","formatted_address":"7834, Limonite Avenue, Pedley, Jurupa Valley, Riverside County, California, 92509, United States of America","place_id":"179359225","datatype":"locationiq"},{"latitude":"33.96185","longitude":"-118.18624","name":"Kmart-Cudahy,CA","address":"8017 Atlantic Ave, Cudahy,CA, (323) 771-9500","street_number":"8017","street_name":"Atlantic Avenue","zip":"90201","city":null,"area":null,"county":"Los Angeles County","state":"California","country":"us","formatted_address":"8017, Atlantic Avenue, Cudahy, Los Angeles County, California, 90201, United States of America","place_id":"178874444","datatype":"locationiq"},{"latitude":"34.33669","longitude":"-119.08507","name":"Kmart-Santa Paula,CA","address":"895 Faulkner Rd, Santa Paula,CA, (805) 525-6989","street_number":"842","street_name":"Faulkner Road","zip":"93060","city":"Santa Paula","area":null,"county":"Ventura County","state":"California","country":"us","formatted_address":"842, Faulkner Road, Santa Paula, Ventura County, California, 93060, United States of America","place_id":"180513205","datatype":"locationiq"},{"latitude":"35.63622","longitude":"-117.66966","name":"Kmart-Ridgecrest,CA","address":"910 N China Lake Blvd, Ridgecrest,CA, (760) 446-6591","street_number":null,"street_name":"North China Lake Boulevard","zip":"93555","city":"Ridgecrest","area":null,"county":"Kern County","state":"California","country":"us","formatted_address":"Kragen Auto Parts, North China Lake Boulevard, Ridgecrest, Kern County, California, 93555, United States of America","place_id":"10198260","datatype":"locationiq"},{"latitude":"35.79029","longitude":"-119.24681","name":"Kmart-Delano,CA","address":"912 County Line Rd, Delano,CA, (661) 721-7001","street_number":"966","street_name":"County Line Road","zip":"93215","city":null,"area":null,"county":"Tulare County","state":"California","country":"us","formatted_address":"966, County Line Road, Delano, Tulare County, California, 93215, United States of America","place_id":"178491085","datatype":"locationiq"},{"latitude":"32.712806","longitude":"-117.012707","name":"Kmart-Spring Valley,CA","address":"935 Sweetwater Rd, Spring Valley,CA 91977, (619) 469-1343","street_number":"942","street_name":"Sweetwater Road","zip":"91945","city":null,"area":null,"county":"San Diego County","state":"California","country":"us","formatted_address":"942, Sweetwater Road, La Presa, San Diego County, California, 91945, United States of America","place_id":"179862012","datatype":"locationiq"},{"latitude":"34.22631","longitude":"-119.03878","name":"Kmart-Camarillo,CA","address":"940 Arneill Rd, Camarillo,CA, (805) 484-4311","street_number":"921","street_name":"Arneill Road","zip":"93010","city":"Camarillo","area":null,"county":"Ventura County","state":"California","country":"us","formatted_address":"921, Arneill Road, Camarillo, Ventura County, California, 93010, United States of America","place_id":"180487892","datatype":"locationiq"},{"latitude":"39.739864","longitude":"-104.811511","name":"Kmart-Aurora,CO","address":"15200 E Colfax Ave, Aurora,CO 80011, (303) 341-4811","street_number":"15199","street_name":"East Colfax Avenue","zip":"80011","city":"Aurora","area":null,"county":"Adams County","state":"Colorado","country":"us","formatted_address":"Popeye's, 15199, East Colfax Avenue, Aurora, Adams County, Colorado, 80011, United States of America","place_id":"160924439","datatype":"locationiq"},{"latitude":"39.62297","longitude":"-104.990737","name":"Kmart-Englewood,CO","address":"200 W Belleview, Englewood,CO, (303)794-1200","street_number":null,"street_name":"West Belleview Avenue","zip":"80110","city":"Englewood","area":null,"county":"Arapahoe County","state":"Colorado","country":"us","formatted_address":"K Mart, West Belleview Avenue, Englewood, Arapahoe County, Colorado, 80110, United States of America","place_id":"6899847","datatype":"locationiq"},{"latitude":"40.40751","longitude":"-105.11299","name":"Kmart-Loveland,CO","address":"2665 W Eisenhower Blvd, Loveland,CO, (970) 663-2440","street_number":null,"street_name":"Milner Avenue","zip":"80537-3147","city":"Loveland","area":null,"county":"Larimer County","state":"Colorado","country":"us","formatted_address":"Aspen Auto Care, Milner Avenue, Loveland, Larimer County, Colorado, 80537-3147, United States of America","place_id":"120941091","datatype":"locationiq"},{"latitude":"38.87519","longitude":"-104.81977","name":"Kmart-Colorado Springs,CO","address":"3020 N Nevada Ave, Colorado Springs,CO, (719) 471-3555","street_number":null,"street_name":"North Nevada Avenue","zip":"80907","city":"Colorado Springs","area":null,"county":"El Paso County","state":"Colorado","country":"us","formatted_address":"North Nevada Avenue, Colorado Springs, El Paso County, Colorado, 80907, United States of America","place_id":"120732781","datatype":"locationiq"},{"latitude":"38.30485","longitude":"-104.61546","name":"Kmart-Pueblo,CO","address":"3415 N Elizabeth St, Pueblo,CO, (719) 545-9621","street_number":null,"street_name":"West 33rd Street","zip":"81008","city":"Pueblo","area":null,"county":"Pueblo County","state":"Colorado","country":"us","formatted_address":"Taco Bell, West 33rd Street, Pueblo, Pueblo County, Colorado, 81008, United States of America","place_id":"17706015","datatype":"locationiq"},{"latitude":"39.80212","longitude":"-105.10796","name":"Kmart-Arvada,CO","address":"9881 W 58th Ave, Arvada,CO, (303) 421-8394","street_number":null,"street_name":"West 58th Avenue","zip":"80002","city":null,"area":null,"county":"Jefferson County","state":"Colorado","country":"us","formatted_address":"McDonald's, West 58th Avenue, Arvada, Jefferson County, Colorado, 80002, United States of America","place_id":"6792256","datatype":"locationiq"},{"latitude":"41.47965","longitude":"-73.21322","name":"Kmart-Southbury,CT","address":"100 Main St N, Southbury,CT, (203) 264-7227","street_number":"142","street_name":"Main Street North","zip":"06488","city":null,"area":null,"county":"New Haven County","state":"Connecticut","country":"us","formatted_address":"142, Main Street North, Southbury, New Haven County, Connecticut, 06488, United States of America","place_id":"181398353","datatype":"locationiq"},{"latitude":"41.82684","longitude":"-72.49156","name":"Kmart-Vernon,CT","address":"295 Hartford Tpke, Vernon,CT, (860) 872-8391","street_number":"295","street_name":"Hartford Turnpike","zip":"06066","city":null,"area":null,"county":"Tolland County","state":"Connecticut","country":"us","formatted_address":"Pub 99, 295, Hartford Turnpike, Vernon, Tolland County, Connecticut, 06066, United States of America","place_id":"61576627","datatype":"locationiq"},{"latitude":"41.20743","longitude":"-73.08688","name":"Kmart-Milford,CT","address":"589 Bridgeport Ave, Milford,CT, (203) 877-6036","street_number":null,"street_name":"Bridgeport Avenue","zip":"06460","city":null,"area":null,"county":"New Haven County","state":"Connecticut","country":"us","formatted_address":"Fairway Liquor Mart, Bridgeport Avenue, Milford, New Haven County, Connecticut, 06460, United States of America","place_id":"48921310","datatype":"locationiq"},{"latitude":"41.57534","longitude":"-73.09982","name":"Kmart-Watertown,CT","address":"595 Straits Tpke, Watertown,CT, (860) 274-9204","street_number":"647","street_name":"Straits Turnpike","zip":"06795","city":null,"area":null,"county":"Litchfield County","state":"Connecticut","country":"us","formatted_address":"647, Straits Turnpike, Oakville, Litchfield County, Connecticut, 06795, United States of America","place_id":"181334342","datatype":"locationiq"},{"latitude":"39.680102","longitude":"-75.733948","name":"Kmart-Newark,DE","address":"301 College Sq, Newark,DE, (302) 738-7290","street_number":"542","street_name":"Wyoming Road","zip":"19711","city":"Newark","area":null,"county":"New Castle County","state":"Delaware","country":"us","formatted_address":"542, Wyoming Road, Newark, New Castle County, Delaware, 19711, United States of America","place_id":"181510514","datatype":"locationiq"},{"latitude":"39.63178","longitude":"-75.66278","name":"Kmart-Bear,DE","address":"401 Governors Pl, Bear,DE, (302) 834-5580","street_number":null,"street_name":"Pulaski Highway","zip":"19701-3046","city":null,"area":null,"county":"New Castle County","state":"Delaware","country":"us","formatted_address":"Wells Fargo, Pulaski Highway, Bear, New Castle County, Delaware, 19701-3046, United States of America","place_id":"104159176","datatype":"locationiq"},{"latitude":"38.7208558","longitude":"-75.1185335","name":"Kmart-Rehoboth Beach,DE","address":"4364 Hwy 1, Rehoboth Beach,DE, (302) 226-0223","street_number":"4374","street_name":"Coastal Highway","zip":"19971","city":null,"area":"Rehoboth Crossing","county":"Sussex County","state":"Delaware","country":"us","formatted_address":"Ruby Tuesday, 4374, Coastal Highway, Rehoboth Crossing, Midway, Sussex County, Delaware, 19971, United States of America","place_id":"125953814","datatype":"locationiq"},{"latitude":"39.7383315","longitude":"-75.6903477","name":"Kmart-Wilmington,DE","address":"4700 Limestone Rd, Wilmington,DE, (302) 998-4789","street_number":"4698","street_name":"New Linden Hill Road","zip":"19808","city":null,"area":null,"county":"New Castle County","state":"Delaware","country":"us","formatted_address":"4698, New Linden Hill Road, Pike Creek, Delaware, New Castle County, Delaware, 19808, United States of America","place_id":"181497993","datatype":"locationiq"},{"latitude":"28.54686","longitude":"-81.72942","name":"Kmart-Clermont,FL","address":"1002 E Highway 50, Clermont,FL, (352) 394-8667","street_number":null,"street_name":"FL 50","zip":"34755","city":null,"area":null,"county":"Lake County","state":"Florida","country":"us","formatted_address":"Sonic, FL 50, Clermont, Lake County, Florida, 34755, United States of America","place_id":"140528463","datatype":"locationiq"},{"latitude":"25.11426","longitude":"-80.4217","name":"Kmart-Key Largo,FL","address":"101499 Overseas Hwy, Key Largo,FL, (305) 451-5017","street_number":null,"street_name":null,"zip":"33037","city":null,"area":null,"county":"Monroe County","state":"Florida","country":"us","formatted_address":"Florida Keys Overseas Heritage Trail, Rock Harbor, Monroe County, Florida, 33037, United States of America","place_id":"99237465","datatype":"locationiq"},{"latitude":"29.05483","longitude":"-82.04194","name":"Kmart-Belleview,FL","address":"10301 SE Us 441, Belleview,FL, (352) 245-0155","street_number":"11620","street_name":"US 27;US 441","zip":"34420","city":null,"area":null,"county":"Marion County","state":"Florida","country":"us","formatted_address":"11620, US 27;US 441, Summerfield, Marion County, Florida, 34420, United States of America","place_id":"182459923","datatype":"locationiq"},{"latitude":"25.8741","longitude":"-80.17104","name":"Kmart-North Miami,FL","address":"10700 Biscayne Blvd, North Miami,FL, (305) 893-3900","street_number":null,"street_name":"Northeast 108th Street","zip":"33161","city":null,"area":null,"county":"Miami-Dade County","state":"Florida","country":"us","formatted_address":"Chase, Northeast 108th Street, North Miami, Courtly Manor, Miami-Dade County, Florida, 33161, United States of America","place_id":"136015015","datatype":"locationiq"},{"latitude":"26.57465","longitude":"-80.05365","name":"Kmart-Lantana,FL","address":"1201 S Dixie Hwy, Lantana,FL, (561) 586-7222","street_number":"1499","street_name":"Dixie Highway","zip":"33462","city":null,"area":null,"county":"Palm Beach County","state":"Florida","country":"us","formatted_address":"1499, Dixie Highway, Lantana, Palm Beach County, Florida, 33462, United States of America","place_id":"182841307","datatype":"locationiq"},{"latitude":"25.76075","longitude":"-80.39582","name":"Kmart-Miami,FL","address":"12350 SW 8th St, Miami,FL, (305) 553-5762","street_number":"12422","street_name":"Southwest 8th Street","zip":"33184","city":null,"area":null,"county":"Miami-Dade County","state":"Florida","country":"us","formatted_address":"12422, Southwest 8th Street, Sweetwater, Tamiami, Miami-Dade County, Florida, 33184, United States of America","place_id":"182557358","datatype":"locationiq"},{"latitude":"28.33706","longitude":"-82.69901","name":"Kmart-Hudson,FL","address":"12412 Us 19, Hudson,FL, (727) 863-2475","street_number":"12406","street_name":"US 19","zip":"34667","city":null,"area":null,"county":"Pasco County","state":"Florida","country":"us","formatted_address":"12406, US 19, Hudson, Bayonet Point, Pasco County, Florida, 34667, United States of America","place_id":"182865468","datatype":"locationiq"},{"latitude":"26.35094","longitude":"-80.11379","name":"Kmart-Boca Raton,FL","address":"1401 W Palmetto Park Rd, Boca Raton,FL, (561) 392-8665","street_number":null,"street_name":"West Palmetto Park Road","zip":"33486","city":"Boca Raton","area":null,"county":"Palm Beach County","state":"Florida","country":"us","formatted_address":"West Palmetto Park Road, Boca Raton, Palm Beach County, Florida, 33486, United States of America","place_id":"165378167","datatype":"locationiq"},{"latitude":"25.68536","longitude":"-80.42251","name":"Kmart-Miami,FL","address":"14091 Sw 88th St, Miami,FL, (305) 385-5970","street_number":"14095","street_name":"Southwest 88th Street","zip":"33186","city":null,"area":null,"county":"Miami-Dade County","state":"Florida","country":"us","formatted_address":"14095, Southwest 88th Street, Kendall Lakes, Miami-Dade County, Florida, 33186, United States of America","place_id":"163577214","datatype":"locationiq"},{"latitude":"25.86638","longitude":"-80.31144","name":"Kmart-Hialeah,FL","address":"1460 W 49th St, Hialeah,FL, (305) 822-7360","street_number":null,"street_name":"West 49th Street","zip":"FL 33012","city":null,"area":null,"county":"Miami-Dade County","state":"Florida","country":"us","formatted_address":"W 49 ST@W 14 LN, West 49th Street, Hialeah, Miami-Dade County, Florida, FL 33012, United States of America","place_id":"12271963","datatype":"locationiq"},{"latitude":"27.62884","longitude":"-80.38937","name":"Kmart-Vero Beach,FL","address":"1501 Us Highway 1, Vero Beach,FL, (772) 562-7801","street_number":"1483","street_name":"8th Avenue","zip":"32960","city":"Vero Beach","area":null,"county":"Indian River County","state":"Florida","country":"us","formatted_address":"1483, 8th Avenue, Vero Beach, Indian River County, Florida, 32960, United States of America","place_id":"182206858","datatype":"locationiq"},{"latitude":"27.93797","longitude":"-82.30849","name":"Kmart-Brandon,FL","address":"1602 W Brandon Blvd, Brandon,FL, (813) 685-2994","street_number":null,"street_name":"West Brandon Boulevard","zip":"33510","city":"Brandon","area":null,"county":"Hillsborough County","state":"Florida","country":"us","formatted_address":"Brandon K-Mart @ Hwy 60, West Brandon Boulevard, Brandon, Hillsborough County, Florida, 33510, United States of America","place_id":"8528016","datatype":"locationiq"},{"latitude":"30.42217","longitude":"-86.61092","name":"Kmart-Fort Walton Beach,FL","address":"200 Irwin Ave Ne, Fort Walton Beach,FL, (850) 243-8185","street_number":null,"street_name":"Irwin Avenue Northeast","zip":"32548","city":null,"area":null,"county":"Okaloosa County","state":"Florida","country":"us","formatted_address":"K-Mart, Irwin Avenue Northeast, Cinco Bayou, Okaloosa County, Florida, 32548, United States of America","place_id":"147553988","datatype":"locationiq"},{"latitude":"25.57628","longitude":"-80.37153","name":"Kmart-Miami,FL","address":"20505 S Dixie Hwy, Miami,FL, (305) 254-0455","street_number":null,"street_name":"Dixie Highway","zip":"33189","city":null,"area":null,"county":"Miami-Dade County","state":"Florida","country":"us","formatted_address":"Applebees, Dixie Highway, Cutler Bay, Miami-Dade County, Florida, 33189, United States of America","place_id":"100944187","datatype":"locationiq"},{"latitude":"28.01765","longitude":"-82.7384","name":"Kmart-Clearwater,FL","address":"26996 Us 19 N, Clearwater,FL, (727) 796-1035","street_number":null,"street_name":"US 19","zip":"33736","city":"Clearwater","area":null,"county":"Pinellas County","state":"Florida","country":"us","formatted_address":"Yaya's, US 19, Clearwater, Pinellas County, Florida, 33736, United States of America","place_id":"113307566","datatype":"locationiq"},{"latitude":"24.56636","longitude":"-81.77152","name":"Kmart-Key West,FL","address":"2928 N Roosevelt Blvd, Key West,FL, (305) 293-9211","street_number":null,"street_name":"North Roosevelt Boulevard","zip":"33040","city":"Key West","area":null,"county":"Monroe County","state":"Florida","country":"us","formatted_address":"Key West Kia, North Roosevelt Boulevard, Key West, Monroe County, Florida, 33040, United States of America","place_id":"173507291","datatype":"locationiq"},{"latitude":"29.19938","longitude":"-82.0844","name":"Kmart-Ocala,FL","address":"3711 E Silver Springs Blvd, Ocala,FL, (352) 694-2191","street_number":"3751","street_name":"East Silver Springs Boulevard","zip":"34470","city":"Ocala","area":null,"county":"Marion County","state":"Florida","country":"us","formatted_address":"3751, East Silver Springs Boulevard, Ocala, Marion County, Florida, 34470, United States of America","place_id":"182460390","datatype":"locationiq"},{"latitude":"26.04354","longitude":"-80.16042","name":"Kmart-Hollywood,FL","address":"3800 Oakwood Blvd, Hollywood,FL, (954) 922-7686","street_number":"2957","street_name":"Oakwood Boulevard","zip":"33020","city":null,"area":null,"county":"Broward County","state":"Florida","country":"us","formatted_address":"2957, Oakwood Boulevard, Hollywood, Broward County, Florida, 33020, United States of America","place_id":"181764445","datatype":"locationiq"},{"latitude":"25.77904","longitude":"-80.25779","name":"Kmart-Miami,FL","address":"3825 Nw 7th St, Miami,FL, (305) 649-2688","street_number":null,"street_name":"Northwest 7th Street","zip":"33126","city":"Miami","area":null,"county":"Miami-Dade County","state":"Florida","country":"us","formatted_address":"NW 7 ST@NW 38 CT, Northwest 7th Street, Miami, Miami-Dade County, Florida, 33126, United States of America","place_id":"12336530","datatype":"locationiq"},{"latitude":"26.706752","longitude":"-80.107735","name":"Kmart-West Palm Beach,FL","address":"4340 Okeechobee Blvd, West Palm Beach,FL 33409, (561) 689-3130","street_number":"4294","street_name":"Okeechobee Boulevard","zip":"33409","city":"West Palm Beach","area":null,"county":"Palm Beach County","state":"Florida","country":"us","formatted_address":"4294, Okeechobee Boulevard, West Palm Beach, Palm Beach County, Florida, 33409, United States of America","place_id":"182787440","datatype":"locationiq"},{"latitude":"27.81258","longitude":"-82.72835","name":"Kmart-St Petersburg,FL","address":"4501 66th St N, St Petersburg,FL, (727) 544-2578","street_number":null,"street_name":"66th Street North","zip":"33764","city":null,"area":null,"county":"Pinellas County","state":"Florida","country":"us","formatted_address":"66TH ST N & 46 AVE N, 66th Street North, Kenneth City, Pinellas County, Florida, 33764, United States of America","place_id":"9676269","datatype":"locationiq"},{"latitude":"27.97963","longitude":"-81.95771","name":"Kmart-Lakeland,FL","address":"4717 S Florida Ave, Lakeland,FL, (863) 644-8746","street_number":null,"street_name":"South Florida Avenue","zip":"33803:33813","city":null,"area":null,"county":"Polk County","state":"Florida","country":"us","formatted_address":"Center State Bank, South Florida Avenue, Tancrede, Polk County, Florida, 33803:33813, United States of America","place_id":"15238398","datatype":"locationiq"},{"latitude":"28.03275","longitude":"-82.39598","name":"Kmart-Tampa,FL","address":"5400 E Busch Blvd, Tampa,FL, (813) 985-6641","street_number":"5460","street_name":"East Busch Boulevard","zip":"33617","city":null,"area":null,"county":"Hillsborough County","state":"Florida","country":"us","formatted_address":"5460, East Busch Boulevard, Temple Terrace, Hillsborough County, Florida, 33617, United States of America","place_id":"182194391","datatype":"locationiq"},{"latitude":"24.71648","longitude":"-81.07429","name":"Kmart-Marathon,FL","address":"5561 Overseas Hwy, Marathon,FL, (305) 743-9434","street_number":null,"street_name":null,"zip":"33050","city":null,"area":null,"county":"Monroe County","state":"Florida","country":"us","formatted_address":"Church of Christ, Florida Keys Overseas Heritage Trail, Marathon, Monroe County, Florida, 33050, United States of America","place_id":"3408777","datatype":"locationiq"},{"latitude":"30.60296","longitude":"-87.07082","name":"Kmart-Milton,FL","address":"6050 Highway 90, Milton,FL, (850) 626-7653","street_number":"6240","street_name":"Caroline Street","zip":"32570","city":null,"area":null,"county":"Santa Rosa County","state":"Florida","country":"us","formatted_address":"6240, Caroline Street, Milton, Santa Rosa County, Florida, 32570, United States of America","place_id":"183110020","datatype":"locationiq"},{"latitude":"27.53175","longitude":"-82.50183","name":"Kmart-Ellenton,FL","address":"6126 Us 301 N, Ellenton,FL, (941) 729-3711","street_number":null,"street_name":"US 301","zip":"34222","city":null,"area":null,"county":"Manatee County","state":"Florida","country":"us","formatted_address":"US 301, Fullers Earth, Manatee County, Florida, 34222, United States of America","place_id":"87652186","datatype":"locationiq"},{"latitude":"27.49624","longitude":"-82.63493","name":"Kmart-Bradenton,FL","address":"7350 Manatee Ave W, Bradenton,FL, (941) 792-1223","street_number":"7253","street_name":"Manatee Avenue West","zip":"34209","city":"Bradenton","area":null,"county":"Manatee County","state":"Florida","country":"us","formatted_address":"7253, Manatee Avenue West, Bradenton, Manatee County, Florida, 34209, United States of America","place_id":"182400642","datatype":"locationiq"},{"latitude":"28.02333","longitude":"-82.45938","name":"Kmart-Tampa,FL","address":"8245 N Florida Ave, Tampa,FL, (813) 933-1702","street_number":null,"street_name":"North Florida Avenue","zip":"33613","city":"Tampa","area":null,"county":"Hillsborough County","state":"Florida","country":"us","formatted_address":"McDonald's, North Florida Avenue, Tampa, Hillsborough County, Florida, 33613, United States of America","place_id":"111779712","datatype":"locationiq"},{"latitude":"25.92841","longitude":"-80.18259","name":"Kmart-North Miami Beach,FL","address":"900 N Miami Beach Blvd, North Miami Beach,FL, (305) 944-1681","street_number":null,"street_name":"North Miami Beach Boulevard","zip":"33162","city":null,"area":null,"county":"Miami-Dade County","state":"Florida","country":"us","formatted_address":"N MIAMI BEACH BLVD@# 900, North Miami Beach Boulevard, North Miami Beach, Miami-Dade County, Florida, 33162, United States of America","place_id":"12063377","datatype":"locationiq"},{"latitude":"29.66038","longitude":"-82.42413","name":"Kmart-Gainesville,FL","address":"900 Nw 76th Blvd, Gainesville,FL, (352) 332-2105","street_number":"936","street_name":"Northwest 76th Boulevard","zip":"32606","city":null,"area":"Buckingham West","county":"Alachua County","state":"Florida","country":"us","formatted_address":"936, Northwest 76th Boulevard, Buckingham West, Alachua County, Florida, 32606, United States of America","place_id":"181592517","datatype":"locationiq"},{"latitude":"27.49141","longitude":"-81.4846","name":"Kmart-Sebring,FL","address":"901 Us 27 N #100, Sebring,FL, (863) 471-2266","street_number":null,"street_name":"US 27;US 98","zip":"33872","city":null,"area":null,"county":"Highlands County","state":"Florida","country":"us","formatted_address":"US 27;US 98, Sebring, Highlands County, Florida, 33872, United States of America","place_id":"114812758","datatype":"locationiq"},{"latitude":"34.79186","longitude":"-84.96223","name":"Kmart-Dalton,GA","address":"1203 Cleveland Hwy, Dalton,GA, (706) 278-7437","street_number":null,"street_name":"North Glenwood Avenue","zip":"30722","city":null,"area":null,"county":"Whitfield County","state":"Georgia","country":"us","formatted_address":"North Glenwood Avenue, Dalton, Whitfield County, Georgia, 30722, United States of America","place_id":"109494664","datatype":"locationiq"},{"latitude":"34.48452","longitude":"-84.94472","name":"Kmart-Calhoun,GA","address":"122 WC Bryant Pky, Calhoun,GA, (706) 625-0625","street_number":"114","street_name":"W C Bryant Parkway","zip":"30701","city":null,"area":null,"county":"Gordon County","state":"Georgia","country":"us","formatted_address":"114, W C Bryant Parkway, Calhoun, Gordon County, Georgia, 30701, United States of America","place_id":"183835210","datatype":"locationiq"},{"latitude":"31.49022","longitude":"-82.85075","name":"Kmart-Douglas,GA","address":"1300 Madison Ave S, Douglas,GA, (912) 384-0761","street_number":"1371","street_name":"South Madison Avenue","zip":"31533","city":null,"area":null,"county":"Coffee County","state":"Georgia","country":"us","formatted_address":"1371, South Madison Avenue, Douglas, Coffee County, Georgia, 31533, United States of America","place_id":"183562088","datatype":"locationiq"},{"latitude":"34.7596","longitude":"-84.9912","name":"Kmart-Dalton,GA","address":"1308 W Walnut Ave, Dalton,GA, (706) 226-1980","street_number":"2598","street_name":"West Walnut Avenue","zip":"30720","city":null,"area":"Southbrook Village","county":"Whitfield County","state":"Georgia","country":"us","formatted_address":"2598, West Walnut Avenue, Southbrook Village, Dalton, Whitfield County, Georgia, 30720, United States of America","place_id":"184311195","datatype":"locationiq"},{"latitude":"31.45299","longitude":"-83.52805","name":"Kmart-Tifton,GA","address":"144 Virginia Ave S, Tifton,GA, (229) 386-2822","street_number":null,"street_name":"Virginia Avenue South","zip":"31794","city":null,"area":null,"county":"Tift County","state":"Georgia","country":"us","formatted_address":"Virginia Avenue South, Tifton, Tift County, Georgia, 31794, United States of America","place_id":"65017798","datatype":"locationiq"},{"latitude":"32.89931","longitude":"-83.68884","name":"Kmart-Macon,GA","address":"156 Tom Hill Sr Blvd, Macon,GA, (478) 474-6194","street_number":null,"street_name":"Tom Hill Senior Boulevard","zip":"31210","city":"Macon","area":"McKibben Lane","county":"Bibb County","state":"Georgia","country":"us","formatted_address":"Steak 'n' Shake, Tom Hill Senior Boulevard, McKibben Lane, Macon, Bibb County, Georgia, 31210, United States of America","place_id":"54656183","datatype":"locationiq"},{"latitude":"32.51964","longitude":"-84.9576","name":"Kmart-Columbus,GA","address":"2500 Airport Thruway, Columbus,GA, (706) 322-1572","street_number":null,"street_name":"Airport Thruway","zip":"31904","city":"Columbus","area":"Wayne Terrace","county":"Muscogee County","state":"Georgia","country":"us","formatted_address":"Applebee's, Airport Thruway, Wayne Terrace, Columbus, Muscogee County, Georgia, 31904, United States of America","place_id":"28231998","datatype":"locationiq"},{"latitude":"31.61029","longitude":"-84.21127","name":"Kmart-Albany,GA","address":"2525 Dawson Rd, Albany,GA, (229) 436-7711","street_number":"2549","street_name":"Dawson Road","zip":"31707","city":null,"area":"Pointe North","county":"Dougherty County","state":"Georgia","country":"us","formatted_address":"2549, Dawson Road, Pointe North, Albany, Dougherty County, Georgia, 31707, United States of America","place_id":"183668230","datatype":"locationiq"},{"latitude":"33.37729","longitude":"-84.55968","name":"Kmart-Peachtree City,GA","address":"400 Crosstown Rd, Peachtree City,GA, (770) 487-2295","street_number":"556","street_name":"Crosstown Road","zip":"30269","city":"Peachtree City","area":null,"county":"Fayette County","state":"Georgia","country":"us","formatted_address":"556, Crosstown Road, Peachtree City, Fayette County, Georgia, 30269, United States of America","place_id":"183720523","datatype":"locationiq"},{"latitude":"34.95477","longitude":"-85.25654","name":"Kmart-Fort Oglethorpe,GA","address":"526 Battlefield Pky, Fort Oglethorpe,GA, (706) 866-1337","street_number":"500","street_name":"Battlefield Parkway","zip":"30742","city":null,"area":"Old Fort Estates","county":"Catoosa County","state":"Georgia","country":"us","formatted_address":"500, Battlefield Parkway, Old Fort Estates, Fort Oglethorpe, Catoosa County, Georgia, 30742, United States of America","place_id":"183422569","datatype":"locationiq"},{"latitude":"33.81747","longitude":"-84.5756","name":"Kmart-Mableton,GA","address":"5590 Mableton Pky Se, Mableton,GA, (770) 745-1133","street_number":null,"street_name":"Mableton Parkway","zip":"30126","city":null,"area":"Lakeside","county":"Cobb County","state":"Georgia","country":"us","formatted_address":"Waffle House, Mableton Parkway, Lakeside, Cobb County, Georgia, 30126, United States of America","place_id":"135531019","datatype":"locationiq"},{"latitude":"33.60371","longitude":"-83.87616","name":"Kmart-Covington,GA","address":"6239 Turner Lake Rd Nw, Covington,GA, (770) 787-7877","street_number":"6279","street_name":"Turner Lake Road Northwest","zip":"30014","city":null,"area":null,"county":"Newton County","state":"Georgia","country":"us","formatted_address":"6279, Turner Lake Road Northwest, Covington, Newton County, Georgia, 30014, United States of America","place_id":"184111477","datatype":"locationiq"},{"latitude":"32.43867","longitude":"-81.76263","name":"Kmart-Statesboro,GA","address":"715 Northside Dr E, Statesboro,GA, (912) 764-6992","street_number":"460","street_name":"Northside Drive East","zip":"30458","city":null,"area":"Belair Estates","county":"Bulloch County","state":"Georgia","country":"us","formatted_address":"McDonald's, 460, Northside Drive East, Belair Estates, Statesboro, Bulloch County, Georgia, 30458, United States of America","place_id":"156108754","datatype":"locationiq"},{"latitude":"31.60629","longitude":"-81.90675","name":"Kmart-Jesup,GA","address":"950 Sunset Blvd, Jesup,GA, (912) 427-9583","street_number":"1007","street_name":"Sunset Boulevard","zip":"31545","city":null,"area":null,"county":"Wayne County","state":"Georgia","country":"us","formatted_address":"1007, Sunset Boulevard, Jesup, Wayne County, Georgia, 31545, United States of America","place_id":"184299905","datatype":"locationiq"},{"latitude":"21.96912","longitude":"-159.37605","name":"Kmart-Lihue,HI","address":"4303 Nawiliwili Rd, Lihue,HI, (808) 245-7742","street_number":null,"street_name":"Nawiliwili Road","zip":"96766","city":null,"area":"Ulu Mahi","county":"Kauai County","state":"Hawaii","country":"us","formatted_address":"Nawiliwili Road, Ulu Mahi, Kupolo, Kauai County, Hawaii, 96766, United States of America","place_id":"80691377","datatype":"locationiq"},{"latitude":"21.33039","longitude":"-158.08582","name":"Kmart-Kapolei,HI","address":"500 Kamokila Blvd, Kapolei,HI, (808) 674-9355","street_number":null,"street_name":"Kamokila Boulevard","zip":"96707","city":"Kapolei","area":"West Kapolei","county":"Honolulu County","state":"Hawaii","country":"us","formatted_address":"ACE Hardware Center - Kapolei, Kamokila Boulevard, West Kapolei, Makakilo City, Kapolei, Honolulu County, Hawaii, 96707, United States of America","place_id":"17257554","datatype":"locationiq"},{"latitude":"19.65076","longitude":"-155.99872","name":"Kmart-Kailua Kona,HI","address":"74\/5465 Kamakaeha Ave, Kailua Kona,HI, (808) 326-2331","street_number":null,"street_name":"Kamakaeha Avenue","zip":"96740","city":null,"area":null,"county":"North Kona","state":"Hawaii","country":"us","formatted_address":"Kamakaeha Avenue, Hillcrest, Kailua CDP, North Kona, Hawaii, 96740, United States of America","place_id":"115237621","datatype":"locationiq"},{"latitude":"42.76142","longitude":"-95.55176","name":"Kmart-Cherokee,IA","address":"1111 N 2nd St, Cherokee,IA, (712) 225-6141","street_number":"1127","street_name":"North 2nd Street","zip":"51012","city":null,"area":null,"county":"Cherokee County","state":"Iowa","country":"us","formatted_address":"1127, North 2nd Street, Cherokee, Cherokee County, Iowa, 51012, United States of America","place_id":"187094520","datatype":"locationiq"},{"latitude":"43.052551","longitude":"-92.672684","name":"Kmart-Charles City,IA","address":"1405 S Grand, Charles City,IA, (641) 228-7935","street_number":"1588","street_name":"South Grand Avenue","zip":"50616","city":null,"area":null,"county":"Floyd County","state":"Iowa","country":"us","formatted_address":"1588, South Grand Avenue, Charles City, Floyd County, Iowa, 50616, United States of America","place_id":"187202279","datatype":"locationiq"},{"latitude":"43.08313","longitude":"-94.2364","name":"Kmart-Algona,IA","address":"1501 Highway 169 N, Algona,IA, (515) 295-7775","street_number":"1823","street_name":"North Jones Street","zip":"50511","city":null,"area":null,"county":"Kossuth County","state":"Iowa","country":"us","formatted_address":"1823, North Jones Street, Algona, Kossuth County, Iowa, 50511, United States of America","place_id":"187337016","datatype":"locationiq"},{"latitude":"42.02818","longitude":"-92.91245","name":"Kmart-Marshalltown,IA","address":"1720 S Center St, Marshalltown,IA, (641) 753-0945","street_number":null,"street_name":"East Olive Street","zip":"50158","city":null,"area":null,"county":"Marshall County","state":"Iowa","country":"us","formatted_address":"Jimmy Johns, East Olive Street, Marshalltown, Marshall County, Iowa, 50158, United States of America","place_id":"20346194","datatype":"locationiq"},{"latitude":"42.651371","longitude":"-91.91346","name":"Kmart-Oelwein,IA","address":"2105 South Frederick, Oelwein,IA, (319) 283-4931","street_number":"2107","street_name":"South Frederick Avenue","zip":"50662","city":null,"area":null,"county":"Fayette County","state":"Iowa","country":"us","formatted_address":"2107, South Frederick Avenue, Oelwein, Fayette County, Iowa, 50662, United States of America","place_id":"187197085","datatype":"locationiq"},{"latitude":"42.45296","longitude":"-93.81633","name":"Kmart-Webster City,IA","address":"2307 Superior St, Webster City,IA, (515) 832-5523","street_number":null,"street_name":"Fair Meadow Drive","zip":"50595","city":null,"area":null,"county":"Hamilton County","state":"Iowa","country":"us","formatted_address":"McDonald's, Fair Meadow Drive, Webster City, Hamilton County, Iowa, 50595, United States of America","place_id":"116884641","datatype":"locationiq"},{"latitude":"41.02774","longitude":"-95.23312","name":"Kmart-Red Oak,IA","address":"2501 N Broadway St, Red Oak,IA, (712) 623-2586","street_number":null,"street_name":"North Broadway Street","zip":"51566","city":null,"area":null,"county":"Montgomery County","state":"Iowa","country":"us","formatted_address":"North Broadway Street, Red Oak, Montgomery County, Iowa, 51566, United States of America","place_id":"160121327","datatype":"locationiq"},{"latitude":"41.6091","longitude":"-93.56947","name":"Kmart-Des Moines,IA","address":"2535 Hubbell Ave, Des Moines,IA, (515) 262-5628","street_number":"2527","street_name":"Hubbell Avenue","zip":"50317","city":"Des Moines","area":null,"county":"Polk County","state":"Iowa","country":"us","formatted_address":"2527, Hubbell Avenue, Des Moines, Polk County, Iowa, 50317, United States of America","place_id":"187481393","datatype":"locationiq"},{"latitude":"41.27928","longitude":"-95.80897","name":"Kmart-Council Bluffs,IA","address":"2803 E Kanesville Blvd, Council Bluffs,IA, (712) 325-0930","street_number":"2797","street_name":"East Kanesville Boulevard","zip":"51503","city":"Council Bluffs","area":null,"county":"Pottawattamie County","state":"Iowa","country":"us","formatted_address":"2797, East Kanesville Boulevard, Council Bluffs, Pottawattamie County, Iowa, 51503, United States of America","place_id":"187517674","datatype":"locationiq"},{"latitude":"42.06924","longitude":"-94.87557","name":"Kmart-Carroll,IA","address":"715 W Us Highway 30, Carroll,IA, (712) 792-5938","street_number":null,"street_name":"US 30","zip":"51401","city":null,"area":"Rolling Hills","county":"Carroll County","state":"Iowa","country":"us","formatted_address":"US 30, Rolling Hills, Carroll, Carroll County, Iowa, 51401, United States of America","place_id":"68259910","datatype":"locationiq"},{"latitude":"41.61489","longitude":"-93.72078","name":"Kmart-Urbandale,IA","address":"7501 Hickman Rd, Urbandale,IA, (515) 276-6712","street_number":"7442","street_name":"Hickman Road","zip":"50322","city":"Urbandale","area":null,"county":"Polk County","state":"Iowa","country":"us","formatted_address":"7442, Hickman Road, Rocklyn Office Park, Urbandale, Polk County, Iowa, 50322, United States of America","place_id":"187481805","datatype":"locationiq"},{"latitude":"41.64268","longitude":"-91.52417","name":"Kmart-Iowa City,IA","address":"901 Hollywood Blvd, Iowa City,IA, (319) 351-8170","street_number":null,"street_name":"Keokuk Street","zip":"52240","city":"Iowa City","area":"Baculis Mobile Home Park","county":"Johnson County","state":"Iowa","country":"us","formatted_address":"MidWestOne Bank, Keokuk Street, Baculis Mobile Home Park, Iowa City, Johnson County, Iowa, 52240, United States of America","place_id":"7947116","datatype":"locationiq"},{"latitude":"43.60569","longitude":"-116.60366","name":"Kmart-Nampa,ID","address":"1813 Caldwell Blvd, Nampa,ID, (208) 467-4463","street_number":"1807","street_name":"Caldwell Boulevard","zip":"83651","city":"Nampa","area":null,"county":"Canyon County","state":"Idaho","country":"us","formatted_address":"1807, Caldwell Boulevard, Nampa, Canyon County, Idaho, 83651, United States of America","place_id":"144285289","datatype":"locationiq"},{"latitude":"46.401875","longitude":"-117.001793","name":"Kmart-Lewiston,ID","address":"1815 21st St, Lewiston,ID, (208) 743-4587","street_number":null,"street_name":"21st Street","zip":"83501","city":"Lewiston","area":null,"county":"Nez Perce County","state":"Idaho","country":"us","formatted_address":"Wendy's, 21st Street, Lewiston, Nez Perce County, Idaho, 83501, United States of America","place_id":"129253613","datatype":"locationiq"},{"latitude":"42.56293","longitude":"-114.43893","name":"Kmart-Twin Falls,ID","address":"2258 Addison Ave E, Twin Falls,ID, (208) 734-5400","street_number":"2286","street_name":"East 3900 North Road","zip":"83301","city":"Twin Falls","area":null,"county":"Twin Falls County","state":"Idaho","country":"us","formatted_address":"2286, East 3900 North Road, Twin Falls, Twin Falls County, Idaho, 83301, United States of America","place_id":"184630077","datatype":"locationiq"},{"latitude":"43.482082","longitude":"-111.97224","name":"Kmart-Ammon,ID","address":"3101 East 17th St, Ammon,ID, (208) 522-1229","street_number":"3140","street_name":"East 17th Street","zip":"83406","city":"Ammon","area":null,"county":"Bonneville County","state":"Idaho","country":"us","formatted_address":"3140, East 17th Street, Ammon, Bonneville County, Idaho, 83406, United States of America","place_id":"184460355","datatype":"locationiq"},{"latitude":"47.707436","longitude":"-116.784477","name":"Kmart-Coeur D\\'Alene,ID","address":"W 201 Neider Rd, Coeur D\\'Alene,ID, (208) 667-3551","street_number":null,"street_name":"East Neider Avenue","zip":"83815","city":"Coeur d'Alene","area":null,"county":"Kootenai County","state":"Idaho","country":"us","formatted_address":"Costco, East Neider Avenue, Coeur d'Alene, Kootenai County, Idaho, 83815, United States of America","place_id":"165627692","datatype":"locationiq"},{"latitude":"39.13157","longitude":"-88.56078","name":"Kmart-Effingham,IL","address":"1006 N Keller Dr, Effingham,IL, (217) 347-0411","street_number":"950","street_name":"North Keller Drive","zip":"62401","city":"Effingham","area":null,"county":"Effingham County","state":"Illinois","country":"us","formatted_address":"950, North Keller Drive, Effingham, Effingham County, Illinois, 62401, United States of America","place_id":"185120303","datatype":"locationiq"},{"latitude":"42.02376","longitude":"-87.89548","name":"Kmart-Des Plaines,IL","address":"1155 E Oakton St, Des Plaines,IL, (847) 296-6136","street_number":null,"street_name":"Lee Street","zip":"60016","city":"Des Plaines","area":null,"county":"Cook County","state":"Illinois","country":"us","formatted_address":"Kentucky Fried Chicken, Lee Street, Des Plaines, Cook County, Illinois, 60016, United States of America","place_id":"80079900","datatype":"locationiq"},{"latitude":"42.22326","longitude":"-89.07681","name":"Kmart-Rockford,IL","address":"1321 Sandy Hollow Rd, Rockford,IL, (815) 226-9490","street_number":null,"street_name":"Sandy Hollow Road","zip":"61109","city":"Rockford","area":null,"county":"Winnebago County","state":"Illinois","country":"us","formatted_address":"Mount Olive Baptist Church, Sandy Hollow Road, Rockford, Winnebago County, Illinois, 61109, United States of America","place_id":"2717493","datatype":"locationiq"},{"latitude":"41.94991","longitude":"-88.12067","name":"Kmart-Bloomingdale,IL","address":"156 S Gary Ave, Bloomingdale,IL, (630) 307-0260","street_number":null,"street_name":"South Gary Avenue","zip":"60133","city":null,"area":null,"county":"DuPage County","state":"Illinois","country":"us","formatted_address":"South Gary Avenue, Bloomingdale, DuPage County, Illinois, 60133, United States of America","place_id":"72549542","datatype":"locationiq"},{"latitude":"41.89345","longitude":"-87.96241","name":"Kmart-Elmhurst,IL","address":"265 S Il 83, Elmhurst,IL, (630) 589-1500","street_number":"287","street_name":"Kingery Highway","zip":"60106","city":null,"area":null,"county":"DuPage County","state":"Illinois","country":"us","formatted_address":"287, Kingery Highway, Elmhurst, DuPage County, Illinois, 60106, United States of America","place_id":"185059164","datatype":"locationiq"},{"latitude":"37.89709","longitude":"-88.95625","name":"Kmart-West Frankfort,IL","address":"3 W Frankfort Plz, West Frankfort,IL, (618) 937-3588","street_number":"73","street_name":"West Frankfort Plaza","zip":"62896","city":null,"area":null,"county":"Franklin County","state":"Illinois","country":"us","formatted_address":"73, West Frankfort Plaza, Pershing, Franklin County, Illinois, 62896, United States of America","place_id":"185144329","datatype":"locationiq"},{"latitude":"41.47234","longitude":"-87.63621","name":"Kmart-Steger,IL","address":"3231 Chicago Rd, Steger,IL, (708) 755-4200","street_number":"3243","street_name":"Chicago Road","zip":"60475","city":null,"area":null,"county":"Will County","state":"Illinois","country":"us","formatted_address":"3243, Chicago Road, South Chicago Heights, Will County, Illinois, 60475, United States of America","place_id":"184895996","datatype":"locationiq"},{"latitude":"39.80171","longitude":"-89.60446","name":"Kmart-Springfield,IL","address":"3250 E Clear Lake Ave, Springfield,IL, (217) 528-7595","street_number":null,"street_name":"East Clear Lake Avenue","zip":"62703","city":"Springfield","area":null,"county":"Sangamon County","state":"Illinois","country":"us","formatted_address":"McDonald's, East Clear Lake Avenue, Springfield, Sangamon County, Illinois, 62703, United States of America","place_id":"52636587","datatype":"locationiq"},{"latitude":"38.31444","longitude":"-88.93359","name":"Kmart-Mt Vernon,IL","address":"3404 Broadway St #2, Mt Vernon,IL, (618) 244-6200","street_number":"3400","street_name":"Broadway Street","zip":"62864","city":"Mount Vernon","area":null,"county":"Jefferson County","state":"Illinois","country":"us","formatted_address":"3400, Broadway Street, Mount Vernon, Jefferson County, Illinois, 62864, United States of America","place_id":"185225287","datatype":"locationiq"},{"latitude":"41.9464","longitude":"-87.71416","name":"Kmart-Chicago,IL","address":"3443 W Addison St, Chicago,IL, (773) 478-1334","street_number":"3439-3509","street_name":"West Addison Street","zip":"60618","city":"Chicago","area":"Avondale","county":"Cook County","state":"Illinois","country":"us","formatted_address":"Kmart, 3439-3509, West Addison Street, Avondale, Chicago, Cook County, Illinois, 60618, United States of America","place_id":"106990207","datatype":"locationiq"},{"latitude":"39.93525","longitude":"-91.35637","name":"Kmart-Quincy,IL","address":"3701 Broadway St, Quincy,IL, (217) 224-1700","street_number":"3795","street_name":"Broadway Street","zip":"62305","city":"Quincy","area":null,"county":"Adams County","state":"Illinois","country":"us","formatted_address":"3795, Broadway Street, Quincy Commons, Quincy, Adams County, Illinois, 62305, United States of America","place_id":"184647595","datatype":"locationiq"},{"latitude":"41.72028","longitude":"-87.72389","name":"Kmart-Oak Lawn,IL","address":"4101 W 95th St, Oak Lawn,IL, (708) 422-5872","street_number":"4113","street_name":"West 95th Street","zip":"60453","city":null,"area":null,"county":"Cook County","state":"Illinois","country":"us","formatted_address":"4113, West 95th Street, Oak Lawn, Cook County, Illinois, 60453, United States of America","place_id":"184798929","datatype":"locationiq"},{"latitude":"41.9566","longitude":"-87.80709","name":"Kmart-Norridge,IL","address":"4201 N Harlem Ave, Norridge,IL, (708) 457-0153","street_number":null,"street_name":"North Harlem Avenue","zip":"60534","city":null,"area":null,"county":"Cook County","state":"Illinois","country":"us","formatted_address":"Kohl's, North Harlem Avenue, Norridge, Cook County, Illinois, 60534, United States of America","place_id":"23371305","datatype":"locationiq"},{"latitude":"41.49173","longitude":"-90.489891","name":"Kmart-Moline,IL","address":"5000 Avenue of the C, Moline,IL, (309) 797-2561","street_number":"3328","street_name":"Avenue of the Cities","zip":"61265","city":"Moline","area":null,"county":"Rock Island County","state":"Illinois","country":"us","formatted_address":"Moline Food Gas and Liquor, 3328, Avenue of the Cities, Moline, Rock Island County, Illinois, 61265, United States of America","place_id":"60897566","datatype":"locationiq"},{"latitude":"42.2666","longitude":"-89.00143","name":"Kmart-Rockford,IL","address":"5909 E State St, Rockford,IL, (815) 229-5711","street_number":null,"street_name":"East State Street","zip":"61108","city":null,"area":null,"county":"Winnebago County","state":"Illinois","country":"us","formatted_address":"KFC, East State Street, Cherry Valley, Winnebago County, Illinois, 61108, United States of America","place_id":"131129571","datatype":"locationiq"},{"latitude":"38.54492","longitude":"-90.05206","name":"Kmart-Belleville,IL","address":"7230 Westfield Plaza Dr, Belleville,IL, (618) 236-0371","street_number":"7201","street_name":"Westfield Plaza Drive","zip":"62223","city":"Belleville","area":null,"county":"Saint Clair County","state":"Illinois","country":"us","formatted_address":"7201, Westfield Plaza Drive, Belleville, Saint Clair County, Illinois, 62223, United States of America","place_id":"185693303","datatype":"locationiq"},{"latitude":"41.74793","longitude":"-87.80232","name":"Kmart-Bridgeview,IL","address":"7325 W 79th St, Bridgeview,IL, (708) 594-7250","street_number":null,"street_name":"79th Street","zip":"60455","city":null,"area":null,"county":"Cook County","state":"Illinois","country":"us","formatted_address":"IHOP, 79th Street, Bridgeview, Cook County, Illinois, 60455, United States of America","place_id":"23781134","datatype":"locationiq"},{"latitude":"40.48799","longitude":"-85.59504","name":"Kmart-Gas City,IN","address":"1015 E Main St, Gas City,IN, (765) 674-6988","street_number":"1023","street_name":"East Main Street","zip":"46933","city":"Gas City","area":null,"county":"Grant County","state":"Indiana","country":"us","formatted_address":"1023, East Main Street, Gas City, Grant County, Indiana, 46933, United States of America","place_id":"186242657","datatype":"locationiq"},{"latitude":"40.7467","longitude":"-86.09412","name":"Kmart-Peru,IN","address":"11 Sherwood Sq, Peru,IN, (765) 472-3991","street_number":"93","street_name":"Sherwood Square","zip":"46970","city":"Peru","area":null,"county":"Miami County","state":"Indiana","country":"us","formatted_address":"93, Sherwood Square, Peru, Miami County, Indiana, 46970, United States of America","place_id":"186614715","datatype":"locationiq"},{"latitude":"40.26489","longitude":"-85.81808","name":"Kmart-Elwood,IN","address":"1519 S State Road 37, Elwood,IN, (765) 552-3348","street_number":null,"street_name":"IN 37","zip":"46036","city":null,"area":null,"county":"Madison County","state":"Indiana","country":"us","formatted_address":"IN 37, Elwood, Madison County, Indiana, 46036, United States of America","place_id":"69716948","datatype":"locationiq"},{"latitude":"41.4938","longitude":"-87.04605","name":"Kmart-Valparaiso,IN","address":"2801 Calumet Ave, Valparaiso,IN, (219) 464-1091","street_number":null,"street_name":"Calumet Avenue","zip":"46383","city":"Valparaiso","area":null,"county":"Porter County","state":"Indiana","country":"us","formatted_address":"Long John Silver's, Calumet Avenue, Valparaiso, Porter County, Indiana, 46383, United States of America","place_id":"166800191","datatype":"locationiq"},{"latitude":"40.14666","longitude":"-85.6758","name":"Kmart-Anderson,IN","address":"2828 Broadway St, Anderson,IN, (765) 649-5524","street_number":"2724","street_name":"Broadway Street","zip":"46012","city":"Anderson","area":null,"county":"Madison County","state":"Indiana","country":"us","formatted_address":"2724, Broadway Street, Anderson, Madison County, Indiana, 46012, United States of America","place_id":"186515301","datatype":"locationiq"},{"latitude":"39.82277","longitude":"-84.94417","name":"Kmart-Richmond,IN","address":"3150 National Rd W, Richmond,IN, (765) 966-2561","street_number":null,"street_name":"National Road West","zip":"47374","city":null,"area":null,"county":"Wayne County","state":"Indiana","country":"us","formatted_address":"Kmart, National Road West, Centerville, Wayne County, Indiana, 47374, United States of America","place_id":"123025165","datatype":"locationiq"},{"latitude":"39.16452","longitude":"-86.57009","name":"Kmart-Bloomington,IN","address":"3175 W 3rd St, Bloomington,IN, (812) 339-8781","street_number":"2857","street_name":"West 3rd Street","zip":"47404","city":"Bloomington","area":null,"county":"Monroe County","state":"Indiana","country":"us","formatted_address":"2857, West 3rd Street, Bloomington, Monroe County, Indiana, 47404, United States of America","place_id":"186630320","datatype":"locationiq"},{"latitude":"41.22683","longitude":"-85.79584","name":"Kmart-Warsaw,IN","address":"3350 Lake City Hwy, Warsaw,IN, (574) 269-3410","street_number":null,"street_name":"Lake City Highway","zip":"46580","city":"Warsaw","area":null,"county":"Kosciusko County","state":"Indiana","country":"us","formatted_address":"Lake City Highway, Warsaw, Kosciusko County, Indiana, 46580, United States of America","place_id":"150743762","datatype":"locationiq"},{"latitude":"41.68053","longitude":"-86.18716","name":"Kmart-Mishawaka,IN","address":"420 W Mckinley Ave, Mishawaka,IN, (574) 259-6361","street_number":"416","street_name":"West McKinley Avenue","zip":"46545","city":"Mishawaka","area":null,"county":"Saint Joseph County","state":"Indiana","country":"us","formatted_address":"416, West McKinley Avenue, Mishawaka, Saint Joseph County, Indiana, 46545, United States of America","place_id":"186783157","datatype":"locationiq"},{"latitude":"41.55154","longitude":"-87.43102","name":"Kmart-Griffith,IN","address":"430 W Ridge Rd, Griffith,IN, (219) 972-0135","street_number":"424","street_name":"West Ridge Road","zip":"46319","city":null,"area":null,"county":"Lake County","state":"Indiana","country":"us","formatted_address":"424, West Ridge Road, Griffith, Lake County, Indiana, 46319, United States of America","place_id":"186456446","datatype":"locationiq"},{"latitude":"39.69444","longitude":"-86.08225","name":"Kmart-Indianapolis,IN","address":"5101 E Thompson Rd, Indianapolis,IN, (317) 786-1421","street_number":"5045","street_name":"South Emerson Avenue","zip":"46203","city":"Indianapolis","area":null,"county":"Marion County","state":"Indiana","country":"us","formatted_address":"5045, South Emerson Avenue, Indianapolis, Marion County, Indiana, 46203, United States of America","place_id":"186591243","datatype":"locationiq"},{"latitude":"39.744501","longitude":"-86.277832","name":"Kmart-Indianapolis,IN","address":"6780 W Washington St, Indianapolis,IN 46241, (317) 247-4771","street_number":"6767","street_name":"West Washington Street","zip":"46241","city":null,"area":null,"county":"Marion County","state":"Indiana","country":"us","formatted_address":"6767 Auto Sales, 6767, West Washington Street, Sterling Heights, Marion County, Indiana, 46241, United States of America","place_id":"125749679","datatype":"locationiq"},{"latitude":"40.4929","longitude":"-86.16515","name":"Kmart-Kokomo,IN","address":"705 N Dixon Rd, Kokomo,IN, (765) 457-1111","street_number":"603","street_name":"North Dixon Road","zip":"46901","city":"Kokomo","area":null,"county":"Howard County","state":"Indiana","country":"us","formatted_address":"603, North Dixon Road, Kokomo, Howard County, Indiana, 46901, United States of America","place_id":"186321601","datatype":"locationiq"},{"latitude":"38.37844","longitude":"-86.91656","name":"Kmart-Jasper,IN","address":"723 3rd Ave, Jasper,IN, (812) 482-2200","street_number":"803","street_name":"3rd Avenue","zip":"47546","city":null,"area":null,"county":"Dubois County","state":"Indiana","country":"us","formatted_address":"803, 3rd Avenue, Jasper, Dubois County, Indiana, 47546, United States of America","place_id":"186165397","datatype":"locationiq"},{"latitude":"39.8569","longitude":"-86.39233","name":"Kmart-Brownsburg,IN","address":"975 N Green St, Brownsburg,IN, (317) 852-6555","street_number":"1360","street_name":"North Green Street","zip":"46112","city":null,"area":null,"county":"Hendricks County","state":"Indiana","country":"us","formatted_address":"BP, 1360, North Green Street, Brownsburg, Hendricks County, Indiana, 46112, United States of America","place_id":"12268432","datatype":"locationiq"},{"latitude":"39.03454","longitude":"-95.76185","name":"Kmart-Topeka,KS","address":"1740 Sw Wanamaker Rd, Topeka,KS, (785) 273-9100","street_number":"1730","street_name":"Southwest Wanamaker Road","zip":"66604","city":"Topeka","area":null,"county":"Shawnee County","state":"Kansas","country":"us","formatted_address":"1730, Southwest Wanamaker Road, Topeka, Shawnee County, Kansas, 66604, United States of America","place_id":"21475416","datatype":"locationiq"},{"latitude":"38.83419","longitude":"-97.62507","name":"Kmart-Salina,KS","address":"400 S Broadway Blvd, Salina,KS, (785) 825-1591","street_number":"530","street_name":"South Broadway Boulevard","zip":"67401","city":null,"area":null,"county":"Saline County","state":"Kansas","country":"us","formatted_address":"530, South Broadway Boulevard, Salina, Saline County, Kansas, 67401, United States of America","place_id":"188139793","datatype":"locationiq"},{"latitude":"37.6071","longitude":"-97.333782","name":"Kmart-Wichita,KS","address":"4830 S Broadway, Wichita,KS, (316) 522-4751","street_number":null,"street_name":"East 47th Street South","zip":"67037","city":"Wichita","area":null,"county":"Sedgwick County","state":"Kansas","country":"us","formatted_address":"McDonald's, East 47th Street South, Wichita, Sedgwick County, Kansas, 67037, United States of America","place_id":"172159338","datatype":"locationiq"},{"latitude":"39.1166","longitude":"-94.76237","name":"Kmart-Kansas City,KS","address":"7836 State Ave, Kansas City,KS, (913) 299-1434","street_number":"7838","street_name":"State Avenue","zip":"66112","city":"Kansas City","area":null,"county":"Wyandotte County","state":"Kansas","country":"us","formatted_address":"7838, State Avenue, Kansas City, Wyandotte County, Kansas, 66112, United States of America","place_id":"188281342","datatype":"locationiq"},{"latitude":"36.99854","longitude":"-85.92827","name":"Kmart-Glasgow,KY","address":"230 S L Rogers Wells Blvd, Glasgow,KY, (270) 651-4989","street_number":"210","street_name":"South L Rogers Wells Boulevard","zip":"42141","city":"Glasgow","area":null,"county":"Barren County","state":"Kentucky","country":"us","formatted_address":"210, South L Rogers Wells Boulevard, Glasgow, Barren County, Kentucky, 42141, United States of America","place_id":"188295786","datatype":"locationiq"},{"latitude":"37.044315","longitude":"-88.65667","name":"Kmart-Paducah,KY","address":"2440 Lone Oak Rd, Paducah,KY, (270) 554-9500","street_number":"2456","street_name":"Lone Oak Road","zip":"42003","city":"Lone Oak","area":null,"county":"McCracken County","state":"Kentucky","country":"us","formatted_address":"2456, Lone Oak Road, Lone Oak, McCracken County, Kentucky, 42003, United States of America","place_id":"188653932","datatype":"locationiq"},{"latitude":"38.00156","longitude":"-84.51989","name":"Kmart-Lexington,KY","address":"2520 Nicholasville Rd, Lexington,KY, (859) 278-8481","street_number":"2468","street_name":"Nicholasville Road","zip":"40503","city":null,"area":"Deerfield","county":"Fayette County","state":"Kentucky","country":"us","formatted_address":"2468, Nicholasville Road, Deerfield, Brookhaven, Fayette County, Kentucky, 40503, United States of America","place_id":"157416792","datatype":"locationiq"},{"latitude":"37.82761","longitude":"-87.55551","name":"Kmart-Henderson,KY","address":"2606 Zion Rd, Henderson,KY, (270) 827-3772","street_number":"2661","street_name":"Zion Road","zip":"42420","city":null,"area":null,"county":"Henderson County","state":"Kentucky","country":"us","formatted_address":"2661, Zion Road, Henderson, Henderson County, Kentucky, 42420, United States of America","place_id":"188508912","datatype":"locationiq"},{"latitude":"37.7484","longitude":"-87.11321","name":"Kmart-Owensboro,KY","address":"2760 Frederica St, Owensboro,KY, (270) 684-0685","street_number":null,"street_name":"Wesleyan Park Plaza","zip":"42301","city":"Owensboro","area":null,"county":"Daviess County","state":"Kentucky","country":"us","formatted_address":"McDonald's, Wesleyan Park Plaza, Owensboro, Daviess County, Kentucky, 42301, United States of America","place_id":"23276651","datatype":"locationiq"},{"latitude":"37.06992","longitude":"-85.07172","name":"Kmart-Russell Springs,KY","address":"301 S Highway 127, Russell Springs,KY, (270) 866-7161","street_number":"200","street_name":"US 127","zip":"42642","city":"Russell Springs","area":null,"county":"Russell County","state":"Kentucky","country":"us","formatted_address":"200, US 127, Russell Springs, Russell County, Kentucky, 42642, United States of America","place_id":"188768601","datatype":"locationiq"},{"latitude":"39.02114","longitude":"-84.58841","name":"Kmart-Erlanger,KY","address":"3071 Dixie Hwy, Erlanger,KY, (859) 331-7080","street_number":null,"street_name":"Dixie Highway","zip":"41017","city":"Lakeside Park","area":null,"county":"Kenton County","state":"Kentucky","country":"us","formatted_address":"Dixie @ Kenton Lands, Dixie Highway, Crestview Hills Town Center, Lakeside Park, Kenton County, Kentucky, 41017, United States of America","place_id":"46047777","datatype":"locationiq"},{"latitude":"37.1026","longitude":"-84.57623","name":"Kmart-Somerset,KY","address":"420 E Highway 80, Somerset,KY, (606) 679-7366","street_number":null,"street_name":"KY 80","zip":"42503","city":null,"area":null,"county":"Pulaski County","state":"Kentucky","country":"us","formatted_address":"KY 80, Somerset, Pulaski County, Kentucky, 42503, United States of America","place_id":"94666520","datatype":"locationiq"},{"latitude":"38.05003","longitude":"-84.70935","name":"Kmart-Versailles,KY","address":"501 Marsailles Dr, Versailles,KY, (859) 873-3287","street_number":null,"street_name":"Marsailles Road","zip":"40383","city":null,"area":null,"county":"Woodford County","state":"Kentucky","country":"us","formatted_address":"KFC, Marsailles Road, Versailles, Woodford County, Kentucky, 40383, United States of America","place_id":"31769766","datatype":"locationiq"},{"latitude":"38.34752","longitude":"-82.93606","name":"Kmart-Grayson,KY","address":"600 CW Stevens Blvd, Grayson,KY, (606) 474-8855","street_number":null,"street_name":"C W Stevens Boulevard","zip":"41143","city":"Grayson","area":null,"county":"Carter County","state":"Kentucky","country":"us","formatted_address":"C W Stevens Boulevard, Grayson, Carter County, Kentucky, 41143, United States of America","place_id":"92995937","datatype":"locationiq"},{"latitude":"38.16784","longitude":"-84.89955","name":"Kmart-Frankfort,KY","address":"US 127 S, Frankfort,KY, (502) 875-5970","street_number":null,"street_name":"Lawrenceburg Road","zip":"40601","city":"Frankfort","area":null,"county":"Franklin County","state":"Kentucky","country":"us","formatted_address":"Lawrenceburg Road, Frankfort, Franklin County, Kentucky, 40601, United States of America","place_id":"68914116","datatype":"locationiq"},{"latitude":"30.00266","longitude":"-90.1516","name":"Kmart-Metairie,LA","address":"2940 Veterans Memorial Blvd, Metairie,LA, (504) 834-5883","street_number":"3198","street_name":"Veterans Memorial Boulevard","zip":"70002","city":null,"area":null,"county":"Jefferson Parish","state":"Louisiana","country":"us","formatted_address":"3198, Veterans Memorial Boulevard, Metairie, Jefferson Parish, Louisiana, 70002, United States of America","place_id":"189033581","datatype":"locationiq"},{"latitude":"30.39172","longitude":"-90.08286","name":"Kmart-Mandeville,LA","address":"3555 Us 190, Mandeville,LA, (985) 626-5258","street_number":"2901","street_name":"Emerald Road","zip":"70471","city":"Mandeville","area":null,"county":"St. Tammany Parish","state":"Louisiana","country":"us","formatted_address":"2901, Emerald Road, Mandeville, St. Tammany Parish, Louisiana, 70471, United States of America","place_id":"189280436","datatype":"locationiq"},