[{"latitude":"33.333799","longitude":"-86.793697","name":"Lumber Liquidators - 2242 Pelham Pkwy; Pelham","address":"AL 35124>205-941-9955","street_number":null,"street_name":"Commerce Parkway","zip":"35124","city":"Pelham","area":"Indian Hills","county":"Shelby County","state":"Alabama","country":"us","formatted_address":"Commerce Parkway, Indian Hills, Pelham, Shelby County, Alabama, 35124, United States of America","place_id":"64137484","datatype":"locationiq"},{"latitude":"33.605392","longitude":"-86.629425","name":"Lumber Liquidators - 1805 Tin Valley Circle; Birmingham","address":"AL 35235>205-572-4850","street_number":"3400","street_name":"Ashlyn Ct","zip":"35173","city":"Trussville","area":null,"county":"Jefferson County","state":"Alabama","country":"us","formatted_address":"3400, Ashlyn Ct, Trussville, Jefferson County, Alabama, 35173, United States of America","place_id":"176376562","datatype":"locationiq"},{"latitude":"34.654764","longitude":"-86.567015","name":"Lumber Liquidators - 8402 Whitesburg Dr S; Huntsville","address":"AL 35802>256-513-4656","street_number":"8379","street_name":"Whitesburg Drive South","zip":"35802","city":"Huntsville","area":null,"county":"Madison County","state":"Alabama","country":"us","formatted_address":"8379, Whitesburg Drive South, Huntsville, Madison County, Alabama, 35802, United States of America","place_id":"176481735","datatype":"locationiq"},{"latitude":"32.382405","longitude":"-86.232441","name":"Lumber Liquidators - 4345 Atlanta Hwy; Montgomery","address":"AL 36109>334-239-3488","street_number":null,"street_name":"Atlanta Highway","zip":"36109","city":"Montgomery","area":null,"county":"Montgomery County","state":"Alabama","country":"us","formatted_address":"Saint Paul Lutheran Church, Atlanta Highway, Montgomery, Montgomery County, Alabama, 36109, United States of America","place_id":"3512991","datatype":"locationiq"},{"latitude":"30.671314","longitude":"-88.137674","name":"Lumber Liquidators - 3725 Airport Blvd; Mobile","address":"AL 36608>251-545-3353","street_number":null,"street_name":"Carlyle Close","zip":"36609","city":"Mobile","area":null,"county":"Mobile County","state":"Alabama","country":"us","formatted_address":"Carlyle Close, Mobile, Mobile County, Alabama, 36609, United States of America","place_id":"165235450","datatype":"locationiq"},{"latitude":"34.74283","longitude":"-92.3551226","name":"Lumber Liquidators - 6 Freeway Dr; Little Rock","address":"AR 72205>501-588-4735","street_number":"23","street_name":"Freeway Drive","zip":"72204","city":"Little Rock","area":null,"county":"Pulaski County","state":"Arkansas","country":"us","formatted_address":"23, Freeway Drive, Little Rock, Pulaski County, Arkansas, 72204, United States of America","place_id":"177933009","datatype":"locationiq"},{"latitude":"36.175418","longitude":"-94.1504719","name":"Lumber Liquidators - 1840 W Sunset Ave; Springdale","address":"AR 72762>479-439-8544","street_number":"1810","street_name":"West Sunset Avenue","zip":"72762","city":"Springdale","area":null,"county":"Washington County","state":"Arkansas","country":"us","formatted_address":"1810, West Sunset Avenue, Springdale, Washington County, Arkansas, 72762, United States of America","place_id":"12941315","datatype":"locationiq"},{"latitude":"33.428081","longitude":"-112.065592","name":"Lumber Liquidators - 2120 S 7th St; Phoenix","address":"AZ 85034>602-454-2552","street_number":"2120","street_name":"South 7th Street","zip":"85034","city":"Phoenix","area":null,"county":"Maricopa County","state":"Arizona","country":"us","formatted_address":"2120, South 7th Street, Central City, Phoenix, Maricopa County, Arizona, 85034, United States of America","place_id":"97652197","datatype":"locationiq"},{"latitude":"33.618926","longitude":"-111.899727","name":"Lumber Liquidators - 8340 E Rain Tree Dr: Scottsdale","address":"AZ 85260>480-582-1400","street_number":"8598","street_name":"East Raintree Drive","zip":"85260","city":"Scottsdale","area":null,"county":"Maricopa County","state":"Arizona","country":"us","formatted_address":"8598, East Raintree Drive, Scottsdale, Maricopa County, Arizona, 85260, United States of America","place_id":"177165146","datatype":"locationiq"},{"latitude":"33.281488","longitude":"-111.7989","name":"Lumber Liquidators - 2460 E Germann Rd; Chandler","address":"AZ 85286>623-321-3590","street_number":null,"street_name":"Santan Freeway","zip":"85296","city":"Chandler","area":null,"county":"Maricopa County","state":"Arizona","country":"us","formatted_address":"Santan Freeway, Chandler, Maricopa County, Arizona, 85296, United States of America","place_id":"75825155","datatype":"locationiq"},{"latitude":"33.573587","longitude":"-112.256461","name":"Lumber Liquidators - 9700 N 91st Ave; Peoria","address":"AZ 85345>623-239-3062","street_number":null,"street_name":"Agua Fria Freeway","zip":"85345","city":"Peoria","area":"Villa Vista","county":"Maricopa County","state":"Arizona","country":"us","formatted_address":"Agua Fria Freeway, Villa Vista, Peoria, Maricopa County, Arizona, 85345, United States of America","place_id":"81886538","datatype":"locationiq"},{"latitude":"32.27604","longitude":"-111.015358","name":"Lumber Liquidators - 3745 N I-10 EB Frontage Rd; Tucson","address":"AZ 85705>520-790-7029","street_number":"3783","street_name":"North Business Center Drive","zip":"85705","city":"Tucson","area":"Flowing Wells","county":"Pima County","state":"Arizona","country":"us","formatted_address":"3783, North Business Center Drive, Flowing Wells, Stockham, Flowing Wells, Tucson, Pima County, Arizona, 85705, United States of America","place_id":"177395686","datatype":"locationiq"},{"latitude":"33.990832","longitude":"-118.13994","name":"Lumber Liquidators - 6548 Telegraph Rd; City Of Commerce","address":"CA 90040>323-721-0800","street_number":"6538","street_name":"Telegraph Road","zip":"90040","city":null,"area":null,"county":"Los Angeles County","state":"California","country":"us","formatted_address":"6538, Telegraph Road, Commerce, Los Angeles County, California, 90040, United States of America","place_id":"178940280","datatype":"locationiq"},{"latitude":"34.037659","longitude":"-118.437531","name":"Lumber Liquidators - 2310 Cotner Ave; Los Angeles","address":"CA 90064>213-785-3456","street_number":"2318","street_name":"Cotner Avenue","zip":"90064","city":"Los Angeles","area":"Sawtelle","county":"Los Angeles County","state":"California","country":"us","formatted_address":"2318, Cotner Avenue, Sawtelle, Palms, Los Angeles, Los Angeles County, California, 90064, United States of America","place_id":"178580563","datatype":"locationiq"},{"latitude":"34.099132","longitude":"-117.565844","name":"Lumber Liquidators - 10920 Arrow Route; Rancho Cucamonga","address":"CA 91730>909-937-1122","street_number":"10983","street_name":"Arrow Route","zip":"91730","city":"Rancho Cucamonga","area":null,"county":"San Bernardino County","state":"California","country":"us","formatted_address":"10983, Arrow Route, Alta Loma, Rancho Cucamonga, San Bernardino County, California, 91730, United States of America","place_id":"179591412","datatype":"locationiq"},{"latitude":"33.9934419","longitude":"-117.8735663","name":"Lumber Liquidators - 19555 Walnut Dr S; City Of Industry","address":"CA 91748>626-465-1560","street_number":"19562","street_name":"Walnut Drive","zip":"91748","city":"Diamond Bar","area":null,"county":"Los Angeles County","state":"California","country":"us","formatted_address":"19562, Walnut Drive, Diamond Bar, Los Angeles County, California, 91748, United States of America","place_id":"178816547","datatype":"locationiq"},{"latitude":"32.8867009","longitude":"-117.1482991","name":"Lumber Liquidators - 7924 Miramar Rd; San Diego","address":"CA 92126>858-689-0800","street_number":"7926","street_name":"Miramar Road","zip":"92126","city":"San Diego","area":null,"county":"San Diego County","state":"California","country":"us","formatted_address":"7926, Miramar Road, Mira Mesa, San Diego, San Diego County, California, 92126, United States of America","place_id":"5944537","datatype":"locationiq"},{"latitude":"33.7996392","longitude":"-116.3819564","name":"Lumber Liquidators - 73-806 Dinah Shore Dr; Palm Desert","address":"CA 92211>760-469-4368","street_number":null,"street_name":"Dinah Shore Drive","zip":"92211","city":"Palm Desert","area":null,"county":"Riverside County","state":"California","country":"us","formatted_address":"Dinah Shore Drive, Palm Desert, Riverside County, California, 92211, United States of America","place_id":"136938360","datatype":"locationiq"},{"latitude":"33.726497","longitude":"-117.8411033","name":"Lumber Liquidators - 1850 E Edinger Ave; Santa Ana","address":"CA 92705>714-258-8100","street_number":"1902","street_name":"Edinger Avenue","zip":"92707","city":"Santa Ana","area":null,"county":"Orange County","state":"California","country":"us","formatted_address":"1902, Edinger Avenue, Santa Ana, Orange County, California, 92707, United States of America","place_id":"179172001","datatype":"locationiq"},{"latitude":"34.250964","longitude":"-119.20454","name":"Lumber Liquidators - 6250 Inez St; Ventura","address":"CA 93003>805-256-7070","street_number":"6299","street_name":"Inez Street","zip":"93003","city":"Ventura","area":null,"county":"Ventura County","state":"California","country":"us","formatted_address":"6299, Inez Street, Ventura, Ventura County, California, 93003, United States of America","place_id":"180497164","datatype":"locationiq"},{"latitude":"35.2441972","longitude":"-120.6709046","name":"Lumber Liquidators - 170 Suburban Rd; San Luis Obispo","address":"CA 93401>805-706-0387","street_number":"170","street_name":"Suburban Road","zip":"93401","city":"San Luis Obispo","area":null,"county":"San Luis Obispo County","state":"California","country":"us","formatted_address":"170, Suburban Road, San Luis Obispo, San Luis Obispo County, California, 93401, United States of America","place_id":"116212404","datatype":"locationiq"},{"latitude":"37.5951463","longitude":"-122.3698932","name":"Lumber Liquidators - 1501 Adrian Rd; Burlingame","address":"CA 94010>650-204-4663","street_number":null,"street_name":"Adrian Road","zip":"94030","city":"Burlingame","area":"Burlingame Village","county":"San Mateo County","state":"California","country":"us","formatted_address":"Adrian Road, Burlingame Village, Burlingame, San Mateo County, California, 94030, United States of America","place_id":"89976468","datatype":"locationiq"},{"latitude":"37.981923","longitude":"-122.065337","name":"Lumber Liquidators - 110 2nd Ave S; Pacheco","address":"CA 94553>925-231-1059","street_number":"101","street_name":"2nd Avenue South","zip":"94553","city":null,"area":null,"county":"Contra Costa County","state":"California","country":"us","formatted_address":"101, 2nd Avenue South, Pacheco, Contra Costa County, California, 94553, United States of America","place_id":"178213973","datatype":"locationiq"},{"latitude":"37.7044458","longitude":"-122.1561501","name":"Lumber Liquidators - 2997 Teagarden St; San Leandro","address":"CA 94578>510-524-7800","street_number":"2978","street_name":"Teagarden Street","zip":"94577","city":"San Leandro","area":"Mulford","county":"Alameda County","state":"California","country":"us","formatted_address":"Oat Cuisine, 2978, Teagarden Street, Mulford, San Leandro, Alameda County, California, 94577, United States of America","place_id":"56284663","datatype":"locationiq"},{"latitude":"37.367019","longitude":"-121.905534","name":"Lumber Liquidators - 1575 Terminal Ave; San Jose","address":"CA 95112>408-463-6300","street_number":"1470","street_name":"Terminal Avenue","zip":"95112","city":"San Jos\u00e9","area":"Civic Center","county":"Santa Clara County","state":"California","country":"us","formatted_address":"1470, Terminal Avenue, Civic Center, Japantown, San Jos\u00e9, Santa Clara County, California, 95112, United States of America","place_id":"180222808","datatype":"locationiq"},{"latitude":"39.704804","longitude":"-104.825336","name":"Lumber Liquidators - 14015 E Exposition Ave; Aurora","address":"CO 80012>720-307-6645","street_number":"14015","street_name":"East Exposition Avenue","zip":"80012","city":"Aurora","area":null,"county":"Arapahoe County","state":"Colorado","country":"us","formatted_address":"Tuesday Morning, 14015, East Exposition Avenue, Aurora, Arapahoe County, Colorado, 80012, United States of America","place_id":"39865270","datatype":"locationiq"},{"latitude":"39.616531","longitude":"-105.092925","name":"Lumber Liquidators - 8500 W Crestline Ave; Littleton","address":"CO 80123>720-593-4350","street_number":"8601","street_name":"West Cross Drive","zip":"80123","city":"Denver","area":null,"county":"Denver County","state":"Colorado","country":"us","formatted_address":"8601, West Cross Drive, Denver, Denver County, Colorado, 80123, United States of America","place_id":"81636248","datatype":"locationiq"},{"latitude":"39.5543244","longitude":"-104.8814036","name":"Lumber Liquidators - 8204-B Park Meadows Dr; Lone Tree","address":"CO 80124>720-259-4370","street_number":"9232","street_name":"Park Meadows Drive","zip":"80124","city":"Lone Tree","area":null,"county":"Douglas County","state":"Colorado","country":"us","formatted_address":"9232, Park Meadows Drive, Lone Tree, Douglas County, Lone Tree, Colorado, 80124, United States of America","place_id":"91250870","datatype":"locationiq"},{"latitude":"39.788562","longitude":"-104.988381","name":"Lumber Liquidators - 5060 Acoma St; Denver","address":"CO 80216>303-292-1515","street_number":"5068","street_name":"Acoma Street","zip":"80216","city":"Denver","area":"Globeville","county":"Denver County","state":"Colorado","country":"us","formatted_address":"5068, Acoma Street, Globeville, Denver, Denver County, Colorado, 80216, United States of America","place_id":"180740048","datatype":"locationiq"},{"latitude":"40.151085","longitude":"-105.119921","name":"Lumber Liquidators - 633 Frontage Rd; Longmont","address":"CO 80501>720-204-3477","street_number":"643","street_name":"Frontage Road","zip":"80501","city":null,"area":null,"county":"Boulder County","state":"Colorado","country":"us","formatted_address":"643, Frontage Road, Longmont, Boulder County, Colorado, 80501, United States of America","place_id":"180670504","datatype":"locationiq"},{"latitude":"40.1511462","longitude":"-105.1193286","name":"Lumber Liquidators - 633 Frontage Rd; Longmont","address":"CO 80501>720-204-3477","street_number":"631","street_name":"Frontage Road","zip":"80501","city":null,"area":null,"county":"Boulder County","state":"Colorado","country":"us","formatted_address":"631, Frontage Road, Longmont, Boulder County, Colorado, 80501, United States of America","place_id":"180670504","datatype":"locationiq"},{"latitude":"40.580045","longitude":"-105.031888","name":"Lumber Liquidators - 2415 E Mulberry St; Fort Collins","address":"CO 80524>970-372-0197","street_number":"2415","street_name":"East Mulberry Street","zip":"80524-3697","city":null,"area":"Boxelder Estates","county":"Larimer County","state":"Colorado","country":"us","formatted_address":"Color Pro Printing, 2415, East Mulberry Street, Boxelder Estates, Arrowhead, Larimer County, Colorado, 80524-3697, United States of America","place_id":"21074806","datatype":"locationiq"},{"latitude":"38.8986497","longitude":"-104.8269245","name":"Lumber Liquidators - 4624 Northpark Dr; Colorado Springs","address":"CO 80918>719-266-9299","street_number":"4635","street_name":"Northpark Drive","zip":"80918","city":"Colorado Springs","area":null,"county":"El Paso County","state":"Colorado","country":"us","formatted_address":"CIVA Charter High School, 4635, Northpark Drive, Colorado Springs, El Paso County, Colorado, 80918, United States of America","place_id":"125077662","datatype":"locationiq"},{"latitude":"39.085758","longitude":"-108.597264","name":"Lumber Liquidators - 2465 Hwy 6 & 50; Grand Junction","address":"CO 81505>970-628-0160","street_number":"2465","street_name":"Hwy 6 And 50","zip":"81505-1138","city":"Grand Junction","area":"Colonial Heights","county":"Mesa County","state":"Colorado","country":"us","formatted_address":"Grand Valley Auto, 2465, Hwy 6 And 50, Colonial Heights, Grand Junction, Mesa County, Colorado, 81505-1138, United States of America","place_id":"123224905","datatype":"locationiq"},{"latitude":"41.736749","longitude":"-72.661069","name":"Lumber Liquidators - 121 Brainard Rd; Hartford","address":"CT 06114>860-527-8434","street_number":null,"street_name":"Brainard Road","zip":"06114","city":"City of Hartford","area":"Little Italy","county":"Hartford County","state":"Connecticut","country":"us","formatted_address":"Brainard Road, Little Italy, City of Hartford, Hartford County, Connecticut, 06114, United States of America","place_id":"89279530","datatype":"locationiq"},{"latitude":"41.379353","longitude":"-72.161019","name":"Lumber Liquidators - 150 Cross Rd; Waterford","address":"CT 06385>860-237-4545","street_number":"146","street_name":"Cross Road","zip":"06385","city":null,"area":null,"county":"New London County","state":"Connecticut","country":"us","formatted_address":"146, Cross Road, Manitock Spring, New London County, Connecticut, 06385, United States of America","place_id":"181425340","datatype":"locationiq"},{"latitude":"41.2406","longitude":"-73.030466","name":"Lumber Liquidators - 1389 Boston Post Rd; Milford","address":"CT 06460>203-693-4022","street_number":"1389","street_name":"Boston Post Road","zip":"06477","city":null,"area":"Milford Downtown","county":"New Haven County","state":"Connecticut","country":"us","formatted_address":"Lumber Liquidators, 1389, Boston Post Road, Milford Downtown, Milford, New Haven County, Connecticut, 06477, United States of America","place_id":"49172077","datatype":"locationiq"},{"latitude":"41.356961","longitude":"-72.872972","name":"Lumber Liquidators - 430 Universal Dr N; North Haven","address":"CT 06473>203-889-4703","street_number":null,"street_name":"Universal Drive North","zip":"06473","city":null,"area":null,"county":"New Haven County","state":"Connecticut","country":"us","formatted_address":"Five Below, Universal Drive North, North Haven, New Haven County, Connecticut, 06473, United States of America","place_id":"52836121","datatype":"locationiq"},{"latitude":"41.316212","longitude":"-72.902843","name":"Lumber Liquidators - 1175 State St; New Haven","address":"CT 06511>203-889-4703","street_number":null,"street_name":"James Street","zip":"06510","city":"New Haven","area":"Fair Haven","county":"New Haven County","state":"Connecticut","country":"us","formatted_address":"UHAUL, James Street, Fair Haven, New Haven, New Haven County, Connecticut, 06510, United States of America","place_id":"59808737","datatype":"locationiq"},{"latitude":"41.568414","longitude":"-73.005774","name":"Lumber Liquidators - 1012 Wolcott St; Waterbury","address":"CT 06705>203-721-6145","street_number":"998","street_name":"Wolcott Street","zip":"06705","city":"Waterbury","area":null,"county":"New Haven County","state":"Connecticut","country":"us","formatted_address":"998, Wolcott Street, Waterbury, New Haven County, Connecticut, 06705, United States of America","place_id":"181377559","datatype":"locationiq"},{"latitude":"41.80007","longitude":"-73.126101","name":"Lumber Liquidators - 237 High St; Torrington","address":"CT 06790>860-387-7032","street_number":null,"street_name":"Summer Street","zip":"06790","city":"Torrington","area":null,"county":"Litchfield County","state":"Connecticut","country":"us","formatted_address":"JCPenney, Summer Street, Torrington, Litchfield County, Connecticut, 06790, United States of America","place_id":"51374833","datatype":"locationiq"},{"latitude":"41.408453","longitude":"-73.415058","name":"Lumber Liquidators - 71 Newtown Rd; Danbury","address":"CT 06810>203-702-1430","street_number":null,"street_name":"Newtown Road","zip":"06801","city":"Danbury","area":null,"county":"Fairfield County","state":"Connecticut","country":"us","formatted_address":"Newtown Road, Danbury, Fairfield County, Connecticut, 06801, United States of America","place_id":"110918066","datatype":"locationiq"},{"latitude":"41.0953271","longitude":"-73.4486338","name":"Lumber Liquidators - 651 Connecticut Ave; Norwalk","address":"CT 06854>203-842-0840","street_number":null,"street_name":"Connecticut Avenue","zip":"06854","city":"Norwalk","area":null,"county":"Fairfield County","state":"Connecticut","country":"us","formatted_address":"Walmart, Connecticut Avenue, Norwalk, Fairfield County, Connecticut, 06854, United States of America","place_id":"110215482","datatype":"locationiq"},{"latitude":"39.666842","longitude":"-75.671285","name":"Lumber Liquidators - 23 University Plaza; Newark","address":"DE 19702>302-273-8193","street_number":null,"street_name":"Lawrence Drive","zip":"19718","city":null,"area":null,"county":"New Castle County","state":"Delaware","country":"us","formatted_address":"Lawrence Drive, Varlano, New Castle County, Delaware, 19718, United States of America","place_id":"148128197","datatype":"locationiq"},{"latitude":"39.813227","longitude":"-75.444309","name":"Lumber Liquidators - 203 Naamans Rd; Claymont","address":"DE 19703>302-798-1400","street_number":null,"street_name":"Ridge Road","zip":"19703","city":null,"area":null,"county":"New Castle County","state":"Delaware","country":"us","formatted_address":"Wawa, Ridge Road, Claymont, New Castle County, Delaware, 19703, United States of America","place_id":"152521161","datatype":"locationiq"},{"latitude":"39.195947","longitude":"-75.549089","name":"Lumber Liquidators - 2940 N DuPont Hwy; Dover","address":"DE 19901>302-747-5988","street_number":null,"street_name":"North Dupont Highway","zip":"19901","city":"Dover","area":null,"county":"Kent County","state":"Delaware","country":"us","formatted_address":"Lumber Liquidators, North Dupont Highway, Dover, Kent County, Delaware, 19901, United States of America","place_id":"148063436","datatype":"locationiq"},{"latitude":"38.4660631","longitude":"-75.5581895","name":"Lumber Liquidators - 38491 Sussex Hwy; Delmar","address":"DE 19940>302-248-5345","street_number":"37854","street_name":"Sussex Highway","zip":"19940","city":null,"area":null,"county":"Sussex County","state":"Delaware","country":"us","formatted_address":"37854, Sussex Highway, Delmar, Sussex County, Delaware, 19940, United States of America","place_id":"45284546","datatype":"locationiq"},{"latitude":"29.244546","longitude":"-81.063067","name":"Lumber Liquidators - 1757 N Nova Rd; Holly Hill","address":"FL 32117>386- 868-1191","street_number":"1099","street_name":"15th Street","zip":"32117","city":null,"area":null,"county":"Volusia County","state":"Florida","country":"us","formatted_address":"1099, 15th Street, Holly Hill, Volusia County, Florida, 32117, United States of America","place_id":"183251186","datatype":"locationiq"},{"latitude":"30.3321838","longitude":"-81.655651","name":"Lumber Liquidators - 624 Beautyrest Ave; Jacksonville","address":"FL 32205>904-783-6446","street_number":null,"street_name":"Union Street","zip":"32202-4728","city":"Jacksonville","area":"Lavilla","county":"Duval County","state":"Florida","country":"us","formatted_address":"7-Eleven, Union Street, Lavilla, Jacksonville, Duval County, Florida, 32202-4728, United States of America","place_id":"143749011","datatype":"locationiq"},{"latitude":"30.4253183","longitude":"-84.2269174","name":"Lumber Liquidators - 1516 Capital Cir SE; Tallahassee","address":"FL 32301>850-942-0000","street_number":"1488","street_name":"Capital Circle Southeast","zip":"32301","city":"Tallahassee","area":null,"county":"Leon County","state":"Florida","country":"us","formatted_address":"1488, Capital Circle Southeast, Capital Circle Office Center, Tallahassee, Leon County, Florida, 32301, United States of America","place_id":"182354572","datatype":"locationiq"},{"latitude":"30.164826","longitude":"-85.625686","name":"Lumber Liquidators - 901 NE Ave; Panama City","address":"FL 32401>850-387-4328","street_number":"941","street_name":"North East Avenue","zip":"32401","city":"Panama City","area":null,"county":"Bay County","state":"Florida","country":"us","formatted_address":"941, North East Avenue, Panama City, Bay County, Florida, 32401, United States of America","place_id":"181620339","datatype":"locationiq"},{"latitude":"28.775124","longitude":"-81.276773","name":"Lumber Liquidators - 2885 S Orlando Dr; Sanford","address":"FL 32773>321-420-1176","street_number":"2857","street_name":"US 17;US 92","zip":"32773","city":"Sanford","area":null,"county":"Seminole County","state":"Florida","country":"us","formatted_address":"2857, US 17;US 92, Sanford, Seminole County, Florida, 32773, United States of America","place_id":"183200824","datatype":"locationiq"},{"latitude":"28.417092","longitude":"-81.403892","name":"Lumber Liquidators - 9655 S Orange Blossom Trl; Orlando","address":"FL 32839>407-999-0020","street_number":"10207","street_name":"South Orange Blossom Trail","zip":"32837","city":"Orlando","area":null,"county":"Orange County","state":"Florida","country":"us","formatted_address":"10207, South Orange Blossom Trail, Orlando, Orange County, Florida, 32837, United States of America","place_id":"182695677","datatype":"locationiq"},{"latitude":"28.078726","longitude":"-80.6614507","name":"Lumber Liquidators - 2525 W New Haven Ave; Melbourne","address":"FL 32904>321-473-3510","street_number":null,"street_name":"Campbell Drive","zip":"32904","city":null,"area":null,"county":"Brevard County","state":"Florida","country":"us","formatted_address":"McDonald's, Campbell Drive, West Melbourne, Brevard County, Florida, 32904, United States of America","place_id":"52411707","datatype":"locationiq"},{"latitude":"25.6466066","longitude":"-80.3355894","name":"Lumber Liquidators - 8785 SW 133rd St; Miami","address":"FL 33176>786-507-8820","street_number":"8769","street_name":"Southwest 133rd Street","zip":"33176","city":"Kendall","area":null,"county":"Miami-Dade County","state":"Florida","country":"us","formatted_address":"8769, Southwest 133rd Street, Kendall, Miami-Dade County, Florida, 33176, United States of America","place_id":"182549016","datatype":"locationiq"},{"latitude":"28.034732","longitude":"-82.063096","name":"Lumber Liquidators - 4017 S Frontage Rd; Plant City","address":"FL 33566>863-808-1058","street_number":null,"street_name":"South Frontage Road","zip":"33563","city":null,"area":null,"county":"Hillsborough County","state":"Florida","country":"us","formatted_address":"South Frontage Road, Plant City, Hillsborough County, Florida, 33563, United States of America","place_id":"66308768","datatype":"locationiq"},{"latitude":"27.99654","longitude":"-82.579522","name":"Lumber Liquidators - 8444 W Hillsborough Ave; Tampa","address":"FL 33615>813-867-2760","street_number":null,"street_name":"Hillsborough Avenue","zip":"33635","city":null,"area":null,"county":"Hillsborough County","state":"Florida","country":"us","formatted_address":"Hillsborough Av @ Buccaneer Square, Hillsborough Avenue, Rocky Creek, Hillsborough County, Florida, 33635, United States of America","place_id":"8327475","datatype":"locationiq"},{"latitude":"27.792389","longitude":"-82.668596","name":"Lumber Liquidators - 2599 22nd Ave N; Saint Petersburg","address":"FL 33713>727-394-3255","street_number":null,"street_name":"22nd Avenue North","zip":"33710","city":"Saint Petersburg","area":"Ponce de Leon","county":"Pinellas County","state":"Florida","country":"us","formatted_address":"22ND AVE N & 26TH ST N, 22nd Avenue North, Ponce de Leon, Saint Petersburg, Pinellas County, Florida, 33710, United States of America","place_id":"9538125","datatype":"locationiq"},{"latitude":"34.09089","longitude":"-84.283868","name":"Lumber Liquidators - 735 N Main St; Alpharetta","address":"GA 30009>404-692-4483","street_number":"735","street_name":"North Main Street","zip":"30009","city":"Alpharetta","area":null,"county":"Fulton County","state":"Georgia","country":"us","formatted_address":"TITLE Boxing Club Alpharetta, 735, North Main Street, Alpharetta, Fulton County, Georgia, 30009, United States of America","place_id":"27433466","datatype":"locationiq"},{"latitude":"33.683242","longitude":"-84.032487","name":"Lumber Liquidators - 1820 Rockbridge Rd NW; Conyers","address":"GA 30012>770-860-0606","street_number":null,"street_name":"Rockbridge Road","zip":"30012","city":null,"area":null,"county":"Rockdale County","state":"Georgia","country":"us","formatted_address":"Rockbridge Road, Conyers, Rockdale County, Georgia, 30012, United States of America","place_id":"64796401","datatype":"locationiq"},{"latitude":"33.951317","longitude":"-84.140336","name":"Lumber Liquidators - 3855 Venture Dr; Duluth","address":"GA 30096>678-430-3953","street_number":"1808","street_name":"West Liddell Road","zip":"30096","city":null,"area":null,"county":"Gwinnett County","state":"Georgia","country":"us","formatted_address":"1808, West Liddell Road, Adams Crossroads, Gwinnett County, Georgia, 30096, United States of America","place_id":"183864503","datatype":"locationiq"},{"latitude":"33.725609","longitude":"-84.767558","name":"Lumber Liquidators - 7424 Douglas Blvd; Douglasville","address":"GA 30135>470-377-0055","street_number":null,"street_name":"I 20","zip":"30135","city":"Douglasville","area":null,"county":"Douglas County","state":"Georgia","country":"us","formatted_address":"I 20, Douglasville, Douglas County, Georgia, 30135, United States of America","place_id":"167768050","datatype":"locationiq"},{"latitude":"34.015084","longitude":"-84.612928","name":"Lumber Liquidators - 2500 N Cobb Pkwy; Kennesaw","address":"GA 30152>770-850-0606","street_number":null,"street_name":"Cobb Parkway","zip":"30144","city":"Kennesaw","area":null,"county":"Cobb County","state":"Georgia","country":"us","formatted_address":"Goodwill, Cobb Parkway, Kennesaw, Cobb County, Georgia, 30144, United States of America","place_id":"23144268","datatype":"locationiq"},{"latitude":"33.402002","longitude":"-84.746388","name":"Lumber Liquidators - 33 Amlajack Blvd; Newnan","address":"GA 30265>678-228-2405","street_number":null,"street_name":"Almajack Boulevard","zip":"30277","city":null,"area":"White Oak","county":"Coweta County","state":"Georgia","country":"us","formatted_address":"Almajack Boulevard, White Oak, Lakehills, Coweta County, Georgia, 30277, United States of America","place_id":"64055667","datatype":"locationiq"},{"latitude":"33.517971","longitude":"-82.069975","name":"Lumber Liquidators - 3475 Old Petersburg Rd; Augusta","address":"GA 30907>706-955-2789","street_number":null,"street_name":"Riverwatch Parkway","zip":"30907","city":null,"area":null,"county":"Columbia County","state":"Georgia","country":"us","formatted_address":"Riverwatch Parkway, West Hampton, Martinez, Columbia County, Georgia, 30907, United States of America","place_id":"154602986","datatype":"locationiq"},{"latitude":"32.6537561","longitude":"-83.7596295","name":"Lumber Liquidators - 150 Tower Centre Dr; Byron","address":"GA 31008>478-225-4604","street_number":null,"street_name":"West Heritage Street","zip":"31008","city":"Byron","area":null,"county":"Peach County","state":"Georgia","country":"us","formatted_address":"Byron Baptist Church, West Heritage Street, Byron, Peach County, Georgia, 31008, United States of America","place_id":"3422424","datatype":"locationiq"},{"latitude":"32.047434","longitude":"-81.161742","name":"Lumber Liquidators - 4131 Ogeechee Rd; Savannah","address":"GA 31405>912-480-0519","street_number":null,"street_name":"Red Gate Farms Road","zip":"31405","city":"Savannah","area":null,"county":"Chatham County","state":"Georgia","country":"us","formatted_address":"Red Gate Farms Road, Savannah, Chatham County, Georgia, 31405, United States of America","place_id":"64502997","datatype":"locationiq"},{"latitude":"32.5124232","longitude":"-84.9246494","name":"Lumber Liquidators - 4211 Milgen Rd; Columbus","address":"GA 31907>706-405-3367","street_number":"4213","street_name":"Milgen Road","zip":"31907","city":"Columbus","area":"Gentian","county":"Muscogee County","state":"Georgia","country":"us","formatted_address":"4213, Milgen Road, Gentian, Columbus, Muscogee County, Georgia, 31907, United States of America","place_id":"184093533","datatype":"locationiq"},{"latitude":"41.6169772","longitude":"-93.7541712","name":"Lumber Liquidators - 10131 Hickman Rd; Urbandale","address":"IA 50322>515-322-1465","street_number":"9999","street_name":"Hickman Road","zip":"50322","city":"Urbandale","area":null,"county":"Polk County","state":"Iowa","country":"us","formatted_address":"European Motorcars, 9999, Hickman Road, Stone Pointe Townhomes, Urbandale, Polk County, Iowa, 50322, United States of America","place_id":"107916836","datatype":"locationiq"},{"latitude":"42.029768","longitude":"-91.62335","name":"Lumber Liquidators - 1418 Twixt Town Rd; Marion","address":"IA 52404>319-243-3035","street_number":null,"street_name":"Ridge Drive","zip":"52302","city":null,"area":null,"county":"Linn County","state":"Iowa","country":"us","formatted_address":"Collins Road Theatres, Ridge Drive, Marion, Linn County, Iowa, 52302, United States of America","place_id":"9242944","datatype":"locationiq"},{"latitude":"41.5599847","longitude":"-90.5800736","name":"Lumber Liquidators - 321 W Kimberly Rd; Davenport","address":"IA 52806>866-839-7095","street_number":"520","street_name":"West Kimberly Road","zip":"52806","city":"Davenport","area":null,"county":"Scott County","state":"Iowa","country":"us","formatted_address":"Strieter Motor Company, 520, West Kimberly Road, Village Shopping Center, Davenport, Scott County, Iowa, 52806, United States of America","place_id":"147276645","datatype":"locationiq"},{"latitude":"43.510297","longitude":"-111.982488","name":"Lumber Liquidators - 1574 N Hitt Rd; Idaho Falls","address":"ID 83401>208-881-9782","street_number":null,"street_name":"Trellis Square","zip":"83401","city":"Idaho Falls","area":null,"county":"Bonneville County","state":"Idaho","country":"us","formatted_address":"Carpetmart, Trellis Square, Idaho Falls, Bonneville County, Idaho, 83401, United States of America","place_id":"99854399","datatype":"locationiq"},{"latitude":"43.5777589","longitude":"-116.274127","name":"Lumber Liquidators - 7428 W Mossy Cup St; Boise","address":"ID 83709>208-286-1180","street_number":"2799","street_name":"South Cole Road","zip":"83709","city":"Boise City","area":null,"county":"Ada County","state":"Idaho","country":"us","formatted_address":"2799, South Cole Road, Boise City, Ada County, Idaho, 83709, United States of America","place_id":"184407533","datatype":"locationiq"},{"latitude":"42.0319929","longitude":"-87.9504608","name":"Lumber Liquidators - 1460 E Algonquin Rd; Arlington Heights","address":"IL 60005>847-357-0400","street_number":null,"street_name":"East Algonquin Road","zip":"60005","city":null,"area":null,"county":"Cook County","state":"Illinois","country":"us","formatted_address":"Algonquin & Linneman, East Algonquin Road, Oasis Mobile Home Park, Cook County, Illinois, 60005, United States of America","place_id":"55449634","datatype":"locationiq"},{"latitude":"41.7203906","longitude":"-87.7247359","name":"Lumber Liquidators - 4145 W 95th St; Oak Lawn","address":"IL 60453>708-572-8888","street_number":"4157","street_name":"West 95th Street","zip":"60453","city":null,"area":null,"county":"Cook County","state":"Illinois","country":"us","formatted_address":"4157, West 95th Street, Oak Lawn, Cook County, Illinois, 60453, United States of America","place_id":"184820396","datatype":"locationiq"},{"latitude":"41.9111211","longitude":"-87.660541","name":"Lumber Liquidators - 1606 N Throop St; Chicago","address":"IL 60642>773-696-2600","street_number":"1300-1306","street_name":"West North Avenue","zip":"60614","city":"Chicago","area":"Lincoln Park","county":"Cook County","state":"Illinois","country":"us","formatted_address":"1300-1306, West North Avenue, Lincoln Park, Chicago, Cook County, Illinois, 60614, United States of America","place_id":"118513417","datatype":"locationiq"},{"latitude":"42.2276349","longitude":"-89.0287747","name":"Lumber Liquidators - 3290 S Alpine Rd; Rockford","address":"IL 61109>815-873-6631","street_number":"3287","street_name":"South Alpine Road","zip":"61109","city":"Rockford","area":null,"county":"Winnebago County","state":"Illinois","country":"us","formatted_address":"3287, South Alpine Road, Rockford, Winnebago County, Illinois, 61109, United States of America","place_id":"185945429","datatype":"locationiq"},{"latitude":"40.6890828","longitude":"-89.546582","name":"Lumber Liquidators - 1467 N Main St; East Peoria","address":"IL 61611>309-740-1801","street_number":"1899","street_name":"North Main Street","zip":"61611","city":"East Peoria","area":null,"county":"Tazewell County","state":"Illinois","country":"us","formatted_address":"1899, North Main Street, East Peoria, Tazewell County, Illinois, 61611, United States of America","place_id":"185794068","datatype":"locationiq"},{"latitude":"39.8390364","longitude":"-89.6044477","name":"Lumber Liquidators - 2731 N Dirksen Pkwy; Springfield","address":"IL 62702>217-953-4006 ","street_number":"2700","street_name":"North Dirksen Parkway","zip":"62702","city":"Springfield","area":null,"county":"Sangamon County","state":"Illinois","country":"us","formatted_address":"2700, North Dirksen Parkway, Springfield, Sangamon County, Illinois, 62702, United States of America","place_id":"157325511","datatype":"locationiq"},{"latitude":"39.585918","longitude":"-86.102962","name":"Lumber Liquidators - 2117 Independence Dr; Greenwood","address":"IN 46143>317-522-0076","street_number":"2121","street_name":"Independence Drive","zip":"46143","city":"Greenwood","area":null,"county":"Johnson County","state":"Indiana","country":"us","formatted_address":"2121, Independence Drive, Greenwood, Johnson County, Indiana, 46143, United States of America","place_id":"186397303","datatype":"locationiq"},{"latitude":"39.774926","longitude":"-85.986696","name":"Lumber Liquidators - 10207 E Washington St; Indianapolis","address":"IN 46229>317-762-2341","street_number":"10181","street_name":"East Washington Street","zip":"46229","city":null,"area":null,"county":"Marion County","state":"Indiana","country":"us","formatted_address":"10181, East Washington Street, Warren Hills, Marion County, Indiana, 46229, United States of America","place_id":"186570707","datatype":"locationiq"},{"latitude":"39.9081645","longitude":"-86.2210766","name":"Lumber Liquidators - 8410 N Michigan Rd; Indianapolis","address":"IN 46268>317-541-1444","street_number":null,"street_name":"Michigan Road","zip":"46268","city":null,"area":null,"county":"Marion County","state":"Indiana","country":"us","formatted_address":"Lowe's, Michigan Road, Westover, Marion County, Indiana, 46268, United States of America","place_id":"3643910","datatype":"locationiq"},{"latitude":"41.471805","longitude":"-87.350076","name":"Lumber Liquidators - 1140 W 81st Ave; Merrillville","address":"IN 46410>219-801-7622","street_number":"1142","street_name":"West 81st Avenue","zip":"46410","city":null,"area":"Southmoor Park","county":"Lake County","state":"Indiana","country":"us","formatted_address":"1142, West 81st Avenue, Southmoor Park, Merrillville, Lake County, Indiana, 46410, United States of America","place_id":"186472263","datatype":"locationiq"},{"latitude":"41.7232596","longitude":"-86.2499676","name":"Lumber Liquidators - 3725 Cleveland Rd; South Bend","address":"IN 46637>574-485-2524","street_number":null,"street_name":"Cleveland Road","zip":"46637","city":"South Bend","area":null,"county":"Saint Joseph County","state":"Indiana","country":"us","formatted_address":"Cleveland Road, Notre Dame, South Bend, Saint Joseph County, Indiana, 46637, United States of America","place_id":"69883587","datatype":"locationiq"},{"latitude":"41.1121368","longitude":"-85.174854","name":"Lumber Liquidators - 2639 Goshen Rd; Fort Wayne","address":"IN 46808>260-494-3210","street_number":"2641","street_name":"Goshen Road","zip":"46808","city":"Fort Wayne","area":null,"county":"Allen County","state":"Indiana","country":"us","formatted_address":"2641, Goshen Road, Fort Wayne, Allen County, Indiana, 46808, United States of America","place_id":"186009037","datatype":"locationiq"},{"latitude":"37.988872","longitude":"-87.538809","name":"Lumber Liquidators - 1200 N Willow Rd; Evansville","address":"IN 47711>812-618-1301","street_number":"1272","street_name":"North Willow Road","zip":"47711","city":"Evansville","area":null,"county":"Vanderburgh County","state":"Indiana","country":"us","formatted_address":"1272, North Willow Road, Evansville, Vanderburgh County, Indiana, 47711, United States of America","place_id":"186877388","datatype":"locationiq"},{"latitude":"40.413658","longitude":"-86.825466","name":"Lumber Liquidators - 4315 Commerce Dr; Lafayette","address":"IN 47905>765-588-3554","street_number":null,"street_name":"Commerce Drive","zip":"47905","city":"Lafayette","area":null,"county":"Tippecanoe County","state":"Indiana","country":"us","formatted_address":"Commerce Drive, Lafayette, Tippecanoe County, Indiana, 47905, United States of America","place_id":"129157416","datatype":"locationiq"},{"latitude":"38.950308","longitude":"-94.724965","name":"Lumber Liquidators - 9800 Quivira Rd; Lenexa","address":"KS 66215>913-254-9800","street_number":null,"street_name":"West 97th Street","zip":"66215","city":"Lenexa","area":null,"county":"Johnson County","state":"Kansas","country":"us","formatted_address":"Kansas Sampler, West 97th Street, Lenexa, Johnson County, Kansas, 66215, United States of America","place_id":"45342429","datatype":"locationiq"},{"latitude":"39.028907","longitude":"-95.758081","name":"Lumber Liquidators - 5907 SW 21st St; Topeka","address":"KS 66604>785-783-0608","street_number":"5836","street_name":"Southwest 21st Street","zip":"66604","city":"Topeka","area":null,"county":"Shawnee County","state":"Kansas","country":"us","formatted_address":"Natural Grocers, 5836, Southwest 21st Street, Topeka, Shawnee County, Kansas, 66604, United States of America","place_id":"138285664","datatype":"locationiq"},{"latitude":"37.669558","longitude":"-97.444677","name":"Lumber Liquidators - 8909 W Kellogg Dr; Wichita","address":"KS 67209>316-768-4552","street_number":null,"street_name":"West Kellogg Drive South","zip":"67209","city":"Wichita","area":null,"county":"Sedgwick County","state":"Kansas","country":"us","formatted_address":"West Kellogg Drive South, Wichita, Sedgwick County, Kansas, 67209, United States of America","place_id":"67116256","datatype":"locationiq"},{"latitude":"38.162683","longitude":"-85.833295","name":"Lumber Liquidators - 5236 Dixie Hwy; Louisville","address":"KY 40216>502-915-2838","street_number":"5236","street_name":"Dixie Highway","zip":"40216","city":"Shively","area":null,"county":"Jefferson County","state":"Kentucky","country":"us","formatted_address":"5236, Dixie Highway, Shively, Jefferson County, Kentucky, 40216, United States of America","place_id":"47328582","datatype":"locationiq"},{"latitude":"38.2122464","longitude":"-85.569506","name":"Lumber Liquidators - 2223 Plantside Dr; Jeffersontown","address":"KY 40299>502-499-6600","street_number":"2218","street_name":"Plantside Drive","zip":"40299","city":"Jeffersontown","area":null,"county":"Jefferson County","state":"Kentucky","country":"us","formatted_address":"2218, Plantside Drive, Jeffersontown, Jefferson County, Kentucky, 40299, United States of America","place_id":"147397227","datatype":"locationiq"},{"latitude":"38.0412419","longitude":"-84.4466924","name":"Lumber Liquidators - 2320 Fortune Dr; Lexington","address":"KY 40509>859-963-1441","street_number":"2331","street_name":"Fortune Drive","zip":"40505","city":null,"area":null,"county":"Fayette County","state":"Kentucky","country":"us","formatted_address":"2331, Fortune Drive, Eastland Park, Fayette County, Kentucky, 40505, United States of America","place_id":"53141063","datatype":"locationiq"},{"latitude":"38.989644","longitude":"-84.65333","name":"Lumber Liquidators - 7800 Connector Dr; Florence","address":"KY 41042>859-918-9961","street_number":"8133","street_name":"Preakness Drive","zip":"41042","city":"Florence","area":null,"county":"Boone County","state":"Kentucky","country":"us","formatted_address":"8133, Preakness Drive, Florence, Boone County, Kentucky, 41042, United States of America","place_id":"188313536","datatype":"locationiq"},{"latitude":"36.9546146","longitude":"-86.4241065","name":"Lumber Liquidators - 1109 Lovers Ln; Bowling Green","address":"KY 42103>270-282-0790","street_number":"1103","street_name":"Lovers Lane","zip":"42103","city":"Bowling Green","area":null,"county":"Warren County","state":"Kentucky","country":"us","formatted_address":"1103, Lovers Lane, Bowling Green, Warren County, Kentucky, 42103, United States of America","place_id":"188799397","datatype":"locationiq"},{"latitude":"29.951933","longitude":"-90.181046","name":"Lumber Liquidators - 800 S Clearview Pkwy; Harahan","address":"LA 70123>504-733-6230","street_number":"5389","street_name":"Jefferson Highway","zip":"70123","city":null,"area":null,"county":"Jefferson Parish","state":"Louisiana","country":"us","formatted_address":"5389, Jefferson Highway, Elmwood, Jefferson Parish, Louisiana, 70123, United States of America","place_id":"189028814","datatype":"locationiq"},{"latitude":"30.303272","longitude":"-89.822369","name":"Lumber Liquidators - 2170 Gause Blvd W; Slidell","address":"LA 70460>985-288-1890","street_number":null,"street_name":"Gause Boulevard West","zip":"70460","city":"Slidell","area":null,"county":"St. Tammany Parish","state":"Louisiana","country":"us","formatted_address":"Mi Patio, Gause Boulevard West, Slidell, St. Tammany Parish, Louisiana, 70460, United States of America","place_id":"47052835","datatype":"locationiq"},{"latitude":"30.1649656","longitude":"-91.9748744","name":"Lumber Liquidators - 3401 U. 90; Broussard","address":"LA 70518>337-326-4683","street_number":null,"street_name":"US 90","zip":"70518","city":"Broussard","area":null,"county":"Lafayette Parish","state":"Louisiana","country":"us","formatted_address":"US 90, Broussard, Lafayette Parish, Louisiana, 70518, United States of America","place_id":"66692770","datatype":"locationiq"},{"latitude":"30.495066","longitude":"-90.8383","name":"Lumber Liquidators - 9125 Comar Dr; Walker","address":"LA 70785>225-263-1990","street_number":null,"street_name":"Comar Drive","zip":"70785","city":null,"area":null,"county":"Livingston Parish","state":"Louisiana","country":"us","formatted_address":"Comar Drive, Walker, Livingston Parish, Louisiana, 70785, United States of America","place_id":"67464468","datatype":"locationiq"},{"latitude":"30.393658","longitude":"-91.050246","name":"Lumber Liquidators - 11770 Airline Hwy; Baton Rouge","address":"LA 70809>225-298-1388","street_number":null,"street_name":"Airline Highway","zip":"70769:70817","city":null,"area":null,"county":"East Baton Rouge Parish","state":"Louisiana","country":"us","formatted_address":"Airline Highway, Nesser, East Baton Rouge Parish, Louisiana, 70769:70817, United States of America","place_id":"99503560","datatype":"locationiq"},{"latitude":"32.5251516","longitude":"-93.7501789","name":"Lumber Liquidators - 343 Bert Kouns Industrial Loop; Shreveport","address":"LA 71106>318-402-0992","street_number":null,"street_name":"River Parkway","zip":"71107","city":"Shreveport","area":null,"county":"Caddo Parish","state":"Louisiana","country":"us","formatted_address":"River Parkway, Shreveport, Caddo Parish, Louisiana, 71107, United States of America","place_id":"81728635","datatype":"locationiq"},{"latitude":"42.367687","longitude":"-72.636406","name":"Lumber Liquidators - 10 West St; West Hatfield","address":"MA 01088>413-349-4064","street_number":null,"street_name":"West Street","zip":"01088","city":null,"area":null,"county":"Hampshire County","state":"Massachusetts","country":"us","formatted_address":"Ten West Plaza, West Street, Hatfield, Hampshire County, Massachusetts, 01088, United States of America","place_id":"103378925","datatype":"locationiq"},{"latitude":"42.151338","longitude":"-72.466725","name":"Lumber Liquidators - 2148 Boston Rd; Wilbraham","address":"MA 01095>413-682-1583","street_number":"2190","street_name":"Boston Road","zip":"01095","city":null,"area":null,"county":"Hampden County","state":"Massachusetts","country":"us","formatted_address":"2190, Boston Road, Wilbraham, Hampden County, Massachusetts, 01095, United States of America","place_id":"190274839","datatype":"locationiq"},{"latitude":"42.541083","longitude":"-71.758054","name":"Lumber Liquidators - 110 Water Tower Plaza; Leominster","address":"MA 01453>978-751-3745","street_number":null,"street_name":"North Main Street","zip":"01453","city":"Leominster","area":"West Leominster","county":"Worcester County","state":"Massachusetts","country":"us","formatted_address":"Staples, North Main Street, West Leominster, Leominster, Worcester County, Massachusetts, 01453, United States of America","place_id":"51952639","datatype":"locationiq"},{"latitude":"42.275939","longitude":"-71.679816","name":"Lumber Liquidators - 835 Hartford Tpke; Shrewsbury","address":"MA 01545>508-925-9070","street_number":null,"street_name":"Hartford Turnpike","zip":"01545","city":null,"area":null,"county":"Worcester County","state":"Massachusetts","country":"us","formatted_address":"Hartford Turnpike, Shrewsbury, Worcester County, Massachusetts, 01545, United States of America","place_id":"64614368","datatype":"locationiq"},{"latitude":"42.4984449","longitude":"-71.124582","name":"Lumber Liquidators - 345 Washington St; Woburn","address":"MA 01801>781-935-4111","street_number":"2-36","street_name":"Washington Street","zip":"01801","city":null,"area":null,"county":"Middlesex County","state":"Massachusetts","country":"us","formatted_address":"2-36, Washington Street, Woburn, Middlesex County, Massachusetts, 01801, United States of America","place_id":"75964333","datatype":"locationiq"},{"latitude":"42.270023","longitude":"-71.1725","name":"Lumber Liquidators - 1455 VFW Pkwy; Boston","address":"MA 02026>617-327-1222","street_number":"1430","street_name":"Veterans Of Foreign Wars Parkway","zip":"02132","city":"Boston","area":"Germantown","county":"Suffolk County","state":"Massachusetts","country":"us","formatted_address":"1430, Veterans Of Foreign Wars Parkway, Germantown, West Roxbury, Boston, Suffolk County, Massachusetts, 02132, United States of America","place_id":"190516050","datatype":"locationiq"},{"latitude":"42.2209958","longitude":"-71.0374263","name":"Lumber Liquidators - 240 Wood Rd; Braintree","address":"MA 02184>781-849-9663","street_number":"234","street_name":"Wood Road","zip":"02184","city":null,"area":null,"county":"Norfolk County","state":"Massachusetts","country":"us","formatted_address":"234, Wood Road, Braintree, Norfolk County, Massachusetts, 02184, United States of America","place_id":"190427293","datatype":"locationiq"},{"latitude":"41.92897","longitude":"-70.651517","name":"Lumber Liquidators - 76 Shops at 5 Way; Plymouth","address":"MA 02360>508-927-1138","street_number":null,"street_name":"Robert J Way","zip":"02360","city":null,"area":null,"county":"Plymouth County","state":"Massachusetts","country":"us","formatted_address":"Robert J Way, The Grove at Plymouth, Plymouth, Plymouth County, Massachusetts, 02360, United States of America","place_id":"157561638","datatype":"locationiq"},{"latitude":"41.6571","longitude":"-70.284692","name":"Lumber Liquidators - 20 Charles St; Barnstable Town","address":"MA 02601>508-815-4121","street_number":null,"street_name":"Pine Street","zip":"02601-5542","city":null,"area":null,"county":"Barnstable County","state":"Massachusetts","country":"us","formatted_address":"Bread Store & Church of The First Born, Pine Street, Barnstable, Barnstable County, Massachusetts, 02601-5542, United States of America","place_id":"118926654","datatype":"locationiq"},{"latitude":"41.754428","longitude":"-71.212729","name":"Lumber Liquidators - 207 Swansea Mall Dr; Swansea","address":"MA 02777>508-689-5925","street_number":"178","street_name":"Luther Avenue","zip":"02777","city":null,"area":null,"county":"Bristol County","state":"Massachusetts","country":"us","formatted_address":"178, Luther Avenue, Swansea, Bristol County, Massachusetts, 02777, United States of America","place_id":"190143788","datatype":"locationiq"},{"latitude":"38.648683","longitude":"-76.884546","name":"Lumber Liquidators - 2260 Crain Hwy; Waldorf","address":"MD 20601>240-435-2092","street_number":"2239","street_name":"Old Washington Road","zip":"20601","city":null,"area":null,"county":"Charles County","state":"Maryland","country":"us","formatted_address":"2239, Old Washington Road, Waldorf, Charles County, Maryland, 20601, United States of America","place_id":"189739703","datatype":"locationiq"},{"latitude":"39.030596","longitude":"-76.912887","name":"Lumber Liquidators - 10711 Baltimore Ave; Beltsville","address":"MD 20705>301-931-3467","street_number":null,"street_name":"Baltimore Avenue","zip":"20705; 20740","city":null,"area":"Orchard View","county":"Prince George's County","state":"Maryland","country":"us","formatted_address":"Wendy's, Baltimore Avenue, Orchard View, Beltsville, Prince George's County, Maryland, 20705; 20740, United States of America","place_id":"45419876","datatype":"locationiq"},{"latitude":"39.094299","longitude":"-77.153999","name":"Lumber Liquidators - 800 Hungerford Dr; Rockville","address":"MD 20850>301-971-4772","street_number":"800","street_name":"Hungerford Drive","zip":"20850","city":"Rockville","area":"Westmore","county":"Montgomery County","state":"Maryland","country":"us","formatted_address":"800, Hungerford Drive, Westmore, King Farm, Rockville, Montgomery County, Maryland, 20850, United States of America","place_id":"189860998","datatype":"locationiq"},{"latitude":"39.443799","longitude":"-76.291585","name":"Lumber Liquidators - 2710 Pulaski Hwy; Edgewood","address":"MD 21040>443-490-0180","street_number":null,"street_name":"Pulaski Highway","zip":"21009","city":null,"area":null,"county":"Harford County","state":"Maryland","country":"us","formatted_address":"Pulaski Highway, Edgewood, Harford County, Maryland, 21009, United States of America","place_id":"149732045","datatype":"locationiq"},{"latitude":"39.196732","longitude":"-76.59778","name":"Lumber Liquidators - 585-A E Ordnance Rd; Glen Burnie","address":"MD 21060>443-422-6758","street_number":"589","street_name":"East Ordnance Road","zip":"21060","city":null,"area":"Cromwell Fountain","county":"Anne Arundel County","state":"Maryland","country":"us","formatted_address":"589, East Ordnance Road, Cromwell Fountain, Glen Burnie, Anne Arundel County, Maryland, 21060, United States of America","place_id":"189609649","datatype":"locationiq"},{"latitude":"39.444317","longitude":"-76.625022","name":"Lumber Liquidators - 2151 York Rd; Lutherville Timonium","address":"MD 21093>443-846-0430","street_number":"2151","street_name":"York Road","zip":"21093","city":null,"area":"Haverford","county":"Baltimore County","state":"Maryland","country":"us","formatted_address":"ALEXANDERblank, 2151, York Road, Haverford, Hunt Valley, Timonium, Baltimore County, Maryland, 21093, United States of America","place_id":"50995239","datatype":"locationiq"},{"latitude":"39.359695","longitude":"-76.447588","name":"Lumber Liquidators - 9902 C Pulaski Hwy; Middle River","address":"MD 21220>443-274-7266","street_number":"9902","street_name":"Pulaski Highway","zip":"21220","city":null,"area":"Poplar","county":"Baltimore County","state":"Maryland","country":"us","formatted_address":"9902, Pulaski Highway, Poplar, Rossville, Baltimore County, Maryland, 21220, United States of America","place_id":"41096800","datatype":"locationiq"},{"latitude":"39.3306959","longitude":"-76.7563891","name":"Lumber Liquidators - 2707 N Rolling Rd; Windsor Mill","address":"MD 21244>410-944-9988","street_number":null,"street_name":"North Rolling Road","zip":"21244","city":null,"area":"Windsor Mill","county":"Baltimore County","state":"Maryland","country":"us","formatted_address":"North Rolling Road, Windsor Mill, Woodlawn, Baltimore County, Maryland, 21244, United States of America","place_id":"62392521","datatype":"locationiq"},{"latitude":"38.974406","longitude":"-76.524","name":"Lumber Liquidators - 10 Lincoln Ct; Annapolis","address":"MD 21401>443-951-0202","street_number":"1933","street_name":"Lincoln Drive","zip":"21401","city":"Annapolis","area":"Forest Villa","county":"Anne Arundel County","state":"Maryland","country":"us","formatted_address":"1933, Lincoln Drive, Forest Villa, Annapolis, Anne Arundel County, Maryland, 21401, United States of America","place_id":"55190547","datatype":"locationiq"},{"latitude":"39.3899752","longitude":"-77.4128013","name":"Lumber Liquidators - 7311 Grove Rd; Frederick","address":"MD 21704>240-575-3065","street_number":"7381","street_name":"Grove Road","zip":"21704","city":null,"area":null,"county":"Frederick County","state":"Maryland","country":"us","formatted_address":"7381, Grove Road, Evergreen Point, Frederick County, Maryland, 21704, United States of America","place_id":"189776392","datatype":"locationiq"},{"latitude":"43.597774","longitude":"-70.331846","name":"Lumber Liquidators - 443 US Rte 1; Scarborough","address":"ME 04074>207-885-9900","street_number":"98","street_name":"Foley Farms Road","zip":"04074","city":null,"area":null,"county":"Cumberland County","state":"Maine","country":"us","formatted_address":"98, Foley Farms Road, Scarborough, Cumberland County, Maine, 04074, United States of America","place_id":"189413726","datatype":"locationiq"},{"latitude":"44.125475","longitude":"-70.226849","name":"Lumber Liquidators - 730 Center St; Auburn","address":"ME 04210>207-692-2236","street_number":null,"street_name":"Center Street","zip":"04210","city":"Auburn","area":null,"county":"Androscoggin County","state":"Maine","country":"us","formatted_address":"Center Street, Auburn, Androscoggin County, Maine, 04210, United States of America","place_id":"64795502","datatype":"locationiq"},{"latitude":"44.7812402","longitude":"-68.7446471","name":"Lumber Liquidators - 510 Wilson St; Brewer","address":"ME 04412>207-631-2370","street_number":"528","street_name":"Wilson Street","zip":"04412","city":"Brewer","area":null,"county":"Penobscot County","state":"Maine","country":"us","formatted_address":"528, Wilson Street, Brewer, Penobscot County, Maine, 04412, United States of America","place_id":"189506497","datatype":"locationiq"},{"latitude":"42.56124","longitude":"-82.917367","name":"Lumber Liquidators - 35906 Groesbeck Hwy; Clinton Township","address":"MI 48035>586-863-0090","street_number":"35980","street_name":"Groesbeck Highway","zip":"48035","city":null,"area":null,"county":"Macomb County","state":"Michigan","country":"us","formatted_address":"35980, Groesbeck Highway, Clinton Township, Macomb County, Michigan, 48035, United States of America","place_id":"191187392","datatype":"locationiq"},{"latitude":"42.196007","longitude":"-83.258689","name":"Lumber Liquidators - 23267 Eureka Rd; Taylor","address":"MI 48180>734-407-7983","street_number":"15218","street_name":"Plaza South Drive","zip":"48180","city":"Taylor","area":null,"county":"Wayne County","state":"Michigan","country":"us","formatted_address":"15218, Plaza South Drive, Taylor, Wayne County, Michigan, 48180, United States of America","place_id":"191722662","datatype":"locationiq"},{"latitude":"42.230007","longitude":"-83.650965","name":"Lumber Liquidators - 2623 Ellsworth Rd; Ypsilanti","address":"MI 48197>734-547-3143","street_number":"2501","street_name":"Ellsworth Road","zip":"48197","city":null,"area":null,"county":"Washtenaw County","state":"Michigan","country":"us","formatted_address":"2501, Ellsworth Road, Ypsilanti Township, Washtenaw County, Michigan, 48197, United States of America","place_id":"191619800","datatype":"locationiq"},{"latitude":"42.382482","longitude":"-83.313464","name":"Lumber Liquidators - 13080 Inkster Rd; Redford","address":"MI 48239>313-532-1200","street_number":"13670","street_name":"Inkster Road","zip":"48239","city":null,"area":null,"county":"Wayne County","state":"Michigan","country":"us","formatted_address":"13670, Inkster Road, Redford Township, Wayne County, Michigan, 48239, United States of America","place_id":"191736085","datatype":"locationiq"},{"latitude":"42.670475","longitude":"-83.241885","name":"Lumber Liquidators - 2434 Pontiac Rd; Auburn Hills","address":"MI 48326>248-630-3941","street_number":null,"street_name":"I 75","zip":"48326","city":"Auburn Hills","area":null,"county":"Oakland County","state":"Michigan","country":"us","formatted_address":"79, I 75, Auburn Hills, Oakland County, Michigan, 48326, United States of America","place_id":"257997","datatype":"locationiq"},{"latitude":"43.434908","longitude":"-84.03292","name":"Lumber Liquidators - 5901 Brockway Rd; Saginaw","address":"MI 48638>989-321-2628","street_number":"5927","street_name":"Brockway Road","zip":"48638","city":null,"area":null,"county":"Saginaw County","state":"Michigan","country":"us","formatted_address":"5927, Brockway Road, Saginaw Charter Township, Saginaw County, Michigan, 48638, United States of America","place_id":"191514741","datatype":"locationiq"},{"latitude":"42.662482","longitude":"-84.544087","name":"Lumber Liquidators - 462 E Edgewood Blvd; Lansing","address":"MI 48911>517-455-7672","street_number":"446","street_name":"East Edgewood Boulevard","zip":"48911","city":"Lansing","area":null,"county":"Ingham County","state":"Michigan","country":"us","formatted_address":"OfficeMax #6039, 446, East Edgewood Boulevard, Lansing, Ingham County, Michigan, 48911, United States of America","place_id":"38929435","datatype":"locationiq"},{"latitude":"42.297027","longitude":"-85.644539","name":"Lumber Liquidators - 4432 W Main St; Kalamazoo","address":"MI 49006>269-743-0030","street_number":"4514","street_name":"West Main Street","zip":"49006","city":null,"area":null,"county":"Kalamazoo County","state":"Michigan","country":"us","formatted_address":"Main Street Pub, 4514, West Main Street, Westwood, Kalamazoo County, Michigan, 49006, United States of America","place_id":"28416764","datatype":"locationiq"},{"latitude":"43.033133","longitude":"-85.663654","name":"Lumber Liquidators - 230 Lamoreaux Dr NE; Comstock Park","address":"MI 49321>616-997-2500","street_number":null,"street_name":"US 131","zip":"49321","city":null,"area":null,"county":"Kent County","state":"Michigan","country":"us","formatted_address":"US 131, Comstock Park, Kent County, Michigan, 49321, United States of America","place_id":"94380607","datatype":"locationiq"},{"latitude":"44.7335709","longitude":"-85.6241571","name":"Lumber Liquidators - 2404 S Airport Rd W; Traverse City","address":"MI 49684>231-668-9207","street_number":null,"street_name":"South Airport Road West","zip":"49684","city":"Traverse City","area":null,"county":"Grand Traverse County","state":"Michigan","country":"us","formatted_address":"McDonald's, South Airport Road West, Traverse City, Grand Traverse County, Michigan, 49684, United States of America","place_id":"141842292","datatype":"locationiq"},{"latitude":"44.947753","longitude":"-92.950411","name":"Lumber Liquidators - 7700 Hudson Rd; Woodbury","address":"MN 55125>651-967-0260","street_number":null,"street_name":"Hudson Road","zip":"55125","city":"Woodbury","area":null,"county":"Washington County","state":"Minnesota","country":"us","formatted_address":"Landau Dr, Hudson Road, Woodbury, Washington County, Minnesota, 55125, United States of America","place_id":"6674697","datatype":"locationiq"},{"latitude":"44.8591839","longitude":"-93.5945548","name":"Lumber Liquidators - 2973 Water Tower Pl; Chanhassen","address":"MN 55317>952-314-4975 ","street_number":"2838","street_name":"Water Tower Place","zip":"55317","city":"Chanhassen","area":null,"county":"Carver County","state":"Minnesota","country":"us","formatted_address":"2838, Water Tower Place, Chanhassen, Carver County, Minnesota, 55317, United States of America","place_id":"191884308","datatype":"locationiq"},{"latitude":"44.749809","longitude":"-93.296328","name":"Lumber Liquidators - 1355 W 141st St; Burnsville","address":"MN 55337>507-298-2469","street_number":null,"street_name":"McAndrews Road West","zip":"55337","city":"Burnsville","area":null,"county":"Dakota County","state":"Minnesota","country":"us","formatted_address":"140 St, McAndrews Road West, Burnsville, Dakota County, Minnesota, 55337, United States of America","place_id":"6796207","datatype":"locationiq"},{"latitude":"45.131618","longitude":"-93.26617","name":"Lumber Liquidators - 36 County Rd; Blaine","address":"MN 55434>763-784-3440","street_number":null,"street_name":"Frontage Rd","zip":"55433","city":null,"area":null,"county":"Anoka County","state":"Minnesota","country":"us","formatted_address":"Frontage Rd, Coon Rapids, Anoka County, Minnesota, 55433, United States of America","place_id":"70128751","datatype":"locationiq"},{"latitude":"46.764046","longitude":"-92.113644","name":"Lumber Liquidators - 367 Garfield Ave; Duluth","address":"MN 55802>218-260-4917","street_number":null,"street_name":"Garfield Avenue","zip":"55802","city":"Duluth","area":null,"county":"Saint Louis County","state":"Minnesota","country":"us","formatted_address":"Garfield Avenue, Duluth, Saint Louis County, Minnesota, 55802, United States of America","place_id":"81606211","datatype":"locationiq"},{"latitude":"44.0756063","longitude":"-92.5062181","name":"Lumber Liquidators - 5139 US 52; Rochester","address":"MN 55901>507-216-0978","street_number":null,"street_name":"US 52;US 63;CR 22","zip":"55901","city":"Rochester","area":null,"county":"Olmsted County","state":"Minnesota","country":"us","formatted_address":"59, US 52;US 63;CR 22, Rochester, Olmsted County, Minnesota, 55901, United States of America","place_id":"4051995","datatype":"locationiq"},{"latitude":"44.0756063","longitude":"-92.5062181","name":"Lumber Liquidators - 5139 US 52; Rochester","address":"MN 55901>507-216-0978","street_number":null,"street_name":"US 52;US 63;CR 22","zip":"55901","city":"Rochester","area":null,"county":"Olmsted County","state":"Minnesota","country":"us","formatted_address":"59, US 52;US 63;CR 22, Rochester, Olmsted County, Minnesota, 55901, United States of America","place_id":"4051995","datatype":"locationiq"},{"latitude":"38.542673","longitude":"-90.4627986","name":"Lumber Liquidators - 958 S Highway Dr; Fenton","address":"MO 63026>636-764-0429","street_number":"972","street_name":"South Highway Drive","zip":"63026","city":"Fenton","area":null,"county":"St. Louis County","state":"Missouri","country":"us","formatted_address":"972, South Highway Drive, Fenton, St. Louis County, Missouri, 63026, United States of America","place_id":"194034455","datatype":"locationiq"},{"latitude":"38.7957176","longitude":"-90.570295","name":"Lumber Liquidators - 4016 N Service Rd; St Peters","address":"MO 63376>636-875-1044","street_number":"4010","street_name":"N Service Road","zip":"63376","city":"St. Peters","area":null,"county":"St. Charles County","state":"Missouri","country":"us","formatted_address":"4010, N Service Road, St. Peters, St. Charles County, Missouri, 63376, United States of America","place_id":"193949333","datatype":"locationiq"},{"latitude":"38.918357","longitude":"-94.362526","name":"Lumber Liquidators - 300 NE 291 Hwy; Lees Summit","address":"MO 64086>816-272-2528","street_number":"155","street_name":"MO 291","zip":"64086","city":"Lee's Summit","area":null,"county":"Jackson County","state":"Missouri","country":"us","formatted_address":"155, MO 291, Lee's Summit, Jackson County, Missouri, 64086, United States of America","place_id":"193618561","datatype":"locationiq"},{"latitude":"38.963282","longitude":"-92.290305","name":"Lumber Liquidators - 3200 Clark La; Columbia","address":"MO 65202>573-234-4453","street_number":null,"street_name":"Clark Lane","zip":"65202","city":"Columbia","area":null,"county":"Boone County","state":"Missouri","country":"us","formatted_address":"McDonald's, Clark Lane, Columbia, Boone County, Missouri, 65202, United States of America","place_id":"133271213","datatype":"locationiq"},{"latitude":"37.2098525","longitude":"-93.2313367","name":"Lumber Liquidators - 3103 E Chestnut Expy; Springfield","address":"MO 65802>417-459-4421","street_number":"3139","street_name":"East Chestnut Expressway","zip":"65802","city":"Springfield","area":null,"county":"Greene County","state":"Missouri","country":"us","formatted_address":"3139, East Chestnut Expressway, Springfield, Greene County, Missouri, 65802, United States of America","place_id":"193512542","datatype":"locationiq"},{"latitude":"34.956262","longitude":"-89.999643","name":"Lumber Liquidators - 6550 Interstate Blvd; Horn Lake","address":"MS 38637>662-298-4764","street_number":null,"street_name":"I 55;I 69","zip":"38671","city":"Southaven","area":null,"county":"DeSoto County","state":"Mississippi","country":"us","formatted_address":"I 55;I 69, Southaven, DeSoto County, Mississippi, 38671, United States of America","place_id":"74268394","datatype":"locationiq"},{"latitude":"32.4002056","longitude":"-90.1557212","name":"Lumber Liquidators - 950 W County Line Rd; Jackson","address":"MS 39213>601-991-9000","street_number":"501","street_name":"West County Line Road","zip":"39174","city":"Ridgeland","area":null,"county":"Hinds County","state":"Mississippi","country":"us","formatted_address":"501, West County Line Road, Ridgeland, Hinds County, Mississippi, 39174, United States of America","place_id":"192869010","datatype":"locationiq"},{"latitude":"30.425283","longitude":"-89.089708","name":"Lumber Liquidators - 9444 Hwy 49; Gulfport","address":"MS 39503>228-206-2306","street_number":"9444","street_name":"Three Rivers Road","zip":"39503","city":"Gulfport","area":null,"county":"Harrison County","state":"Mississippi","country":"us","formatted_address":"Altitude Trampoline Park, 9444, Three Rivers Road, Gulfport, Harrison County, Mississippi, 39503, United States of America","place_id":"107609277","datatype":"locationiq"},{"latitude":"36.0590483","longitude":"-79.8853809","name":"Lumber Liquidators - 3402 W Wendover Ave; Greensboro","address":"NC 27407>336-790-0060","street_number":"4203","street_name":"West Wendover Avenue","zip":"27407","city":"Greensboro","area":null,"county":"Guilford County","state":"North Carolina","country":"us","formatted_address":"Panera Bread, 4203, West Wendover Avenue, Greensboro, Guilford County, North Carolina, 27407, United States of America","place_id":"47005317","datatype":"locationiq"},{"latitude":"35.8032369","longitude":"-78.6081848","name":"Lumber Liquidators - 2011 Raleigh Blvd; Raleigh","address":"NC 27604>919-828-4449","street_number":null,"street_name":null,"zip":"27610","city":"Raleigh","area":null,"county":"Wake County","state":"North Carolina","country":"us","formatted_address":"Middle Crabtree Trail, Seaboard Station, Raleigh, Wake County, North Carolina, 27610, United States of America","place_id":"121989621","datatype":"locationiq"},{"latitude":"36.0173294","longitude":"-78.9409404","name":"Lumber Liquidators - 3157 Hillsborough Rd; Durham","address":"NC 27705>919-246-9986","street_number":null,"street_name":"Hillsborough Road","zip":"27705","city":"Durham","area":null,"county":"Durham County","state":"North Carolina","country":"us","formatted_address":"Custom Steel, Hillsborough Road, Watts-Hospital Hillandale, Durham, Durham County, North Carolina, 27705, United States of America","place_id":"101193747","datatype":"locationiq"},{"latitude":"35.581457","longitude":"-77.377337","name":"Lumber Liquidators - 315 SE Greenville Blvd; Greenville","address":"NC 27858>252-558-1559","street_number":"292","street_name":"Red Banks Road","zip":"27858","city":null,"area":null,"county":"Pitt County","state":"North Carolina","country":"us","formatted_address":"292, Red Banks Road, University Commons, Greenville, Pitt County, North Carolina, 27858, United States of America","place_id":"198103488","datatype":"locationiq"},{"latitude":"35.262561","longitude":"-81.126342","name":"Lumber Liquidators - 2930-39\/42 E Franklin Blvd; Gastonia","address":"NC 28056>704-879-2231","street_number":null,"street_name":"Sen Marshall Arthur Rauch Highway","zip":"28098","city":null,"area":null,"county":"Gaston County","state":"North Carolina","country":"us","formatted_address":"Sen Marshall Arthur Rauch Highway, McAdenville, Gaston County, North Carolina, 28098, United States of America","place_id":"79039978","datatype":"locationiq"},{"latitude":"35.120274","longitude":"-80.698487","name":"Lumber Liquidators - 11101 E Independence Blvd; Matthews","address":"NC 28105>704-749-2490","street_number":null,"street_name":"East Independence Boulevard","zip":"28105","city":null,"area":null,"county":"Mecklenburg County","state":"North Carolina","country":"us","formatted_address":"Bojangles' Famous Chicken, East Independence Boulevard, Matthews, Mecklenburg County, North Carolina, 28105, United States of America","place_id":"4898412","datatype":"locationiq"},{"latitude":"35.654804","longitude":"-80.462476","name":"Lumber Liquidators - 403 Bendix Dr; Salisbury","address":"NC 28146>704-314-0664","street_number":"385","street_name":"Bendix Drive","zip":"28146","city":"Salisbury","area":null,"county":"Rowan County","state":"North Carolina","country":"us","formatted_address":"385, Bendix Drive, Innes Street Market, Salisbury, Rowan County, North Carolina, 28146, United States of America","place_id":"198202078","datatype":"locationiq"},{"latitude":"35.251795","longitude":"-80.894835","name":"Lumber Liquidators - 1108 Thomasboro Dr; Charlotte","address":"NC 28208>704-509-5555","street_number":"1143","street_name":"Thomasboro Drive","zip":"28208","city":"Charlotte","area":null,"county":"Mecklenburg County","state":"North Carolina","country":"us","formatted_address":"1143, Thomasboro Drive, Charlotte, Mecklenburg County, North Carolina, 28208, United States of America","place_id":"197924387","datatype":"locationiq"},{"latitude":"35.069683","longitude":"-78.970094","name":"Lumber Liquidators - 1916 Skibo Rd; Fayetteville","address":"NC 28314>910-302-8180","street_number":null,"street_name":"Wintergreen Drive","zip":"28314","city":"Fayetteville","area":null,"county":"Cumberland County","state":"North Carolina","country":"us","formatted_address":"Wintergreen Drive, Fayetteville, Cumberland County, North Carolina, 28314, United States of America","place_id":"69726016","datatype":"locationiq"},{"latitude":"34.2625079","longitude":"-77.83052","name":"Lumber Liquidators - 6816 Gordon Rd; Wilmington","address":"NC 28405>910-795-0025 ","street_number":null,"street_name":"Gordon Road","zip":"28405","city":null,"area":null,"county":"New Hanover County","state":"North Carolina","country":"us","formatted_address":"Zaxby's, Gordon Road, Kings Grant, New Hanover County, North Carolina, 28405, United States of America","place_id":"144451300","datatype":"locationiq"},{"latitude":"35.71936","longitude":"-81.348184","name":"Lumber Liquidators - 571 US Hwy 70 SW; Hickory","address":"NC 28602>828-449-3282","street_number":null,"street_name":"Hickory Plaza","zip":"28602","city":"Hickory","area":null,"county":"Catawba County","state":"North Carolina","country":"us","formatted_address":"Hickory Plaza, Hickory, Catawba County, North Carolina, 28602, United States of America","place_id":"69068199","datatype":"locationiq"},{"latitude":"35.4515559","longitude":"-82.523261","name":"Lumber Liquidators - 495 Watson Rd; Arden","address":"NC 28704>828-483-4189","street_number":null,"street_name":"Old Bailey Road","zip":"28704","city":null,"area":null,"county":"Buncombe County","state":"North Carolina","country":"us","formatted_address":"Old Bailey Road, Arden, Buncombe County, North Carolina, 28704, United States of America","place_id":"68649449","datatype":"locationiq"},{"latitude":"46.8840829","longitude":"-96.834187","name":"Lumber Liquidators - 3453 7th Ave N; Fargo","address":"ND 58102>701-540-4026","street_number":"743","street_name":"35th Street Northwest","zip":"58102","city":"Fargo","area":null,"county":"Cass County","state":"North Dakota","country":"us","formatted_address":"743, 35th Street Northwest, Fargo, Cass County, North Dakota, 58102, United States of America","place_id":"198525759","datatype":"locationiq"},{"latitude":"41.2187977","longitude":"-96.0430541","name":"Lumber Liquidators - 4147 S 84th St; Omaha","address":"NE 68127>402-218-1720","street_number":"4161","street_name":"South 84th Street","zip":"68127","city":"Omaha","area":null,"county":"Douglas County","state":"Nebraska","country":"us","formatted_address":"4161, South 84th Street, Omaha, Douglas County, Nebraska, 68127, United States of America","place_id":"194575081","datatype":"locationiq"},{"latitude":"40.815976","longitude":"-96.631797","name":"Lumber Liquidators - 6401 Q St; Lincoln","address":"NE 68505>402-858-1927","street_number":"6401","street_name":"Q Street","zip":"68510","city":"Lincoln","area":null,"county":"Lancaster County","state":"Nebraska","country":"us","formatted_address":"Jo-Ann Fabrics & Crafts, 6401, Q Street, Lincoln, Lancaster County, Nebraska, 68510, United States of America","place_id":"114816710","datatype":"locationiq"},{"latitude":"42.7130769","longitude":"-71.4426148","name":"Lumber Liquidators - 225 Daniel Webster Hwy; Nashua","address":"NH 03060>603-821-2136 ","street_number":"219","street_name":"Daniel Webster Highway","zip":"03060","city":"Nashua","area":null,"county":"Hillsborough County","state":"New Hampshire","country":"us","formatted_address":"B.Good, 219, Daniel Webster Highway, South Nashua, Ward 7, Nashua, Hillsborough County, New Hampshire, 03060, United States of America","place_id":"163095168","datatype":"locationiq"},{"latitude":"42.988586","longitude":"-71.4118253","name":"Lumber Liquidators - 1207 Hanover St; Manchester","address":"NH 03104>603-666-0333","street_number":"1228","street_name":"Hanover Street","zip":"03104","city":"Manchester","area":null,"county":"Hillsborough County","state":"New Hampshire","country":"us","formatted_address":"1228, Hanover Street, Manchester, Hillsborough County, New Hampshire, 03104, United States of America","place_id":"195141617","datatype":"locationiq"},{"latitude":"43.639704","longitude":"-72.2567309","name":"Lumber Liquidators - 91 Mechanic St; Lebanon","address":"NH 03766>603-448-2778","street_number":"17","street_name":"US 4","zip":"03766","city":"Lebanon","area":null,"county":"Grafton County","state":"New Hampshire","country":"us","formatted_address":"17, US 4, Lebanon, Grafton County, New Hampshire, 03766, United States of America","place_id":"195108063","datatype":"locationiq"},{"latitude":"42.9971247","longitude":"-70.8149781","name":"Lumber Liquidators - 5 Lafayette Terrace; North Hampton","address":"NH 03862>603-379-6024","street_number":"44","street_name":"Lafayette Road","zip":"03862","city":null,"area":null,"county":"Rockingham County","state":"New Hampshire","country":"us","formatted_address":"North Hampton Post Office, 44, Lafayette Road, North Hampton, Rockingham County, New Hampshire, 03862, United States of America","place_id":"55759140","datatype":"locationiq"},{"latitude":"43.225853","longitude":"-70.88156","name":"Lumber Liquidators - 200 Tri City Plaza; Somersworth","address":"NH 03878>603-617-4760","street_number":null,"street_name":"Tri City Plaza","zip":"03879","city":"Somersworth","area":null,"county":"Strafford County","state":"New Hampshire","country":"us","formatted_address":"Tri City Plaza, Somersworth, Strafford County, New Hampshire, 03879, United States of America","place_id":"149497498","datatype":"locationiq"},{"latitude":"40.879576","longitude":"-74.297654","name":"Lumber Liquidators - 311 Rte 46; Fairfield","address":"NJ 07004>862-881-4606","street_number":"313","street_name":"US 46","zip":"07004","city":"Fairfield","area":null,"county":"Essex County","state":"New Jersey","country":"us","formatted_address":"313, US 46, Fairfield, Essex County, New Jersey, 07004, United States of America","place_id":"195431971","datatype":"locationiq"},{"latitude":"40.697957","longitude":"-74.249358","name":"Lumber Liquidators - 1603 Rte 22; Union","address":"NJ 07083>908-613-0843","street_number":null,"street_name":"US 22","zip":"07209","city":"Union","area":null,"county":"Union County","state":"New Jersey","country":"us","formatted_address":"US 22, Union, Union County, New Jersey, 07209, United States of America","place_id":"73529194","datatype":"locationiq"},{"latitude":"40.537541","longitude":"-74.296564","name":"Lumber Liquidators - 507 King Georges Rd; Woodbridge","address":"NJ 07095>908-259-4170","street_number":null,"street_name":"Hoover Way","zip":"07095","city":"Woodbridge Township","area":null,"county":"Middlesex County","state":"New Jersey","country":"us","formatted_address":"Kidz Village, Hoover Way, Woodbridge Township, Middlesex County, New Jersey, 07095, United States of America","place_id":"116543284","datatype":"locationiq"},{"latitude":"40.8691351","longitude":"-74.0484997","name":"Lumber Liquidators - 14 E Wesley St; South Hackensack","address":"NJ 07606>201-343-5255","street_number":"32","street_name":"East Wesley Street","zip":"07606","city":"South Hackensack","area":null,"county":"Bergen County","state":"New Jersey","country":"us","formatted_address":"32, East Wesley Street, South Hackensack, Bergen County, New Jersey, 07606, United States of America","place_id":"195252418","datatype":"locationiq"},{"latitude":"40.25344","longitude":"-74.04025","name":"Lumber Liquidators - 1604 SR 35; Oakhurst","address":"NJ 07755>732-963-2035","street_number":"1635","street_name":"Kings Highway","zip":"07755","city":"Ocean Township","area":null,"county":"Monmouth County","state":"New Jersey","country":"us","formatted_address":"1635, Kings Highway, Ocean Township, Monmouth County, New Jersey, 07755, United States of America","place_id":"195596672","datatype":"locationiq"},{"latitude":"39.918591","longitude":"-75.028223","name":"Lumber Liquidators - 1205 Warren Ave; Cherry Hill","address":"NJ 08002>856-324-4450","street_number":"1241","street_name":"Warren Avenue","zip":"08002","city":"Cherry Hill Township","area":null,"county":"Camden County","state":"New Jersey","country":"us","formatted_address":"1241, Warren Avenue, Cherry Hill Township, Camden County, New Jersey, 08002, United States of America","place_id":"195354005","datatype":"locationiq"},{"latitude":"39.831457","longitude":"-75.111021","name":"Lumber Liquidators - 1450 Clements Bridge Rd; Woodbury","address":"NJ 08096>856-291-6500","street_number":null,"street_name":"Nathan Hale Drive","zip":"08096","city":null,"area":null,"county":"Gloucester County","state":"New Jersey","country":"us","formatted_address":"Nathan Hale Drive, Westcotville, Gloucester County, New Jersey, 08096, United States of America","place_id":"75515443","datatype":"locationiq"},{"latitude":"39.387122","longitude":"-74.514139","name":"Lumber Liquidators - 7034 Black Horse Pike; Pleasantville","address":"NJ 08232>609-910-0897","street_number":null,"street_name":"Florence Avenue","zip":"08232","city":"Egg Harbor Township","area":null,"county":"Atlantic County","state":"New Jersey","country":"us","formatted_address":"Diamond Auto Sales, Florence Avenue, Egg Harbor Township, Atlantic County, New Jersey, 08232, United States of America","place_id":"81230540","datatype":"locationiq"},{"latitude":"39.426154","longitude":"-75.039235","name":"Lumber Liquidators - 2251 N 2nd St; Millville","address":"NJ 08332>609-736-2404","street_number":null,"street_name":"North 2nd Street","zip":"08332","city":"Millville","area":null,"county":"Cumberland County","state":"New Jersey","country":"us","formatted_address":"Texas Roadhouse, North 2nd Street, Millville, Cumberland County, New Jersey, 08332, United States of America","place_id":"19166517","datatype":"locationiq"},{"latitude":"40.202482","longitude":"-74.657867","name":"Lumber Liquidators - 8 Commerce Way; Trenton","address":"NJ 08691>609-588-8082","street_number":null,"street_name":"Commerce Way","zip":"08690","city":"Hamilton Township","area":null,"county":"Mercer County","state":"New Jersey","country":"us","formatted_address":"Commerce Way, Hamilton Township, Mercer County, New Jersey, 08690, United States of America","place_id":"66063875","datatype":"locationiq"},{"latitude":"39.98412","longitude":"-74.180691","name":"Lumber Liquidators - 1258 Hooper Ave; Toms River","address":"NJ 08753>848-480-0787","street_number":"1235","street_name":"Hooper Avenue","zip":"08753","city":"Toms River Township","area":null,"county":"Ocean County","state":"New Jersey","country":"us","formatted_address":"1235, Hooper Avenue, Toms River Township, Ocean County, New Jersey, 08753, United States of America","place_id":"195646455","datatype":"locationiq"},{"latitude":"40.4411884","longitude":"-74.3971414","name":"Lumber Liquidators - 2 Claire Rd; East Brunswick","address":"NJ 08816>732-387-4274","street_number":"1","street_name":"Claire Road","zip":"08816","city":"East Brunswick Township","area":null,"county":"Middlesex County","state":"New Jersey","country":"us","formatted_address":"1, Claire Road, East Brunswick Township, Middlesex County, New Jersey, 08816, United States of America","place_id":"195513353","datatype":"locationiq"},{"latitude":"40.532916","longitude":"-74.61688","name":"Lumber Liquidators - 6 Old Camplain Rd; Hillsborough","address":"NJ 08844>908-428-6000","street_number":"2345","street_name":"Camplain Road","zip":"08844","city":"Manville","area":null,"county":"Somerset County","state":"New Jersey","country":"us","formatted_address":"2345, Camplain Road, Manville, Somerset County, New Jersey, 08844, United States of America","place_id":"195742188","datatype":"locationiq"},{"latitude":"35.142263","longitude":"-106.591759","name":"Lumber Liquidators - 5300 Pan American E Fwy NE; Albuquerque","address":"NM 87109>505-883-7200","street_number":"4639","street_name":"Lincoln Road Northeast","zip":"87109","city":"Albuquerque","area":null,"county":"Bernalillo County","state":"New Mexico","country":"us","formatted_address":"4639, Lincoln Road Northeast, Vista Encantada, Albuquerque, Bernalillo County, New Mexico, 87109, United States of America","place_id":"195824941","datatype":"locationiq"},{"latitude":"36.028191","longitude":"-115.049187","name":"Lumber Liquidators - 27 South Stephanie St; Las Vegas","address":"NV 89012>702-893-3338","street_number":"5451","street_name":"Bruce Woodbury Beltway","zip":"89014","city":"Henderson","area":null,"county":"Clark County","state":"Nevada","country":"us","formatted_address":"5451, Bruce Woodbury Beltway, Green Valley Ranch, Henderson, Clark County, Nevada, 89014, United States of America","place_id":"194926138","datatype":"locationiq"},{"latitude":"36.2434","longitude":"-115.235","name":"Lumber Liquidators - 4588 North Rancho Dr; Las Vegas","address":"NV 89130>702-802-0873","street_number":"4548","street_name":"North Rancho Drive","zip":"89130","city":"Las Vegas","area":"Rancho Circle","county":"Clark County","state":"Nevada","country":"us","formatted_address":"4548, North Rancho Drive, Rancho Circle, Twin Lakes, Las Vegas, Clark County, Nevada, 89130, United States of America","place_id":"194853750","datatype":"locationiq"},{"latitude":"39.442591","longitude":"-119.7720129","name":"Lumber Liquidators - 9728 S Virginia St; Reno","address":"NV 89511>775-851-4949","street_number":"9516","street_name":"South Virginia Street","zip":"89511","city":"Reno","area":null,"county":"Washoe County","state":"Nevada","country":"us","formatted_address":"9516, South Virginia Street, Reno, Washoe County, Nevada, 89511, United States of America","place_id":"195026909","datatype":"locationiq"},{"latitude":"40.7377473","longitude":"-73.9900211","name":"Lumber Liquidators - 30 E 18th St; New York","address":"NY 10003>212-352-1111","street_number":"874","street_name":"Broadway","zip":"10003","city":"New York City","area":"Flatiron","county":"New York County","state":"New York","country":"us","formatted_address":"874, Broadway, Flatiron, Manhattan, New York County, New York City, New York, 10003, United States of America","place_id":"26996793","datatype":"locationiq"},{"latitude":"40.940776","longitude":"-73.880853","name":"Lumber Liquidators - 132 Saw Mill River Rd; Yonkers","address":"NY 10701>914-595-1411","street_number":null,"street_name":"Saw Mill River Road","zip":"10701","city":"Yonkers","area":null,"county":"Westchester County","state":"New York","country":"us","formatted_address":"Saint Johns Cemetery, Saw Mill River Road, Yonkers, Westchester County, New York, 10701, United States of America","place_id":"3231605","datatype":"locationiq"},{"latitude":"40.6709563","longitude":"-73.995272","name":"Lumber Liquidators - 64 12th St; Brooklyn","address":"NY 11215>347-756-4215","street_number":"68","street_name":"12th Street","zip":"11215","city":"New York City","area":"Carroll Gardens","county":"Kings County","state":"New York","country":"us","formatted_address":"68, 12th Street, Carroll Gardens, Brooklyn, Kings County, New York City, New York, 11215, United States of America","place_id":"26872613","datatype":"locationiq"},{"latitude":"40.75501","longitude":"-73.561488","name":"Lumber Liquidators - 24 Kinkel St; Westbury","address":"NY 11590>516-874-2033","street_number":"20","street_name":"Sylvester Avenue","zip":"11590","city":null,"area":null,"county":"Nassau","state":"New York","country":"us","formatted_address":"20, Sylvester Avenue, New Cassel, Nassau, New York, 11590, United States of America","place_id":"196521401","datatype":"locationiq"},{"latitude":"40.8071476","longitude":"-73.2176982","name":"Lumber Liquidators - 22 Central Ave; Hauppauge","address":"NY 11788>631-232-2020","street_number":"11","street_name":"Central Avenue","zip":"11788","city":null,"area":null,"county":"Suffolk County","state":"New York","country":"us","formatted_address":"11, Central Avenue, Hauppauge, Suffolk County, New York, 11788, United States of America","place_id":"140415969","datatype":"locationiq"},{"latitude":"41.605878","longitude":"-73.91085","name":"Lumber Liquidators - 1708 US- 9; Wappingers Falls","address":"NY 12590>845-223-7764","street_number":"1705","street_name":"Albany Post Road","zip":"12590","city":null,"area":null,"county":"Dutchess County","state":"New York","country":"us","formatted_address":"1705, Albany Post Road, Hughsonville, Town of Wappinger, Dutchess County, New York, 12590, United States of America","place_id":"196247639","datatype":"locationiq"},{"latitude":"39.925718","longitude":"-82.829056","name":"Lumber Liquidators - 2736 Brice Rd; Reynoldsburg","address":"OH 43068>614-285-3101","street_number":null,"street_name":"Mountaineer Trail Court","zip":"43068","city":"Columbus","area":null,"county":"Franklin County","state":"Ohio","country":"us","formatted_address":"Mountaineer Trail Court, Columbus, Franklin County, Ohio, 43068, United States of America","place_id":"72174956","datatype":"locationiq"},{"latitude":"39.953647","longitude":"-83.114681","name":"Lumber Liquidators - 4242 W Broad St; Columbus","address":"OH 43228>614-851-4500","street_number":"4269","street_name":"West Broad Street","zip":"43204","city":null,"area":null,"county":"Franklin County","state":"Ohio","country":"us","formatted_address":"4269, West Broad Street, Lincoln Village, Franklin County, Ohio, 43204, United States of America","place_id":"199157862","datatype":"locationiq"},{"latitude":"40.06132","longitude":"-82.980055","name":"Lumber Liquidators - 1454 Morse Rd; Columbus","address":"OH 43229>614-636-4666","street_number":null,"street_name":"Patio Avenue","zip":"43224","city":"Columbus","area":null,"county":"Franklin County","state":"Ohio","country":"us","formatted_address":"Patio Avenue, Columbus, Franklin County, Ohio, 43224, United States of America","place_id":"72186006","datatype":"locationiq"},{"latitude":"41.533294","longitude":"-83.642444","name":"Lumber Liquidators - 26495 Southpoint Rd; Perrysburg","address":"OH 43551>419-931-6770","street_number":null,"street_name":"I 475;US 23","zip":"43551","city":"Perrysburg","area":null,"county":"Wood County","state":"Ohio","country":"us","formatted_address":"I 475;US 23, Perrysburg, Wood County, Ohio, 43551, United States of America","place_id":"101766221","datatype":"locationiq"},{"latitude":"41.683382","longitude":"-81.292194","name":"Lumber Liquidators - 9690 Mentor Ave; Mentor","address":"OH 44060>440-709-3000","street_number":null,"street_name":"Old Johnny Cake Road","zip":"44060","city":"Mentor","area":null,"county":"Lake County","state":"Ohio","country":"us","formatted_address":"Old Johnny Cake Road, Mentor, Lake County, Ohio, 44060, United States of America","place_id":"71785798","datatype":"locationiq"},{"latitude":"41.419543","longitude":"-81.911447","name":"Lumber Liquidators - 26103 Lorain Rd; North Olmsted","address":"OH 44070>440-252-3220","street_number":"26099","street_name":"Lorain Road","zip":"44070","city":null,"area":null,"county":"Cuyahoga County","state":"Ohio","country":"us","formatted_address":"26099, Lorain Road, North Olmsted, Cuyahoga County, Ohio, 44070, United States of America","place_id":"198999741","datatype":"locationiq"},{"latitude":"41.4205577","longitude":"-81.6807013","name":"Lumber Liquidators - 540 Old Brookpark Rd; Cleveland","address":"OH 44109>216-661-2100","street_number":"598","street_name":"Old Brookpark Road","zip":"44109","city":null,"area":null,"county":"Cuyahoga County","state":"Ohio","country":"us","formatted_address":"598, Old Brookpark Road, Brooklyn Heights, Cuyahoga County, Ohio, 44109, United States of America","place_id":"199014589","datatype":"locationiq"},{"latitude":"41.015718","longitude":"-80.632592","name":"Lumber Liquidators - 7661 S Ave; Youngstown","address":"OH 44512>330-259-3250","street_number":null,"street_name":"I 680","zip":"44514","city":null,"area":"South Main Street Historic District","county":"Mahoning County","state":"Ohio","country":"us","formatted_address":"I 680, South Main Street Historic District, Porters Corners, Mahoning County, Ohio, 44514, United States of America","place_id":"97478298","datatype":"locationiq"},{"latitude":"40.873126","longitude":"-81.4285443","name":"Lumber Liquidators - 6331 Promler Ave; Canton","address":"OH 44720>330-754-0005 ","street_number":"6305","street_name":"Promler Avenue Northwest","zip":"44720","city":null,"area":null,"county":"Stark County","state":"Ohio","country":"us","formatted_address":"6305, Promler Avenue Northwest, Marchand, Jackson Township, Stark County, Ohio, 44720, United States of America","place_id":"199855484","datatype":"locationiq"},{"latitude":"40.77409","longitude":"-82.592823","name":"Lumber Liquidators - 2178 W 4th St; Ontario","address":"OH 44906>419-989-4240","street_number":null,"street_name":"East 4th Street","zip":"44906","city":"Ontario","area":null,"county":"Richland County","state":"Ohio","country":"us","formatted_address":"East 4th Street, Ontario, Springfield Township, Richland County, Ohio, 44906, United States of America","place_id":"96568923","datatype":"locationiq"},{"latitude":"39.315097","longitude":"-84.4643035","name":"Lumber Liquidators - 4810 Peter Pl; Cincinnati","address":"OH 45246>513-942-4406","street_number":"4801","street_name":"Peter Place","zip":"45246","city":null,"area":null,"county":"Butler County","state":"Ohio","country":"us","formatted_address":"4801, Peter Place, Rialto, West Chester Township, Butler County, Ohio, 45246, United States of America","place_id":"198875669","datatype":"locationiq"},{"latitude":"39.073034","longitude":"-84.310052","name":"Lumber Liquidators - 454 Ohio Pke; Cincinnati","address":"OH 45255>513-823-2544","street_number":null,"street_name":"Ohio Pike","zip":"45245","city":null,"area":null,"county":"Clermont County","state":"Ohio","country":"us","formatted_address":"TJ Maxx, Ohio Pike, BrandyChase Apartments, Merwin, Pierce Township, Clermont County, Ohio, 45245, United States of America","place_id":"47534491","datatype":"locationiq"},{"latitude":"39.646672","longitude":"-84.223374","name":"Lumber Liquidators - 450 Springboro Pike; Dayton","address":"OH 45449>937-684-9660","street_number":"2994","street_name":"Loffer Court","zip":"45449","city":"Miamisburg","area":null,"county":"Montgomery County","state":"Ohio","country":"us","formatted_address":"2994, Loffer Court, Miamisburg, Montgomery County, Ohio, 45449, United States of America","place_id":"199642607","datatype":"locationiq"},{"latitude":"35.209769","longitude":"-97.483612","name":"Lumber Liquidators - 700 Ed Noble Pkwy; Norman","address":"OK 73072>405-896-8223","street_number":"753","street_name":"Ed Noble Parkway","zip":"73072","city":"Norman","area":null,"county":"Cleveland County","state":"Oklahoma","country":"us","formatted_address":"753, Ed Noble Parkway, Norman, Cleveland County, Oklahoma, 73072, United States of America","place_id":"200158070","datatype":"locationiq"},{"latitude":"35.465323","longitude":"-97.618314","name":"Lumber Liquidators -5835 W Reno Ave; Oklahoma City","address":"OK 73127>405-948-1800","street_number":"102","street_name":"South MacArthur Boulevard","zip":"73128","city":"Oklahoma City","area":null,"county":"Oklahoma County","state":"Oklahoma","country":"us","formatted_address":"102, South MacArthur Boulevard, Oklahoma City, Oklahoma County, Oklahoma, 73128, United States of America","place_id":"200386183","datatype":"locationiq"},{"latitude":"36.062569","longitude":"-95.874027","name":"Lumber Liquidators - 9137 E 71st St; Tulsa","address":"OK 74133>918-270-2111","street_number":null,"street_name":"East 71st Street South","zip":"74133","city":"Tulsa","area":"Woodlands of South Tulsa","county":"Tulsa County","state":"Oklahoma","country":"us","formatted_address":"East 71st Street South, Woodlands of South Tulsa, Tulsa, Tulsa County, Oklahoma, 74133, United States of America","place_id":"171728365","datatype":"locationiq"},{"latitude":"45.541747","longitude":"-122.697674","name":"Lumber Liquidators - 2245 NW Nicolai St; Portland","address":"OR 97210>503-221-4944","street_number":"2181","street_name":"Northwest Nicolai Street","zip":"97210","city":"Portland","area":null,"county":"Multnomah County","state":"Oregon","country":"us","formatted_address":"Schoolhouse Electric & Supply Co., 2181, Northwest Nicolai Street, Kings Heights, Portland, Multnomah County, Oregon, 97210, United States of America","place_id":"165848496","datatype":"locationiq"},{"latitude":"45.443","longitude":"-122.627601","name":"Lumber Liquidators - 10872 SE Oak St; ilwaukie","address":"OR 97222>503-420-3097","street_number":"11000","street_name":"Southeast Oak Street","zip":"97222","city":"Milwaukie","area":null,"county":"Clackamas County","state":"Oregon","country":"us","formatted_address":"Taco Bell, 11000, Southeast Oak Street, Ardenwald, Milwaukie, Clackamas County, Oregon, 97222, United States of America","place_id":"142049628","datatype":"locationiq"},{"latitude":"45.435167","longitude":"-122.752202","name":"Lumber Liquidators - 7301 SW Dartmouth; Tigard","address":"OR 97223>503-964-6827","street_number":"7301","street_name":"Southwest Dartmouth Street","zip":"97223","city":"Tigard","area":null,"county":"Washington County","state":"Oregon","country":"us","formatted_address":"Lumber Liquidators, 7301, Southwest Dartmouth Street, Bonita, Tigard, Washington County, Oregon, 97223, United States of America","place_id":"89349994","datatype":"locationiq"},{"latitude":"45.527804","longitude":"-122.536917","name":"Lumber Liquidators - 12225 NE Glisan St; Portland","address":"OR 97230>503-308-8901","street_number":"12246","street_name":"Northeast Oregon Street","zip":"97230","city":"Portland","area":null,"county":"Multnomah County","state":"Oregon","country":"us","formatted_address":"12246, Northeast Oregon Street, Hazelwood, Portland, Multnomah County, Oregon, 97230, United States of America","place_id":"150883930","datatype":"locationiq"},{"latitude":"44.914544","longitude":"-122.982565","name":"Lumber Liquidators - 3920 Rickey St SE; Salem","address":"OR 97301>503-967-7447","street_number":null,"street_name":"Rickey Street Southeast","zip":"97317","city":null,"area":null,"county":"Marion County","state":"Oregon","country":"us","formatted_address":"Rickey Street Southeast, Four Corners, Marion County, Oregon, 97317, United States of America","place_id":"62470900","datatype":"locationiq"},{"latitude":"44.048628","longitude":"-123.161411","name":"Lumber Liquidators - 4095 W 11th Ave; Eugene","address":"OR 97402>541-393-2585","street_number":"4097","street_name":"West 11th Avenue","zip":"97402","city":"Eugene","area":null,"county":"Lane County","state":"Oregon","country":"us","formatted_address":"Sweet Tree Farms, 4097, West 11th Avenue, Danebo, Eugene, Lane County, Oregon, 97402, United States of America","place_id":"61251782","datatype":"locationiq"},{"latitude":"44.101417","longitude":"-121.299608","name":"Lumber Liquidators - 20505 Robal Rd; Bend","address":"OR 97701>541-209-0772","street_number":"63370","street_name":"Bend Parkway","zip":"97701","city":"Bend","area":null,"county":"Deschutes County","state":"Oregon","country":"us","formatted_address":"63370, Bend Parkway, Bend, Deschutes County, Oregon, 97701, United States of America","place_id":"200789567","datatype":"locationiq"},{"latitude":"40.43549","longitude":"-79.733583","name":"Lumber Liquidators - 4721 William Penn Hwy; Monroeville","address":"PA 15146>412-204-0013","street_number":null,"street_name":"William Penn Highway","zip":"15146","city":"Monroeville","area":null,"county":"Allegheny County","state":"Pennsylvania","country":"us","formatted_address":"Lumber Liquidators, William Penn Highway, Monroeville, Allegheny County, Pennsylvania, 15146, United States of America","place_id":"147827669","datatype":"locationiq"},{"latitude":"40.431253","longitude":"-80.134951","name":"Lumber Liquidators - 4700 Campbells Run Rd; Pittsburgh","address":"PA 15205>412-788-4666","street_number":"4721","street_name":"Campbells Run Road","zip":"15205","city":null,"area":null,"county":"Allegheny County","state":"Pennsylvania","country":"us","formatted_address":"4721, Campbells Run Road, Robinson Township, Allegheny County, Pennsylvania, 15205, United States of America","place_id":"201194366","datatype":"locationiq"},{"latitude":"40.287923","longitude":"-79.545908","name":"Lumber Liquidators - 1075 S Main St; Greensburg","address":"PA 15601>412-927-0354","street_number":"961","street_name":"South Main Street","zip":"15601","city":"Southwest Greensburg","area":null,"county":"Westmoreland County","state":"Pennsylvania","country":"us","formatted_address":"961, South Main Street, Southwest Greensburg, Westmoreland County, Pennsylvania, 15601, United States of America","place_id":"202423297","datatype":"locationiq"},{"latitude":"40.1821162","longitude":"-76.8373759","name":"Lumber Liquidators - 2 Laurel Rd; New Cumberland","address":"PA 17070>717-798-8605","street_number":"2","street_name":"Laurel Road","zip":"17070","city":null,"area":null,"county":"York County","state":"Pennsylvania","country":"us","formatted_address":"2, Laurel Road, Olde Orchard Hill, York County, Pennsylvania, 17070, United States of America","place_id":"202508598","datatype":"locationiq"},{"latitude":"40.622211","longitude":"-75.481581","name":"Lumber Liquidators - 1204 MacArthur Rd; Whitehall","address":"PA 18052>610-628-1186","street_number":"1210","street_name":"Macarthur Road","zip":"18052","city":"Allentown","area":null,"county":"Lehigh County","state":"Pennsylvania","country":"us","formatted_address":"1210, Macarthur Road, Allentown, Lehigh County, Pennsylvania, 18052, United States of America","place_id":"201953066","datatype":"locationiq"},{"latitude":"41.2432877","longitude":"-75.8452515","name":"Lumber Liquidators - 211 Mundy St; Wilkes-Barre","address":"PA 18702>570-301-6908","street_number":"241","street_name":"Mundy Street","zip":"18702","city":null,"area":null,"county":"Luzerne County","state":"Pennsylvania","country":"us","formatted_address":"241, Mundy Street, Wilkes-Barre Township, Luzerne County, Pennsylvania, 18702, United States of America","place_id":"202014874","datatype":"locationiq"},{"latitude":"40.0977561","longitude":"-75.01225","name":"Lumber Liquidators - 10500 E Roosevelt Blvd; Philadelphia","address":"PA 19116>267-234-7570","street_number":null,"street_name":"Roosevelt Boulevard","zip":"19116","city":"Philadelphia","area":"Normandy","county":"Philadelphia County","state":"Pennsylvania","country":"us","formatted_address":"Roosevelt Boulevard, Normandy, Philadelphia, Philadelphia County, Pennsylvania, 19116, United States of America","place_id":"165592854","datatype":"locationiq"},{"latitude":"41.2033216","longitude":"-77.1945247","name":"Lumber Liquidators - N1420 E Dr 422 Business Ce; Oaks","address":"PA 19456>484-991-4075","street_number":null,"street_name":"Bouganville Road","zip":"17744","city":null,"area":null,"county":"Lycoming County","state":"Pennsylvania","country":"us","formatted_address":"Bouganville Road, Level Corner, Lycoming County, Pennsylvania, 17744, United States of America","place_id":"65911231","datatype":"locationiq"},{"latitude":"41.703718","longitude":"-71.494658","name":"Lumber Liquidators - 1301 Bald Hill Rd; Warwick","address":"RI 02886>401-626-4245","street_number":null,"street_name":"Bald Hill Road","zip":"02893","city":"Warwick","area":null,"county":"Kent County","state":"Rhode Island","country":"us","formatted_address":"Red Wing Shoes, Bald Hill Road, Warwick, Kent County, Rhode Island, 02893, United States of America","place_id":"81902947","datatype":"locationiq"},{"latitude":"34.0693602","longitude":"-81.1434768","name":"Lumber Liquidators - 4068 Fernandina Rd; Columbia","address":"SC 29212>803-753-1767","street_number":"4135","street_name":"Fernandina Road","zip":"29212","city":null,"area":null,"county":"Lexington County","state":"South Carolina","country":"us","formatted_address":"4135, Fernandina Road, Seven Oaks, Lexington County, South Carolina, 29212, United States of America","place_id":"203036663","datatype":"locationiq"},{"latitude":"32.944739","longitude":"-80.0389","name":"Lumber Liquidators - 2093 Eagle Landing Blvd; North Charleston","address":"SC 29406>843-212-4800","street_number":null,"street_name":"Eagle Landing Boulevard","zip":"29406","city":"North Charleston","area":null,"county":"Charleston County","state":"South Carolina","country":"us","formatted_address":"Eagle Landing Adult Medicine, Eagle Landing Boulevard, North Charleston, Charleston County, South Carolina, 29406, United States of America","place_id":"41657385","datatype":"locationiq"},{"latitude":"32.789108","longitude":"-80.033628","name":"Lumber Liquidators - 2049 Savannah Hwy; Charleston","address":"SC 29407>843-720-7888","street_number":"2056","street_name":"Rondo Street","zip":"29414","city":"Charleston","area":null,"county":"Charleston County","state":"South Carolina","country":"us","formatted_address":"2056, Rondo Street, Charleston, Charleston County, South Carolina, 29414, United States of America","place_id":"202739420","datatype":"locationiq"},{"latitude":"34.2356245","longitude":"-79.7913672","name":"Lumber Liquidators - 2011 N Cashua Dr; Florence","address":"SC 29501>843-536-4524","street_number":null,"street_name":"North Cashua Drive","zip":"29501","city":"Florence","area":null,"county":"Florence County","state":"South Carolina","country":"us","formatted_address":"North Cashua Drive, Florence, Florence County, South Carolina, 29501, United States of America","place_id":"66824168","datatype":"locationiq"},{"latitude":"33.581315","longitude":"-79.020866","name":"Lumber Liquidators - 3338 US 17 Bus; Murrells Inlet","address":"SC 29576>843-310-3502","street_number":null,"street_name":"Inlet Square Drive","zip":"29575","city":null,"area":null,"county":"Horry County","state":"South Carolina","country":"us","formatted_address":"Five Guys, Inlet Square Drive, Inlet Square Mall, Garden City, Horry County, South Carolina, 29575, United States of America","place_id":"30026303","datatype":"locationiq"},{"latitude":"33.810426","longitude":"-78.709047","name":"Lumber Liquidators - 2006 Hwy 17 S; North Myrtle Beach","address":"SC 29582>843-353-0390","street_number":"1748","street_name":"US 17","zip":"29582","city":"North Myrtle Beach","area":"Timber Ridge","county":"Horry County","state":"South Carolina","country":"us","formatted_address":"1748, US 17, Timber Ridge, Crescent Beach, North Myrtle Beach, Horry County, South Carolina, 29582, United States of America","place_id":"202944475","datatype":"locationiq"},{"latitude":"34.938516","longitude":"-82.264926","name":"Lumber Liquidators - 1367 W Wade Hampton Blvd; Greer","address":"SC 29650>864-416-4670","street_number":"1365","street_name":"West Wade Hampton Boulevard","zip":"29650","city":"Greer","area":null,"county":"Greenville County","state":"South Carolina","country":"us","formatted_address":"Bi-Lo, 1365, West Wade Hampton Boulevard, Greer, Greenville County, South Carolina, 29650, United States of America","place_id":"52105856","datatype":"locationiq"},{"latitude":"34.7477343","longitude":"-82.2806704","name":"Lumber Liquidators - 3005 Kemet Dr; Simpsonville","address":"SC 29681>864-881-6620","street_number":null,"street_name":"US 276","zip":"29662","city":null,"area":null,"county":"Greenville County","state":"South Carolina","country":"us","formatted_address":"30, US 276, Lake Taro, Greenville County, South Carolina, 29662, United States of America","place_id":"306112","datatype":"locationiq"},{"latitude":"34.95999","longitude":"-81.006866","name":"Lumber Liquidators - 1801 Cherry Rd; Rock Hill","address":"SC 29732>803-610-1680","street_number":"1809","street_name":"North Cherry Road","zip":"29732","city":"Rock Hill","area":null,"county":"York County","state":"South Carolina","country":"us","formatted_address":"1809, North Cherry Road, Rock Hill, York County, South Carolina, 29732, United States of America","place_id":"203237948","datatype":"locationiq"},{"latitude":"43.5231078","longitude":"-96.7767773","name":"Lumber Liquidators - 2519 S Shirley Ave; Sioux Falls","address":"SD 57106>605-610-3230","street_number":null,"street_name":"South Shirley Avenue","zip":"57106","city":"Sioux Falls","area":null,"county":"Minnehaha County","state":"South Dakota","country":"us","formatted_address":"Foley's Fish Chop & Steak House, South Shirley Avenue, Sioux Falls, Minnehaha County, South Dakota, 57106, United States of America","place_id":"25539963","datatype":"locationiq"},{"latitude":"35.991946","longitude":"-86.594208","name":"Lumber Liquidators - 131 Charter Pl; La Vergne","address":"TN 37086>615-793-6993","street_number":"131","street_name":"Charter Place","zip":"37086","city":"La Vergne","area":null,"county":"Rutherford County","state":"Tennessee","country":"us","formatted_address":"131, Charter Place, La Vergne, Rutherford County, Tennessee, 37086, United States of America","place_id":"204054273","datatype":"locationiq"},{"latitude":"36.290331","longitude":"-86.703074","name":"Lumber Liquidators - 1553 Gallatin Pke N; Madison","address":"TN 37115>615-997-0021","street_number":"1801","street_name":"Gallatin Pike North","zip":"37115","city":"Nashville-Davidson","area":null,"county":"Davidson County","state":"Tennessee","country":"us","formatted_address":"1801, Gallatin Pike North, Nashville-Davidson, Davidson County, Tennessee, 37115, United States of America","place_id":"203620452","datatype":"locationiq"},{"latitude":"35.065133","longitude":"-85.196812","name":"Lumber Liquidators - 4295 Cromwell Rd; Chattanooga","address":"TN 37421>423-933-3201","street_number":"4285","street_name":"Cromwell Road","zip":"37421","city":"Chattanooga","area":null,"county":"Hamilton County","state":"Tennessee","country":"us","formatted_address":"4285, Cromwell Road, Chattanooga, Hamilton County, Tennessee, 37421, United States of America","place_id":"203714467","datatype":"locationiq"},{"latitude":"36.549299","longitude":"-82.491927","name":"Lumber Liquidators - 2637 E Stone Dr; Kingsport","address":"TN 37660>423-343-4168","street_number":"2657","street_name":"East Stone Drive","zip":"37660","city":"Kingsport","area":null,"county":"Sullivan County","state":"Tennessee","country":"us","formatted_address":"2657, East Stone Drive, Kingsport, Sullivan County, Tennessee, 37660, United States of America","place_id":"204184398","datatype":"locationiq"},{"latitude":"35.9095063","longitude":"-84.1355061","name":"Lumber Liquidators - 504 Carden Jennings Ln; Knoxville","address":"TN 37932>865-622-3740","street_number":"519","street_name":"Carden Jennings Lane","zip":"37932","city":"Knoxville","area":null,"county":"Knox County","state":"Tennessee","country":"us","formatted_address":"519, Carden Jennings Lane, Knoxville, Knox County, Tennessee, 37932, United States of America","place_id":"203843492","datatype":"locationiq"},{"latitude":"35.179019","longitude":"-89.830755","name":"Lumber Liquidators - 6949 Appling Farms Pkwy; Memphis","address":"TN 38133>901-743-3339","street_number":"6893","street_name":"Appling Farms Parkway","zip":"38133","city":"Memphis","area":null,"county":"Shelby County","state":"Tennessee","country":"us","formatted_address":"6893, Appling Farms Parkway, Memphis, Shelby County, Tennessee, 38133, United States of America","place_id":"204139510","datatype":"locationiq"},{"latitude":"32.9627575","longitude":"-96.9158615","name":"Lumber Liquidators - 1620 I-35 Frontage Rd; Carrollton","address":"TX 75006>972-323-5077","street_number":"1636","street_name":"North I-35E","zip":"75006","city":null,"area":null,"county":"Dallas County","state":"Texas","country":"us","formatted_address":"1636, North I-35E, Carrollton, Dallas County, Texas, 75006, United States of America","place_id":"204859876","datatype":"locationiq"},{"latitude":"33.023196","longitude":"-96.710845","name":"Lumber Liquidators - 1717 N Central Expy; Plano","address":"TX 75075>972-422-0727","street_number":null,"street_name":"Central Expressway","zip":"75074-8848","city":"Plano","area":null,"county":"Collin County","state":"Texas","country":"us","formatted_address":"Batteries Plus Bulbs, Central Expressway, Plano, Collin County, Texas, 75074-8848, United States of America","place_id":"46068627","datatype":"locationiq"},{"latitude":"29.854013","longitude":"-95.56521","name":"Lumber Liquidators - 5829 W Sam Houston Pkwy N; Houston","address":"TX 77041>832-467-9993","street_number":null,"street_name":"West Sam Houston Parkway North","zip":"77043","city":null,"area":null,"county":"Harris County","state":"Texas","country":"us","formatted_address":"West Sam Houston Parkway North, Fairbanks, Harris County, Texas, 77043, United States of America","place_id":"68413848","datatype":"locationiq"},{"latitude":"29.6943895","longitude":"-95.3192604","name":"Lumber Liquidators - 6148 S Loop E Fwy; Houston","address":"TX 77087>713-649-3900","street_number":null,"street_name":"South Loop East Frontage Road","zip":"77087","city":null,"area":null,"county":"Harris County","state":"Texas","country":"us","formatted_address":"South Loop East Frontage Road, Mayfair, Harris County, Texas, 77087, United States of America","place_id":"161637641","datatype":"locationiq"},{"latitude":"30.0415717","longitude":"-94.1298232","name":"Lumber Liquidators - 4395 W Cardinal Dr; Beaumont","address":"TX 77705>409-299-3645","street_number":null,"street_name":"West Cardinal Drive","zip":"77710","city":null,"area":null,"county":"Jefferson County","state":"Texas","country":"us","formatted_address":"West Cardinal Drive, Guffey, Jefferson County, Texas, 77710, United States of America","place_id":"150954959","datatype":"locationiq"},{"latitude":"27.7404721","longitude":"-97.4364751","name":"Lumber Liquidators - 1910 S Padre Island Dr; Corpus Christi","address":"TX 78416>361-356-4910","street_number":"1902","street_name":"South Padre Island Drive Frontage Road","zip":"78416","city":"Corpus Christi","area":null,"county":"Nueces County","state":"Texas","country":"us","formatted_address":"Country Air Services, LLC, 1902, South Padre Island Drive Frontage Road, Corpus Christi, Nueces County, Texas, 78416, United States of America","place_id":"57620804","datatype":"locationiq"},{"latitude":"26.193351","longitude":"-98.259978","name":"Lumber Liquidators - 3401 W Expy 83; McAllen","address":"TX 78503>956-467-5679","street_number":"3320","street_name":"West Expressway 83","zip":"78503","city":"McAllen","area":null,"county":"Hidalgo County","state":"Texas","country":"us","formatted_address":"3320, West Expressway 83, McAllen, Hidalgo County, Texas, 78503, United States of America","place_id":"205607436","datatype":"locationiq"},{"latitude":"30.349748","longitude":"-97.692785","name":"Lumber Liquidators - 8627 I-35 N; Austin","address":"TX 78753>512-444-0244","street_number":"8627","street_name":"North Interstate Highway 35 Service Road","zip":"78753","city":"Austin","area":null,"county":"Travis County","state":"Texas","country":"us","formatted_address":"8627, North Interstate Highway 35 Service Road, Austin, Travis County, Texas, 78753, United States of America","place_id":"51189682","datatype":"locationiq"},{"latitude":"33.547361","longitude":"-101.940427","name":"Lumber Liquidators - 5004 Frankford Ave; Lubbock","address":"TX 79424>806-577-4109","street_number":null,"street_name":"Frankford Avenue","zip":"79424","city":"Lubbock","area":"Ironton","county":"Lubbock County","state":"Texas","country":"us","formatted_address":"Ashley Furniture HomeStore, Frankford Avenue, Ironton, Lubbock, Lubbock County, Texas, 79424, United States of America","place_id":"165057133","datatype":"locationiq"},{"latitude":"31.7474956","longitude":"-106.3348203","name":"Lumber Liquidators - 1111 Barranca Dr; El Paso","address":"TX 79935>915-590-3300","street_number":"1117","street_name":"Barranca Drive","zip":"79935","city":"El Paso City","area":null,"county":"El Paso County","state":"Texas","country":"us","formatted_address":"1117, Barranca Drive, El Paso City, El Paso County, Texas, 79935, United States of America","place_id":"205077964","datatype":"locationiq"},{"latitude":"40.3372818","longitude":"-111.7220867","name":"Lumber Liquidators - 1451 W 40 S; Lindon","address":"UT 84042>801-429-9465 ","street_number":"300","street_name":"West 40 South","zip":"84042","city":"Lindon","area":null,"county":"Utah County","state":"Utah","country":"us","formatted_address":"300, West 40 South, Lindon, Utah County, Utah, 84042, United States of America","place_id":"206888756","datatype":"locationiq"},{"latitude":"40.727961","longitude":"-111.902452","name":"Lumber Liquidators - 389 W 1830 S; Salt Lake City","address":"UT 84115>801-886-8878","street_number":null,"street_name":"Hartwell Avenue","zip":"84115","city":"Salt Lake City","area":"Ballpark","county":"Salt Lake County","state":"Utah","country":"us","formatted_address":"Dollar Tree, Hartwell Avenue, Ballpark, Salt Lake City, Salt Lake County, Utah, 84115, United States of America","place_id":"142946755","datatype":"locationiq"},{"latitude":"38.777725","longitude":"-77.504009","name":"Lumber Liquidators - 10356 Festival La; Manassas","address":"VA 20109>571-535-4352","street_number":null,"street_name":"Festival Lane","zip":"20109","city":null,"area":"Iron Gate","county":"Prince William County","state":"Virginia","country":"us","formatted_address":"Gina's Hair, Festival Lane, Iron Gate, West Gate, Prince William County, Virginia, 20109, United States of America","place_id":"23702219","datatype":"locationiq"},{"latitude":"38.892229","longitude":"-77.441701","name":"Lumber Liquidators - 14310 Sullyfield Cir; Chantilly","address":"VA 20151>703-563-4321","street_number":null,"street_name":"Sully Road","zip":"20120","city":null,"area":"Sequoia Farms","county":"Fairfax County","state":"Virginia","country":"us","formatted_address":"Sully Road, Sequoia Farms, Centreville, Fairfax County, Virginia, 20120, United States of America","place_id":"92966194","datatype":"locationiq"},{"latitude":"39.112527","longitude":"-77.533352","name":"Lumber Liquidators - 1065 Edwards Ferry Rd NE; Leesburg","address":"VA 20176>571-762-0541","street_number":"1083","street_name":"Edwards Ferry Road Northeast","zip":"20176","city":null,"area":null,"county":"Loudoun County","state":"Virginia","country":"us","formatted_address":"Sweetz Bakery, 1083, Edwards Ferry Road Northeast, Leesburg, Loudoun County, Virginia, 20176, United States of America","place_id":"28925298","datatype":"locationiq"},{"latitude":"38.732734","longitude":"-77.189717","name":"Lumber Liquidators - 8245 Backlick Rd; Lorton","address":"VA 22079>703-339-1180","street_number":"8245","street_name":"Backlick Road","zip":"22079","city":null,"area":"Newberry Station","county":"Fairfax County","state":"Virginia","country":"us","formatted_address":"8245, Backlick Road, Newberry Station, Newington, Fairfax County, Virginia, 22079, United States of America","place_id":"102658520","datatype":"locationiq"},{"latitude":"38.263775","longitude":"-77.496303","name":"Lumber Liquidators - 4507 Jefferson Davis Hwy; Fredericksburg","address":"VA 22401>540-446-5035","street_number":null,"street_name":"Loren Drive","zip":"22408","city":null,"area":null,"county":"Spotsylvania County","state":"Virginia","country":"us","formatted_address":"Loren Drive, Fourmile Fork, Spotsylvania County, Virginia, 22408, United States of America","place_id":"72201452","datatype":"locationiq"},{"latitude":"37.414153","longitude":"-76.811331","name":"Lumber Liquidators - 3000 John Deere Rd; Toano","address":"VA 23168>757-566-7546","street_number":"3000","street_name":"John Deere Road","zip":"23168","city":null,"area":null,"county":"James City County","state":"Virginia","country":"us","formatted_address":"Lumber Liquidators, 3000, John Deere Road, Stonehouse Commerce Park, Andersons Corner, James City County, Virginia, 23168, United States of America","place_id":"151177615","datatype":"locationiq"},{"latitude":"37.506578","longitude":"-77.579072","name":"Lumber Liquidators - 9990 Robious Rd; North Chesterfield","address":"VA 23235>804-404-7292","street_number":null,"street_name":"Suburban Village Loop","zip":"23235","city":null,"area":null,"county":"Chesterfield County","state":"Virginia","country":"us","formatted_address":"Lumber Liquidators, Suburban Village Loop, Suburban Village, Bon Air, Chesterfield County, Virginia, 23235, United States of America","place_id":"43645297","datatype":"locationiq"},{"latitude":"37.634555","longitude":"-77.54356","name":"Lumber Liquidators - 8818-B W Broad St; Richmond","address":"VA 23294>804-404-7856","street_number":"8795","street_name":"West Broad Street","zip":"23294","city":null,"area":null,"county":"Henrico County","state":"Virginia","country":"us","formatted_address":"8795, West Broad Street, Tuckernuck Square, Laurel, Henrico County, Virginia, 23294, United States of America","place_id":"207550256","datatype":"locationiq"},{"latitude":"36.841384","longitude":"-76.104349","name":"Lumber Liquidators - 3756 Virginia Beach Blvd; Virginia Beach","address":"VA 23452>757-215-0856","street_number":"3756","street_name":"Virginia Beach Boulevard","zip":"23452","city":"Virginia Beach","area":null,"county":null,"state":"Virginia","country":"us","formatted_address":"3756, Virginia Beach Boulevard, Lynnhaven, Thalia, Virginia Beach, Virginia, 23452, United States of America","place_id":"157504839","datatype":"locationiq"},{"latitude":"36.835903","longitude":"-76.262674","name":"Lumber Liquidators - 416 Campostella Rd; Norfolk","address":"VA 23523>757-494-7900","street_number":"416","street_name":"Campostella Road","zip":"23523","city":"Norfolk","area":"Campostella Heights","county":null,"state":"Virginia","country":"us","formatted_address":"416, Campostella Road, Campostella Heights, Berkley, Norfolk, Virginia, 23523, United States of America","place_id":"158487500","datatype":"locationiq"},{"latitude":"37.039155","longitude":"-76.40708","name":"Lumber Liquidators - 2326 W Mercury Blvd; Hampton","address":"VA 23666>757-952-0620","street_number":null,"street_name":"Todds Lane","zip":"23666","city":"Hampton City","area":null,"county":null,"state":"Virginia","country":"us","formatted_address":"Todds Lane, Northampton, Hampton, Hampton City, Virginia, 23666, United States of America","place_id":"173721524","datatype":"locationiq"},{"latitude":"37.2734776","longitude":"-80.0507972","name":"Lumber Liquidators - 356 Apperson Dr; Salem","address":"VA 24153>540-765-4200","street_number":null,"street_name":"South Yorkshire Street","zip":"24153","city":null,"area":null,"county":"Roanoke County","state":"Virginia","country":"us","formatted_address":"Lake Region Park, South Yorkshire Street, Ridgewood Park, Riverland Court, Roanoke County, Virginia, 24153, United States of America","place_id":"169736895","datatype":"locationiq"},{"latitude":"37.360932","longitude":"-79.168438","name":"Lumber Liquidators - 3700 Candlers Mountain Rd; Lynchburg","address":"VA 24502>434-845-1207","street_number":null,"street_name":"Jerry Falwell Parkway","zip":"24502","city":"Lynchburg","area":null,"county":null,"state":"Virginia","country":"us","formatted_address":"Cici's Pizza, Jerry Falwell Parkway, Lynchburg City, Lynchburg, Virginia, 24502, United States of America","place_id":"4870918","datatype":"locationiq"},{"latitude":"44.448517","longitude":"-73.115173","name":"Lumber Liquidators - 329 Harvest Ln; Williston","address":"VT 05495>802-316-4113","street_number":null,"street_name":"Harvest Lane","zip":"05495","city":null,"area":null,"county":"Chittenden County","state":"Vermont","country":"us","formatted_address":"Natural Provisions, Harvest Lane, Tafts Corner, Chittenden County, Vermont, 05495, United States of America","place_id":"103963855","datatype":"locationiq"},{"latitude":"47.62925","longitude":"-122.167047","name":"Lumber Liquidators - 2021 130th Ave NE: Bellevue","address":"WA 98005>425-458-3671","street_number":"2099","street_name":"130th Avenue Northeast","zip":"98005","city":"Bellevue","area":null,"county":"King County","state":"Washington","country":"us","formatted_address":"2099, 130th Avenue Northeast, Cherry Crest, Bellevue, King County, Washington, 98005, United States of America","place_id":"208432274","datatype":"locationiq"},{"latitude":"47.574041","longitude":"-122.333699","name":"Lumber Liquidators - 3300 1st Ave S; Seattle","address":"WA 98134>206-625-5200","street_number":"3300","street_name":"1st Avenue South","zip":"98134","city":"Seattle","area":null,"county":"King County","state":"Washington","country":"us","formatted_address":"3300, 1st Avenue South, Georgetown, Seattle, King County, Washington, 98134, United States of America","place_id":"23953733","datatype":"locationiq"},{"latitude":"47.459544","longitude":"-122.249492","name":"Lumber Liquidators - 120 Andover Park E; Tukwila","address":"WA 98188>253-333-9830","street_number":null,"street_name":"Andover Park East","zip":"98188","city":"Tukwila","area":null,"county":"King County","state":"Washington","country":"us","formatted_address":"Seattle Metropolitan Credit Union, Andover Park East, Tukwila, King County, Washington, 98188, United States of America","place_id":"57816778","datatype":"locationiq"},{"latitude":"47.894635","longitude":"-122.289345","name":"Lumber Liquidators - 11338 Mukilteo Speedway; Mukilteo","address":"WA 98275>425-320-3980","street_number":null,"street_name":"Mukilteo Speedway","zip":"98275","city":"Mukilteo","area":null,"county":"Snohomish County","state":"Washington","country":"us","formatted_address":"Lumber Liquidators, Mukilteo Speedway, Mukilteo, Snohomish County, Washington, 98275, United States of America","place_id":"61107929","datatype":"locationiq"},{"latitude":"47.233025","longitude":"-122.502984","name":"Lumber Liquidators - 3001 S Huson St; Tacoma","address":"WA 98409>253-617-0071","street_number":"4916","street_name":"Center Street","zip":"98409","city":"Fircrest","area":null,"county":"Pierce County","state":"Washington","country":"us","formatted_address":"Caesars Nail Spa, 4916, Center Street, Fircrest, Pierce County, Washington, 98409, United States of America","place_id":"47386143","datatype":"locationiq"},{"latitude":"47.034704","longitude":"-122.93615","name":"Lumber Liquidators - 1520 Cooper Point Rd SW; Olympia","address":"WA 98502>360-529-4481","street_number":null,"street_name":"Cooper Point Road Southwest","zip":"98502","city":"Olympia","area":null,"county":"Thurston County","state":"Washington","country":"us","formatted_address":"Half Price Books, Cooper Point Road Southwest, Olympia, Thurston County, Washington, 98502, United States of America","place_id":"34477970","datatype":"locationiq"},{"latitude":"47.674802","longitude":"-117.230835","name":"Lumber Liquidators - 12918 E Indiana Ave; Spokane Valley","address":"WA 99216>509-891-0111","street_number":null,"street_name":"I 90","zip":"99216","city":"Spokane Valley","area":"Veradale","county":"Spokane County","state":"Washington","country":"us","formatted_address":"I 90, Veradale, Spokane Valley, Spokane County, Washington, 99216, United States of America","place_id":"82239030","datatype":"locationiq"},{"latitude":"46.2145353","longitude":"-119.2056101","name":"Lumber Liquidators - 6300 W Deschutes Ave; Kennewick","address":"WA 99336>509-396-6912","street_number":"6310","street_name":"Deschutes Avenue","zip":"99336","city":"Kennewick","area":null,"county":"Benton County","state":"Washington","country":"us","formatted_address":"6310, Deschutes Avenue, Kennewick, Benton County, Washington, 99336, United States of America","place_id":"208185726","datatype":"locationiq"},{"latitude":"42.568027","longitude":"-87.900604","name":"Lumber Liquidators - 7650 75th St; Kenosha","address":"WI 53142>262-835-1100","street_number":"6537","street_name":"77th Avenue","zip":"53142","city":"Kenosha","area":null,"county":"Kenosha County","state":"Wisconsin","country":"us","formatted_address":"6537, 77th Avenue, Kenosha, Kenosha County, Wisconsin, 53142, United States of America","place_id":"209433069","datatype":"locationiq"},{"latitude":"43.018855","longitude":"-87.996278","name":"Lumber Liquidators - 6740 W Greenfield Ave; West Allis","address":"WI 53214>414-386-0425","street_number":null,"street_name":"West Greenfield Avenue","zip":"53214","city":"West Allis","area":null,"county":"Milwaukee County","state":"Wisconsin","country":"us","formatted_address":"West Greenfield Avenue, West Allis, Milwaukee County, Wisconsin, 53214, United States of America","place_id":"89194969","datatype":"locationiq"},{"latitude":"43.1733649","longitude":"-89.2513929","name":"Lumber Liquidators - 2255 McCoy Rd; Sun Prairie","address":"WI 53590>608-318-4140","street_number":null,"street_name":"US 151","zip":"53596","city":null,"area":null,"county":"Dane County","state":"Wisconsin","country":"us","formatted_address":"101, US 151, Sun Prairie, Town of Burke, Dane County, Wisconsin, 53596, United States of America","place_id":"14071601","datatype":"locationiq"},{"latitude":"43.03423","longitude":"-89.45403","name":"Lumber Liquidators - 4615 Verona Rd; Madison","address":"WI 53711>608-620-7306","street_number":null,"street_name":"Britta Parkway","zip":"53711","city":"Madison","area":null,"county":"Dane County","state":"Wisconsin","country":"us","formatted_address":"Lumber Liquidators, Britta Parkway, Madison, Dane County, Wisconsin, 53711, United States of America","place_id":"58845226","datatype":"locationiq"},{"latitude":"44.439123","longitude":"-88.1005689","name":"Lumber Liquidators - 1452 Mid Valley Dr; De Pere","address":"WI 54115>920-351-4570","street_number":"1411","street_name":"Janssen Court","zip":"54115","city":null,"area":null,"county":"Brown County","state":"Wisconsin","country":"us","formatted_address":"1411, Janssen Court, West De Pere, Brown County, Wisconsin, 54115, United States of America","place_id":"209248053","datatype":"locationiq"},{"latitude":"38.445257","longitude":"-81.833292","name":"Lumber Liquidators - 4200 First Ave; Nitro","address":"WV 25143>304-759-8639","street_number":null,"street_name":"1st Avenue","zip":"25143","city":"Nitro","area":null,"county":"Putnam County","state":"West Virginia","country":"us","formatted_address":"1st Avenue, Nitro, Putnam County, West Virginia, 25143, United States of America","place_id":"68623504","datatype":"locationiq"},{"latitude":"39.4562099","longitude":"-77.9638869","name":"Lumber Liquidators - 85 Lynn Haven Dr; Martinsburg ","address":"WV 25404>304-596-0920","street_number":null,"street_name":"West King Street","zip":"25401","city":null,"area":null,"county":"Berkeley County","state":"West Virginia","country":"us","formatted_address":"Berkeley County Courthouse, West King Street, Martinsburg, Berkeley County, West Virginia, 25401, United States of America","place_id":"3662223","datatype":"locationiq"},{"latitude":"40.053089","longitude":"-80.725083","name":"Lumber Liquidators - 2738 Chapline St; Wheeling","address":"WV 26003>304-907-0137","street_number":null,"street_name":"28th Street","zip":"26003","city":null,"area":null,"county":"Ohio County","state":"West Virginia","country":"us","formatted_address":"Lowe's, 28th Street, Wheeling, Ohio County, West Virginia, 26003, United States of America","place_id":"3606747","datatype":"locationiq"}]