[{"latitude":"35.85612","longitude":"-78.70207","name":"Marshalls","address":"USA-Raleigh","street_number":null,"street_name":"Glenwood Avenue","zip":"27612","city":"Raleigh","area":null,"county":"Wake County","state":"North Carolina","country":"us","formatted_address":"Valero: Glenwood #2, Glenwood Avenue, Crabtree Valley, Raleigh, Wake County, North Carolina, 27612, United States of America","place_id":"137412297","datatype":"locationiq"},{"latitude":"32.91288","longitude":"-117.14533","name":"Marshalls","address":"USA-Mira Mesa","street_number":null,"street_name":"Mira Mesa Boulevard","zip":"92126","city":"San Diego","area":null,"county":"San Diego County","state":"California","country":"us","formatted_address":"Fuddruckers, Mira Mesa Boulevard, Mira Mesa, San Diego, San Diego County, California, 92126, United States of America","place_id":"76745355","datatype":"locationiq"},{"latitude":"34.14155","longitude":"-118.37531","name":"Marshalls","address":"USA-Los Angeles","street_number":"4232","street_name":"Ventura Boulevard","zip":"91604","city":"Los Angeles","area":"Universal City","county":"Los Angeles County","state":"California","country":"us","formatted_address":"4232, Ventura Boulevard, Universal City, North Hollywood, Los Angeles, Los Angeles County, California, 91604, United States of America","place_id":"178641100","datatype":"locationiq"},{"latitude":"33.83128","longitude":"-118.34750","name":"Marshalls","address":"USA-Torrance","street_number":"3715","street_name":"West Carson Street","zip":"90503","city":"Torrance","area":null,"county":"Los Angeles County","state":"California","country":"us","formatted_address":"3715, West Carson Street, La Fresa, Torrance, Los Angeles County, California, 90503, United States of America","place_id":"178959439","datatype":"locationiq"},{"latitude":"33.90067","longitude":"-118.36144","name":"Marshalls","address":"USA-Manhattan Beach","street_number":"14437","street_name":"Inglewood Avenue","zip":"90250","city":"Hawthorne","area":null,"county":"Los Angeles County","state":"California","country":"us","formatted_address":"14437, Inglewood Avenue, Hawthorne, Los Angeles County, California, 90250, United States of America","place_id":"178964989","datatype":"locationiq"},{"latitude":"34.01217","longitude":"-84.56353","name":"Marshalls","address":"USA-Marietta","street_number":"494","street_name":"Ernest W. Barrett Parkway Northwest","zip":"30144","city":null,"area":null,"county":"Cobb County","state":"Georgia","country":"us","formatted_address":"494, Ernest W. Barrett Parkway Northwest, Elizabeth, Cobb County, Georgia, 30144, United States of America","place_id":"183551453","datatype":"locationiq"},{"latitude":"33.68272","longitude":"-117.81626","name":"Marshalls","address":"USA-Irvine","street_number":null,"street_name":"Alton Parkway","zip":"92614","city":"Irvine","area":null,"county":"Orange County","state":"California","country":"us","formatted_address":"Edwards 8 Cinema Westpark, Alton Parkway, Westpark, Irvine, Orange County, California, 92614, United States of America","place_id":"119502317","datatype":"locationiq"},{"latitude":"29.51615","longitude":"-98.52607","name":"Marshalls","address":"USA-San Antonio","street_number":null,"street_name":"West Avenue","zip":"78213","city":null,"area":null,"county":"Bexar County","state":"Texas","country":"us","formatted_address":"H-E-B Fuel, West Avenue, Castle Hills, Bexar County, Texas, 78213, United States of America","place_id":"130171196","datatype":"locationiq"},{"latitude":"33.10681","longitude":"-96.80598","name":"Marshalls","address":"USA-Frisco","street_number":"3301","street_name":"Preston Road","zip":"75034","city":"Frisco","area":null,"county":"Collin County","state":"Texas","country":"us","formatted_address":"3301, Preston Road, The Centre at Preston Ridge, Frisco, Collin County, Texas, 75034, United States of America","place_id":"48482651","datatype":"locationiq"},{"latitude":"35.75903","longitude":"-78.73431","name":"Marshalls","address":"USA-Raleigh","street_number":"208","street_name":"Crossroads Boulevard","zip":"27518","city":null,"area":null,"county":"Wake County","state":"North Carolina","country":"us","formatted_address":"208, Crossroads Boulevard, Crossroads Plaza, Cary, Wake County, North Carolina, 27518, United States of America","place_id":"198345742","datatype":"locationiq"},{"latitude":"33.79008","longitude":"-118.13903","name":"Marshalls","address":"USA-Long Beach","street_number":null,"street_name":"E Atherton Street","zip":"90804:90815","city":"Long Beach","area":null,"county":"Los Angeles County","state":"California","country":"us","formatted_address":"Marshall's, E Atherton Street, Los Altos, Long Beach, Los Angeles County, California, 90804:90815, United States of America","place_id":"159821038","datatype":"locationiq"},{"latitude":"30.31877","longitude":"-81.55462","name":"Marshalls","address":"USA-Jacksonville","street_number":"9397","street_name":"Atlantic Boulevard","zip":"32225","city":"Jacksonville","area":null,"county":"Duval County","state":"Florida","country":"us","formatted_address":"9397, Atlantic Boulevard, Jacksonville, Duval County, Florida, 32225, United States of America","place_id":"181938128","datatype":"locationiq"},{"latitude":"25.64357","longitude":"-80.33402","name":"Marshalls","address":"USA-Kendall","street_number":null,"street_name":"South Dixie Highway","zip":"33176-5883","city":null,"area":null,"county":"Miami-Dade County","state":"Florida","country":"us","formatted_address":"SW 136 St & US # 1, South Dixie Highway, Palmetto Bay, Miami-Dade County, Florida, 33176-5883, United States of America","place_id":"12487838","datatype":"locationiq"},{"latitude":"26.44055","longitude":"-80.07096","name":"Marshalls","address":"USA-Delray Beach","street_number":null,"street_name":"Federal Highway","zip":"33444","city":"Delray Beach","area":null,"county":"Palm Beach County","state":"Florida","country":"us","formatted_address":"Federal Highway, Delray Beach, Palm Beach County, Florida, 33444, United States of America","place_id":"167485285","datatype":"locationiq"},{"latitude":"32.90938","longitude":"-96.85854","name":"Marshalls","address":"USA-Dallas","street_number":"3624","street_name":"Forest Lane","zip":"75234:75244","city":"Dallas","area":null,"county":"Dallas County","state":"Texas","country":"us","formatted_address":"3624, Forest Lane, Dallas, Dallas County, Texas, 75234:75244, United States of America","place_id":"169473948","datatype":"locationiq"},{"latitude":"30.17529","longitude":"-81.62798","name":"Marshalls","address":"USA-Jacksonville","street_number":"3098","street_name":"Claire Lane","zip":"32223","city":"Jacksonville","area":null,"county":"Duval County","state":"Florida","country":"us","formatted_address":"3098, Claire Lane, Jacksonville, Duval County, Florida, 32223, United States of America","place_id":"181987302","datatype":"locationiq"},{"latitude":"33.94534","longitude":"-118.33103","name":"Marshalls","address":"USA-Inglewood","street_number":null,"street_name":"West Century Boulevard","zip":"90303","city":"Inglewood","area":null,"county":"Los Angeles County","state":"California","country":"us","formatted_address":"Red Lobster, West Century Boulevard, Inglewood, Los Angeles County, California, 90303, United States of America","place_id":"164989071","datatype":"locationiq"},{"latitude":"33.88726","longitude":"-84.74251","name":"Marshalls","address":"USA-Hiram","street_number":null,"street_name":"Jimmy Lee Smith Parkway","zip":"30141","city":"Hiram","area":"Indian Lake","county":"Paulding County","state":"Georgia","country":"us","formatted_address":"Jimmy Lee Smith Parkway, Indian Lake, Hiram, Paulding County, Georgia, 30141, United States of America","place_id":"135289557","datatype":"locationiq"},{"latitude":"25.86639","longitude":"-80.31782","name":"Marshalls","address":"USA-Hialeah","street_number":null,"street_name":"West 49th Street","zip":"FL 33012","city":null,"area":null,"county":"Miami-Dade County","state":"Florida","country":"us","formatted_address":"W 49 ST@W 17 CT (WESTLAND), West 49th Street, Hialeah, Miami-Dade County, Florida, FL 33012, United States of America","place_id":"12446541","datatype":"locationiq"},{"latitude":"25.62118","longitude":"-80.34439","name":"Marshalls","address":"USA-Palmetto Bay","street_number":"16011","street_name":"South Dixie Highway","zip":"33157","city":null,"area":null,"county":"Miami-Dade County","state":"Florida","country":"us","formatted_address":"16011, South Dixie Highway, Palmetto Bay, Miami-Dade County, Florida, 33157, United States of America","place_id":"163877249","datatype":"locationiq"},{"latitude":"33.92566","longitude":"-118.13114","name":"Marshalls","address":"USA-Los Angeles","street_number":null,"street_name":"Lakewood Boulevard","zip":"90242","city":"Downey","area":null,"county":"Los Angeles County","state":"California","country":"us","formatted_address":"Lakewood Boulevard, Downey, Los Angeles County, California, 90242, United States of America","place_id":"157263463","datatype":"locationiq"},{"latitude":"26.14499","longitude":"-80.32390","name":"Marshalls","address":"USA-Fort Lauderdale","street_number":null,"street_name":"West Sunrise Boulevard","zip":"33322:33323:33325","city":null,"area":null,"county":"Broward County","state":"Florida","country":"us","formatted_address":"Applebee's, West Sunrise Boulevard, Sunrise, Broward County, Florida, 33322:33323:33325, United States of America","place_id":"141424586","datatype":"locationiq"},{"latitude":"32.81944","longitude":"-83.71394","name":"Marshalls","address":"USA-Macon","street_number":"4659","street_name":"Presidential Parkway","zip":"31206","city":"Macon","area":"Bloomfield Farms","county":"Bibb County","state":"Georgia","country":"us","formatted_address":"4659, Presidential Parkway, Bloomfield Farms, Macon, Bibb County, Georgia, 31206, United States of America","place_id":"183363941","datatype":"locationiq"},{"latitude":"32.89016","longitude":"-97.25928","name":"Marshalls","address":"USA-Fort Worth","street_number":null,"street_name":"Denton Highway","zip":"76148","city":"Watauga","area":null,"county":"Tarrant County","state":"Texas","country":"us","formatted_address":"Chili's, Denton Highway, Watauga, Tarrant County, Texas, 76148, United States of America","place_id":"46218556","datatype":"locationiq"},{"latitude":"30.16763","longitude":"-95.45315","name":"Marshalls","address":"USA-The Woodlands","street_number":null,"street_name":"Lake Woodlands Drive","zip":"77385","city":"The Woodlands","area":null,"county":"Montgomery County","state":"Texas","country":"us","formatted_address":"Chili's Bar & Grill, Lake Woodlands Drive, Town Center, The Woodlands, Montgomery County, Texas, 77385, United States of America","place_id":"95900185","datatype":"locationiq"},{"latitude":"33.70983","longitude":"-84.34664","name":"Marshalls","address":"USA-Atlanta","street_number":"1090","street_name":"Moreland Industrial Boulevard Southeast","zip":"30316","city":"Atlanta","area":"Eastland Heights","county":"DeKalb County","state":"Georgia","country":"us","formatted_address":"1090, Moreland Industrial Boulevard Southeast, Eastland Heights, Atlanta, DeKalb County, Georgia, 30316, United States of America","place_id":"183626758","datatype":"locationiq"},{"latitude":"33.70454","longitude":"-112.27271","name":"Marshalls","address":"USA-Sun City","street_number":null,"street_name":"North Lake Pleasant Parkway","zip":"85383","city":"Peoria","area":null,"county":"Maricopa County","state":"Arizona","country":"us","formatted_address":"North Lake Pleasant Parkway, Peoria, Maricopa County, Arizona, 85383, United States of America","place_id":"164481583","datatype":"locationiq"},{"latitude":"34.15041","longitude":"-118.06904","name":"Marshalls","address":"USA-Pasadena","street_number":null,"street_name":"Foothill Boulevard","zip":"91107","city":"Pasadena","area":null,"county":"Los Angeles County","state":"California","country":"us","formatted_address":"Corner Bakery, Foothill Boulevard, Pasadena, Los Angeles County, California, 91107, United States of America","place_id":"3892686","datatype":"locationiq"},{"latitude":"29.55578","longitude":"-95.38242","name":"Marshalls","address":"USA-Houston","street_number":null,"street_name":"West Broadway Street","zip":"77581:77584","city":"Pearland","area":null,"county":"Brazoria County","state":"Texas","country":"us","formatted_address":"West Broadway Street, Pearland, Brazoria County, Texas, 77581:77584, United States of America","place_id":"170827446","datatype":"locationiq"},{"latitude":"32.54649","longitude":"-84.94393","name":"Marshalls","address":"USA-Columbus","street_number":null,"street_name":"Whittlesey Road","zip":"31909","city":"Columbus","area":"Sunshine Acres","county":"Muscogee County","state":"Georgia","country":"us","formatted_address":"Whittlesey Road, Sunshine Acres, Columbus, Muscogee County, Georgia, 31909, United States of America","place_id":"152959480","datatype":"locationiq"},{"latitude":"33.99722","longitude":"-117.71775","name":"Marshalls","address":"USA-Chino","street_number":null,"street_name":"Edison Avenue","zip":"91761","city":"Chino","area":null,"county":"San Bernardino County","state":"California","country":"us","formatted_address":"Edison Avenue, Chino, San Bernardino County, California, 91761, United States of America","place_id":"171044918","datatype":"locationiq"},{"latitude":"33.95770","longitude":"-84.13726","name":"Marshalls","address":"USA-Duluth","street_number":null,"street_name":"Satellite Boulevard","zip":"30096","city":null,"area":null,"county":"Gwinnett County","state":"Georgia","country":"us","formatted_address":"Satellite Boulevard, Adams Crossroads, Gwinnett County, Georgia, 30096, United States of America","place_id":"135496987","datatype":"locationiq"},{"latitude":"29.47645","longitude":"-95.14534","name":"Marshalls Inc.","address":"USA-League City","street_number":null,"street_name":"West Bay Area Boulevard","zip":"77598","city":"League City","area":"Magnolia Creek","county":"Galveston County","state":"Texas","country":"us","formatted_address":"West Bay Area Boulevard, Magnolia Creek, League City, Galveston County, Texas, 77598, United States of America","place_id":"68492025","datatype":"locationiq"},{"latitude":"29.92279","longitude":"-90.04131","name":"Marshalls","address":"USA-New Orleans","street_number":null,"street_name":"Westbank Expressway","zip":"70114","city":"Gretna","area":null,"county":"Orleans Parish","state":"Louisiana","country":"us","formatted_address":"Westbank Expressway, Gretna, Orleans Parish, Louisiana, 70114, United States of America","place_id":"67474069","datatype":"locationiq"},{"latitude":"32.81525","longitude":"-97.41757","name":"Marshalls","address":"USA-Lake Worth","street_number":null,"street_name":"Azle Avenue","zip":"76135","city":"Lake Worth","area":null,"county":"Tarrant County","state":"Texas","country":"us","formatted_address":"Saint Annes Episcopal Church, Azle Avenue, Lake Worth, Tarrant County, Texas, 76135, United States of America","place_id":"2966669","datatype":"locationiq"},{"latitude":"25.98101","longitude":"-80.35954","name":"Marshalls","address":"USA-Miramar","street_number":null,"street_name":"Southwest 160th Avenue","zip":"33082","city":null,"area":null,"county":"Broward County","state":"Florida","country":"us","formatted_address":"Starbucks, Southwest 160th Avenue, Miramar, Broward County, Florida, 33082, United States of America","place_id":"18645587","datatype":"locationiq"},{"latitude":"35.12639","longitude":"-120.59658","name":"Marshalls","address":"USA-Arroyo Grande","street_number":"1160","street_name":"Town Center Drive","zip":"93420","city":"Arroyo Grande","area":null,"county":"San Luis Obispo County","state":"California","country":"us","formatted_address":"Regal Cinemas, 1160, Town Center Drive, Arroyo Grande, San Luis Obispo County, California, 93420, United States of America","place_id":"106491619","datatype":"locationiq"},{"latitude":"33.72522","longitude":"-116.40073","name":"Marshalls","address":"USA-Palm Desert","street_number":"72415","street_name":"Highway 111","zip":"92260","city":"Palm Desert","area":null,"county":"Riverside County","state":"California","country":"us","formatted_address":"72415, Highway 111, Palm Desert, Riverside County, California, 92260, United States of America","place_id":"179453858","datatype":"locationiq"},{"latitude":"28.54995","longitude":"-82.53059","name":"Marshalls","address":"USA-High Point","street_number":"11479","street_name":"Pitcairn Street","zip":"34613","city":"Spring Hill","area":null,"county":"Hernando County","state":"Florida","country":"us","formatted_address":"11479, Pitcairn Street, Spring Hill, Hernando County, Florida, 34613, United States of America","place_id":"182072659","datatype":"locationiq"},{"latitude":"28.55301","longitude":"-81.34941","name":"Marshalls","address":"USA-Orlando","street_number":"2633","street_name":"East Colonial Drive","zip":"32803","city":"Orlando","area":"Colonialtown","county":"Orange County","state":"Florida","country":"us","formatted_address":"TD Bank, 2633, East Colonial Drive, Colonialtown, Orlando, Orange County, Florida, 32803, United States of America","place_id":"44200622","datatype":"locationiq"},{"latitude":"27.70882","longitude":"-97.37336","name":"Marshalls","address":"USA-Corpus Christi","street_number":null,"street_name":"South Padre Island Drive Frontage Road","zip":"78415","city":"Corpus Christi","area":null,"county":"Nueces County","state":"Texas","country":"us","formatted_address":"South Padre Island Drive Frontage Road, Corpus Christi, Nueces County, Texas, 78415, United States of America","place_id":"71628161","datatype":"locationiq"},{"latitude":"26.59826","longitude":"-81.87149","name":"Marshalls","address":"USA-Fort Myers","street_number":"4427","street_name":"Cleveland Avenue","zip":"33901","city":"Fort Myers","area":null,"county":"Lee County","state":"Florida","country":"us","formatted_address":"4427, Cleveland Avenue, Page Field Medical Village, Fort Myers, Lee County, Florida, 33901, United States of America","place_id":"112511930","datatype":"locationiq"},{"latitude":"25.77437","longitude":"-80.18957","name":"Marshalls","address":"USA-Miami","street_number":null,"street_name":"East Flagler Street","zip":"FL 33131","city":"Miami","area":null,"county":"Miami-Dade County","state":"Florida","country":"us","formatted_address":"E FLAGLER ST@NE 3 AV, East Flagler Street, Miami, Miami-Dade County, Florida, FL 33131, United States of America","place_id":"12277232","datatype":"locationiq"},{"latitude":"26.36771","longitude":"-80.17306","name":"Marshalls","address":"USA-Boca Raton","street_number":null,"street_name":"Glades Road","zip":"33432","city":null,"area":null,"county":"Palm Beach County","state":"Florida","country":"us","formatted_address":"Burger King, Glades Road, Boca West, Palm Beach County, Florida, 33432, United States of America","place_id":"104250486","datatype":"locationiq"},{"latitude":"26.68117","longitude":"-80.22616","name":"Marshalls","address":"USA-West Palm Beach","street_number":"11451","street_name":"Southern Boulevard","zip":"33411","city":null,"area":null,"county":"Palm Beach County","state":"Florida","country":"us","formatted_address":"Goodyear Auto Service Center, 11451, Southern Boulevard, Royal Palm Beach, Palm Beach County, Florida, 33411, United States of America","place_id":"147985066","datatype":"locationiq"},{"latitude":"32.99394","longitude":"-117.25916","name":"Marshalls","address":"USA-Solana Beach","street_number":"667","street_name":"San Rodolfo Drive","zip":"92075","city":"Solana Beach","area":null,"county":"San Diego County","state":"California","country":"us","formatted_address":"667, San Rodolfo Drive, Solana Beach, San Diego County, California, 92075, United States of America","place_id":"5936847","datatype":"locationiq"},{"latitude":"36.77684","longitude":"-76.23069","name":"Marshalls","address":"USA-Chesepeake","street_number":null,"street_name":"Crossways Boulevard","zip":"23320","city":"Chesapeake City","area":null,"county":null,"state":"Virginia","country":"us","formatted_address":"Vitamin Shoppe, Crossways Boulevard, Crossways Shopping Center, Chesapeake, Chesapeake City, Virginia, 23320, United States of America","place_id":"44529454","datatype":"locationiq"},{"latitude":"32.81102","longitude":"-96.61814","name":"Marshalls","address":"USA-Mesquite","street_number":null,"street_name":"North Town East Boulevard","zip":"75150","city":"Mesquite","area":null,"county":"Dallas County","state":"Texas","country":"us","formatted_address":"Long John Silver's, North Town East Boulevard, Mesquite, Dallas County, Texas, 75150, United States of America","place_id":"35875574","datatype":"locationiq"},{"latitude":"33.76000","longitude":"-117.82884","name":"Marshalls","address":"USA-Santa Ana","street_number":null,"street_name":"East 17th Street","zip":"92780","city":"Tustin","area":null,"county":"Orange County","state":"California","country":"us","formatted_address":"Chase, East 17th Street, Browning, Tustin, Orange County, California, 92780, United States of America","place_id":"55205376","datatype":"locationiq"},{"latitude":"30.17479","longitude":"-92.07032","name":"Marshalls","address":"USA-Lafayette","street_number":"3639","street_name":"Ambassador Caffery Parkway","zip":"70503","city":"Lafayette","area":"Beaulieu Place","county":"Lafayette Parish","state":"Louisiana","country":"us","formatted_address":"3639, Ambassador Caffery Parkway, Beaulieu Place, Lafayette, Lafayette Parish, Louisiana, 70503, United States of America","place_id":"189073482","datatype":"locationiq"},{"latitude":"29.27590","longitude":"-94.82741","name":"Marshalls","address":"USA-Galveston","street_number":"5802","street_name":"Avenue S","zip":"77551","city":null,"area":null,"county":"Galveston County","state":"Texas","country":"us","formatted_address":"Galveston Island Palms, 5802, Avenue S, Galveston, Galveston County, Texas, 77551, United States of America","place_id":"43037707","datatype":"locationiq"},{"latitude":"29.68541","longitude":"-95.46281","name":"Marshalls","address":"USA-Houston","street_number":null,"street_name":"Jackwood Street","zip":"77096","city":null,"area":null,"county":"Harris County","state":"Texas","country":"us","formatted_address":"Best Buy, Jackwood Street, Meyerland, Westwood Park, Harris County, Texas, 77096, United States of America","place_id":"151109322","datatype":"locationiq"},{"latitude":"26.51227","longitude":"-80.09042","name":"Marshalls","address":"USA-Boynton Beach","street_number":null,"street_name":"West Woolbright Road","zip":"33436","city":"Boynton Beach","area":null,"county":"Palm Beach County","state":"Florida","country":"us","formatted_address":"Walgreen's, West Woolbright Road, Boynton Beach, Palm Beach County, Florida, 33436, United States of America","place_id":"29136825","datatype":"locationiq"},{"latitude":"32.91281","longitude":"-117.14779","name":"Marshalls","address":"USA-Mira Mesa","street_number":"8188","street_name":"Mira Mesa Boulevard","zip":"92126","city":"San Diego","area":null,"county":"San Diego County","state":"California","country":"us","formatted_address":"8188, Mira Mesa Boulevard, Mira Mesa, San Diego, San Diego County, California, 92126, United States of America","place_id":"5953795","datatype":"locationiq"},{"latitude":"30.17572","longitude":"-81.62758","name":"Marshalls","address":"USA-Jacksonville","street_number":"10981","street_name":"San Jose Boulevard","zip":"32223","city":"Jacksonville","area":null,"county":"Duval County","state":"Florida","country":"us","formatted_address":"10981, San Jose Boulevard, Jacksonville, Duval County, Florida, 32223, United States of America","place_id":"181976867","datatype":"locationiq"},{"latitude":"32.97849","longitude":"-96.77007","name":"Marshalls","address":"USA-Addison","street_number":"7529","street_name":"Campbell Road","zip":"75248","city":null,"area":null,"county":"Dallas County","state":"Texas","country":"us","formatted_address":"7529, Campbell Road, Richardson, Dallas County, Texas, 75248, United States of America","place_id":"169817973","datatype":"locationiq"},{"latitude":"29.73644","longitude":"-95.60215","name":"Marshalls","address":"USA-Houston","street_number":"12485","street_name":"Westheimer Road","zip":"77077","city":null,"area":null,"county":"Harris County","state":"Texas","country":"us","formatted_address":"Schlotzsky's Deli, 12485, Westheimer Road, Alief, Harris County, Texas, 77077, United States of America","place_id":"29231376","datatype":"locationiq"},{"latitude":"33.14205","longitude":"-117.19192","name":"Marshalls","address":"USA-San Marcos","street_number":"121","street_name":"South Las Posas Road","zip":"92078","city":"San Marcos","area":"Palomar West Mobile Home Park","county":"San Diego County","state":"California","country":"us","formatted_address":"121, South Las Posas Road, Palomar West Mobile Home Park, San Elijo Hills, San Marcos, San Diego County, California, 92078, United States of America","place_id":"6122227","datatype":"locationiq"},{"latitude":"32.83715","longitude":"-97.18617","name":"Marshalls","address":"USA-Fort Worth","street_number":null,"street_name":"Precinct Line Road","zip":"76053","city":"Hurst","area":null,"county":"Tarrant County","state":"Texas","country":"us","formatted_address":"Slim Chickens, Precinct Line Road, Hurst, Tarrant County, Texas, 76053, United States of America","place_id":"58348695","datatype":"locationiq"},{"latitude":"33.53828","longitude":"-111.88779","name":"Marshalls","address":"USA-Scottsdale","street_number":null,"street_name":"East Talking Stick Way","zip":"85250","city":null,"area":null,"county":"Maricopa County","state":"Arizona","country":"us","formatted_address":"Sweet Tomatoes, East Talking Stick Way, The Pavillions, Windemere, Maricopa County, Arizona, 85250, United States of America","place_id":"12602304","datatype":"locationiq"},{"latitude":"32.39611","longitude":"-90.14329","name":"Marshalls","address":"USA-Jackson","street_number":null,"street_name":"Ridgewood Court Drive","zip":"39174","city":null,"area":null,"county":"Hinds County","state":"Mississippi","country":"us","formatted_address":"Courtyard Jackson Ridgeland, Ridgewood Court Drive, Hinds County, Mississippi, 39174, United States of America","place_id":"53085811","datatype":"locationiq"},{"latitude":"36.87193","longitude":"-76.13388","name":"Marshalls","address":"USA-Lynnwood","street_number":"1010","street_name":"Independence Boulevard","zip":"23455","city":"Virginia Beach","area":null,"county":null,"state":"Virginia","country":"us","formatted_address":"1010, Independence Boulevard, Haygood  Shopping Center, Bayside, Pembroke Manor, Virginia Beach, Virginia, 23455, United States of America","place_id":"157194330","datatype":"locationiq"},{"latitude":"34.97033","longitude":"-81.88761","name":"Marshalls","address":"USA-Zion Hill","street_number":null,"street_name":"East Main Street","zip":"29333","city":"Spartanburg","area":"Converse Heights","county":"Spartanburg County","state":"South Carolina","country":"us","formatted_address":"Chick-fil-A, East Main Street, Converse Heights, Spartanburg, Spartanburg County, South Carolina, 29333, United States of America","place_id":"28801698","datatype":"locationiq"},{"latitude":"33.99060","longitude":"-117.92755","name":"Marshalls","address":"USA-Rowland Heights","street_number":null,"street_name":"Colima Road","zip":"90631","city":"Industry","area":null,"county":"Los Angeles County","state":"California","country":"us","formatted_address":"Colima Road, Industry, Los Angeles County, California, 90631, United States of America","place_id":"158138458","datatype":"locationiq"},{"latitude":"34.69236","longitude":"-118.17205","name":"Marshalls","address":"USA-Lancaster","street_number":"44784","street_name":"Valley Central Way","zip":"93536","city":"Lancaster","area":null,"county":"Los Angeles County","state":"California","country":"us","formatted_address":"44784, Valley Central Way, Lancaster, Los Angeles County, California, 93536, United States of America","place_id":"178831695","datatype":"locationiq"},{"latitude":"35.95391","longitude":"-78.99587","name":"Marshalls","address":"USA-Durham","street_number":"5421","street_name":"New Hope Commons Drive","zip":"27707","city":"Durham","area":null,"county":"Durham County","state":"North Carolina","country":"us","formatted_address":"5421, New Hope Commons Drive, Durham, Durham County, North Carolina, 27707, United States of America","place_id":"197524139","datatype":"locationiq"},{"latitude":"32.80675","longitude":"-116.97317","name":"Marshalls","address":"USA-El Cajon","street_number":"865","street_name":"Jackman Street","zip":"92020","city":"El Cajon","area":null,"county":"San Diego County","state":"California","country":"us","formatted_address":"Petsmart, 865, Jackman Street, El Cajon, San Diego County, California, 92020, United States of America","place_id":"46289584","datatype":"locationiq"},{"latitude":"34.78446","longitude":"-77.39921","name":"Marshalls","address":"USA-Jacksonville","street_number":null,"street_name":"Western Boulevard","zip":"28546","city":"Jacksonville","area":null,"county":"Onslow County","state":"North Carolina","country":"us","formatted_address":"Western Boulevard, Jacksonville, Onslow County, North Carolina, 28546, United States of America","place_id":"129070564","datatype":"locationiq"},{"latitude":"30.43354","longitude":"-91.08227","name":"Marshalls","address":"USA-Baton Rouge","street_number":"9600","street_name":"Airline Highway","zip":"70815","city":"Baton Rouge","area":null,"county":"East Baton Rouge Parish","state":"Louisiana","country":"us","formatted_address":"9600, Airline Highway, Baton Rouge, East Baton Rouge Parish, Louisiana, 70815, United States of America","place_id":"188986064","datatype":"locationiq"},{"latitude":"32.00861","longitude":"-81.11485","name":"Marshalls","address":"USA-Savannah","street_number":"7498","street_name":"Abercorn Street","zip":"31406","city":"Savannah","area":"Habersham Woods","county":"Chatham County","state":"Georgia","country":"us","formatted_address":"7498, Abercorn Street, Habersham Woods, Savannah, Chatham County, Georgia, 31406, United States of America","place_id":"183449364","datatype":"locationiq"},{"latitude":"29.96235","longitude":"-90.18484","name":"Marshalls","address":"USA-New Orleans","street_number":"1327","street_name":"South Clearview Parkway","zip":"70001","city":null,"area":null,"county":"Jefferson Parish","state":"Louisiana","country":"us","formatted_address":"1327, South Clearview Parkway, Elmwood, Jefferson Parish, Louisiana, 70001, United States of America","place_id":"189040650","datatype":"locationiq"},{"latitude":"34.07298","longitude":"-117.88658","name":"Marshalls","address":"USA-Covina","street_number":null,"street_name":"East Eastland Center Drive","zip":"91791","city":"West Covina","area":null,"county":"Los Angeles County","state":"California","country":"us","formatted_address":"Marshalls, East Eastland Center Drive, West Covina, Los Angeles County, California, 91791, United States of America","place_id":"62172411","datatype":"locationiq"},{"latitude":"32.44355","longitude":"-93.71520","name":"Marshalls","address":"USA-Shreveport","street_number":"1777","street_name":"East 70th Street","zip":"71105","city":"Shreveport","area":null,"county":"Caddo Parish","state":"Louisiana","country":"us","formatted_address":"1777, East 70th Street, Shreveport, Caddo Parish, Louisiana, 71105, United States of America","place_id":"188907759","datatype":"locationiq"},{"latitude":"35.12746","longitude":"-80.69836","name":"Marshalls","address":"USA-Matthews","street_number":null,"street_name":"Matthews Township Parkway","zip":"28105","city":null,"area":null,"county":"Mecklenburg County","state":"North Carolina","country":"us","formatted_address":"Matthews Township Parkway, Matthews Corners Shopping Center, Matthews, Mecklenburg County, North Carolina, 28105, United States of America","place_id":"84819636","datatype":"locationiq"},{"latitude":"33.78878","longitude":"-117.96039","name":"Marshalls","address":"USA-Stanton","street_number":"9877","street_name":"Chapman Avenue","zip":"92841","city":"Garden Grove","area":null,"county":"Orange County","state":"California","country":"us","formatted_address":"Subway, 9877, Chapman Avenue, Koreatown, Garden Grove, Orange County, California, 92841, United States of America","place_id":"45544005","datatype":"locationiq"},{"latitude":"33.85237","longitude":"-118.35350","name":"Marshalls","address":"USA-Torrance","street_number":"19720","street_name":"Hawthorne Boulevard","zip":"90503","city":"Torrance","area":null,"county":"Los Angeles County","state":"California","country":"us","formatted_address":"Trader Joe's, 19720, Hawthorne Boulevard, La Fresa, Torrance, Los Angeles County, California, 90503, United States of America","place_id":"146499967","datatype":"locationiq"},{"latitude":"32.31656","longitude":"-106.74040","name":"Marshalls","address":"USA-Las Cruces","street_number":"3050","street_name":"East Lohman Avenue","zip":"88011","city":"Las Cruces","area":null,"county":"Do\u00f1a Ana County","state":"New Mexico","country":"us","formatted_address":"Marshalls, 3050, East Lohman Avenue, Las Cruces, Do\u00f1a Ana County, New Mexico, 88011, United States of America","place_id":"22263958","datatype":"locationiq"},{"latitude":"34.07253","longitude":"-81.15860","name":"Marshalls","address":"USA-Irmo","street_number":"274","street_name":"Harbison Boulevard","zip":"29212","city":null,"area":null,"county":"Lexington County","state":"South Carolina","country":"us","formatted_address":"274, Harbison Boulevard, Seven Oaks, Lexington County, South Carolina, 29212, United States of America","place_id":"163870559","datatype":"locationiq"},{"latitude":"28.45058","longitude":"-81.38837","name":"Marshalls","address":"USA-Sky Lake","street_number":null,"street_name":"Sand Lake Road","zip":"32809","city":"Orlando","area":null,"county":"Orange County","state":"Florida","country":"us","formatted_address":"Sand Lake Road, Orlando, Orange County, Florida, 32809, United States of America","place_id":"98668235","datatype":"locationiq"},{"latitude":"29.54495","longitude":"-98.50801","name":"Marshalls","address":"USA-San Antonio","street_number":"8589","street_name":"Blanco Road","zip":"78216","city":"San Antonio","area":null,"county":"Bexar County","state":"Texas","country":"us","formatted_address":"8589, Blanco Road, San Antonio, Bexar County, Texas, 78216, United States of America","place_id":"204406162","datatype":"locationiq"},{"latitude":"27.96637","longitude":"-82.72948","name":"Marshalls","address":"USA-Clearwater","street_number":"21315","street_name":"Northbound Frontage Road","zip":"33765","city":"Clearwater","area":"Bayside Arbors","county":"Pinellas County","state":"Florida","country":"us","formatted_address":"Babies R Us, 21315, Northbound Frontage Road, Bayside Arbors, Clearwater, Pinellas County, Florida, 33765, United States of America","place_id":"19194981","datatype":"locationiq"},{"latitude":"33.47970","longitude":"-84.44298","name":"Marshalls","address":"USA-Fayetteville","street_number":"178","street_name":"Pavilion Parkway","zip":"30214","city":null,"area":null,"county":"Fayette County","state":"Georgia","country":"us","formatted_address":"178, Pavilion Parkway, Fayetteville, Fayette County, Georgia, 30214, United States of America","place_id":"183717814","datatype":"locationiq"},{"latitude":"34.06614","longitude":"-80.95723","name":"Marshalls","address":"USA-Columbia","street_number":null,"street_name":"Parklane Road","zip":"29223","city":null,"area":null,"county":"Richland County","state":"South Carolina","country":"us","formatted_address":"Hardee's, Parklane Road, Dentsville, Richland County, South Carolina, 29223, United States of America","place_id":"151392228","datatype":"locationiq"},{"latitude":"29.80270","longitude":"-94.98675","name":"Marshalls","address":"USA-McNair","street_number":null,"street_name":"East Freeway Frontage Road","zip":"77521","city":"Baytown","area":null,"county":"Harris County","state":"Texas","country":"us","formatted_address":"East Freeway Frontage Road, Baytown, Harris County, Texas, 77521, United States of America","place_id":"101414579","datatype":"locationiq"},{"latitude":"26.61896","longitude":"-80.14539","name":"Marshalls","address":"USA-Greenacres","street_number":"6442","street_name":"Lake Worth Road","zip":"33463","city":null,"area":null,"county":"Palm Beach County","state":"Florida","country":"us","formatted_address":"6442, Lake Worth Road, Greenacres, Palm Beach County, Florida, 33463, United States of America","place_id":"182780391","datatype":"locationiq"},{"latitude":"33.60963","longitude":"-117.70217","name":"Marshalls","address":"USA-Lagua Woods","street_number":null,"street_name":"Avenida De La Carlota","zip":"92653","city":"Laguna Hills","area":null,"county":"Orange County","state":"California","country":"us","formatted_address":"Avenida De La Carlota, Laguna Hills, Orange County, California, 92653, United States of America","place_id":"157293028","datatype":"locationiq"},{"latitude":"36.82027","longitude":"-76.07483","name":"Marshalls","address":"USA-Virginia Beach","street_number":"600","street_name":"Braves Trail","zip":"23452","city":"Virginia Beach","area":null,"county":null,"state":"Virginia","country":"us","formatted_address":"600, Braves Trail, Lynnhaven North, Lynnhaven, Lamplight Manor, Virginia Beach, Virginia, 23452, United States of America","place_id":"157317859","datatype":"locationiq"},{"latitude":"35.13040","longitude":"-106.53694","name":"Marshalls","address":"USA-Albuquerque","street_number":"9438","street_name":"Montgomery Boulevard Northeast","zip":"87111","city":"Albuquerque","area":"Casa Grande\/South Glenwood Hills","county":"Bernalillo County","state":"New Mexico","country":"us","formatted_address":"9438, Montgomery Boulevard Northeast, Casa Grande\/South Glenwood Hills, Eldorado Heights, Albuquerque, Bernalillo County, New Mexico, 87111, United States of America","place_id":"195857031","datatype":"locationiq"},{"latitude":"35.10799","longitude":"-80.88143","name":"Marshalls","address":"USA-Pineville","street_number":"9421","street_name":"South Boulevard","zip":"28273","city":"Charlotte","area":null,"county":"Mecklenburg County","state":"North Carolina","country":"us","formatted_address":"9421, South Boulevard, Charlotte, Mecklenburg County, North Carolina, 28273, United States of America","place_id":"197905166","datatype":"locationiq"},{"latitude":"32.23990","longitude":"-80.81469","name":"Marshalls","address":"USA-Bluffton","street_number":"1472","street_name":"Fording Island Road","zip":"29910","city":null,"area":null,"county":"Beaufort County","state":"South Carolina","country":"us","formatted_address":"1472, Fording Island Road, Buckingham Landing, Beaufort County, South Carolina, 29910, United States of America","place_id":"202694221","datatype":"locationiq"},{"latitude":"33.78450","longitude":"-78.77015","name":"Marshalls","address":"USA-Briarcliffe Acres","street_number":"10600","street_name":"North Kings Highway","zip":"29582","city":null,"area":null,"county":"Horry County","state":"South Carolina","country":"us","formatted_address":"Golden Corral, 10600, North Kings Highway, Tanger Outlets, Windy Hill Beach, Chestnut Hill, Horry County, South Carolina, 29582, United States of America","place_id":"41259206","datatype":"locationiq"},{"latitude":"29.65012","longitude":"-95.56706","name":"Marshalls","address":"USA-Missouri City","street_number":null,"street_name":"Murphy Road","zip":"77042","city":null,"area":null,"county":"Harris County","state":"Texas","country":"us","formatted_address":"Murphy Road, Bellaire West, Harris County, Texas, 77042, United States of America","place_id":"89217572","datatype":"locationiq"},{"latitude":"34.07589","longitude":"-118.37594","name":"Marshalls","address":"USA-Beverly Hills","street_number":null,"street_name":"Beverly Boulevard","zip":"90048","city":"Los Angeles","area":"Carthay Circle","county":"Los Angeles County","state":"California","country":"us","formatted_address":"Red Route 9, Beverly Boulevard, Carthay Circle, Los Angeles, Los Angeles County, California, 90048, United States of America","place_id":"57720834","datatype":"locationiq"},{"latitude":"34.06177","longitude":"-83.99490","name":"Marshalls","address":"USA-Buford","street_number":null,"street_name":"Mall of Georgia Boulevard","zip":null,"city":null,"area":null,"county":"Gwinnett County","state":"Georgia","country":"us","formatted_address":"Costco Gas, Mall of Georgia Boulevard, Mall of Georgia, Gravel Springs, Gwinnett County, Georgia, United States of America","place_id":"155365085","datatype":"locationiq"},{"latitude":"33.86305","longitude":"-84.30651","name":"Marshalls","address":"USA-Brookhaven","street_number":"4162","street_name":"Buford Highway Northeast","zip":"30345","city":"Doraville","area":null,"county":"DeKalb County","state":"Georgia","country":"us","formatted_address":"4162, Buford Highway Northeast, Doraville, DeKalb County, Georgia, 30345, United States of America","place_id":"183633677","datatype":"locationiq"},{"latitude":"34.03836","longitude":"-118.44066","name":"Marshalls","address":"USA-Santa Monica","street_number":"2130","street_name":"Sawtelle Boulevard","zip":"90064-1508","city":"Los Angeles","area":"Sawtelle","county":"Los Angeles County","state":"California","country":"us","formatted_address":"Nijiya Market, 2130, Sawtelle Boulevard, Sawtelle, Westwood, Los Angeles, Los Angeles County, California, 90064-1508, United States of America","place_id":"162034154","datatype":"locationiq"},{"latitude":"33.98379","longitude":"-118.09851","name":"Marshalls","address":"USA-Pico Rivera","street_number":null,"street_name":"Washington Boulevard","zip":"90660","city":"Pico Rivera","area":null,"county":"Los Angeles County","state":"California","country":"us","formatted_address":"McDonald's, Washington Boulevard, Pico Rivera, Los Angeles County, California, 90660, United States of America","place_id":"8844608","datatype":"locationiq"},{"latitude":"28.07861","longitude":"-80.64631","name":"Marshalls","address":"USA-Melbourne","street_number":null,"street_name":"New Haven Avenue","zip":"32904","city":null,"area":null,"county":"Brevard County","state":"Florida","country":"us","formatted_address":"T-Mobile, New Haven Avenue, West Melbourne, Brevard County, Florida, 32904, United States of America","place_id":"52107553","datatype":"locationiq"},{"latitude":"33.00743","longitude":"-96.97426","name":"Marshalls","address":"USA-Carollton","street_number":null,"street_name":"South Stemmons Freeway","zip":"75057","city":"Lewisville","area":null,"county":"Denton County","state":"Texas","country":"us","formatted_address":"Discount Tire Store, South Stemmons Freeway, Lewisville, Denton County, Texas, 75057, United States of America","place_id":"45795238","datatype":"locationiq"},{"latitude":"29.53871","longitude":"-95.14533","name":"Marshalls","address":"USA-League City","street_number":null,"street_name":"West Bay Area Boulevard","zip":"77598","city":null,"area":null,"county":"Harris County","state":"Texas","country":"us","formatted_address":"West Bay Area Boulevard, Clear Lake City, Harris County, Texas, 77598, United States of America","place_id":"161334027","datatype":"locationiq"},{"latitude":"33.48079","longitude":"-117.09905","name":"Marshalls","address":"USA-Temecula","street_number":null,"street_name":"Temecula Parkway","zip":"92592","city":"Temecula","area":"Madera Vista","county":"Riverside County","state":"California","country":"us","formatted_address":"Chase, Temecula Parkway, Madera Vista, Santiago Ranchos, Temecula, Riverside County, California, 92592, United States of America","place_id":"85429425","datatype":"locationiq"},{"latitude":"34.38683","longitude":"-118.57222","name":"Marshalls","address":"USA-Burbank","street_number":"25634","street_name":"The Old Road","zip":"91381","city":null,"area":null,"county":"Los Angeles County","state":"California","country":"us","formatted_address":"25634, The Old Road, Stevenson Ranch, Pico, Los Angeles County, California, 91381, United States of America","place_id":"178559572","datatype":"locationiq"},{"latitude":"28.55218","longitude":"-81.48101","name":"Marshalls","address":"USA-Pine Hills","street_number":"7201","street_name":"West Colonial Drive","zip":"32818","city":null,"area":null,"county":"Orange County","state":"Florida","country":"us","formatted_address":"7201, West Colonial Drive, Orlo Vista, Orange County, Florida, 32818, United States of America","place_id":"182743419","datatype":"locationiq"},{"latitude":"33.96993","longitude":"-84.01899","name":"Marshalls","address":"USA-Lawrenceville","street_number":"871","street_name":"Lawrenceville Suwanee Road Northwest","zip":"30043","city":null,"area":"Yorktown","county":"Gwinnett County","state":"Georgia","country":"us","formatted_address":"871, Lawrenceville Suwanee Road Northwest, Yorktown, Oakbrook Forest, Gwinnett County, Georgia, 30043, United States of America","place_id":"183896341","datatype":"locationiq"},{"latitude":"33.88863","longitude":"-84.47468","name":"Marshalls","address":"USA-Smyrna","street_number":"2624","street_name":"Cumberland Boulevard Southeast","zip":"30339","city":"Smyrna","area":null,"county":"Cobb County","state":"Georgia","country":"us","formatted_address":"Taco Bell, 2624, Cumberland Boulevard Southeast, Smyrna, Cobb County, Georgia, 30339, United States of America","place_id":"131491800","datatype":"locationiq"},{"latitude":"33.52604","longitude":"-82.12064","name":"Marshalls","address":"USA-Evans","street_number":"4235","street_name":"Washington Road","zip":"30809","city":null,"area":null,"county":"Columbia County","state":"Georgia","country":"us","formatted_address":"4235, Washington Road, Evans, Country Place, Columbia County, Georgia, 30809, United States of America","place_id":"183573885","datatype":"locationiq"},{"latitude":"36.85490","longitude":"-76.20390","name":"Marshalls","address":"USA-Norfolk","street_number":"5859","street_name":"East Virginia Beach Boulevard","zip":"23502","city":"Norfolk","area":"Glen Rock","county":null,"state":"Virginia","country":"us","formatted_address":"5859, East Virginia Beach Boulevard, Glen Rock, Janaf, Fairlawn Estates, Norfolk, Virginia, 23502, United States of America","place_id":"158455473","datatype":"locationiq"},{"latitude":"36.07173","longitude":"-80.29523","name":"Marshalls","address":"USA-Winston-Salem","street_number":"3258","street_name":"Silas Creek Parkway Southwest","zip":"27103","city":"Winston-Salem","area":null,"county":"Forsyth County","state":"North Carolina","country":"us","formatted_address":"3258, Silas Creek Parkway Southwest, Winston-Salem, Forsyth County, North Carolina, 27103, United States of America","place_id":"197547215","datatype":"locationiq"},{"latitude":"31.78198","longitude":"-106.41123","name":"Marshalls","address":"USA-El Paso","street_number":"6015","street_name":"Gateway Boulevard West","zip":"79925","city":"El Paso City","area":null,"county":"El Paso County","state":"Texas","country":"us","formatted_address":"6015, Gateway Boulevard West, El Paso City, El Paso County, Texas, 79925, United States of America","place_id":"205051405","datatype":"locationiq"},{"latitude":"32.86409","longitude":"-96.80673","name":"Marshalls","address":"USA-Dallas","street_number":"8335","street_name":"Westchester Drive","zip":"75225","city":"Dallas","area":null,"county":"Dallas County","state":"Texas","country":"us","formatted_address":"8335, Westchester Drive, Dallas, Dallas County, Texas, 75225, United States of America","place_id":"204800508","datatype":"locationiq"},{"latitude":"30.48145","longitude":"-97.68055","name":"Marshalls","address":"USA-Round Rock","street_number":"2700","street_name":"Parker Drive","zip":"78681","city":"Round Rock","area":null,"county":"Williamson County","state":"Texas","country":"us","formatted_address":"Schlotzsky's Deli, 2700, Parker Drive, La Frontera Village, Round Rock, Williamson County, Texas, 78681, United States of America","place_id":"136670478","datatype":"locationiq"},{"latitude":"33.92760","longitude":"-84.37896","name":"Marshalls","address":"USA-Sandy Springs","street_number":"6341","street_name":"Roswell Road","zip":"30328","city":"Sandy Springs","area":"Hammond","county":"Fulton County","state":"Georgia","country":"us","formatted_address":"6341, Roswell Road, Hammond, Sandy Springs, Fulton County, Georgia, 30328, United States of America","place_id":"183773580","datatype":"locationiq"},{"latitude":"29.75334","longitude":"-95.39941","name":"Marshalls","address":"USA-Houston","street_number":null,"street_name":"West Gray Street","zip":"77019","city":"Houston","area":null,"county":"Harris County","state":"Texas","country":"us","formatted_address":"Cafe Express, West Gray Street, Houston, Harris County, Texas, 77019, United States of America","place_id":"12428027","datatype":"locationiq"},{"latitude":"33.94170","longitude":"-117.28359","name":"Marshalls","address":"USA-Moreno Valley","street_number":"2743","street_name":"Canyon Springs Parkway","zip":"92507","city":"Moreno Valley","area":null,"county":"Riverside County","state":"California","country":"us","formatted_address":"2743, Canyon Springs Parkway, Moreno Valley, Riverside County, California, 92507, United States of America","place_id":"179454992","datatype":"locationiq"},{"latitude":"30.22851","longitude":"-97.73959","name":"Marshalls","address":"USA-Austin","street_number":"2607","street_name":"Parker Lane","zip":"78741","city":"Austin","area":null,"county":"Travis County","state":"Texas","country":"us","formatted_address":"2607, Parker Lane, Austin, Travis County, Texas, 78741, United States of America","place_id":"154205660","datatype":"locationiq"},{"latitude":"34.74502","longitude":"-86.68138","name":"Marshalls","address":"USA-Huntsville","street_number":null,"street_name":"Waddell Drive","zip":"35806-1776","city":"Huntsville","area":null,"county":"Madison County","state":"Alabama","country":"us","formatted_address":"Wells Fargo, Waddell Drive, Huntsville, Madison County, Alabama, 35806-1776, United States of America","place_id":"61325094","datatype":"locationiq"},{"latitude":"30.12385","longitude":"-94.15603","name":"Marshalls","address":"USA-Beaumont","street_number":"4566","street_name":"Dowlen Road","zip":"77706","city":null,"area":null,"county":"Jefferson County","state":"Texas","country":"us","formatted_address":"4566, Dowlen Road, Rosedale, Jefferson County, Texas, 77706, United States of America","place_id":"205707482","datatype":"locationiq"},{"latitude":"35.33965","longitude":"-119.03617","name":"Marshalls","address":"USA-Bakersfield","street_number":"3062","street_name":"Ming Avenue","zip":"93304","city":"Bakersfield","area":null,"county":"Kern County","state":"California","country":"us","formatted_address":"3062, Ming Avenue, Bakersfield, Kern County, California, 93304, United States of America","place_id":"178484106","datatype":"locationiq"},{"latitude":"26.23559","longitude":"-80.20014","name":"Marshalls","address":"USA-Margate","street_number":null,"street_name":"West Atlantic Boulevard","zip":"33071","city":null,"area":null,"county":"Broward County","state":"Florida","country":"us","formatted_address":"Pollo Tropical, West Atlantic Boulevard, Margate, Broward County, Florida, 33071, United States of America","place_id":"153952153","datatype":"locationiq"},{"latitude":"32.28817","longitude":"-95.30346","name":"Marshalls","address":"USA-Tyler","street_number":null,"street_name":"South Broadway Avenue","zip":"75701","city":"Tyler","area":null,"county":"Smith County","state":"Texas","country":"us","formatted_address":"Olive Garden, South Broadway Avenue, Tyler, Smith County, Texas, 75701, United States of America","place_id":"19376023","datatype":"locationiq"},{"latitude":"26.84448","longitude":"-80.07379","name":"Marshalls","address":"USA-Palm Beach Gardens","street_number":"2554","street_name":"PGA Boulevard","zip":"33410","city":null,"area":null,"county":"Palm Beach County","state":"Florida","country":"us","formatted_address":"2554, PGA Boulevard, North Palm Beach, Palm Beach Gardens, Palm Beach County, Florida, 33410, United States of America","place_id":"182794270","datatype":"locationiq"},{"latitude":"26.17211","longitude":"-81.79995","name":"Marshalls","address":"USA-Naples","street_number":null,"street_name":"9th Street","zip":"34103","city":"Naples","area":null,"county":"Collier County","state":"Florida","country":"us","formatted_address":"AT&T, 9th Street, Naples, Collier County, Florida, 34103, United States of America","place_id":"56609504","datatype":"locationiq"},{"latitude":"25.77000","longitude":"-80.32383","name":"Marshalls","address":"USA-Hialeah","street_number":null,"street_name":"Northwest 79th Avenue","zip":"33126","city":null,"area":null,"county":"Miami-Dade County","state":"Florida","country":"us","formatted_address":"NW 79 AV@W FLAGLER ST, Northwest 79th Avenue, Sweetwater, Flagami, Miami-Dade County, Florida, 33126, United States of America","place_id":"12492413","datatype":"locationiq"},{"latitude":"35.17594","longitude":"-80.79876","name":"Marshalls","address":"USA-Charlotte","street_number":null,"street_name":"South Sharon Amity Road","zip":"28211","city":"Charlotte","area":null,"county":"Mecklenburg County","state":"North Carolina","country":"us","formatted_address":"Shell, South Sharon Amity Road, Charlotte, Mecklenburg County, North Carolina, 28211, United States of America","place_id":"46194900","datatype":"locationiq"},{"latitude":"25.93206","longitude":"-80.12206","name":"Marshalls","address":"USA-North Miami Beach","street_number":null,"street_name":"Collins Avenue","zip":"33160","city":null,"area":null,"county":"Miami-Dade County","state":"Florida","country":"us","formatted_address":"COLLINS AV@# 16830, Collins Avenue, Sunny Isles Beach, Miami-Dade County, Florida, 33160, United States of America","place_id":"12492808","datatype":"locationiq"},{"latitude":"25.74642","longitude":"-80.38793","name":"Marshalls","address":"USA-Tamiami","street_number":"11875","street_name":"Southwest 26th Street","zip":"33175","city":null,"area":null,"county":"Miami-Dade County","state":"Florida","country":"us","formatted_address":"11875, Southwest 26th Street, Sweetwater, Tamiami, Miami-Dade County, Florida, 33175, United States of America","place_id":"163668916","datatype":"locationiq"},{"latitude":"31.07586","longitude":"-97.37722","name":"Marshalls","address":"USA-Temple","street_number":null,"street_name":"Trade Place","zip":"76504","city":"Temple","area":null,"county":"Bell County","state":"Texas","country":"us","formatted_address":"Leslie's Pool Supplies, Trade Place, Temple, Bell County, Texas, 76504, United States of America","place_id":"24554243","datatype":"locationiq"},{"latitude":"33.87542","longitude":"-84.01362","name":"Marshalls","address":"USA-Shellville","street_number":"1867","street_name":"Scenic Highway","zip":"30078","city":null,"area":null,"county":"Gwinnett County","state":"Georgia","country":"us","formatted_address":"1867, Scenic Highway, Snellville, Gwinnett County, Georgia, 30078, United States of America","place_id":"183897224","datatype":"locationiq"},{"latitude":"29.59535","longitude":"-95.62017","name":"Marshalls","address":"USA-Sugar Land","street_number":"2618","street_name":"Town Center Boulevard","zip":"77479","city":"Sugar Land","area":null,"county":"Fort Bend County","state":"Texas","country":"us","formatted_address":"2618, Town Center Boulevard, Sugar Land, Fort Bend County, Texas, 77479, United States of America","place_id":"205162095","datatype":"locationiq"},{"latitude":"34.19398","longitude":"-118.56307","name":"Marshalls","address":"USA-Hidden Hills","street_number":null,"street_name":"Vanowen Street","zip":"91306","city":"Los Angeles","area":null,"county":"Los Angeles County","state":"California","country":"us","formatted_address":"CVS pharmacy, Vanowen Street, Winnetka, Los Angeles, Los Angeles County, California, 91306, United States of America","place_id":"161823046","datatype":"locationiq"},{"latitude":"34.07015","longitude":"-117.21072","name":"Marshalls","address":"USA-San Bernardino","street_number":"1813","street_name":"West Lugonia Avenue","zip":"92374","city":"Redlands","area":null,"county":"San Bernardino County","state":"California","country":"us","formatted_address":"1813, West Lugonia Avenue, Redlands, San Bernardino County, California, 92374, United States of America","place_id":"179644598","datatype":"locationiq"},{"latitude":"35.85541","longitude":"-86.43016","name":"Marshalls","address":"USA-Murfreesboro","street_number":"396","street_name":"North Thompson Lane","zip":"37129","city":"Murfreesboro","area":null,"county":"Rutherford County","state":"Tennessee","country":"us","formatted_address":"396, North Thompson Lane, Murfreesboro, Rutherford County, Tennessee, 37129, United States of America","place_id":"204037454","datatype":"locationiq"},{"latitude":"32.64119","longitude":"-117.05208","name":"Marshalls","address":"USA-Chula Vista","street_number":"320","street_name":"East H Street","zip":"91910","city":"Chula Vista","area":null,"county":"San Diego County","state":"California","country":"us","formatted_address":"320, East H Street, Chula Vista, San Diego County, California, 91910, United States of America","place_id":"5814977","datatype":"locationiq"},{"latitude":"27.78906","longitude":"-82.72864","name":"Marshalls","address":"USA-St Petersburg","street_number":null,"street_name":"66th Street North","zip":"33764","city":"Saint Petersburg","area":"Holiday Park","county":"Pinellas County","state":"Florida","country":"us","formatted_address":"Taco Bell, 66th Street North, Holiday Park, Saint Petersburg, Pinellas County, Florida, 33764, United States of America","place_id":"109231695","datatype":"locationiq"},{"latitude":"30.19760","longitude":"-93.24769","name":"Marshalls","address":"USA-Lake Charles","street_number":"1697","street_name":"West Prien Lake Road","zip":"70601","city":"Lake Charles","area":null,"county":"Calcasieu Parish","state":"Louisiana","country":"us","formatted_address":"1697, West Prien Lake Road, Lake Charles, Calcasieu Parish, Louisiana, 70601, United States of America","place_id":"188915549","datatype":"locationiq"},{"latitude":"35.10366","longitude":"-80.98488","name":"Marshalls","address":"USA-Charlotte","street_number":null,"street_name":"RiverGate Parkway","zip":"28273","city":"Charlotte","area":null,"county":"Mecklenburg County","state":"North Carolina","country":"us","formatted_address":"Chick-fil-A, RiverGate Parkway, Charlotte, Mecklenburg County, North Carolina, 28273, United States of America","place_id":"111769679","datatype":"locationiq"},{"latitude":"34.20486","longitude":"-118.22245","name":"Marshalls","address":"USA-La Canada Fintridge","street_number":null,"street_name":"Vons 2288 Service Truck Ramp","zip":"91020","city":"Glendale","area":"Sparr Heights","county":"Los Angeles County","state":"California","country":"us","formatted_address":"Marshalls, Vons 2288 Service Truck Ramp, Sparr Heights, Montrose, Glendale, Los Angeles County, California, 91020, United States of America","place_id":"83955011","datatype":"locationiq"},{"latitude":"29.78362","longitude":"-95.52513","name":"Marshalls","address":"USA-Hedwig Village","street_number":null,"street_name":"Katy Freeway Frontage Road","zip":"77450","city":"Hedwig Village","area":null,"county":"Harris County","state":"Texas","country":"us","formatted_address":"Katy Freeway Frontage Road, Hedwig Village, Harris County, Texas, 77450, United States of America","place_id":"161568987","datatype":"locationiq"},{"latitude":"35.20782","longitude":"-89.89475","name":"Marshalls","address":"USA-Memphis","street_number":"3023","street_name":"Covington Pike","zip":"38128","city":"Memphis","area":null,"county":"Shelby County","state":"Tennessee","country":"us","formatted_address":"3023, Covington Pike, Memphis, Shelby County, Tennessee, 38128, United States of America","place_id":"204154150","datatype":"locationiq"},{"latitude":"27.83778","longitude":"-82.68300","name":"Marshalls","address":"USA-Pinellas Park","street_number":"7250","street_name":"US 19","zip":"33781","city":null,"area":null,"county":"Pinellas County","state":"Florida","country":"us","formatted_address":"Chili's Grill & Bar, 7250, US 19, Pinellas Park, Pinellas County, Florida, 33781, United States of America","place_id":"100375181","datatype":"locationiq"},{"latitude":"33.96759","longitude":"-118.16306","name":"Marshalls","address":"USA-Bell Gardens","street_number":null,"street_name":"East Florence Avenue","zip":"90201","city":null,"area":null,"county":"Los Angeles County","state":"California","country":"us","formatted_address":"East Florence Avenue, Bell Gardens, Los Angeles County, California, 90201, United States of America","place_id":"156878969","datatype":"locationiq"},{"latitude":"32.75565","longitude":"-97.35447","name":"Marshalls","address":"USA-Fort Worth","street_number":"304","street_name":"Carroll Street","zip":"76107","city":"Fort Worth","area":null,"county":"Tarrant County","state":"Texas","country":"us","formatted_address":"304, Carroll Street, Fort Worth, Tarrant County, Texas, 76107, United States of America","place_id":"174090440","datatype":"locationiq"},{"latitude":"33.92041","longitude":"-84.34407","name":"Marshalls","address":"USA-Sandy Springs","street_number":"1141","street_name":"Hammond Drive Northeast","zip":"30346","city":"Sandy Springs","area":null,"county":"DeKalb County","state":"Georgia","country":"us","formatted_address":"1141, Hammond Drive Northeast, Sandy Springs, DeKalb County, Georgia, 30346, United States of America","place_id":"183639579","datatype":"locationiq"},{"latitude":"33.46483","longitude":"-112.27755","name":"Marshalls","address":"USA-Tolleson","street_number":null,"street_name":"West McDowell Road","zip":"85392","city":"Avondale","area":null,"county":"Maricopa County","state":"Arizona","country":"us","formatted_address":"Comerica Bank, West McDowell Road, Avondale, Maricopa County, Arizona, 85392, United States of America","place_id":"108413992","datatype":"locationiq"},{"latitude":"29.70762","longitude":"-95.50871","name":"Marshalls","address":"USA-Houston","street_number":null,"street_name":"Southwest Freeway Frontage Road","zip":"77031","city":null,"area":null,"county":"Harris County","state":"Texas","country":"us","formatted_address":"Southwest Freeway Frontage Road, Jeanetta, Harris County, Texas, 77031, United States of America","place_id":"143026600","datatype":"locationiq"},{"latitude":"33.63980","longitude":"-86.62688","name":"Marshalls","address":"USA-Grayson Valley","street_number":null,"street_name":"Trussville Crossings Pkwy","zip":"15256","city":"Trussville","area":null,"county":"Jefferson County","state":"Alabama","country":"us","formatted_address":"Trussville Crossings Pkwy, Trussville, Jefferson County, Alabama, 15256, United States of America","place_id":"115263578","datatype":"locationiq"},{"latitude":"28.02561","longitude":"-82.50182","name":"Marshalls","address":"USA-Tampa","street_number":null,"street_name":"West Waters Avenue","zip":"33615","city":null,"area":null,"county":"Hillsborough County","state":"Florida","country":"us","formatted_address":"Hillsborough County Sheriff's Office Community Substation Refugee, West Waters Avenue, Mullis City, Egypt Lake-Leto, Hillsborough County, Florida, 33615, United States of America","place_id":"3799146","datatype":"locationiq"},{"latitude":"33.85356","longitude":"-84.38160","name":"Marshalls","address":"USA-Atlanta","street_number":"3615","street_name":"Piedmont Road Northeast","zip":"30305","city":"Atlanta","area":null,"county":"Fulton County","state":"Georgia","country":"us","formatted_address":"3615, Piedmont Road Northeast, Buckhead, Atlanta, Fulton County, Georgia, 30305, United States of America","place_id":"132287452","datatype":"locationiq"},{"latitude":"33.85565","longitude":"-84.60185","name":"Marshalls","address":"USA-Marietta","street_number":null,"street_name":"Austell Road","zip":"30106","city":"Austell","area":null,"county":"Cobb County","state":"Georgia","country":"us","formatted_address":"Austell Road, Austell, Cobb County, Georgia, 30106, United States of America","place_id":"98100617","datatype":"locationiq"},{"latitude":"34.67752","longitude":"-86.54767","name":"Marshalls","address":"USA-Huntsville","street_number":null,"street_name":"Carl T Jones Drive Southeast","zip":"35802","city":"Huntsville","area":null,"county":"Madison County","state":"Alabama","country":"us","formatted_address":"Carl T Jones Drive Southeast, Huntsville, Madison County, Alabama, 35802, United States of America","place_id":"63936004","datatype":"locationiq"},{"latitude":"32.94462","longitude":"-80.04068","name":"Marshalls","address":"USA-Goose Creek","street_number":null,"street_name":"Eagle Landing Boulevard","zip":"29406","city":"North Charleston","area":null,"county":"Charleston County","state":"South Carolina","country":"us","formatted_address":"Wells Fargo, Eagle Landing Boulevard, North Charleston, Charleston County, South Carolina, 29406, United States of America","place_id":"41758325","datatype":"locationiq"},{"latitude":"31.81835","longitude":"-106.54533","name":"Marshalls","address":"USA-Sunland Park","street_number":null,"street_name":"Sunland Park Drive","zip":"79922","city":"El Paso City","area":null,"county":"El Paso County","state":"Texas","country":"us","formatted_address":"Payless Shoe, Sunland Park Drive, El Paso City, El Paso County, Texas, 79922, United States of America","place_id":"108464256","datatype":"locationiq"},{"latitude":"32.96817","longitude":"-97.03690","name":"Marshalls","address":"USA-Coppell","street_number":null,"street_name":"International Parkway","zip":"75028","city":"Grapevine","area":null,"county":"Tarrant County","state":"Texas","country":"us","formatted_address":"International Parkway, Grapevine, Tarrant County, Texas, 75028, United States of America","place_id":"75173625","datatype":"locationiq"},{"latitude":"32.60347","longitude":"-96.94922","name":"Marshalls","address":"USA-Duncanville","street_number":null,"street_name":"West Farm-to-Market Road 1382","zip":"75104","city":"Cedar Hill","area":null,"county":"Dallas County","state":"Texas","country":"us","formatted_address":"West Farm-to-Market Road 1382, Cedar Hill, Dallas County, Texas, 75104, United States of America","place_id":"64653109","datatype":"locationiq"},{"latitude":"33.82693","longitude":"-84.36693","name":"Marshalls","address":"USA-Atlanta","street_number":"2632","street_name":"Piedmont Road Northeast","zip":"30324","city":"Atlanta","area":"Mayfair","county":"Fulton County","state":"Georgia","country":"us","formatted_address":"2632, Piedmont Road Northeast, Mayfair, Buckhead, Atlanta, Fulton County, Georgia, 30324, United States of America","place_id":"131958580","datatype":"locationiq"},{"latitude":"33.72131","longitude":"-84.18147","name":"Marshalls Distribution Center","address":"USA-Redan","street_number":"2222","street_name":"Hampton Drive","zip":"30035-3632","city":null,"area":null,"county":"DeKalb County","state":"Georgia","country":"us","formatted_address":"2222, Hampton Drive, Fairington, DeKalb County, Georgia, 30035-3632, United States of America","place_id":"24013888","datatype":"locationiq"},{"latitude":"27.93926","longitude":"-82.32282","name":"Marshalls","address":"USA-Brandon","street_number":null,"street_name":"West Brandon Boulevard","zip":"33510","city":"Brandon","area":null,"county":"Hillsborough County","state":"Florida","country":"us","formatted_address":"Sr 60 @ Brandon Town Center Dr, West Brandon Boulevard, Brandon, Hillsborough County, Florida, 33510, United States of America","place_id":"8638753","datatype":"locationiq"},{"latitude":"26.27108","longitude":"-98.21835","name":"Marshalls","address":"USA-Edinburg","street_number":null,"street_name":"North 10th Street","zip":"78504","city":"McAllen","area":null,"county":"Hidalgo County","state":"Texas","country":"us","formatted_address":"North 10th Street, McAllen, Hidalgo County, Texas, 78504, United States of America","place_id":"74309701","datatype":"locationiq"},{"latitude":"25.68535","longitude":"-80.42263","name":"Marshalls","address":"USA-Kendale Lakes","street_number":"14095","street_name":"Southwest 88th Street","zip":"33186","city":null,"area":null,"county":"Miami-Dade County","state":"Florida","country":"us","formatted_address":"14095, Southwest 88th Street, Kendall Lakes, Miami-Dade County, Florida, 33186, United States of America","place_id":"163577214","datatype":"locationiq"},{"latitude":"30.39308","longitude":"-97.73257","name":"Marshalls","address":"USA-Austin","street_number":"10642","street_name":"North MoPac Expressway","zip":"78759","city":"Austin","area":null,"county":"Travis County","state":"Texas","country":"us","formatted_address":"10642, North MoPac Expressway, Austin, Travis County, Texas, 78759, United States of America","place_id":"206447067","datatype":"locationiq"},{"latitude":"29.85094","longitude":"-95.50446","name":"Marshalls","address":"USA-Houston","street_number":null,"street_name":"Hollister Road","zip":"77040","city":null,"area":null,"county":"Harris County","state":"Texas","country":"us","formatted_address":"Subway, Hollister Road, Hollister Point Center, Fairbanks, Harris County, Texas, 77040, United States of America","place_id":"21673605","datatype":"locationiq"},{"latitude":"29.61083","longitude":"-90.75284","name":"Marshalls","address":"USA-Bayou Cane","street_number":"1508","street_name":"Martin Luther King Boulevard","zip":"70360","city":null,"area":null,"county":"Terrebonne Parish","state":"Louisiana","country":"us","formatted_address":"1508, Martin Luther King Boulevard, Bayou Cane, Terrebonne Parish, Louisiana, 70360, United States of America","place_id":"189314964","datatype":"locationiq"},{"latitude":"35.44747","longitude":"-82.53615","name":"Marshalls","address":"USA-Asheville","street_number":"34","street_name":"McKenna Road","zip":"28704","city":null,"area":null,"county":"Buncombe County","state":"North Carolina","country":"us","formatted_address":"34, McKenna Road, Oak Park, Buncombe County, North Carolina, 28704, United States of America","place_id":"197248981","datatype":"locationiq"},{"latitude":"26.70406","longitude":"-80.11140","name":"Marshalls","address":"USA-West Palm Beach","street_number":"1847","street_name":"North Military Trail","zip":"33409","city":null,"area":null,"county":"Palm Beach County","state":"Florida","country":"us","formatted_address":"1847, North Military Trail, Golfview, Palm Beach County, Florida, 33409, United States of America","place_id":"182812099","datatype":"locationiq"},{"latitude":"32.81363","longitude":"-96.95578","name":"Marshalls","address":"USA-Irving","street_number":"825","street_name":"West Irving Boulevard","zip":"75060","city":"Irving","area":null,"county":"Dallas County","state":"Texas","country":"us","formatted_address":"Irving City Hall, 825, West Irving Boulevard, Irving, Dallas County, Texas, 75060, United States of America","place_id":"27995885","datatype":"locationiq"},{"latitude":"33.17699","longitude":"-117.33935","name":"Marshalls","address":"USA-Carlsbad","street_number":null,"street_name":"Marron Road","zip":"92008","city":"Carlsbad","area":null,"county":"San Diego County","state":"California","country":"us","formatted_address":"Marron Road, Carlsbad, San Diego County, California, 92008, United States of America","place_id":"62614318","datatype":"locationiq"},{"latitude":"28.17352","longitude":"-82.35393","name":"Marshalls","address":"USA-Tampa","street_number":"1205","street_name":"Bruce B Downs Boulevard","zip":"33544","city":null,"area":null,"county":"Pasco County","state":"Florida","country":"us","formatted_address":"1205, Bruce B Downs Boulevard, Pasco County, Florida, 33544, United States of America","place_id":"182880243","datatype":"locationiq"},{"latitude":"33.57199","longitude":"-84.35424","name":"Marshalls","address":"USA-Morrow","street_number":null,"street_name":"Morrow Industrial Boulevard","zip":"30260","city":"Morrow","area":"Woodstone","county":"Clayton County","state":"Georgia","country":"us","formatted_address":"Morrow Industrial Boulevard, Woodstone, Morrow, Clayton County, Georgia, 30260, United States of America","place_id":"64517071","datatype":"locationiq"},{"latitude":"33.50908","longitude":"-112.04274","name":"Marshalls","address":"USA-Phoenix","street_number":null,"street_name":"East Camelback Road","zip":"85016","city":"Phoenix","area":null,"county":"Maricopa County","state":"Arizona","country":"us","formatted_address":"Arriba, East Camelback Road, Camelback East, Phoenix, Maricopa County, Arizona, 85016, United States of America","place_id":"84864762","datatype":"locationiq"},{"latitude":"29.19297","longitude":"-81.06753","name":"Marshalls","address":"USA-Daytona Beach","street_number":"1844","street_name":"International Speedway Boulevard","zip":"32114","city":"Daytona Beach","area":null,"county":"Volusia County","state":"Florida","country":"us","formatted_address":"1844, International Speedway Boulevard, Daytona Beach, Volusia County, Florida, 32114, United States of America","place_id":"183260728","datatype":"locationiq"},{"latitude":"36.01056","longitude":"-115.11840","name":"Marshalls","address":"USA-Paradise","street_number":"9901","street_name":"Acc\u00e8s parking","zip":"89183","city":"Henderson","area":null,"county":"Clark County","state":"Nevada","country":"us","formatted_address":"Buffet@Asia, 9901, Acc\u00e8s parking, Seven Hills, Henderson, Clark County, Nevada, 89183, United States of America","place_id":"142344477","datatype":"locationiq"},{"latitude":"29.86821","longitude":"-81.32330","name":"Marshalls","address":"USA-St Augustine","street_number":null,"street_name":"Dixie Highway","zip":"32084","city":null,"area":null,"county":"St. Johns County","state":"Florida","country":"us","formatted_address":"KFC, Dixie Highway, Moultrie Junction, St. Johns County, Florida, 32084, United States of America","place_id":"143347948","datatype":"locationiq"},{"latitude":"31.07613","longitude":"-97.37823","name":"Marshalls","address":"USA-Temple","street_number":null,"street_name":"Market Place","zip":"76503","city":"Temple","area":null,"county":"Bell County","state":"Texas","country":"us","formatted_address":"Meineke Car Care, Market Place, Temple, Bell County, Texas, 76503, United States of America","place_id":"47942501","datatype":"locationiq"},{"latitude":"32.84991","longitude":"-96.68270","name":"Marshalls","address":"USA-Dallas","street_number":"11403","street_name":"Garland Road","zip":"75218","city":"Dallas","area":null,"county":"Dallas County","state":"Texas","country":"us","formatted_address":"11403, Garland Road, Dallas, Dallas County, Texas, 75218, United States of America","place_id":"169175640","datatype":"locationiq"},{"latitude":"26.31761","longitude":"-80.15773","name":"Marshalls","address":"USA-Boca Raton","street_number":null,"street_name":"West Hillsboro Boulevard","zip":"33073","city":"Deerfield Beach","area":null,"county":"Broward County","state":"Florida","country":"us","formatted_address":"Wells Fargo, West Hillsboro Boulevard, Deerfield Beach, Broward County, Florida, 33073, United States of America","place_id":"59671361","datatype":"locationiq"},{"latitude":"28.20160","longitude":"-82.66623","name":"Marshalls","address":"USA-Seven Springs","street_number":null,"street_name":"Little Road","zip":"34655","city":null,"area":null,"county":"Pasco County","state":"Florida","country":"us","formatted_address":"Little Road, Seven Springs, Pasco County, Florida, 34655, United States of America","place_id":"134538536","datatype":"locationiq"},{"latitude":"34.04635","longitude":"-84.29094","name":"Marshalls","address":"USA-Alpharetta","street_number":"6464","street_name":"North Point Parkway","zip":"30022","city":"Alpharetta","area":"Alpha Park","county":"Fulton County","state":"Georgia","country":"us","formatted_address":"6464, North Point Parkway, Alpha Park, Alpharetta, Fulton County, Georgia, 30022, United States of America","place_id":"183782873","datatype":"locationiq"},{"latitude":"29.69641","longitude":"-95.29754","name":"Marshalls","address":"USA-Houston","street_number":null,"street_name":"Woodridge Drive","zip":"77087","city":null,"area":null,"county":"Harris County","state":"Texas","country":"us","formatted_address":"Marble Slab Creamery, Woodridge Drive, Golfcrest, Harris County, Texas, 77087, United States of America","place_id":"50324352","datatype":"locationiq"},{"latitude":"35.65088","longitude":"-80.45825","name":"Marshalls","address":"USA-Salisbury","street_number":null,"street_name":"Faith Road","zip":"28146","city":"Salisbury","area":null,"county":"Rowan County","state":"North Carolina","country":"us","formatted_address":"Dollar Tree, Faith Road, Innes Street Market, Salisbury, Rowan County, North Carolina, 28146, United States of America","place_id":"44544480","datatype":"locationiq"},{"latitude":"34.14012","longitude":"-118.01087","name":"Marshalls","address":"USA-Monrovia","street_number":null,"street_name":"West Huntington Drive","zip":"91016","city":"Monrovia","area":null,"county":"Los Angeles County","state":"California","country":"us","formatted_address":"Applebee's, West Huntington Drive, Monrovia, Los Angeles County, California, 91016, United States of America","place_id":"146996195","datatype":"locationiq"},{"latitude":"34.14831","longitude":"-117.47650","name":"Marshalls","address":"USA-Fontana","street_number":null,"street_name":"Summit Avenue","zip":"92336","city":"Fontana","area":null,"county":"San Bernardino County","state":"California","country":"us","formatted_address":"Summit Avenue, Fontana, San Bernardino County, California, 92336, United States of America","place_id":"170810871","datatype":"locationiq"},{"latitude":"33.38085","longitude":"-86.80528","name":"Marshalls","address":"USA-Hoover","street_number":null,"street_name":"Montgomery Highway","zip":"35216","city":"Hoover","area":"Forest Ridge Estates","county":"Jefferson County","state":"Alabama","country":"us","formatted_address":"McDonald's, Montgomery Highway, Forest Ridge Estates, Hoover, Jefferson County, Alabama, 35216, United States of America","place_id":"50363148","datatype":"locationiq"},{"latitude":"33.93836","longitude":"-118.04671","name":"Marshalls","address":"USA-La Miranda","street_number":null,"street_name":"Carmenita Road","zip":"90605","city":"Santa Fe Springs","area":null,"county":"Los Angeles County","state":"California","country":"us","formatted_address":"Carmenita Road, Santa Fe Springs, Los Angeles County, California, 90605, United States of America","place_id":"156824953","datatype":"locationiq"},{"latitude":"34.01984","longitude":"-84.32010","name":"Marshalls","address":"USA-Rosswell","street_number":"1329","street_name":"Holcomb Bridge Road","zip":"30076","city":null,"area":null,"county":"Fulton County","state":"Georgia","country":"us","formatted_address":"1329, Holcomb Bridge Road, Roswell, Fulton County, Georgia, 30076, United States of America","place_id":"148503839","datatype":"locationiq"},{"latitude":"33.91716","longitude":"-117.99114","name":"Marshalls","address":"USA-Fzllerton","street_number":"15962","street_name":"East Imperial Highway","zip":"90638","city":"La Mirada","area":null,"county":"Los Angeles County","state":"California","country":"us","formatted_address":"15962, East Imperial Highway, La Mirada, Los Angeles County, California, 90638, United States of America","place_id":"178714704","datatype":"locationiq"},{"latitude":"36.07010","longitude":"-79.86660","name":"Marshalls","address":"USA-Greensboro","street_number":"4640","street_name":"West Market Street","zip":"27407","city":"Greensboro","area":null,"county":"Guilford County","state":"North Carolina","country":"us","formatted_address":"Harris Teeter, 4640, West Market Street, Greensboro, Guilford County, North Carolina, 27407, United States of America","place_id":"17092752","datatype":"locationiq"},{"latitude":"30.03635","longitude":"-89.97928","name":"Marshalls","address":"USA-New Orleans","street_number":null,"street_name":"I-10 Service Road","zip":"70127","city":"New Orleans","area":null,"county":"Orleans Parish","state":"Louisiana","country":"us","formatted_address":"I-10 Service Road, New Orleans East, New Orleans, Orleans Parish, Louisiana, 70127, United States of America","place_id":"79820368","datatype":"locationiq"},{"latitude":"33.83192","longitude":"-118.03045","name":"Marshalls","address":"USA-Cypress","street_number":"5897","street_name":"Lincoln Avenue","zip":"90620","city":"Cypress","area":null,"county":"Orange County","state":"California","country":"us","formatted_address":"Starbucks, 5897, Lincoln Avenue, Cypress, Orange County, California, 90620, United States of America","place_id":"33916430","datatype":"locationiq"},{"latitude":"26.21300","longitude":"-80.10672","name":"Marshalls","address":"USA-Pompano Beach","street_number":"1357","street_name":"Federal Highway","zip":"33062","city":"Pompano Beach","area":null,"county":"Broward County","state":"Florida","country":"us","formatted_address":"1357, Federal Highway, Pompano Beach, Broward County, Florida, 33062, United States of America","place_id":"181779767","datatype":"locationiq"},{"latitude":"34.29798","longitude":"-83.85664","name":"Marshalls","address":"USA-Gainesville","street_number":"971","street_name":"Dawsonville Highway","zip":"30501","city":null,"area":"Lakeshore Estates","county":"Hall County","state":"Georgia","country":"us","formatted_address":"971, Dawsonville Highway, Lakeshore Estates, Gainesville, Hall County, Georgia, 30501, United States of America","place_id":"183923101","datatype":"locationiq"},{"latitude":"30.39095","longitude":"-86.42776","name":"Marshalls","address":"USA-Destin","street_number":null,"street_name":"Commons Drive East","zip":"32541","city":null,"area":null,"county":"Okaloosa County","state":"Florida","country":"us","formatted_address":"Commons Drive East, Okaloosa County, Florida, 32541, United States of America","place_id":"65863080","datatype":"locationiq"},{"latitude":"34.22406","longitude":"-119.15224","name":"Marshalls","address":"USA-Oxnard","street_number":null,"street_name":"Ventura Boulevard","zip":"93036","city":"Oxnard","area":null,"county":"Ventura County","state":"California","country":"us","formatted_address":"Olive Garden, Ventura Boulevard, Oxnard, Ventura County, California, 93036, United States of America","place_id":"14058670","datatype":"locationiq"},{"latitude":"32.83930","longitude":"-96.99383","name":"Marshalls","address":"USA-Irving","street_number":"2399","street_name":"North Belt Line Road","zip":"75061","city":"Irving","area":null,"county":"Dallas County","state":"Texas","country":"us","formatted_address":"2399, North Belt Line Road, Irving, Dallas County, Texas, 75061, United States of America","place_id":"204877080","datatype":"locationiq"},{"latitude":"30.30387","longitude":"-89.82594","name":"Marshalls","address":"USA-Slidell","street_number":null,"street_name":"Northshore Boulevard","zip":"70460","city":"Slidell","area":null,"county":"St. Tammany Parish","state":"Louisiana","country":"us","formatted_address":"Northshore Boulevard, Slidell, St. Tammany Parish, Louisiana, 70460, United States of America","place_id":"67278286","datatype":"locationiq"},{"latitude":"29.48917","longitude":"-98.53510","name":"Marshalls","address":"USA-San Antonio","street_number":null,"street_name":"Vance Jackson Road","zip":"78230","city":"San Antonio","area":null,"county":"Bexar County","state":"Texas","country":"us","formatted_address":"Saint Marks United Methodist Church, Vance Jackson Road, San Antonio, Bexar County, Texas, 78230, United States of America","place_id":"2905032","datatype":"locationiq"},{"latitude":"35.39181","longitude":"-97.54396","name":"Marshalls","address":"USA-Oklahoma City","street_number":null,"street_name":"Southwest 74th Street","zip":"73159","city":"Oklahoma City","area":null,"county":"Oklahoma County","state":"Oklahoma","country":"us","formatted_address":"Golden Corral, Southwest 74th Street, Oklahoma City, Oklahoma County, Oklahoma, 73159, United States of America","place_id":"173106267","datatype":"locationiq"},{"latitude":"29.96412","longitude":"-95.54310","name":"Marshalls","address":"USA-Kohrville","street_number":"7600","street_name":"Cypress Creek Parkway","zip":"77070","city":null,"area":"Willowbrook","county":"Harris County","state":"Texas","country":"us","formatted_address":"Chipotle, 7600, Cypress Creek Parkway, Willowbrook, Louetta, Harris County, Texas, 77070, United States of America","place_id":"27704839","datatype":"locationiq"},{"latitude":"35.17162","longitude":"-89.79330","name":"Marshalls","address":"USA-Memphis","street_number":"1725","street_name":"North Germantown Parkway","zip":"38016","city":"Memphis","area":null,"county":"Shelby County","state":"Tennessee","country":"us","formatted_address":"1725, North Germantown Parkway, Memphis, Shelby County, Tennessee, 38016, United States of America","place_id":"204101844","datatype":"locationiq"},{"latitude":"25.48059","longitude":"-80.46336","name":"Marshalls","address":"USA-Homestead","street_number":"1071","street_name":"North Homestead Boulevard","zip":"33030","city":"Homestead","area":null,"county":"Miami-Dade County","state":"Florida","country":"us","formatted_address":"1071, North Homestead Boulevard, Homestead, Miami-Dade County, Florida, 33030, United States of America","place_id":"163318523","datatype":"locationiq"},{"latitude":"35.15440","longitude":"-85.24861","name":"Marshalls","address":"USA-Falling Water","street_number":null,"street_name":"Wal-Mart Road","zip":"37343","city":"Chattanooga","area":null,"county":"Hamilton County","state":"Tennessee","country":"us","formatted_address":"Chick-Fil-A, Wal-Mart Road, Chattanooga, Hamilton County, Tennessee, 37343, United States of America","place_id":"98870443","datatype":"locationiq"},{"latitude":"33.91796","longitude":"-117.88658","name":"Marshalls","address":"USA-Brea","street_number":null,"street_name":"East Birch Street","zip":"92821","city":"Brea","area":"Country Hills","county":"Orange County","state":"California","country":"us","formatted_address":"TGIF Fridays, East Birch Street, Country Hills, Downtown Brea, Brea, Orange County, California, 92821, United States of America","place_id":"14346741","datatype":"locationiq"},{"latitude":"33.85641","longitude":"-118.11689","name":"Marshalls","address":"USA-Lakewood","street_number":null,"street_name":"Woodruff Avenue","zip":"90706","city":"Lakewood","area":null,"county":"Los Angeles County","state":"California","country":"us","formatted_address":"Marshall's, Woodruff Avenue, Lakewood, Los Angeles County, California, 90706, United States of America","place_id":"5172783","datatype":"locationiq"},{"latitude":"33.65899","longitude":"-84.50337","name":"Marshalls","address":"USA-Atlanta","street_number":null,"street_name":"Redwine Road","zip":"30272","city":"East Point","area":"Golden Acres","county":"Fulton County","state":"Georgia","country":"us","formatted_address":"T.J. Maxx, Redwine Road, Golden Acres, East Point, Fulton County, Georgia, 30272, United States of America","place_id":"48202423","datatype":"locationiq"},{"latitude":"28.33013","longitude":"-81.47290","name":"Marshalls","address":"USA-Kissimmee","street_number":"4789","street_name":"West Irlo Bronson Memorial Highway","zip":"34746","city":null,"area":null,"county":"Osceola County","state":"Florida","country":"us","formatted_address":"Panda Express, 4789, West Irlo Bronson Memorial Highway, Reedy Creek Improvement District, Osceola County, Florida, 34746, United States of America","place_id":"139922884","datatype":"locationiq"},{"latitude":"25.92557","longitude":"-80.17591","name":"Marshalls","address":"USA-North Miami","street_number":"1199","street_name":"North Miami Beach Boulevard","zip":"33162","city":null,"area":null,"county":"Miami-Dade County","state":"Florida","country":"us","formatted_address":"1199, North Miami Beach Boulevard, North Miami Beach, Miami-Dade County, Florida, 33162, United States of America","place_id":"163588160","datatype":"locationiq"},{"latitude":"33.70720","longitude":"-116.27950","name":"Marshalls","address":"USA-Indio","street_number":"79290","street_name":"Highway 111","zip":"92253","city":"La Quinta","area":null,"county":"Riverside County","state":"California","country":"us","formatted_address":"79290, Highway 111, La Quinta, Riverside County, California, 92253, United States of America","place_id":"179466297","datatype":"locationiq"},{"latitude":"27.57048","longitude":"-99.50207","name":"Marshalls","address":"USA-Laredo","street_number":null,"street_name":"San Dario Avenue","zip":"78041","city":"Laredo","area":null,"county":"Webb County","state":"Texas","country":"us","formatted_address":"IHOP, San Dario Avenue, Del Mar, Laredo, Webb County, Texas, 78041, United States of America","place_id":"170318262","datatype":"locationiq"},{"latitude":"33.82292","longitude":"-84.11294","name":"Marshalls","address":"USA-Rockbridge","street_number":null,"street_name":"Stone Mountain Freeway Southwest","zip":"30087","city":null,"area":"Lake Lucerne Estates","county":"Gwinnett County","state":"Georgia","country":"us","formatted_address":"Shell, Stone Mountain Freeway Southwest, Lake Lucerne Estates, Corinth Hills, Gwinnett County, Georgia, 30087, United States of America","place_id":"6650092","datatype":"locationiq"},{"latitude":"36.08175","longitude":"-86.72680","name":"Marshalls","address":"USA-Nashville","street_number":"4041","street_name":"Nolensville Pike","zip":"37211","city":"Nashville-Davidson","area":null,"county":"Davidson County","state":"Tennessee","country":"us","formatted_address":"McDonald's, 4041, Nolensville Pike, Nashville-Davidson, Davidson County, Tennessee, 37211, United States of America","place_id":"127467796","datatype":"locationiq"},{"latitude":"27.89440","longitude":"-82.78440","name":"Marshalls","address":"USA-Clearwater","street_number":"10500","street_name":"Ulmerton Road","zip":"33771","city":"Largo","area":null,"county":"Pinellas County","state":"Florida","country":"us","formatted_address":"Buffalo Wild Wings, 10500, Ulmerton Road, Largo, Pinellas County, Florida, 33771, United States of America","place_id":"137224202","datatype":"locationiq"},{"latitude":"35.29407","longitude":"-80.74762","name":"Marshalls","address":"USA-Charlotte","street_number":null,"street_name":"Shopping Center Drive","zip":"28213","city":"Charlotte","area":null,"county":"Mecklenburg County","state":"North Carolina","country":"us","formatted_address":"McDonald's, Shopping Center Drive, Charlotte, Mecklenburg County, North Carolina, 28213, United States of America","place_id":"12529332","datatype":"locationiq"},{"latitude":"33.69010","longitude":"-117.89367","name":"Marshalls","address":"USA-Santa Ana","street_number":null,"street_name":"South Coast Drive","zip":"92626","city":"Costa Mesa","area":null,"county":"Orange County","state":"California","country":"us","formatted_address":"South Coast Drive, Costa Mesa, Orange County, California, 92626, United States of America","place_id":"157030493","datatype":"locationiq"},{"latitude":"34.81982","longitude":"-82.33925","name":"Marshalls","address":"USA-Greenville","street_number":null,"street_name":"Verdae Boulevard","zip":"29607","city":"Greenville","area":null,"county":"Greenville County","state":"South Carolina","country":"us","formatted_address":"Verdae Rd @ Verdae Market Fair, Verdae Boulevard, Greenville, Greenville County, South Carolina, 29607, United States of America","place_id":"19601372","datatype":"locationiq"},{"latitude":"29.87346","longitude":"-95.64544","name":"Marshalls","address":"USA-Jersey Village","street_number":"6101","street_name":"TX 6","zip":"77084","city":null,"area":null,"county":"Harris County","state":"Texas","country":"us","formatted_address":"6101, TX 6, Satsuma, Harris County, Texas, 77084, United States of America","place_id":"205397001","datatype":"locationiq"},{"latitude":"35.03293","longitude":"-85.16512","name":"Marshalls","address":"USA-Chattanooga","street_number":null,"street_name":"Hamilton Place Boulevard","zip":"37421","city":"Chattanooga","area":null,"county":"Hamilton County","state":"Tennessee","country":"us","formatted_address":"Cheap Movie Theatre, Hamilton Place Boulevard, Chattanooga, Hamilton County, Tennessee, 37421, United States of America","place_id":"9955794","datatype":"locationiq"},{"latitude":"27.99804","longitude":"-81.95725","name":"Marshalls","address":"USA-Lakeland","street_number":"3677","street_name":"South Florida Avenue","zip":"33803","city":"Lakeland","area":null,"county":"Polk County","state":"Florida","country":"us","formatted_address":"3677, South Florida Avenue, Lakeland, Polk County, Florida, 33803, United States of America","place_id":"183027181","datatype":"locationiq"},{"latitude":"27.01488","longitude":"-82.14105","name":"Marshalls","address":"USA-Port Charlotte","street_number":"18798","street_name":"Veterans Boulevard","zip":"33954","city":null,"area":null,"county":"Charlotte County","state":"Florida","country":"us","formatted_address":"18798, Veterans Boulevard, Murdock, Charlotte County, Florida, 33954, United States of America","place_id":"181813872","datatype":"locationiq"},{"latitude":"34.10253","longitude":"-117.29938","name":"Marshalls","address":"USA-San Bernardino","street_number":"705","street_name":"West 2nd Street","zip":"92410","city":"San Bernardino","area":null,"county":"San Bernardino County","state":"California","country":"us","formatted_address":"705, West 2nd Street, San Bernardino, San Bernardino County, California, 92410, United States of America","place_id":"179742444","datatype":"locationiq"},{"latitude":"27.90852","longitude":"-82.50591","name":"Marshalls","address":"USA-Tampa","street_number":"3794","street_name":"West Euclid Avenue","zip":"33629","city":"Tampa","area":"Bay Oaks Apartments;The Brunchery","county":"Hillsborough County","state":"Florida","country":"us","formatted_address":"3794, West Euclid Avenue, Bay Oaks Apartments;The Brunchery, Hyde Park, Tampa, Hillsborough County, Florida, 33629, United States of America","place_id":"182202232","datatype":"locationiq"},{"latitude":"34.24846","longitude":"-77.88158","name":"Marshalls","address":"USA-Wilmington","street_number":"4719","street_name":"New Centre Drive","zip":"28405","city":"Wilmington","area":null,"county":"New Hanover County","state":"North Carolina","country":"us","formatted_address":"4719, New Centre Drive, Wilmington, New Hanover County, North Carolina, 28405, United States of America","place_id":"198034558","datatype":"locationiq"},{"latitude":"32.32959","longitude":"-86.23255","name":"Marshalls","address":"USA-Montgomery","street_number":"3715","street_name":"Eastern Boulevard","zip":"36116","city":"Montgomery","area":null,"county":"Montgomery County","state":"Alabama","country":"us","formatted_address":"3715, Eastern Boulevard, Montgomery, Montgomery County, Alabama, 36116, United States of America","place_id":"176616502","datatype":"locationiq"},{"latitude":"32.34978","longitude":"-110.97505","name":"Marshalls","address":"USA-Casas Adobes","street_number":null,"street_name":"North Oracle Road","zip":"85704","city":null,"area":null,"county":"Pima County","state":"Arizona","country":"us","formatted_address":"Panda Express, North Oracle Road, Casas Adobes, Oro Valley, Pima County, Arizona, 85704, United States of America","place_id":"173337577","datatype":"locationiq"},{"latitude":"37.04750","longitude":"-76.38931","name":"Marshalls","address":"USA-Hampton","street_number":null,"street_name":"Cunningham Drive","zip":"23666","city":"Hampton City","area":"Pine Chapel Village","county":null,"state":"Virginia","country":"us","formatted_address":"Sports Authority, Cunningham Drive, Pine Chapel Village, Northampton, Hampton, Hampton City, Virginia, 23666, United States of America","place_id":"155240218","datatype":"locationiq"},{"latitude":"32.80055","longitude":"-80.01964","name":"Marshalls","address":"USA-Charleston","street_number":null,"street_name":"Sam Rittenberg Boulevard","zip":"29407","city":"Charleston","area":null,"county":"Charleston County","state":"South Carolina","country":"us","formatted_address":"Fazoli's, Sam Rittenberg Boulevard, Charleston, Charleston County, South Carolina, 29407, United States of America","place_id":"17188695","datatype":"locationiq"},{"latitude":"33.00986","longitude":"-96.70862","name":"Marshalls","address":"USA-Plano","street_number":null,"street_name":"Central Expressway","zip":"75074","city":"Plano","area":null,"county":"Collin County","state":"Texas","country":"us","formatted_address":"29, Central Expressway, Plano, Collin County, Texas, 75074, United States of America","place_id":"325740","datatype":"locationiq"},{"latitude":"33.38472","longitude":"-111.96689","name":"Marshalls","address":"USA-Tempe","street_number":null,"street_name":"East Maricopa Freeway","zip":"85283","city":null,"area":null,"county":"Maricopa County","state":"Arizona","country":"us","formatted_address":"154, East Maricopa Freeway, Ahwatukee, The Pointe at South Mountain, Maricopa County, Arizona, 85283, United States of America","place_id":"216219","datatype":"locationiq"},{"latitude":"26.01469","longitude":"-80.24857","name":"Marshalls","address":"USA-Pembroke Pines","street_number":null,"street_name":"North University Drive","zip":"33024:33026:33028","city":null,"area":null,"county":"Broward County","state":"Florida","country":"us","formatted_address":"North University Drive, Pembroke Pines, Broward County, Florida, 33024:33026:33028, United States of America","place_id":"104579938","datatype":"locationiq"},{"latitude":"29.77955","longitude":"-95.81138","name":"Marshalls","address":"USA-Katy","street_number":"5098","street_name":"Katy Mills Circle","zip":"77494","city":"Katy","area":null,"county":"Fort Bend County","state":"Texas","country":"us","formatted_address":"5098, Katy Mills Circle, Katy, Fort Bend County, Texas, 77494, United States of America","place_id":"205383895","datatype":"locationiq"},{"latitude":"31.54568","longitude":"-97.06507","name":"Marshalls","address":"USA-Waco","street_number":null,"street_name":"TX 6","zip":null,"city":null,"area":null,"county":"McLennan County","state":"Texas","country":"us","formatted_address":"TX 6, Wardlaw, McLennan County, Texas, United States of America","place_id":"72537785","datatype":"locationiq"},{"latitude":"30.44355","longitude":"-90.14296","name":"Marshalls","address":"USA-Covington","street_number":null,"street_name":"East Brewster Road","zip":"70433","city":null,"area":null,"county":"St. Tammany Parish","state":"Louisiana","country":"us","formatted_address":"Wendy's, East Brewster Road, River Chase, Houltonville, St. Tammany Parish, Louisiana, 70433, United States of America","place_id":"157698486","datatype":"locationiq"},{"latitude":"33.02179","longitude":"-96.79542","name":"Marshalls","address":"USA-Plano","street_number":null,"street_name":"Old Shepard Place","zip":"75093","city":"Plano","area":null,"county":"Collin County","state":"Texas","country":"us","formatted_address":"Old Shepard Place, Plano, Collin County, Texas, 75093, United States of America","place_id":"103923953","datatype":"locationiq"},{"latitude":"34.01759","longitude":"-118.10723","name":"Marshalls","address":"USA-Montebello","street_number":"885","street_name":"West Beverly Boulevard","zip":"90640","city":"Montebello","area":null,"county":"Los Angeles County","state":"California","country":"us","formatted_address":"885, West Beverly Boulevard, Montebello, Los Angeles County, California, 90640, United States of America","place_id":"178796024","datatype":"locationiq"},{"latitude":"27.46798","longitude":"-82.56279","name":"Marshalls","address":"USA-Bradenton","street_number":null,"street_name":"1st Street","zip":"34205","city":"Bradenton","area":null,"county":"Manatee County","state":"Florida","country":"us","formatted_address":"Samurai Steakhouse, 1st Street, Bradenton, Manatee County, Florida, 34205, United States of America","place_id":"51731828","datatype":"locationiq"},{"latitude":"33.67718","longitude":"-111.97718","name":"Marshalls","address":"USA-Desert Ridge","street_number":"21001","street_name":"North Tatum Boulevard","zip":"85050-4206","city":"Phoenix","area":null,"county":"Maricopa County","state":"Arizona","country":"us","formatted_address":"21001, North Tatum Boulevard, Phoenix, Maricopa County, Arizona, 85050-4206, United States of America","place_id":"26302775","datatype":"locationiq"},{"latitude":"35.47161","longitude":"-97.40908","name":"Marshalls","address":"USA-Oklahoma City","street_number":"3494","street_name":"North Idylwild Drive","zip":"73110","city":"Midwest City","area":null,"county":"Oklahoma County","state":"Oklahoma","country":"us","formatted_address":"3494, North Idylwild Drive, Midwest City, Oklahoma County, Oklahoma, 73110, United States of America","place_id":"200423711","datatype":"locationiq"},{"latitude":"33.39026","longitude":"-111.85716","name":"Marshalls","address":"USA-Mesa","street_number":null,"street_name":"South Alma School Road","zip":"85202","city":"Mesa","area":"PARK PLACE ASSOCIATION","county":"Maricopa County","state":"Arizona","country":"us","formatted_address":"Wells Fargo, South Alma School Road, PARK PLACE ASSOCIATION, Mesa, Maricopa County, Arizona, 85202, United States of America","place_id":"53841372","datatype":"locationiq"},{"latitude":"32.54557","longitude":"-117.03951","name":"Marshalls","address":"USA-Chula Vista","street_number":"4410","street_name":"Camino de la Plaza","zip":"92173","city":"San Diego","area":"Park Haven","county":"San Diego County","state":"California","country":"us","formatted_address":"4410, Camino de la Plaza, Park Haven, San Ysidro, San Diego, San Diego County, California, 92173, United States of America","place_id":"76370421","datatype":"locationiq"},{"latitude":"32.76585","longitude":"-117.15460","name":"Marshalls","address":"USA-San Diego","street_number":null,"street_name":"Camino del Rio North","zip":"92018","city":"San Diego","area":null,"county":"San Diego County","state":"California","country":"us","formatted_address":"Camino del Rio North, Mission Valley, San Diego, San Diego County, California, 92018, United States of America","place_id":"106111535","datatype":"locationiq"},{"latitude":"32.70315","longitude":"-114.60465","name":"Marshalls","address":"USA-Yuma","street_number":null,"street_name":"South Castle Dome Avenue","zip":"85364","city":"Yuma","area":null,"county":"Yuma County","state":"Arizona","country":"us","formatted_address":"Chuck E. Cheese, South Castle Dome Avenue, Yuma Palms Regional Center, Yuma, Yuma County, Arizona, 85364, United States of America","place_id":"112052774","datatype":"locationiq"},{"latitude":"33.72031","longitude":"-117.98889","name":"Marshalls","address":"USA-Huntington Beach","street_number":"16662","street_name":"Beach Boulevard","zip":"92647","city":"Huntington Beach","area":null,"county":"Orange County","state":"California","country":"us","formatted_address":"16662, Beach Boulevard, Huntington Beach, Orange County, California, 92647, United States of America","place_id":"179208505","datatype":"locationiq"},{"latitude":"27.25876","longitude":"-82.52081","name":"Marshalls","address":"USA-Siesta Key","street_number":null,"street_name":"Tamiami Trail","zip":"34231","city":null,"area":null,"county":"Sarasota County","state":"Florida","country":"us","formatted_address":"Longhorn Steakhouse, Tamiami Trail, Gulf Gate Estates, Sarasota County, Florida, 34231, United States of America","place_id":"12369476","datatype":"locationiq"},{"latitude":"31.55872","longitude":"-110.25717","name":"Marshalls","address":"USA-Sierra Vista","street_number":null,"street_name":"Charleston Road","zip":"85635","city":null,"area":null,"county":"Cochise County","state":"Arizona","country":"us","formatted_address":"Burger King, Charleston Road, Plaza Vista, Sierra Vista, Cochise County, Arizona, 85635, United States of America","place_id":"112896151","datatype":"locationiq"},{"latitude":"34.19121","longitude":"-118.32838","name":"Marshalls","address":"USA-Burbank","street_number":null,"street_name":"Empire Center","zip":"91504","city":"Burbank","area":null,"county":"Los Angeles County","state":"California","country":"us","formatted_address":"Payless Shoe Source, Empire Center, Burbank, Los Angeles County, California, 91504, United States of America","place_id":"19338596","datatype":"locationiq"},{"latitude":"33.82403","longitude":"-117.51909","name":"Marshalls","address":"USA-Corona","street_number":null,"street_name":"Tuscany Road","zip":"92881","city":"Corona","area":null,"county":"Riverside County","state":"California","country":"us","formatted_address":"Tuscany Road, The Crossings At Corona, Dos Lagos, Corona, Riverside County, California, 92881, United States of America","place_id":"81516944","datatype":"locationiq"},{"latitude":"32.52685","longitude":"-94.35373","name":"Marshalls","address":"USA-Marshall","street_number":"1314","street_name":"E Pinecrest Dr","zip":"75670","city":"Marshall","area":null,"county":"Harrison County","state":"Texas","country":"us","formatted_address":"1314, E Pinecrest Dr, Marshall, Harrison County, Texas, 75670, United States of America","place_id":"205560280","datatype":"locationiq"},{"latitude":"25.95901","longitude":"-97.50568","name":"Marshalls","address":"USA-Brownsville","street_number":null,"street_name":"Pablo Kisel Boulevard","zip":"78520","city":"Brownsville","area":null,"county":"Cameron County","state":"Texas","country":"us","formatted_address":"Pablo Kisel Boulevard, Brownsville, Cameron County, Texas, 78520, United States of America","place_id":"101345939","datatype":"locationiq"},{"latitude":"34.23371","longitude":"-118.55341","name":"Marshalls","address":"USA-Deer Lake Highlands","street_number":"8974","street_name":"Tampa Avenue","zip":"91324","city":"Los Angeles","area":null,"county":"Los Angeles County","state":"California","country":"us","formatted_address":"8974, Tampa Avenue, Northridge, Los Angeles, Los Angeles County, California, 91324, United States of America","place_id":"178922489","datatype":"locationiq"},{"latitude":"33.49848","longitude":"-117.66048","name":"Marshalls","address":"USA-San Juan Capistrano","street_number":"31865","street_name":"Del Obispo Street","zip":"92675","city":"San Juan Capistrano","area":null,"county":"Orange County","state":"California","country":"us","formatted_address":"OCFA Station 7, 31865, Del Obispo Street, San Juan Capistrano, Orange County, California, 92675, United States of America","place_id":"144238122","datatype":"locationiq"},{"latitude":"35.43540","longitude":"-97.39602","name":"Marshalls","address":"USA-Midwest City","street_number":null,"street_name":"Southeast 29th Street","zip":"73110","city":"Midwest City","area":null,"county":"Oklahoma County","state":"Oklahoma","country":"us","formatted_address":"Southeast 29th Street, Midwest City, Oklahoma County, Oklahoma, 73110, United States of America","place_id":"167248275","datatype":"locationiq"},{"latitude":"33.98324","longitude":"-118.39122","name":"Marshalls","address":"USA-Ladera Heights","street_number":"6201","street_name":"Bristol Parkway","zip":"90230","city":null,"area":"Fox Hills","county":"Los Angeles County","state":"California","country":"us","formatted_address":"Chase, 6201, Bristol Parkway, Fox Hills, Culver City, Los Angeles County, California, 90230, United States of America","place_id":"131770262","datatype":"locationiq"},{"latitude":"35.74261","longitude":"-77.96274","name":"Marshalls","address":"USA-Wilson","street_number":null,"street_name":"Raleigh Road","zip":"27895","city":null,"area":null,"county":"Wilson County","state":"North Carolina","country":"us","formatted_address":"Raleigh Road, Wilson, Wilson County, North Carolina, 27895, United States of America","place_id":"70683722","datatype":"locationiq"},{"latitude":"29.73766","longitude":"-95.62384","name":"Marshalls","address":"USA-Clodine","street_number":null,"street_name":"Eldridge Parkway South","zip":"77077","city":null,"area":null,"county":"Harris County","state":"Texas","country":"us","formatted_address":"the commons, Eldridge Parkway South, Alief, Harris County, Texas, 77077, United States of America","place_id":"58814424","datatype":"locationiq"},{"latitude":"35.66867","longitude":"-88.84921","name":"Marshalls","address":"USA-Jackson","street_number":"833","street_name":"Vann Drive","zip":"38305","city":"Jackson","area":null,"county":"Madison County","state":"Tennessee","country":"us","formatted_address":"833, Vann Drive, Jackson, Madison County, Tennessee, 38305, United States of America","place_id":"203926464","datatype":"locationiq"},{"latitude":"36.00453","longitude":"-84.02054","name":"Marshalls","address":"USA-Knoxville","street_number":null,"street_name":"Schaad Road","zip":"37849","city":"Knoxville","area":null,"county":"Knox County","state":"Tennessee","country":"us","formatted_address":"Arby's, Schaad Road, Knoxville, Knox County, Tennessee, 37849, United States of America","place_id":"19762109","datatype":"locationiq"},{"latitude":"26.48413","longitude":"-81.78941","name":"Marshalls","address":"USA-San Carlos Park","street_number":"10008","street_name":"Gulf Center Drive","zip":"Fort Myers, FL  33913","city":null,"area":null,"county":"Lee County","state":"Florida","country":"us","formatted_address":"JoAnn Fabrics, 10008, Gulf Center Drive, San Carlos Park, Timberwalk at Three Oaks, Lee County, Florida, Fort Myers, FL  33913, United States of America","place_id":"107402726","datatype":"locationiq"},{"latitude":"33.74722","longitude":"-117.00173","name":"Marshalls","address":"USA-Hemet","street_number":"2941","street_name":"West Florida Avenue","zip":"92545","city":"Hemet","area":null,"county":"Riverside County","state":"California","country":"us","formatted_address":"2941, West Florida Avenue, Hemet, Riverside County, California, 92545, United States of America","place_id":"179474152","datatype":"locationiq"},{"latitude":"35.05472","longitude":"-78.97255","name":"Marshalls","address":"USA-Fayetteville","street_number":null,"street_name":"Skibo Road","zip":"28314","city":"Fayetteville","area":null,"county":"Cumberland County","state":"North Carolina","country":"us","formatted_address":"Skibo Road, Fayetteville, Cumberland County, North Carolina, 28314, United States of America","place_id":"86588589","datatype":"locationiq"},{"latitude":"32.16306","longitude":"-110.99021","name":"Marshalls","address":"USA-Tucson","street_number":"1210","street_name":"West Irvington Road","zip":"85714","city":"Tucson","area":null,"county":"Pima County","state":"Arizona","country":"us","formatted_address":"1210, West Irvington Road, Tucson, Pima County, Arizona, 85714, United States of America","place_id":"177377743","datatype":"locationiq"},{"latitude":"26.27211","longitude":"-81.80020","name":"Marshalls","address":"USA-North Naples","street_number":"1045","street_name":"Immokalee Road","zip":"34110","city":null,"area":null,"county":"Collier County","state":"Florida","country":"us","formatted_address":"1045, Immokalee Road, Vanderbilt Beach, Collier County, Florida, 34110, United States of America","place_id":"181882795","datatype":"locationiq"},{"latitude":"32.90992","longitude":"-96.87102","name":"Marshalls","address":"USA-Dallas","street_number":null,"street_name":"Forest Lane","zip":"75243","city":"Dallas","area":null,"county":"Dallas County","state":"Texas","country":"us","formatted_address":"Forest Lane, Dallas, Dallas County, Texas, 75243, United States of America","place_id":"88673240","datatype":"locationiq"},{"latitude":"33.97008","longitude":"-84.48872","name":"Marshalls","address":"USA-Marietta","street_number":null,"street_name":"Roswell Road","zip":"30068","city":null,"area":null,"county":"Cobb County","state":"Georgia","country":"us","formatted_address":"Roswell Road, Cobb County, Georgia, 30068, United States of America","place_id":"149762101","datatype":"locationiq"},{"latitude":"28.49574","longitude":"-81.42895","name":"Marshalls","address":"USA-Orlando","street_number":"4542","street_name":"Millenia Plaza Way","zip":"32839","city":"Orlando","area":null,"county":"Orange County","state":"Florida","country":"us","formatted_address":"4542, Millenia Plaza Way, Orlando, Orange County, Florida, 32839, United States of America","place_id":"182699637","datatype":"locationiq"},{"latitude":"34.96256","longitude":"-89.99228","name":"Marshalls","address":"USA-Southaven","street_number":null,"street_name":"Goodman Road West","zip":"38671","city":"Southaven","area":null,"county":"DeSoto County","state":"Mississippi","country":"us","formatted_address":"Back Yard Burgers, Goodman Road West, Southaven, DeSoto County, Mississippi, 38671, United States of America","place_id":"152962618","datatype":"locationiq"},{"latitude":"29.64953","longitude":"-95.15814","name":"Marshalls","address":"USA-Pasadena","street_number":null,"street_name":"Fairmont Parkway","zip":"77505","city":"Pasadena","area":null,"county":"Harris County","state":"Texas","country":"us","formatted_address":"Burger King, Fairmont Parkway, Pasadena, Harris County, Texas, 77505, United States of America","place_id":"82435878","datatype":"locationiq"},{"latitude":"26.17337","longitude":"-97.70137","name":"Marshalls","address":"USA-Harlingen","street_number":null,"street_name":"South Expressway 83","zip":"78550","city":"Harlingen","area":null,"county":"Cameron County","state":"Texas","country":"us","formatted_address":"South Expressway 83, Harlingen, Cameron County, Texas, 78550, United States of America","place_id":"90143371","datatype":"locationiq"},{"latitude":"26.18793","longitude":"-98.21418","name":"Marshalls","address":"USA-Pharr","street_number":"898","street_name":"East Expressway 83","zip":"78503","city":null,"area":null,"county":"Hidalgo County","state":"Texas","country":"us","formatted_address":"898, East Expressway 83, Pharr, Hidalgo County, Texas, 78503, United States of America","place_id":"205605301","datatype":"locationiq"},{"latitude":"34.13101","longitude":"-118.06787","name":"Marshalls","address":"USA-Pasadena","street_number":"3901","street_name":"Huntington Drive","zip":"91107","city":"Arcadia","area":null,"county":"Los Angeles County","state":"California","country":"us","formatted_address":"3901, Huntington Drive, Arcadia, Los Angeles County, California, 91107, United States of America","place_id":"178792505","datatype":"locationiq"},{"latitude":"35.73460","longitude":"-81.72960","name":"Marshalls","address":"USA-Morganton","street_number":"418","street_name":"Carbon City Road","zip":"28655","city":"Morganton","area":null,"county":"Burke County","state":"North Carolina","country":"us","formatted_address":"418, Carbon City Road, Morganton, Burke County, North Carolina, 28655, United States of America","place_id":"197267553","datatype":"locationiq"},{"latitude":"25.96524","longitude":"-80.14618","name":"Marshalls","address":"USA-Aventura","street_number":"20463","street_name":"Biscayne Boulevard","zip":"33160","city":null,"area":null,"county":"Miami-Dade County","state":"Florida","country":"us","formatted_address":"20463, Biscayne Boulevard, Aventura, Miami-Dade County, Florida, 33160, United States of America","place_id":"182547074","datatype":"locationiq"},{"latitude":"25.68783","longitude":"-80.38684","name":"Marshalls","address":"USA-Kendale Lakes","street_number":"11742","street_name":"Mills Drive","zip":"33183","city":"Kendall","area":null,"county":"Miami-Dade County","state":"Florida","country":"us","formatted_address":"11742, Mills Drive, Kendall, Miami-Dade County, Florida, 33183, United States of America","place_id":"182612875","datatype":"locationiq"},{"latitude":"33.69366","longitude":"-84.09391","name":"Marshalls","address":"USA-Lithonia","street_number":"8478","street_name":"Mall Parkway","zip":"30038","city":null,"area":null,"county":"DeKalb County","state":"Georgia","country":"us","formatted_address":"8478, Mall Parkway, Collinsville, DeKalb County, Georgia, 30038, United States of America","place_id":"183620206","datatype":"locationiq"},{"latitude":"26.11001","longitude":"-80.25051","name":"Marshalls","address":"USA-Plantation","street_number":null,"street_name":"South University Drive","zip":"33328","city":null,"area":null,"county":"Broward County","state":"Florida","country":"us","formatted_address":"South University Drive, Plantation, Broward County, Florida, 33328, United States of America","place_id":"104897592","datatype":"locationiq"},{"latitude":"34.15602","longitude":"-118.48026","name":"Marshalls","address":"USA-Los Angeles","street_number":"15947","street_name":"Ventura Boulevard","zip":"91436","city":"Los Angeles","area":null,"county":"Los Angeles County","state":"California","country":"us","formatted_address":"15947, Ventura Boulevard, Encino, Los Angeles, Los Angeles County, California, 91436, United States of America","place_id":"178551204","datatype":"locationiq"},{"latitude":"32.81615","longitude":"-79.84611","name":"Marshalls","address":"USA-Mt Pleasant","street_number":null,"street_name":"Frontage Road","zip":"29464","city":null,"area":null,"county":"Charleston County","state":"South Carolina","country":"us","formatted_address":"Fender Mender, Frontage Road, Parish Place, Charleston County, South Carolina, 29464, United States of America","place_id":"20559394","datatype":"locationiq"},{"latitude":"29.55981","longitude":"-98.58928","name":"Marshalls","address":"USA-San Antonio","street_number":null,"street_name":"Interstate Highway 10 Frontage Road","zip":"78249","city":"San Antonio","area":null,"county":"Bexar County","state":"Texas","country":"us","formatted_address":"Security Service Federal Credit Union, Interstate Highway 10 Frontage Road, San Antonio, Bexar County, Texas, 78249, United States of America","place_id":"125000309","datatype":"locationiq"},{"latitude":"25.99325","longitude":"-80.20682","name":"Marshalls","address":"USA-Hollywood","street_number":null,"street_name":"State Road 7","zip":"33023","city":null,"area":null,"county":"Broward County","state":"Florida","country":"us","formatted_address":"Miami Subs Grill, State Road 7, Miramar, Broward County, Florida, 33023, United States of America","place_id":"137102269","datatype":"locationiq"},{"latitude":"31.26473","longitude":"-92.45265","name":"Marshalls","address":"USA-Alexandria","street_number":"3399","street_name":"South Macarthur Drive","zip":"71301","city":"Alexandria","area":null,"county":"Rapides Parish","state":"Louisiana","country":"us","formatted_address":"3399, South Macarthur Drive, Alexandria, Rapides Parish, Louisiana, 71301, United States of America","place_id":"189206345","datatype":"locationiq"},{"latitude":"32.81982","longitude":"-117.18190","name":"Marshalls","address":"USA-San Diego","street_number":null,"street_name":"Genesee Avenue","zip":"92117","city":"San Diego","area":null,"county":"San Diego County","state":"California","country":"us","formatted_address":"Starbucks, Genesee Avenue, Clairemont, San Diego, San Diego County, California, 92117, United States of America","place_id":"19806636","datatype":"locationiq"},{"latitude":"26.16824","longitude":"-80.11738","name":"Marshalls","address":"USA-Fort Lauderdale","street_number":"3230","street_name":"Federal Highway","zip":"33306","city":"Fort Lauderdale","area":null,"county":"Broward County","state":"Florida","country":"us","formatted_address":"3230, Federal Highway, Fort Lauderdale, Broward County, Florida, 33306, United States of America","place_id":"181731197","datatype":"locationiq"},{"latitude":"33.85786","longitude":"-117.92407","name":"Marshalls","address":"USA-Anaheim","street_number":null,"street_name":"Orangefair Mall","zip":"92832","city":"Fullerton","area":null,"county":"Orange County","state":"California","country":"us","formatted_address":"Orangefair Mall, Fullerton Metrocenter, Downtown Fullerton, Fullerton, Orange County, California, 92832, United States of America","place_id":"89775909","datatype":"locationiq"},{"latitude":"29.60789","longitude":"-98.46551","name":"Marshalls","address":"USA-SanAntonio","street_number":null,"street_name":"North Loop 1604 East","zip":"78232","city":"San Antonio","area":null,"county":"Bexar County","state":"Texas","country":"us","formatted_address":"North Loop 1604 East, San Antonio, Bexar County, Texas, 78232, United States of America","place_id":"96566496","datatype":"locationiq"},{"latitude":"35.70252","longitude":"-81.30871","name":"Marshalls","address":"USA-Hickory","street_number":"1868","street_name":"Catawba Valley Boulevard Southeast","zip":"28602","city":null,"area":null,"county":"Catawba County","state":"North Carolina","country":"us","formatted_address":"1868, Catawba Valley Boulevard Southeast, Brookford, Catawba County, North Carolina, 28602, United States of America","place_id":"197327262","datatype":"locationiq"},{"latitude":"27.24271","longitude":"-80.27099","name":"Marshalls","address":"USA-Port St Lucie","street_number":null,"street_name":"Northwest Federal Highway","zip":"34957","city":null,"area":null,"county":"Martin County","state":"Florida","country":"us","formatted_address":"Northwest Federal Highway, Skyline Heights, Martin County, Florida, 34957, United States of America","place_id":"89544341","datatype":"locationiq"},{"latitude":"30.43930","longitude":"-84.25410","name":"Marshalls","address":"USA-Tallahassee","street_number":null,"street_name":"Governors Square Boulevard","zip":"32301","city":"Tallahassee","area":null,"county":"Leon County","state":"Florida","country":"us","formatted_address":"Governors Square Boulevard, Tallahassee, Leon County, Florida, 32301, United States of America","place_id":"83560923","datatype":"locationiq"},{"latitude":"34.10677","longitude":"-117.65379","name":"Marshalls","address":"USA-Ontario","street_number":"82","street_name":"Foothill Boulevard","zip":"91786","city":"Upland","area":null,"county":"San Bernardino County","state":"California","country":"us","formatted_address":"Vons 2681 Fuel Station, 82, Foothill Boulevard, Upland, San Bernardino County, California, 91786, United States of America","place_id":"99662934","datatype":"locationiq"},{"latitude":"32.86567","longitude":"-117.23348","name":"Marshalls","address":"USA-Torrey Pines","street_number":"8665","street_name":"Via Mallorca","zip":"92037","city":"San Diego","area":"La Jolla Colony","county":"San Diego County","state":"California","country":"us","formatted_address":"8665, Via Mallorca, La Jolla Colony, University City, San Diego, San Diego County, California, 92037, United States of America","place_id":"6032395","datatype":"locationiq"},{"latitude":"34.07572","longitude":"-117.55648","name":"Marshalls","address":"USA-Rancho Cucamonga","street_number":null,"street_name":"4th Street","zip":"91730","city":"Ontario","area":null,"county":"San Bernardino County","state":"California","country":"us","formatted_address":"4th Street, Ontario, San Bernardino County, California, 91730, United States of America","place_id":"170583601","datatype":"locationiq"},{"latitude":"26.04324","longitude":"-80.16135","name":"Marshalls","address":"USA-Dania Beach","street_number":null,"street_name":"Oakwood Boulevard","zip":"33020","city":null,"area":null,"county":"Broward County","state":"Florida","country":"us","formatted_address":"Moonlite Diner, Oakwood Boulevard, Hollywood, Broward County, Florida, 33020, United States of America","place_id":"171675972","datatype":"locationiq"},{"latitude":"35.83366","longitude":"-78.58368","name":"Marshalls","address":"USA-Raleigh","street_number":null,"street_name":"Capital Boulevard","zip":"27604","city":"Raleigh","area":null,"county":"Wake County","state":"North Carolina","country":"us","formatted_address":"Capital Boulevard, New Hope Church, Raleigh, Wake County, North Carolina, 27604, United States of America","place_id":"82221629","datatype":"locationiq"},{"latitude":"32.98032","longitude":"-117.07862","name":"Marshalls","address":"USA-Poway","street_number":null,"street_name":"Carmel Mountain Road","zip":"92128","city":"San Diego","area":null,"county":"San Diego County","state":"California","country":"us","formatted_address":"Sleep Train, Carmel Mountain Road, Rancho Bernardo, San Diego, San Diego County, California, 92128, United States of America","place_id":"76745400","datatype":"locationiq"},{"latitude":"30.67576","longitude":"-88.13659","name":"Marshalls","address":"USA-Mobile","street_number":null,"street_name":"Airport Boulevard Service Road","zip":"36609","city":"Mobile","area":null,"county":"Mobile County","state":"Alabama","country":"us","formatted_address":"Guitar Center, Airport Boulevard Service Road, Mobile Festival Center, Mobile, Mobile County, Alabama, 36609, United States of America","place_id":"46717314","datatype":"locationiq"},{"latitude":"25.78289","longitude":"-80.37585","name":"Marshalls","address":"USA-Doral","street_number":null,"street_name":"Northwest 12th Street","zip":"33172","city":null,"area":null,"county":"Miami-Dade County","state":"Florida","country":"us","formatted_address":"Northwest 12th Street, Sweetwater, Lil Abner Mobile Home Park, Miami-Dade County, Florida, 33172, United States of America","place_id":"87744769","datatype":"locationiq"},{"latitude":"33.72698","longitude":"-84.73629","name":"Marshalls","address":"USA-Douglasville","street_number":null,"street_name":"Chapel Hill Road","zip":"30135","city":"Douglasville","area":"Springwood Village","county":"Douglas County","state":"Georgia","country":"us","formatted_address":"Joe's Crab Shack, Chapel Hill Road, Springwood Village, Douglasville, Douglas County, Georgia, 30135, United States of America","place_id":"139938055","datatype":"locationiq"},{"latitude":"30.01176","longitude":"-95.26427","name":"Marshalls","address":"USA-Humble","street_number":null,"street_name":"Eastex Freeway Frontage Road","zip":"77339","city":"Humble","area":null,"county":"Harris County","state":"Texas","country":"us","formatted_address":"Red Lobster, Eastex Freeway Frontage Road, Humble, Harris County, Texas, 77339, United States of America","place_id":"54469685","datatype":"locationiq"},{"latitude":"29.74092","longitude":"-95.46115","name":"Marshalls","address":"USA-Houston","street_number":null,"street_name":"Westheimer Road","zip":"77056","city":null,"area":"Highland Village","county":"Harris County","state":"Texas","country":"us","formatted_address":"Kitchen Design Studio, Westheimer Road, Highland Village, Lamar Terrace, Harris County, Texas, 77056, United States of America","place_id":"59678858","datatype":"locationiq"},{"latitude":"29.68996","longitude":"-95.53418","name":"Marshalls","address":"USA-Houston","street_number":"8498","street_name":"South Gessner Road","zip":"77036","city":null,"area":null,"county":"Harris County","state":"Texas","country":"us","formatted_address":"8498, South Gessner Road, Jeanetta, Harris County, Texas, 77036, United States of America","place_id":"205472866","datatype":"locationiq"},{"latitude":"34.11209","longitude":"-117.76070","name":"Marshalls","address":"USA-La Verne","street_number":"2335","street_name":"Foothill Boulevard","zip":"91750","city":null,"area":null,"county":"Los Angeles County","state":"California","country":"us","formatted_address":"2335, Foothill Boulevard, La Verne, Los Angeles County, California, 91750, United States of America","place_id":"178628190","datatype":"locationiq"},{"latitude":"28.55338","longitude":"-80.84180","name":"Marshalls","address":"USA-Titusville","street_number":null,"street_name":"Columbia Boulevard","zip":"32780","city":"Titusville","area":null,"county":"Brevard County","state":"Florida","country":"us","formatted_address":"Whistle Junction, Columbia Boulevard, Titusville, Brevard County, Florida, 32780, United States of America","place_id":"18115107","datatype":"locationiq"},{"latitude":"35.07276","longitude":"-89.90915","name":"Marshalls","address":"USA-Oakville","street_number":"4561","street_name":"American Way","zip":"38118","city":"Memphis","area":null,"county":"Shelby County","state":"Tennessee","country":"us","formatted_address":"4561, American Way, Memphis, Shelby County, Tennessee, 38118, United States of America","place_id":"204145171","datatype":"locationiq"},{"latitude":"35.91077","longitude":"-84.09235","name":"Marshalls","address":"USA-Woodland Acres","street_number":"9321","street_name":"Kingston Pike","zip":"37922","city":null,"area":null,"county":"Knox County","state":"Tennessee","country":"us","formatted_address":"9321, Kingston Pike, Farragut, Knox County, Tennessee, 37922, United States of America","place_id":"203863777","datatype":"locationiq"},{"latitude":"35.06752","longitude":"-89.75831","name":"Marshalls","address":"USA-Germantown","street_number":"9137","street_name":"Poplar Avenue","zip":"38138","city":"Germantown","area":null,"county":"Shelby County","state":"Tennessee","country":"us","formatted_address":"9137, Poplar Avenue, Germantown, Shelby County, Tennessee, 38138, United States of America","place_id":"204111811","datatype":"locationiq"},{"latitude":"33.46456","longitude":"-84.21930","name":"Marshalls","address":"USA-Flippen","street_number":"1890","street_name":"Jonesboro Road","zip":"30228","city":null,"area":null,"county":"Henry County","state":"Georgia","country":"us","formatted_address":"1890, Jonesboro Road, Mount Carmel Estates, Henry County, Georgia, 30228, United States of America","place_id":"183963371","datatype":"locationiq"},{"latitude":"28.80027","longitude":"-81.33467","name":"Marshalls","address":"USA-Lake Mary","street_number":null,"street_name":"W.P. Ball Boulevard","zip":"32771","city":"Sanford","area":null,"county":"Seminole County","state":"Florida","country":"us","formatted_address":"W.P. Ball Boulevard, Sanford, Seminole County, Florida, 32771, United States of America","place_id":"113711678","datatype":"locationiq"},{"latitude":"35.95104","longitude":"-86.81809","name":"Marshalls","address":"USA-Franklin","street_number":"2006","street_name":"Mallory Lane","zip":"37067","city":"Franklin","area":null,"county":"Williamson County","state":"Tennessee","country":"us","formatted_address":"2006, Mallory Lane, Franklin, Williamson County, Tennessee, 37067, United States of America","place_id":"204278210","datatype":"locationiq"}]