[{"latitude":"39.968319","longitude":"-86.156797","name":"Max & Erma's - Carmel","address":"12195 North Meridian Street, Carmel, IN 46032, United States","street_number":null,"street_name":"Pennsylvania Street","zip":"46032","city":"Carmel","area":null,"county":"Hamilton County","state":"Indiana","country":"us","formatted_address":"Pennsylvania Street, Carmel, Hamilton County, Indiana, 46032, United States of America","place_id":"107671488","datatype":"locationiq"},{"latitude":"39.312515","longitude":"-85.963292","name":"Max & Erma's - Edinburgh","address":"12105 North Executive Dr., Edinburgh, IN 46124","street_number":null,"street_name":"Executive Drive","zip":"47280","city":null,"area":null,"county":"Bartholomew County","state":"Indiana","country":"us","formatted_address":"Max and Erma's, Executive Drive, North Park, Bartholomew County, Indiana, 47280, United States of America","place_id":"57523612","datatype":"locationiq"},{"latitude":"37.972738","longitude":"-87.579946","name":"Max & Erma's - Evansville","address":"421 Northwest Riverside Dr., Evansville, IN 47708","street_number":null,"street_name":null,"zip":"47708","city":"Evansville","area":null,"county":"Vanderburgh County","state":"Indiana","country":"us","formatted_address":"Pigeon Creek Greenway, Evansville, Vanderburgh County, Indiana, 47708, United States of America","place_id":"170945803","datatype":"locationiq"},{"latitude":"42.627650","longitude":"-82.948966","name":"Max & Erma's - Clinton Township \u2022 Partridge Creek","address":"17330 Hall Road, Clinton Township, MI 48038, United States","street_number":null,"street_name":"Hall Road","zip":"48038","city":null,"area":null,"county":"Macomb County","state":"Michigan","country":"us","formatted_address":"Hall Road, Clinton Township, Macomb County, Michigan, 48038, United States of America","place_id":"172889546","datatype":"locationiq"},{"latitude":"42.221546","longitude":"-83.348584","name":"Max & Erma's - Detroit Metro Airport","address":"Detroit Metro Airport, Detroit, MI 48242","street_number":null,"street_name":"William G Rogell Drive","zip":"48242","city":"Romulus","area":null,"county":"Wayne County","state":"Michigan","country":"us","formatted_address":"William G Rogell Drive, Romulus, Wayne County, Michigan, 48242, United States of America","place_id":"62150124","datatype":"locationiq"},{"latitude":"38.781644","longitude":"-90.788745","name":"Max & Erma's - Lake St. Louis","address":"10 Meadows Circle Drive, Lake St. Louis, MO 63367","street_number":null,"street_name":"Meadows Ciricle Drive","zip":"63367","city":"Lake St. Louis","area":null,"county":"St. Charles County","state":"Missouri","country":"us","formatted_address":"Meadows Ciricle Drive, Lake St. Louis, St. Charles County, Missouri, 63367, United States of America","place_id":"148153460","datatype":"locationiq"},{"latitude":"38.797934","longitude":"-90.614864","name":"Max & Erma's - St. Peters","address":"2024 Mid Rivers Mall, St Peters, MO 63376, United States","street_number":null,"street_name":"Mid Rivers Mall","zip":"63376","city":"St. Peters","area":null,"county":"St. Charles County","state":"Missouri","country":"us","formatted_address":"Mid Rivers Mall, St. Peters, St. Charles County, Missouri, 63376, United States of America","place_id":"79726403","datatype":"locationiq"},{"latitude":"33.399661","longitude":"-91.037703","name":"Max & Erma's - Greenville","address":"Trop Casino Greenville, Greenville, MS 38701","street_number":"1200","street_name":"US 82;US 278","zip":"38703","city":null,"area":null,"county":"Washington County","state":"Mississippi","country":"us","formatted_address":"1200, US 82;US 278, Greenville, Washington County, Mississippi, 38703, United States of America","place_id":"193178430","datatype":"locationiq"},{"latitude":"39.345863","longitude":"-82.973201","name":"Max & Erma's - Chillicothe","address":"10 River Trace Drive, Chillicothe, OH 45601","street_number":"18","street_name":"River Trace","zip":"45601","city":"Chillicothe","area":null,"county":"Ross County","state":"Ohio","country":"us","formatted_address":"18, River Trace, Chillicothe, Ross County, Ohio, 45601, United States of America","place_id":"199794662","datatype":"locationiq"},{"latitude":"39.998058","longitude":"-82.883811","name":"Max & Erma's - Columbus Airport","address":"4600 International Gateway, Columbus, OH 43219","street_number":null,"street_name":"Baggage Claim;Passenger Pick-Up","zip":"43213","city":"Columbus","area":null,"county":"Franklin County","state":"Ohio","country":"us","formatted_address":"Ticketing Level, Baggage Claim;Passenger Pick-Up, Columbus, Franklin County, Ohio, 43213, United States of America","place_id":"167141212","datatype":"locationiq"},{"latitude":"39.968665","longitude":"-83.000301","name":"Max & Erma's - Columbus \u2022 On The Boulevard","address":"55 E Nationwide Blvd, Columbus, OH 43215, United States","street_number":null,"street_name":"East Locust Street","zip":"43215","city":"Columbus","area":"Jefferson Avenue Historic District","county":"Franklin County","state":"Ohio","country":"us","formatted_address":"The Lofts Hotel, East Locust Street, Jefferson Avenue Historic District, Columbus, Franklin County, Ohio, 43215, United States of America","place_id":"58719724","datatype":"locationiq"},{"latitude":"39.947228","longitude":"-82.995277","name":"Max & Erma's - Columbus \u2022 German Village","address":"739 South 3rd Street, Columbus, OH 43206, United States","street_number":"93","street_name":"Frankfort Street","zip":"43206","city":"Columbus","area":"Schlee Brewery Historic District","county":"Franklin County","state":"Ohio","country":"us","formatted_address":"93, Frankfort Street, Schlee Brewery Historic District, Columbus, Franklin County, Ohio, 43206, United States of America","place_id":"199129973","datatype":"locationiq"},{"latitude":"39.847560","longitude":"-84.190618","name":"Max & Erma's - Dayton \u2022 Miller Lane","address":"6930 Miller Lane, Dayton, OH 45414, United States","street_number":null,"street_name":"I 75","zip":"45414","city":null,"area":null,"county":"Montgomery County","state":"Ohio","country":"us","formatted_address":"Max & Erma\u2019s, I 75, Miami Villa, Montgomery County, Ohio, 45414, United States of America","place_id":"102744189","datatype":"locationiq"},{"latitude":"40.094853","longitude":"-83.126428","name":"Max & Erma's - Dublin \u2022 Metro Place","address":"411 Metro Place North, Dublin, OH 43017, United States","street_number":"431","street_name":"Metro Place North","zip":"43017","city":"Dublin","area":"Dublin High Street Historic District","county":"Franklin County","state":"Ohio","country":"us","formatted_address":"431, Metro Place North, Dublin High Street Historic District, Dublin, Franklin County, Ohio, 43017, United States of America","place_id":"199145671","datatype":"locationiq"},{"latitude":"40.118985","longitude":"-83.089712","name":"Max & Erma's - Dublin \u2022 Sawmill","address":"7480 Sawmill Rd, Dublin, OH 43016, United States","street_number":null,"street_name":"Leighlinbridge Way","zip":"43016","city":"Columbus","area":null,"county":"Franklin County","state":"Ohio","country":"us","formatted_address":"Max & Erma's, Leighlinbridge Way, Columbus, Franklin County, Ohio, 43016, United States of America","place_id":"171281410","datatype":"locationiq"},{"latitude":"39.389612","longitude":"-84.501324","name":"Max & Erma's - Fairfield Township \u2022 Bridgewater Falls","address":"3411 Princeton Road, Hamilton, Fairfield Township, OH 45011, United States","street_number":"3433","street_name":"Hamilton Princeton Road","zip":"45011","city":null,"area":null,"county":"Butler County","state":"Ohio","country":"us","formatted_address":"3433, Hamilton Princeton Road, Bridgewater Falls, Belmont, Fairfield Township, Butler County, Ohio, 45011, United States of America","place_id":"198852606","datatype":"locationiq"},{"latitude":"41.058010","longitude":"-83.670916","name":"Max & Erma's - Findlay","address":"1107 West Trenton Avenue, Findlay, OH 45840, United States","street_number":null,"street_name":"West Trenton Avenue","zip":"45840-1919","city":"Findlay","area":null,"county":"Hancock County","state":"Ohio","country":"us","formatted_address":"Max & Erma's, West Trenton Avenue, Findlay, Hancock County, Ohio, 45840-1919, United States of America","place_id":"123403583","datatype":"locationiq"},{"latitude":"40.054079","longitude":"-82.864474","name":"Max & Erma's - Gahanna","address":"1317 North Hamilton Rd, Gahanna, OH 43230","street_number":"1367","street_name":"Hamilton Road","zip":"43230","city":"Gahanna","area":null,"county":"Franklin County","state":"Ohio","country":"us","formatted_address":"1367, Hamilton Road, Gahanna, Franklin County, Ohio, 43230, United States of America","place_id":"199119507","datatype":"locationiq"},{"latitude":"40.032074","longitude":"-83.130494","name":"Max & Erma's - Hilliard","address":"4279 Cemetery Rd, Hilliard, OH 43026, United States","street_number":null,"street_name":"Cemetery Road","zip":"43026","city":"Hilliard","area":null,"county":"Franklin County","state":"Ohio","country":"us","formatted_address":"Max & Erma's, Cemetery Road, Hilliard, Franklin County, Ohio, 43026, United States of America","place_id":"77296947","datatype":"locationiq"},{"latitude":"39.742243","longitude":"-82.642313","name":"Max & Erma's - Lancaster","address":"2703 North Memorial Drive, Lancaster, OH 43130, United States","street_number":null,"street_name":"North Memorial Drive","zip":"43130","city":"Lancaster","area":"Lancaster Methodist Episcopal Camp Ground Historic District","county":"Fairfield County","state":"Ohio","country":"us","formatted_address":"North Memorial Drive, Lancaster Methodist Episcopal Camp Ground Historic District, Lancaster, Fairfield County, Ohio, 43130, United States of America","place_id":"70749153","datatype":"locationiq"},{"latitude":"41.580315","longitude":"-83.686447","name":"Max & Erma's - Maumee","address":"1391 Arrowhead Dr., Maumee, OH 43537","street_number":null,"street_name":"West Dussel Drive","zip":"43537","city":"Maumee","area":null,"county":"Lucas County","state":"Ohio","country":"us","formatted_address":"West Dussel Drive, Maumee, Lucas County, Ohio, 43537, United States of America","place_id":"116065576","datatype":"locationiq"},{"latitude":"41.660283","longitude":"-81.358582","name":"Max & Erma's - Mentor","address":"7890 Mentor Ave, Mentor, OH 44060, United States","street_number":null,"street_name":"Mentor Avenue","zip":"44077","city":"Willoughby","area":null,"county":"Lake County","state":"Ohio","country":"us","formatted_address":"Barnes & Noble, Mentor Avenue, Willoughby, Lake County, Ohio, 44077, United States of America","place_id":"58991251","datatype":"locationiq"},{"latitude":"41.374167","longitude":"-81.824079","name":"Max & Erma's - Middleburg Heights","address":"7085 Engle Rd, Middleburg Heights, OH 44130, United States","street_number":"17543","street_name":"Rosbough Boulevard","zip":"44130","city":null,"area":null,"county":"Cuyahoga County","state":"Ohio","country":"us","formatted_address":"17543, Rosbough Boulevard, Middleburg Heights, Cuyahoga County, Ohio, 44130, United States of America","place_id":"198991140","datatype":"locationiq"},{"latitude":"41.526959","longitude":"-83.637648","name":"Max & Erma's - Perrysburg","address":"1210 Levis Commons Blvd, Perrysburg, OH 43551, United States","street_number":null,"street_name":"Brigham Drive","zip":"43551","city":"Perrysburg","area":null,"county":"Wood County","state":"Ohio","country":"us","formatted_address":"Biagis, Brigham Drive, Perrysburg, Wood County, Ohio, 43551, United States of America","place_id":"146706590","datatype":"locationiq"},{"latitude":"39.915180","longitude":"-82.781049","name":"Max & Erma's - Pickerington","address":"1281 Hill Road North, Pickerington, OH 43147, United States","street_number":"1281","street_name":"Hill Road North","zip":"43147","city":"Pickerington","area":null,"county":"Fairfield County","state":"Ohio","country":"us","formatted_address":"Max & Erma's, 1281, Hill Road North, Pickerington, Fairfield County, Ohio, 43147, United States of America","place_id":"45459305","datatype":"locationiq"},{"latitude":"39.986401","longitude":"-82.787378","name":"Max & Erma's - Reynoldsburg \u2022 East Broad","address":"8050 East Broad St., Reynoldsburg, OH 43068","street_number":null,"street_name":"East Broad Street","zip":"43068","city":"Pataskala","area":null,"county":"Franklin County","state":"Ohio","country":"us","formatted_address":"Max & Ermas, East Broad Street, Pataskala, Franklin County, Ohio, 43068, United States of America","place_id":"31413050","datatype":"locationiq"},{"latitude":"39.902524","longitude":"-84.221772","name":"Max & Erma's - Vandalia \u2022 Dayton Airport","address":"Dayton International Airport, Vandalia, OH 45377","street_number":null,"street_name":"Cargo Road","zip":"45377","city":"Dayton","area":null,"county":"Montgomery County","state":"Ohio","country":"us","formatted_address":"Cargo Road, Dayton, Montgomery County, Ohio, 45377, United States of America","place_id":"70827416","datatype":"locationiq"},{"latitude":"40.146418","longitude":"-82.923601","name":"Max & Erma's - Westerville","address":"790 N. State Street, Westerville, OH 43081","street_number":"5912","street_name":"Maxtown Road","zip":"43082","city":"Westerville","area":null,"county":"Delaware County","state":"Ohio","country":"us","formatted_address":"5912, Maxtown Road, Westerville, Delaware County, Ohio, 43082, United States of America","place_id":"199073276","datatype":"locationiq"},{"latitude":"39.523282","longitude":"-83.843934","name":"Max & Erma's - Wilmington","address":"123 Gano Rd, Wilmington, OH 45177, United States","street_number":null,"street_name":"Gano Road","zip":"45177","city":null,"area":null,"county":"Clinton County","state":"Ohio","country":"us","formatted_address":"Gano Road, Lumberton, Clinton County, Ohio, 45177, United States of America","place_id":"70657665","datatype":"locationiq"},{"latitude":"42.065991","longitude":"-80.103867","name":"Max & Erma's - Erie","address":"2078 Interchange Rd, Erie, PA 16509, United States","street_number":"2078","street_name":"Interchange Road","zip":"16509","city":"Millcreek Township","area":null,"county":"Erie County","state":"Pennsylvania","country":"us","formatted_address":"Max & Erma's, 2078, Interchange Road, Millcreek Township, Erie County, Pennsylvania, 16509, United States of America","place_id":"20993790","datatype":"locationiq"},{"latitude":"40.672545","longitude":"-80.097402","name":"Max & Erma's - Mars \u2022 Cranberry","address":"936 Sheraton Dr., Mars, PA 16046","street_number":null,"street_name":"Sheraton Drive","zip":"16046","city":null,"area":null,"county":"Allegheny County","state":"Pennsylvania","country":"us","formatted_address":"Max & Erma's, Sheraton Drive, Marshall Township, Allegheny County, Pennsylvania, 16046, United States of America","place_id":"141568862","datatype":"locationiq"},{"latitude":"40.265189","longitude":"-80.129077","name":"Max & Erma's - McMurray \u2022 Peters Township","address":"4093 Washington Rd, McMurray, PA 15317, United States","street_number":null,"street_name":"Crosswinds Drive","zip":"15317","city":null,"area":null,"county":"Washington County","state":"Pennsylvania","country":"us","formatted_address":"Max & Erma's, Crosswinds Drive, Donaldsons Crossroads, Washington County, Pennsylvania, 15317, United States of America","place_id":"130534803","datatype":"locationiq"},{"latitude":"40.436796","longitude":"-79.757371","name":"Max & Erma's - Monroeville","address":"2740 Mosside Blvd, Monroeville, PA 15146, United States","street_number":"2740","street_name":"Mosside Boulevard","zip":"15146","city":"Monroeville","area":null,"county":"Allegheny County","state":"Pennsylvania","country":"us","formatted_address":"Max & Erma's, 2740, Mosside Boulevard, Monroeville, Allegheny County, Pennsylvania, 15146, United States of America","place_id":"26368269","datatype":"locationiq"},{"latitude":"40.451744","longitude":"-80.175819","name":"Max & Erma's - Pittsburgh \u2022 Parkway West","address":"130 Andrew Drive, Pittsburgh, PA 15275-1200","street_number":null,"street_name":"Airport Parkway","zip":"15275","city":null,"area":null,"county":"Allegheny County","state":"Pennsylvania","country":"us","formatted_address":"Max & Erma's, Airport Parkway, Robinson Township, Allegheny County, Pennsylvania, 15275, United States of America","place_id":"26145961","datatype":"locationiq"},{"latitude":"40.188665","longitude":"-80.218735","name":"Max & Erma's - Washington","address":"373 Washington Road, Washington, PA 15301, United States","street_number":null,"street_name":"Washington Road","zip":"15301","city":null,"area":null,"county":"Washington County","state":"Pennsylvania","country":"us","formatted_address":"Max & Erma's, Washington Road, Manifold, Washington County, Pennsylvania, 15301, United States of America","place_id":"26471619","datatype":"locationiq"},{"latitude":"45.473189","longitude":"-98.502410","name":"Max & Erma's - Aberdeen","address":"715 N 10th St, Aberdeen, SD 57401, United States","street_number":null,"street_name":"Old US Highway 281","zip":"57401","city":"Aberdeen","area":null,"county":"Brown County","state":"South Dakota","country":"us","formatted_address":"Max & Erma's, Old US Highway 281, Aberdeen, Brown County, South Dakota, 57401, United States of America","place_id":"27183426","datatype":"locationiq"},{"latitude":"36.875844","longitude":"-76.209388","name":"Max & Erma's - Norfolk","address":"1500 N Military Hwy, Norfolk, VA 23502, United States","street_number":"1500","street_name":"North Military Highway","zip":"23502","city":"Norfolk","area":"Miller Heights","county":null,"state":"Virginia","country":"us","formatted_address":"1500, North Military Highway, Miller Heights, Janaf, Lansdale, Norfolk, Virginia, 23502, United States of America","place_id":"158458089","datatype":"locationiq"},{"latitude":"36.844981","longitude":"-75.992120","name":"Max & Erma's - Virginia Beach \u2022 Doubletree Hotel","address":"1900 Pavilion Drive, Virginia Beach, VA 23451, United States","street_number":"1900","street_name":"Pavilion Drive","zip":"23451","city":"Virginia Beach","area":"Lake View","county":null,"state":"Virginia","country":"us","formatted_address":"Double Tree Hotel, 1900, Pavilion Drive, Lake View, Virginia Beach, Virginia, 23451, United States of America","place_id":"157577664","datatype":"locationiq"},{"latitude":"38.423048","longitude":"-82.443637","name":"Max & Erma's - Huntington","address":"16 Pullman Square, Huntington, WV 25701","street_number":"51","street_name":"Pullman Square","zip":"25701","city":"Huntington","area":null,"county":"Cabell County","state":"West Virginia","country":"us","formatted_address":"T. K. Dodrill Jewelers Inc., 51, Pullman Square, Huntington, Cabell County, West Virginia, 25701, United States of America","place_id":"57181982","datatype":"locationiq"},{"latitude":"39.053275","longitude":"-84.663017","name":"Max & Erma's - Hebron \u2022 Cincinnati Airport","address":"Northern Kentucky International Airport, 2939 Terminal Dr, Hebron, KY 41048","street_number":null,"street_name":"Terminal Drive","zip":null,"city":null,"area":null,"county":"Boone County","state":"Kentucky","country":"us","formatted_address":"Terminal Drive, Constance, Boone County, Kentucky, United States of America","place_id":"121519541","datatype":"locationiq"}]