[{"latitude":"33.388081","longitude":"-86.99504","name":"Water Mark Place","address":"4665 Visionland Parkway, Space 670, Bessemer AL  35020 (205) 424-4582","street_number":null,"street_name":"Vision Land Parkway","zip":"35020","city":"Bessemer","area":"Smith Highlands","county":"Jefferson County","state":"Alabama","country":"us","formatted_address":"Vision Land Parkway, Smith Highlands, Bessemer, Jefferson County, Alabama, 35020, United States of America","place_id":"86869593","datatype":"locationiq"},{"latitude":"34.198196","longitude":"-86.156786","name":"Tanger Outlet Center","address":"214 South McClesky, Suite 847,  Boaz AL   US 35957 (256) 593-2072","street_number":null,"street_name":"South McCleskey Street","zip":"35957","city":"Boaz","area":null,"county":"Marshall County","state":"Alabama","country":"us","formatted_address":"South McCleskey Street, Boaz, Marshall County, Alabama, 35957, United States of America","place_id":"63946355","datatype":"locationiq"},{"latitude":"30.379362","longitude":"-87.68294","name":"Riviera Centre Factory Stores","address":"2601 South McKenzie Street, Suite A-1, Foley, AL 36535 (251) 943-4951","street_number":null,"street_name":"Riviera Boulevard","zip":"36535","city":"Foley","area":null,"county":"Baldwin County","state":"Alabama","country":"us","formatted_address":"BanCorp South, Riviera Boulevard, Foley, Baldwin County, Alabama, 36535, United States of America","place_id":"20202739","datatype":"locationiq"},{"latitude":"32.83554","longitude":"-111.68936","name":"Tanger Outlet Center","address":"300 East Tanger Drive, Building A, Suite 118, Casa Grande, AZ 85222 (520) 421-1232","street_number":null,"street_name":"East Tanger Drive","zip":"85222","city":"Casa Grande","area":null,"county":"Pinal County","state":"Arizona","country":"us","formatted_address":"East Tanger Drive, Casa Grande, Pinal County, Arizona, 85222, United States of America","place_id":"69245032","datatype":"locationiq"},{"latitude":"33.871337","longitude":"-112.151559","name":"Outlets at Anthem","address":"4250 West Anthem Way, Suite 645, Phoenix AZ 85086 (623) 465-9591","street_number":"4266","street_name":"West Anthem Way","zip":"85087","city":"Phoenix","area":null,"county":"Maricopa County","state":"Arizona","country":"us","formatted_address":"4266, West Anthem Way, Rio Vista, Phoenix, Maricopa County, Arizona, 85087, United States of America","place_id":"85276422","datatype":"locationiq"},{"latitude":"33.384741","longitude":"-111.966865","name":"Arizona Mills","address":"5000 Arizona Mills Circle, Suite 314, Tempe AZ 85282 (480) 456-2083","street_number":null,"street_name":"East Maricopa Freeway","zip":"85283","city":null,"area":null,"county":"Maricopa County","state":"Arizona","country":"us","formatted_address":"154, East Maricopa Freeway, Ahwatukee, The Pointe at South Mountain, Maricopa County, Arizona, 85283, United States of America","place_id":"216219","datatype":"locationiq"},{"latitude":"32.840837","longitude":"-116.706859","name":"Viejas Outlet Center","address":"5001 Willows Road, Suite 111, Alpine CA 91901 (619) 659-5055","street_number":"5101","street_name":"Willows Road","zip":"91903","city":null,"area":null,"county":"San Diego County","state":"California","country":"us","formatted_address":"5101, Willows Road, The Willows, San Diego County, California, 91903, United States of America","place_id":"179785666","datatype":"locationiq"},{"latitude":"33.927539","longitude":"-116.814552","name":"Desert Hills Premium Outlets","address":"48650 Seminole Road, Suite E-184, Cabazon CA 92230 (909) 849-3883","street_number":"49040","street_name":"Seminole Drive","zip":"92230","city":null,"area":null,"county":"Riverside County","state":"California","country":"us","formatted_address":"49040, Seminole Drive, Cabazon, Riverside County, California, 92230, United States of America","place_id":"179444633","datatype":"locationiq"},{"latitude":"34.217873","longitude":"-119.060576","name":"Camarillo Factory Outlet Center","address":"740 Ventura Boulevard, Suite 436, Camarillo, CA   US 93010 (805) 445-1116","street_number":"778","street_name":"East Ventura Boulevard","zip":"93010","city":"Camarillo","area":null,"county":"Ventura County","state":"California","country":"us","formatted_address":"778, East Ventura Boulevard, Camarillo, Ventura County, California, 93010, United States of America","place_id":"180502175","datatype":"locationiq"},{"latitude":"33.126991","longitude":"-117.322983","name":"Carlsbad Company Store","address":"5600 Paseo Del Norte, Suite 107, Carlsbad, CA 92008 (760) 804-1637","street_number":null,"street_name":"Paseo del Norte","zip":"92009-1114","city":"Carlsbad","area":null,"county":"San Diego County","state":"California","country":"us","formatted_address":"Paseo del Norte, Carlsbad, San Diego County, California, 92009-1114, United States of America","place_id":"154950726","datatype":"locationiq"},{"latitude":"34.004992","longitude":"-118.152976","name":"Citadel Outlets","address":"100 Citadel Drive, Suite 422, Commerce, CA 90040 (323) 727-6780","street_number":null,"street_name":null,"zip":"90040","city":null,"area":null,"county":"Los Angeles County","state":"California","country":"us","formatted_address":"Panda Express, Food Court, The Citadel Outlet Mall, Commerce, Los Angeles County, California, 90040, United States of America","place_id":"45860728","datatype":"locationiq"},{"latitude":"38.644324","longitude":"-121.190652","name":"Folsom Premium Outlets","address":"13000 Folsom Boulevard, Suite 1530, Folsom CA 95630 (916) 985-4406","street_number":null,"street_name":"Folsom Boulevard","zip":"95662","city":"Folsom","area":null,"county":"Sacramento County","state":"California","country":"us","formatted_address":"Folsom Boulevard, Folsom, Sacramento County, California, 95662, United States of America","place_id":"87304635","datatype":"locationiq"},{"latitude":"37.023103","longitude":"-121.562615","name":"Gilroy Premium Outlets","address":"8300 Arroyo Circle, Suite A400, Gilroy, CA 95020 (408) 842-3280","street_number":"8390","street_name":"Arroyo Circle","zip":"95020","city":"Gilroy","area":null,"county":"Santa Clara County","state":"California","country":"us","formatted_address":"McDonald\u2019s, 8390, Arroyo Circle, Gilroy, Santa Clara County, California, 95020, United States of America","place_id":"80073161","datatype":"locationiq"},{"latitude":"33.701711","longitude":"-117.354266","name":"Lake Elsinore Outlet Center","address":"17600 Collier Avenue, Suite #H-185, Lake Elsinore, CA 92530 (951) 245-9900","street_number":null,"street_name":"Collier Avenue","zip":"92330","city":null,"area":null,"county":"Riverside County","state":"California","country":"us","formatted_address":"Collier Avenue, Terra Cotta, Lake Elsinore, Riverside County, California, 92330, United States of America","place_id":"142044713","datatype":"locationiq"},{"latitude":"37.412386","longitude":"-121.896753","name":"Great Mall of the Bay Area","address":"292 Great Mall Drive, Milpitas, CA 95035 (408) 719-8957","street_number":"882","street_name":"Great Mall Drive","zip":"95035","city":"Milpitas","area":null,"county":"Santa Clara County","state":"California","country":"us","formatted_address":"882, Great Mall Drive, Great Mall, Milpitas, Santa Clara County, California, 95035, United States of America","place_id":"180206302","datatype":"locationiq"},{"latitude":"34.072037","longitude":"-117.556233","name":"Ontario Mills","address":"1 Mills Circle, Space 708, Ontario, CA 91764 (909) 987-5966","street_number":null,"street_name":"Mall Drive","zip":"91730","city":"Ontario","area":null,"county":"San Bernardino County","state":"California","country":"us","formatted_address":"Mall Drive, Ontario, San Bernardino County, California, 91730, United States of America","place_id":"98103880","datatype":"locationiq"},{"latitude":"38.255394","longitude":"-122.651499","name":"Petaluma Village Premium Outlets","address":"2200 N. Petaluma Boulevard, Suite 700, Petaluma, CA 94952 (707) 766-8113","street_number":null,"street_name":"Petaluma Boulevard North","zip":"94952","city":"Petaluma","area":"East Petaluma","county":"Sonoma County","state":"California","country":"us","formatted_address":"Petaluma Boulevard North, East Petaluma, Petaluma, Sonoma County, California, 94952, United States of America","place_id":"64518162","datatype":"locationiq"},{"latitude":"35.136708","longitude":"-120.629006","name":"Prime Outlets at Pismo Beach","address":"333 Five Cities Drive, Suite 130, Pismo Beach CA 93449 (805) 773-6064","street_number":null,"street_name":"Five Cities Drive","zip":"93449","city":"Pismo Beach","area":null,"county":"San Luis Obispo County","state":"California","country":"us","formatted_address":"Nike Factory Store, Five Cities Drive, Pismo Beach, San Luis Obispo County, California, 93449, United States of America","place_id":"106700520","datatype":"locationiq"},{"latitude":"32.545537","longitude":"-117.039485","name":"San Diego Factory Outlet Center","address":"4460 Camino De La Plaza, San Ysidro, CA 92173 (619) 690-2255","street_number":"4410","street_name":"Camino de la Plaza","zip":"92173","city":"San Diego","area":"Park Haven","county":"San Diego County","state":"California","country":"us","formatted_address":"4410, Camino de la Plaza, Park Haven, San Ysidro, San Diego, San Diego County, California, 92173, United States of America","place_id":"76370421","datatype":"locationiq"},{"latitude":"37.7615","longitude":"-121.414341","name":"Prime Outlets of Tracy","address":"1005 Pescadero Avenue, Suite 157, Tracy, CA 95304 (209) 833-7460","street_number":"3400","street_name":"North Macarthur Drive","zip":"95376","city":"Tracy","area":null,"county":"San Joaquin County","state":"California","country":"us","formatted_address":"Chevron, 3400, North Macarthur Drive, Tracy, San Joaquin County, California, 95376, United States of America","place_id":"27445153","datatype":"locationiq"},{"latitude":"36.2021","longitude":"-119.347","name":"Preferred Outlets at Tulare","address":"1517 Horizon Drive, Space C-30, Tulare, CA 93274 (559) 687-0987","street_number":"532","street_name":"South I Street","zip":"93274","city":null,"area":null,"county":"Tulare County","state":"California","country":"us","formatted_address":"532, South I Street, Tulare, Tulare County, California, 93274, United States of America","place_id":"180447027","datatype":"locationiq"},{"latitude":"38.348","longitude":"-121.9538","name":"Factory Stores at Vacaville","address":"101-A Nut Tree Road, Vacaville CA 95687 (707) 446-9275","street_number":"318","street_name":"Kent Way","zip":"95687","city":"Vacaville","area":"Leisure Town","county":"Solano County","state":"California","country":"us","formatted_address":"318, Kent Way, Leisure Town, Vacaville, Solano County, California, 95687, United States of America","place_id":"180315404","datatype":"locationiq"},{"latitude":"39.413831","longitude":"-104.874976","name":"The Outlets at Castle Rock","address":"5050 Factory Shops Boulevard, Store #900, Castle Rock, CO 80104 (303) 660-3378","street_number":null,"street_name":"Factory Shops Boulevard","zip":"80108","city":null,"area":null,"county":"Douglas County","state":"Colorado","country":"us","formatted_address":"Factory Shops Boulevard, Castle Rock, Douglas County, Colorado, 80108, United States of America","place_id":"65960015","datatype":"locationiq"},{"latitude":"40.411136","longitude":"-104.994437","name":"The Outlets at Loveland","address":"5753 McWhinney Boulevard, Suite A-360, Loveland, CO 80538 (970) 635-9963","street_number":"5885","street_name":"McWhinney Boulevard","zip":"80538","city":"Loveland","area":null,"county":"Larimer County","state":"Colorado","country":"us","formatted_address":"5885, McWhinney Boulevard, Loveland, Larimer County, Colorado, 80538, United States of America","place_id":"180966877","datatype":"locationiq"},{"latitude":"39.7277","longitude":"-106.1576","name":"Outlets at Silverthorne","address":"309 L Rainbow Drive, P.O. Box 2600, Silverthorne, CO 80498 (970) 468-4804","street_number":null,"street_name":"County Road 1351","zip":"80498","city":null,"area":null,"county":"Summit County","state":"Colorado","country":"us","formatted_address":"County Road 1351, Summit County, Colorado, 80498, United States of America","place_id":"69511144","datatype":"locationiq"},{"latitude":"41.289998","longitude":"-72.441987","name":"Westbrook Factory Stores","address":"314 Flat Rock Place, Suite C100, Westbrook, CT 06498 (860) 399-0215","street_number":"150","street_name":"Flat Rock Place","zip":"06498","city":null,"area":null,"county":"Middlesex County","state":"Connecticut","country":"us","formatted_address":"150, Flat Rock Place, Westbrook, Middlesex County, Connecticut, 06498, United States of America","place_id":"181359799","datatype":"locationiq"},{"latitude":"41.248002","longitude":"-73.024955","name":"Milford Marketplace","address":"1672 Boston Post Road, Milford, CT 06460 (203) 783-9014 ","street_number":null,"street_name":"Boston Post Road","zip":"06477","city":null,"area":null,"county":"New Haven County","state":"Connecticut","country":"us","formatted_address":"Whole Foods, Boston Post Road, Orange, New Haven County, Connecticut, 06477, United States of America","place_id":"42871193","datatype":"locationiq"},{"latitude":"38.7192","longitude":"-75.11566","name":"Rehoboth Outlets","address":"36470 Seaside Outlet Drive, Suite 1640, Rehoboth Beach, DE 19971 (302) 227-4787","street_number":null,"street_name":"Coastal Highway","zip":"19971","city":null,"area":"Rehoboth Crossing","county":"Sussex County","state":"Delaware","country":"us","formatted_address":"Coastal Highway, Rehoboth Crossing, Midway, Sussex County, Delaware, 19971, United States of America","place_id":"126069940","datatype":"locationiq"},{"latitude":"30.377991","longitude":"-86.350869","name":"Silver Sands Factory Stores","address":"10676 West Emerald Coast Pkwy., #130, Destin, FL 32550 (850) 654-8860","street_number":"10568","street_name":"Emerald Coast Parkway West","zip":"32550","city":null,"area":null,"county":"Walton County","state":"Florida","country":"us","formatted_address":"10568, Emerald Coast Parkway West, Tang-O-Mar Beach, Walton County, Florida, 32550, United States of America","place_id":"183297902","datatype":"locationiq"},{"latitude":"27.534","longitude":"-82.5032","name":"Prim Outlets at Ellenton","address":"5455 Factory Shops Boulevard, Ellenton, FL US 34222 (941) 723-1511","street_number":null,"street_name":"Memphis Road","zip":"34222","city":null,"area":null,"county":"Manatee County","state":"Florida","country":"us","formatted_address":"Memphis Road, Fullers Earth, Manatee County, Florida, 34222, United States of America","place_id":"100050136","datatype":"locationiq"},{"latitude":"26.435376","longitude":"-81.772208","name":"Miromar Outlets","address":"10801 Corkscrew Road, Suite 101, Estero, FL 33928 (239) 992-6131","street_number":null,"street_name":"Corkscrew Road","zip":"33928","city":null,"area":"The Estates at Estero River","county":"Lee County","state":"Florida","country":"us","formatted_address":"Corkscrew Road, The Estates at Estero River, San Carlos Park, Estero, Lee County, Florida, 33928, United States of America","place_id":"87513110","datatype":"locationiq"},{"latitude":"25.448136","longitude":"-80.47275","name":"Prime Outlets at Florida City","address":"250 East Palm Drive, Suite 200, Florida City, FL 33034 (305) 248-7100","street_number":null,"street_name":"East Palm Drive","zip":"33034","city":null,"area":null,"county":"Miami-Dade County","state":"Florida","country":"us","formatted_address":"East Palm Drive, Florida City, Miami-Dade County, Florida, 33034, United States of America","place_id":"108412142","datatype":"locationiq"},{"latitude":"26.493837","longitude":"-81.971604","name":"Tanger Factory Outlet - Sanibel","address":"20350 Summerlin Road, Suite 2130, Fort Myers, FL 33908 (239) 432-9589","street_number":null,"street_name":"Summerlin Road","zip":"33908","city":null,"area":"The Estuary at Shell Point","county":"Lee County","state":"Florida","country":"us","formatted_address":"Summerlin Road, The Estuary at Shell Point, Palmetto Palms, Lee County, Florida, 33908, United States of America","place_id":"105429901","datatype":"locationiq"},{"latitude":"25.7829","longitude":"-80.376825","name":"Dolphin Mall","address":"11401 NW 12th Street, Space #436, Miami, FL 33172 (786) 336-8738","street_number":null,"street_name":"Northwest 12th Street","zip":"33172","city":null,"area":null,"county":"Miami-Dade County","state":"Florida","country":"us","formatted_address":"Northwest 12th Street, Sweetwater, Lil Abner Mobile Home Park, Miami-Dade County, Florida, 33172, United States of America","place_id":"87744769","datatype":"locationiq"},{"latitude":"28.474299","longitude":"-81.449528","name":"Prime Outlets at Orlando","address":"4967 International Drive, 3A.25, Orlando, FL 32819 (407) 352-6414 ","street_number":null,"street_name":"Oak Ridge Road","zip":"32811","city":"Orlando","area":"Florida Center","county":"Orange County","state":"Florida","country":"us","formatted_address":"Oak Ridge Road, Florida Center, Orlando, Orange County, Florida, 32811, United States of America","place_id":"85851876","datatype":"locationiq"},{"latitude":"28.385939","longitude":"-81.495953","name":"Orlando Premium Outlets","address":"8200 Vineland Avenue, Suite 820, Orlando, FL 32821 (407) 239-4666","street_number":"8330","street_name":"Vineland Avenue","zip":"32821","city":"Orlando","area":null,"county":"Orange County","state":"Florida","country":"us","formatted_address":"8330, Vineland Avenue, Orlando, Orange County, Florida, 32821, United States of America","place_id":"182717365","datatype":"locationiq"},{"latitude":"28.347949","longitude":"-81.488139","name":"Lake Buena Vista Factory Outlets","address":"15795 S. Apopka Vineland Road, Orlando, FL 32821 (407) 239-6252","street_number":null,"street_name":"Kissimmee Vineland Road","zip":"32821-5616","city":"Orlando","area":null,"county":"Orange County","state":"Florida","country":"us","formatted_address":"Kissimmee Vineland Road, Orlando, Orange County, Florida, 32821-5616, United States of America","place_id":"81322401","datatype":"locationiq"},{"latitude":"29.957","longitude":"-81.5147","name":"St Augustine Premium Outlets","address":"2700 SR16, Suite 505, St. Augustine, FL 32092 (904) 829-8923","street_number":null,"street_name":"Oakgrove Avenue","zip":"32092","city":null,"area":null,"county":"St. Johns County","state":"Florida","country":"us","formatted_address":"Oakgrove Avenue, Wards Creek, St. Johns County, Florida, 32092, United States of America","place_id":"143289798","datatype":"locationiq"},{"latitude":"26.144737","longitude":"-80.322152","name":"Sawgrass Mills","address":"12801 West Sunrise Boulevard, Suite 875, Sunrise, FL 33323 (954) 846-7953","street_number":"13269","street_name":"West Sunrise Boulevard","zip":"33323","city":null,"area":null,"county":"Broward County","state":"Florida","country":"us","formatted_address":"13269, West Sunrise Boulevard, Sunrise, Broward County, Florida, 33323, United States of America","place_id":"181770239","datatype":"locationiq"},{"latitude":"27.635557","longitude":"-80.5205","name":"Prime Outlets at Vero Beach","address":"1665 94th Drive, Vero Beach, FL 32966 (772) 794-2280","street_number":"1846","street_name":"94th Drive","zip":"32966","city":null,"area":null,"county":"Indian River County","state":"Florida","country":"us","formatted_address":"1846, 94th Drive, West Vero Corridor, Indian River County, Florida, 32966, United States of America","place_id":"182208234","datatype":"locationiq"},{"latitude":"34.458651","longitude":"-84.916406","name":"Prime Outlets Calhoun","address":"455 Belwood Road, Suite 47, Calhoun, GA 30701 706-624-3608","street_number":"506","street_name":"Belwood Road","zip":"30701","city":null,"area":null,"county":"Gordon County","state":"Georgia","country":"us","formatted_address":"506, Belwood Road, Calhoun, Gordon County, Georgia, 30701, United States of America","place_id":"183835195","datatype":"locationiq"},{"latitude":"32.546808","longitude":"-84.94249","name":"Columbus Park Crossing","address":"5555 Whittlesey Boulevard, Suite 2001, Columbus, GA 31909 (706) 494-8909","street_number":null,"street_name":"Whittlesey Road","zip":"31909","city":"Columbus","area":"Sunshine Acres","county":"Muscogee County","state":"Georgia","country":"us","formatted_address":"Whittlesey Road, Sunshine Acres, Columbus, Muscogee County, Georgia, 31909, United States of America","place_id":"152959480","datatype":"locationiq"},{"latitude":"34.257472","longitude":"-83.465884","name":"Tanger Outlet Center-Commerce","address":"800 Steven B. Tanger Blvd, Suite 505, Commerce, GA 30529 (706) 336-8474","street_number":null,"street_name":"Steven Tanger Boulevard","zip":"30529","city":null,"area":null,"county":"Banks County","state":"Georgia","country":"us","formatted_address":"Sonic Drive In, Steven Tanger Boulevard, Banks Crossing, Banks County, Georgia, 30529, United States of America","place_id":"9306820","datatype":"locationiq"},{"latitude":"34.758987","longitude":"-84.999557","name":"Market Street Shops of Dalton","address":"1001 Market Street, Suite 1, Dalton, GA 30720 706-226-2717","street_number":"1001","street_name":"Market Street","zip":"30720","city":null,"area":null,"county":"Whitfield County","state":"Georgia","country":"us","formatted_address":"1001, Market Street, Dalton, Whitfield County, Georgia, 30720, United States of America","place_id":"184312753","datatype":"locationiq"},{"latitude":"34.359031","longitude":"-84.04373","name":"North Georgia Premium Outlets","address":"800 Hwy. 400 South, Suite 100, Dawsonville, GA 30534 (706) 216-2294","street_number":null,"street_name":"US 19; GA 400","zip":"30534","city":null,"area":null,"county":"Dawson County","state":"Georgia","country":"us","formatted_address":"Dunkin' Donuts, US 19; GA 400, Daswonville GA 400 Commercial Corridor, Lumpkin, Dawson County, Georgia, 30534, United States of America","place_id":"34184125","datatype":"locationiq"},{"latitude":"33.984978","longitude":"-84.078715","name":"Discover Mills","address":"5900 Sugarloaf Parkway, Space 578, Lawrenceville, GA 30043 (678) 847-5450","street_number":null,"street_name":"Sugarloaf Parkway","zip":"3097","city":null,"area":"Purcell Valley","county":"Gwinnett County","state":"Georgia","country":"us","formatted_address":"Sugarloaf Parkway, Purcell Valley, Rambling Woods, Gwinnett County, Georgia, 3097, United States of America","place_id":"132851944","datatype":"locationiq"},{"latitude":"33.351838","longitude":"-84.121462","name":"Tanger Outlet Center-Locust Grove","address":"1000 Tanger Drive, Suite 314, Locust Grove, GA 30248 (770) 914-7423","street_number":"279","street_name":"Tanger Boulevard","zip":"30248","city":"Locust Grove","area":null,"county":"Henry County","state":"Georgia","country":"us","formatted_address":"279, Tanger Boulevard, Locust Grove, Henry County, Georgia, 30248, United States of America","place_id":"183961161","datatype":"locationiq"},{"latitude":"32.0009","longitude":"-81.28346","name":"Savannah Festival Factory Stores","address":"11 Gateway Boulevard South, Suite 50, Savannah, GA 31419 (912) 927-1801","street_number":"11","street_name":"Gateway Boulevard South","zip":"31419","city":"Savannah","area":null,"county":"Chatham County","state":"Georgia","country":"us","formatted_address":"11, Gateway Boulevard South, Savannah, Chatham County, Georgia, 31419, United States of America","place_id":"183443315","datatype":"locationiq"},{"latitude":"21.400878","longitude":"-158.008243","name":"Waikele Premium Outlets","address":"94-792 Lumiaina Street, Suite 210, Waipahu, HI 96797 (808) 678-2773","street_number":null,"street_name":"Lumiana Street","zip":"96797","city":"Waipahu","area":"Waikele","county":"Honolulu County","state":"Hawaii","country":"us","formatted_address":"Lumiana Street, Waikele, Crestview, Waipahu, Honolulu County, Hawaii, 96797, United States of America","place_id":"99767062","datatype":"locationiq"},{"latitude":"41.6765","longitude":"-92.0076","name":"Tanger Outlet Center-Williamsburg","address":"130 Tanger Drive, Suite 130, Williamsburg, IA 52361 (319) 668-8092","street_number":null,"street_name":"Karen Drive","zip":"52361","city":null,"area":null,"county":"Iowa County","state":"Iowa","country":"us","formatted_address":"Karen Drive, Williamsburg, Iowa County, Iowa, 52361, United States of America","place_id":"68727240","datatype":"locationiq"},{"latitude":"43.541054","longitude":"-116.164515","name":"Boise Factory Outlets","address":"6890 Eisenman Road, Boise, ID 83716 208-336-9888","street_number":"6766","street_name":"South Eisenman Road","zip":"83716","city":"Boise City","area":null,"county":"Ada County","state":"Idaho","country":"us","formatted_address":"6766, South Eisenman Road, Boise City, Ada County, Idaho, 83716, United States of America","place_id":"184391352","datatype":"locationiq"},{"latitude":"41.799923","longitude":"-88.276981","name":"Chicago Premium Outlets","address":"1650 Premium Outlets Blvd, Suite 115, Aurora, IL 60504 630-236-0000","street_number":null,"street_name":"Premium Outlets Boulevard","zip":"60502","city":"Aurora","area":null,"county":"Kane County","state":"Illinois","country":"us","formatted_address":"Premium Outlets Boulevard, Chicago Premium Outlets, Aurora, Kane County, Illinois, 60502, United States of America","place_id":"101231842","datatype":"locationiq"},{"latitude":"42.383596","longitude":"-87.955671","name":"Gurnee Mills","address":"6170 W. Grand Avenue, Space 573, Gurnee, IL 60031 (847) 856-8172","street_number":"6308","street_name":"Grand Avenue","zip":"60031","city":null,"area":null,"county":"Lake County","state":"Illinois","country":"us","formatted_address":"6308, Grand Avenue, Gurnee Mills Mall, Gurnee, Lake County, Illinois, 60031, United States of America","place_id":"185330976","datatype":"locationiq"},{"latitude":"42.0668","longitude":"-88.1928","name":"Poplar Creek Crossing","address":"2660 North Sutton Road, Hoffman Estates, IL 60192 (847) 645-0593","street_number":null,"street_name":"New Sutton Road","zip":"60125","city":null,"area":null,"county":"Cook County","state":"Illinois","country":"us","formatted_address":"New Sutton Road, Hoffman Estates, Cook County, Illinois, 60125, United States of America","place_id":"87536300","datatype":"locationiq"},{"latitude":"42.122932","longitude":"-88.426697","name":"Huntley Factory Shops","address":"11800 Factory Shops Blvd., Space 570, Huntley, IL 60142 847-669-8091","street_number":"11800","street_name":"Factory Shops Boulevard","zip":"60142","city":null,"area":null,"county":"Kane County","state":"Illinois","country":"us","formatted_address":"Huntley Outlet Center, 11800, Factory Shops Boulevard, Huntley, Kane County, Illinois, 60142, United States of America","place_id":"55838653","datatype":"locationiq"},{"latitude":"39.7964","longitude":"-88.2876","name":"Tanger Outlet Center-Tuscola","address":"D1300 Tuscola Boulevard, P.O. Box 4056, Tuscola, IL 61953 (217) 253-3349","street_number":"379","street_name":"South Main Street","zip":"61953","city":"Tuscola","area":null,"county":"Douglas County","state":"Illinois","country":"us","formatted_address":"379, South Main Street, Tuscola, Douglas County, Illinois, 61953, United States of America","place_id":"185053665","datatype":"locationiq"},{"latitude":"39.3338","longitude":"-85.9623","name":"Edinburgh Premium Outlets","address":"3080 Outlet Drive, Suite F90, Edinburgh, IN 46124 (812) 526-9505","street_number":"14665","street_name":"County Road 250 West","zip":"46124","city":null,"area":null,"county":"Bartholomew County","state":"Indiana","country":"us","formatted_address":"14665, County Road 250 West, Edinburgh, Bartholomew County, Indiana, 46124, United States of America","place_id":"186028055","datatype":"locationiq"},{"latitude":"41.733639","longitude":"-85.002384","name":"Prime Outlets at Fremont","address":"6245 North Old 27, Suite B-60, Fremont, IN 46737 (260) 833-3627","street_number":null,"street_name":"North Old US 27","zip":"46737","city":null,"area":null,"county":"Steuben County","state":"Indiana","country":"us","formatted_address":"North Old US 27, Jamestown, Steuben County, Indiana, 46737, United States of America","place_id":"85821187","datatype":"locationiq"},{"latitude":"41.7123","longitude":"-86.9053","name":"Lighthouse Place Premium Outlets","address":"1710 Lighthouse Place, Michigan City, IN 46360 (219) 878-0942","street_number":null,"street_name":"West 8th Street","zip":"46360","city":"Michigan City","area":null,"county":"LaPorte County","state":"Indiana","country":"us","formatted_address":"Columbia Sportswear Outlet Store, West 8th Street, Michigan City, LaPorte County, Indiana, 46360, United States of America","place_id":"173737582","datatype":"locationiq"},{"latitude":"39.086","longitude":"-94.7905","name":"The Legends at Village West","address":"1813 Village West Parkway, #Q118, Kansas City, KS 66111 913-299-9047","street_number":null,"street_name":"Kansas Avenue","zip":"66111","city":"Edwardsville","area":null,"county":"Wyandotte County","state":"Kansas","country":"us","formatted_address":"Kansas Avenue, Edwardsville, Wyandotte County, Kansas, 66111, United States of America","place_id":"91297567","datatype":"locationiq"},{"latitude":"32.5209","longitude":"-93.7357","name":"Louisiana Boardwalk","address":"435 Boardwalk Blvd, Bldg K, Bossier City, LA 71111 (318) 549-9287","street_number":"402","street_name":"East Texas Street","zip":"71111","city":"Bossier City","area":null,"county":"Bossier Parish","state":"Louisiana","country":"us","formatted_address":"402, East Texas Street, Bossier City, Bossier Parish, Louisiana, 71111, United States of America","place_id":"188885029","datatype":"locationiq"},{"latitude":"30.214843","longitude":"-90.951449","name":"Tanger Outlet Gonzales","address":"2400 Tanger Boulevard, Suite 151, Gonzales, LA 70737 (225) 647-2926","street_number":null,"street_name":"I 10","zip":"70734","city":null,"area":null,"county":"Ascension Parish","state":"Louisiana","country":"us","formatted_address":"I 10, Gonzales, Ascension Parish, Louisiana, 70734, United States of America","place_id":"162556306","datatype":"locationiq"},{"latitude":"42.297125","longitude":"-73.234515","name":"Prime Outlets at Lee","address":"50 Water Street, Space E220, Lee, MA 01238 (413) 243-4761","street_number":"194","street_name":"US 20","zip":"01238","city":null,"area":null,"county":"Berkshire County","state":"Massachusetts","country":"us","formatted_address":"194, US 20, Lee, Berkshire County, Massachusetts, 01238, United States of America","place_id":"190108646","datatype":"locationiq"},{"latitude":"41.77","longitude":"-70.5288","name":"Cape Cod Outlet Mall","address":"1 Factory Outlet Road, Suite 106, P.O. Box 447, Sagamore, MA 02561 (508) 833-2242","street_number":"1027","street_name":"Sandwich Road","zip":"02561","city":null,"area":null,"county":"Barnstable County","state":"Massachusetts","country":"us","formatted_address":"Irving, 1027, Sandwich Road, Bourne, Barnstable County, Massachusetts, 02561, United States of America","place_id":"119163359","datatype":"locationiq"},{"latitude":"42.036104","longitude":"-71.347222","name":"Wrentham Village Premium Outlets","address":"1 Premium Outlets Boulevard, Suite 520, Wrentham, MA 02093 (508) 384-0271","street_number":null,"street_name":"South Street","zip":"02093","city":null,"area":null,"county":"Norfolk County","state":"Massachusetts","country":"us","formatted_address":"Mobil, South Street, Wrentham, Norfolk County, Massachusetts, 02093, United States of America","place_id":"56174102","datatype":"locationiq"},{"latitude":"39.608101","longitude":"-77.732302","name":"Prime Outlets at Hagerstown","address":"225 Prime Outlets Boulevard, Hagerstown, MD 21740 (301) 766-7008","street_number":"737","street_name":"Premium Outlets Boulevard","zip":"21740","city":"Hagerstown","area":null,"county":"Washington County","state":"Maryland","country":"us","formatted_address":"737, Premium Outlets Boulevard, Hagerstown Premium Outlets, Hagerstown, Washington County, Maryland, 21740, United States of America","place_id":"189977206","datatype":"locationiq"},{"latitude":"39.162263","longitude":"-76.72562","name":"Arundell Mills","address":"7000 Arundel Mills Circle, Space 250, Hanover, MD 21076 (443) 755-1701","street_number":"7013","street_name":"Arundel Mills Circle","zip":"21076","city":null,"area":"Dorsey Ridge","county":"Anne Arundel County","state":"Maryland","country":"us","formatted_address":"7013, Arundel Mills Circle, Dorsey Ridge, Silva-De-Amor, Anne Arundel County, Maryland, 21076, United States of America","place_id":"189607689","datatype":"locationiq"},{"latitude":"38.336986","longitude":"-75.107577","name":"Ocean City Factory Outlets","address":"12741 Ocean Gateway, Suite 940, Ocean City, MD 21842 (410) 213-7655","street_number":null,"street_name":"Ocean Gateway","zip":"21842","city":null,"area":null,"county":"Worcester County","state":"Maryland","country":"us","formatted_address":"Outback, Ocean Gateway, West Ocean City, Worcester County, Maryland, 21842, United States of America","place_id":"124161254","datatype":"locationiq"},{"latitude":"39.588443","longitude":"-76.068229","name":"Perryville Outlet Center","address":"68 Heather Lane, Suite 31, Perryville, MD 21903 (410) 642-9274","street_number":"498","street_name":"Heather Lane","zip":"21903","city":null,"area":null,"county":"Cecil","state":"Maryland","country":"us","formatted_address":"498, Heather Lane, Perryville, Cecil, Maryland, 21903, United States of America","place_id":"189732387","datatype":"locationiq"},{"latitude":"43.844955","longitude":"-70.116488","name":"Freeport Crossing","address":"200 Lower Main Street, Freeport, ME 04032 (207) 865-4881","street_number":"192","street_name":"Main Street","zip":"04032","city":null,"area":null,"county":"Cumberland County","state":"Maine","country":"us","formatted_address":"Beansprouts Early Learning, 192, Main Street, Maplewood Terrace, Freeport, Cumberland County, Maine, 04032, United States of America","place_id":"132677354","datatype":"locationiq"},{"latitude":"43.0982","longitude":"-70.7405","name":"Tanger Outlet Center -Kittery","address":"283 U.S. Route 1, Suite 12, Kittery, ME 03904 (207) 439-9279","street_number":null,"street_name":"Rogers Road","zip":"03904","city":null,"area":null,"county":"York County","state":"Maine","country":"us","formatted_address":"Rogers Road, Kittery, York County, Maine, 03904, United States of America","place_id":"65980458","datatype":"locationiq"},{"latitude":"42.700923","longitude":"-83.304612","name":"Great Lakes Crossing","address":"4198 Baldwin Road, Space 318, Auburn Hills, MI 48326 (248) 454-7934","street_number":null,"street_name":"Baldwin Road","zip":"48321","city":"Lake Angelus","area":null,"county":"Oakland County","state":"Michigan","country":"us","formatted_address":"Baldwin Road, Lake Angelus, Oakland County, Michigan, 48321, United States of America","place_id":"63740860","datatype":"locationiq"},{"latitude":"43.246215","longitude":"-83.774845","name":"Prime Outlets at Birch Run","address":"12150 S. Beyer Road, Space F-200, Birch Run, MI 48415 (989) 624-4600","street_number":null,"street_name":"South Beyer Road","zip":"48415","city":null,"area":null,"county":"Saginaw County","state":"Michigan","country":"us","formatted_address":"Polo Ralph Lauren Factory Store, South Beyer Road, Birch Run Premium Outlets, Village of Birch Run, Birch Run Township, Saginaw County, Michigan, 48415, United States of America","place_id":"51771279","datatype":"locationiq"},{"latitude":"42.621457","longitude":"-83.993677","name":"Kensington Valley Factory Shops","address":"1475 N. Burkhart, Suite C160, Howell, MI 48855 (517) 552-1744","street_number":null,"street_name":"Parsons Road","zip":"48843","city":null,"area":null,"county":"Livingston County","state":"Michigan","country":"us","formatted_address":"Parsons Road, Tanger Outlet Stores, Howell Township, Livingston County, Michigan, 48843, United States of America","place_id":"79051381","datatype":"locationiq"},{"latitude":"45.2367","longitude":"-93.6591","name":"Albertville Premium Outlets","address":"6415 Labeaux Avenue, NE, Site B280, Albertville, MN 55301 (763) 497-6037","street_number":null,"street_name":"60th Street Northeast","zip":"55301","city":null,"area":null,"county":"Wright County","state":"Minnesota","country":"us","formatted_address":"60th Street Northeast, Albertville, Wright County, Minnesota, 55301, United States of America","place_id":"69855689","datatype":"locationiq"},{"latitude":"44.170012","longitude":"-93.259609","name":"Preferred Outlets at Medford","address":"6750 West Frontage Road, Suite 339, Medford, MN 55049 (507) 446-0560","street_number":null,"street_name":"Frontage Road West","zip":"55049","city":null,"area":null,"county":"Steele County","state":"Minnesota","country":"us","formatted_address":"Nike Clearance Store, Frontage Road West, Lazy U Mobile Home Park, Steele County, Minnesota, 55049, United States of America","place_id":"104875805","datatype":"locationiq"},{"latitude":"45.507505","longitude":"-92.994193","name":"Tanger Outlet Center-North Branch","address":"38500 Tanger Drive, Suite 110, North Branch, MN 55056 (651) 674-8378","street_number":null,"street_name":"Stanley K Tanger Boulevard","zip":"55056","city":"North Branch","area":null,"county":"Chisago County","state":"Minnesota","country":"us","formatted_address":"Stanley K Tanger Boulevard, North Branch, Chisago County, Minnesota, 55056, United States of America","place_id":"70049888","datatype":"locationiq"},{"latitude":"36.643537","longitude":"-93.264228","name":"Tanger Outlet Center-Branson","address":"300 Tanger Boulevard, Suite 307B, Branson, MO 65616 (417) 334-7213","street_number":"402","street_name":"Tanger Boulevard","zip":"65616","city":"Branson","area":null,"county":"Taney County","state":"Missouri","country":"us","formatted_address":"Cosmetics Company, 402, Tanger Boulevard, Tanger Factory Outlet Center, Branson, Taney County, Missouri, 65616, United States of America","place_id":"28962588","datatype":"locationiq"},{"latitude":"38.146652","longitude":"-92.622515","name":"Osage Beach Premium Outlets","address":"4540 Hwy 54, Suite E-1, Osage Beach, MO 65065 (573) 348-4270","street_number":"4599","street_name":"Osage Beach Parkway","zip":"65065","city":"Osage Beach","area":null,"county":"Camden County","state":"Missouri","country":"us","formatted_address":"4599, Osage Beach Parkway, Osage Beach, Camden County, Missouri, 65065, United States of America","place_id":"193331907","datatype":"locationiq"},{"latitude":"30.427462","longitude":"-89.098384","name":"Prime Outlets at Gulfport","address":"10605 Factory Shops Boulevard, Gulfport, MS 39503 (228) 868-0301","street_number":"10536","street_name":"Factory Shops Boulevard","zip":"39503","city":"Gulfport","area":null,"county":"Harrison County","state":"Mississippi","country":"us","formatted_address":"10536, Factory Shops Boulevard, Gulfport, Harrison County, Mississippi, 39503, United States of America","place_id":"192817498","datatype":"locationiq"},{"latitude":"34.840572","longitude":"-90.298634","name":"Casino Factory Shops","address":"13118 U.S. Highway 61 North, Suite 210A, Robinsonville, MS 38664 (662) 357-9070","street_number":"13030","street_name":"Old Highway 61","zip":"38664","city":null,"area":null,"county":"Tunica County","state":"Mississippi","country":"us","formatted_address":"13030, Old Highway 61, Clack, Tunica County, Mississippi, 38664, United States of America","place_id":"193158838","datatype":"locationiq"},{"latitude":"32.340293","longitude":"-90.842208","name":"Vicksburg Factory Outlets","address":"4000 South Frontage Road, Suite 123, Vicksburg, MS 39180 (601) 661-0037","street_number":"4089","street_name":"South Frontage Road","zip":"39180","city":null,"area":null,"county":"Warren County","state":"Mississippi","country":"us","formatted_address":"4089, South Frontage Road, Vicksburg, Warren County, Mississippi, 39180, United States of America","place_id":"193173661","datatype":"locationiq"},{"latitude":"41.098012","longitude":"-96.253117","name":"Nebraska Crossings Factory Stores","address":"14333 South Hwy 31, Suite F-100, Gretna, NE 68028 (402) 332-5559","street_number":"14295","street_name":"South 216th Street","zip":"68028","city":null,"area":null,"county":"Sarpy County","state":"Nebraska","country":"us","formatted_address":"14295, South 216th Street, Melia, Sarpy County, Nebraska, 68028, United States of America","place_id":"194761007","datatype":"locationiq"},{"latitude":"36.164347","longitude":"-115.156427","name":"Las Vegas Premium Outlets","address":"805 S. Grand Central Parkway, Suite 1973, Las Vegas, NV 89106 (702) 221-1400","street_number":"765","street_name":"South Grand Central Parkway","zip":"89106","city":"Las Vegas","area":"18b Arts District","county":"Clark County","state":"Nevada","country":"us","formatted_address":"765, South Grand Central Parkway, 18b Arts District, Vegas Heights, Las Vegas, Clark County, Nevada, 89106, United States of America","place_id":"194875085","datatype":"locationiq"},{"latitude":"36.055095","longitude":"-115.172177","name":"Las Vegas Outlet Center","address":"7400 South Las Vegas Boulevard, Suite #75, Las Vegas, NV 89123 (702) 897-1727","street_number":"7390","street_name":"South Las Vegas Boulevard","zip":"89123","city":null,"area":null,"county":"Clark County","state":"Nevada","country":"us","formatted_address":"7390, South Las Vegas Boulevard, Enterprise, Clark County, Nevada, 89123, United States of America","place_id":"78934391","datatype":"locationiq"},{"latitude":"35.162485","longitude":"-114.574599","name":"Preferred Outlets at Laughlin","address":"1955 S. Casino Drive, Suite 253, Laughlin, NV 89029 (702) 298-3684","street_number":"1829","street_name":"Casino Drive","zip":"89029","city":null,"area":null,"county":"Clark County","state":"Nevada","country":"us","formatted_address":"1829, Casino Drive, Laughlin, Clark County, Nevada, 89029, United States of America","place_id":"194922148","datatype":"locationiq"},{"latitude":"39.5315411","longitude":"-119.7200828","name":"The Legends at Sparks Marina","address":"1350 Scheels Drive, Sparks, NV 89434 (775) 358-5851","street_number":null,"street_name":"Scheels Drive","zip":"89434","city":null,"area":null,"county":"Washoe County","state":"Nevada","country":"us","formatted_address":"Tommy Hilfiger, Scheels Drive, Legends at Sparks Marina, Sparks, Washoe County, Nevada, 89434, United States of America","place_id":"5680457","datatype":"locationiq"},{"latitude":"44.0345","longitude":"-71.1262","name":"Settlers' Green Outlet Village","address":"Route 16, Space I-30, North Conway, NH 03860 (603) 356-8937","street_number":null,"street_name":"Echo Acres Road","zip":"03860","city":null,"area":null,"county":"Carroll County","state":"New Hampshire","country":"us","formatted_address":"Echo Acres Road, Conway, Carroll County, New Hampshire, 03860, United States of America","place_id":"70150218","datatype":"locationiq"},{"latitude":"43.459082","longitude":"-71.558693","name":"Tanger Outlet Center-Tilton","address":"120 Laconia Road, Suite 311, Tilton, NH 03276 (603) 286-9488","street_number":null,"street_name":"Laconia Road","zip":"03276","city":null,"area":null,"county":"Belknap County","state":"New Hampshire","country":"us","formatted_address":"99, Laconia Road, Tilton, Belknap County, New Hampshire, 03276, United States of America","place_id":"39687034","datatype":"locationiq"},{"latitude":"39.35938","longitude":"-74.435982","name":"The Walk","address":"18 N. Michigan Avenue, Atlantic City, NJ 08401 (609) 344-6940","street_number":null,"street_name":"North Michigan Avenue","zip":"08401","city":"Atlantic City","area":null,"county":"Atlantic County","state":"New Jersey","country":"us","formatted_address":"Tommy Hilfiger, North Michigan Avenue, Tanger Outlets Atlantic City, Atlantic City, Atlantic County, New Jersey, 08401, United States of America","place_id":"7454114","datatype":"locationiq"},{"latitude":"40.6626381","longitude":"-74.1746783","name":"Jersey Gardens","address":"651 Kapkowski Road, Space #1128, Elizabeth, NJ 07201 (908) 532-4847","street_number":null,"street_name":"Kapkowski Road","zip":"07201","city":"Elizabeth","area":null,"county":"Union County","state":"New Jersey","country":"us","formatted_address":"Kapkowski Road, Elizabeth, Union County, New Jersey, 07201, United States of America","place_id":"132314233","datatype":"locationiq"},{"latitude":"40.495591","longitude":"-74.857775","name":"Liberty Village Premium Outlets","address":"72 Liberty Village, Flemington, NJ 08822 (908) 782-7474","street_number":null,"street_name":"Liberty Court","zip":"08822","city":"Raritan Township","area":null,"county":"Hunterdon County","state":"New Jersey","country":"us","formatted_address":"Liberty Court, Raritan Township, Hunterdon County, New Jersey, 08822, United States of America","place_id":"65731688","datatype":"locationiq"},{"latitude":"40.162893","longitude":"-74.419945","name":"Jackson Premium Outlets","address":"537 Monmouth Road, Space 101, Jackson, NJ 08527 (732) 833-0242","street_number":"537","street_name":"Monmouth Road","zip":"08527","city":"Millstone Township","area":null,"county":"Ocean County","state":"New Jersey","country":"us","formatted_address":"Nike Factory Store, 537, Monmouth Road, Millstone Township, Ocean County, New Jersey, 08527, United States of America","place_id":"52923325","datatype":"locationiq"},{"latitude":"40.132557","longitude":"-74.06667","name":"Circle Factory Outlet Center","address":"1407 West Atlantic Avenue, Manasquan, NJ 08736 (732) 223-8122","street_number":"1403","street_name":"Atlantic Avenue","zip":"08736","city":"Wall Township","area":null,"county":"Monmouth County","state":"New Jersey","country":"us","formatted_address":"1403, Atlantic Avenue, Wall Township, Monmouth County, New Jersey, 08736, United States of America","place_id":"195608888","datatype":"locationiq"},{"latitude":"40.91506","longitude":"-74.056064","name":"Bergen Town Center","address":"2701 Bergen Town Center, Suite 25, Paramus, NJ 07652 (201) 843-0593","street_number":null,"street_name":"South Forest Avenue","zip":"07652","city":"Paramus","area":null,"county":"Bergen County","state":"New Jersey","country":"us","formatted_address":"Midas, South Forest Avenue, Paramus, Bergen County, New Jersey, 07652, United States of America","place_id":"35466989","datatype":"locationiq"},{"latitude":"40.640394","longitude":"-74.417518","name":"Watchung Square Mall","address":"1515 US Highway 22, Suite 41, Watchung, NJ 07069 908-757-2869","street_number":null,"street_name":"US 22","zip":"07062","city":"Watchung","area":null,"county":"Somerset County","state":"New Jersey","country":"us","formatted_address":"US 22, Watchung, Somerset County, New Jersey, 07062, United States of America","place_id":"84060397","datatype":"locationiq"},{"latitude":"40.791035","longitude":"-72.948808","name":"The Outlets at Bellport","address":"10 Farber Drive, Suite 12\/13, Bellport, NY 11713 (631) 286-0549","street_number":"8","street_name":"Farber Drive","zip":"11713","city":null,"area":null,"county":"Suffolk County","state":"New York","country":"us","formatted_address":"8, Farber Drive, North Bellport, Suffolk County, New York, 11713, United States of America","place_id":"196962202","datatype":"locationiq"},{"latitude":"41.314196","longitude":"-74.126686","name":"Woodbury Commons Premium Outlets","address":"601 Bluebird Court, Central Valley, NY 10917 (845) 928-4449","street_number":null,"street_name":"Ring Road","zip":"10917","city":null,"area":null,"county":"Orange County","state":"New York","country":"us","formatted_address":"Ring Road, Woodbury Common Premium Outlets, Woodbury, Town of Woodbury, Orange County, New York, 10917, United States of America","place_id":"71597151","datatype":"locationiq"},{"latitude":"40.7622141","longitude":"-73.317812","name":"Deer Park","address":"762 The Archers Circle, Deer Park, NY 11729 (631) 254-0507","street_number":"225","street_name":"Marcus Boulevard","zip":"11729","city":null,"area":null,"county":"Suffolk County","state":"New York","country":"us","formatted_address":"225, Marcus Boulevard, Deer Park, Suffolk County, New York, 11729, United States of America","place_id":"169292309","datatype":"locationiq"},{"latitude":"43.425","longitude":"-73.7017","name":"French Mountain Commons Outlet Center","address":"Route 9, Box 3095-8, Lake George, NY 12845 (518) 745-7910","street_number":null,"street_name":"Wiawaka","zip":"12845","city":null,"area":null,"county":"Warren County","state":"New York","country":"us","formatted_address":"Wiawaka, Crosbyside, Town of Lake George, Warren County, New York, 12845, United States of America","place_id":"71551582","datatype":"locationiq"},{"latitude":"43.098332","longitude":"-78.976263","name":"Fashion Outlets at Niagara Falls USA","address":"1960 Military Road, Niagara Falls, NY 14304-1737 (716) 297-0277","street_number":"2019","street_name":"Military Road","zip":"14304","city":"Niagara Falls","area":null,"county":"Niagara County","state":"New York","country":"us","formatted_address":"2019, Military Road, Niagara Falls, Niagara Town, Niagara County, New York, 14304, United States of America","place_id":"196591831","datatype":"locationiq"},{"latitude":"40.91885","longitude":"-72.7151","name":"Tanger Outlet Center-Riverhead","address":"211 Tanger Drive, Riverhead, NY 11901 (631) 727-7657","street_number":null,"street_name":"Tanger Mall Drive","zip":"11933","city":null,"area":null,"county":"Suffolk County","state":"New York","country":"us","formatted_address":"Tanger Mall Drive, Tanger 2, Calverton, Suffolk County, New York, 11933, United States of America","place_id":"130199835","datatype":"locationiq"},{"latitude":"42.91","longitude":"-76.8757","name":"Waterloo Premium Outlets","address":"655 Route 318, Store 10, Waterloo, NY 13165 (315) 539-4900","street_number":null,"street_name":"Hecker Road","zip":"13165","city":null,"area":null,"county":"Seneca County","state":"New York","country":"us","formatted_address":"Hecker Road, Waterloo, Seneca County, New York, 13165, United States of America","place_id":"71325956","datatype":"locationiq"},{"latitude":"40.746434","longitude":"-73.595755","name":"The Mall At The Source","address":"1504 Old Country Rd. Space F12, Westbury, NY 11590 (516) 794-1579","street_number":null,"street_name":"Old Country Road","zip":"11530","city":null,"area":null,"county":"Nassau","state":"New York","country":"us","formatted_address":"Old Country Road, Westbury, Nassau, New York, 11530, United States of America","place_id":"160767929","datatype":"locationiq"},{"latitude":"36.142171","longitude":"-81.671844","name":"Tanger Outlet Center","address":"310 Shoppes on the Pkwy Rd #28, Blowing Rock, NC 28605 828-295-7471","street_number":"344","street_name":"Shoppes on the Parkway Road","zip":"28605","city":null,"area":null,"county":"Watauga County","state":"North Carolina","country":"us","formatted_address":"344, Shoppes on the Parkway Road, Blowing Rock, Watauga County, North Carolina, 28605, United States of America","place_id":"198408204","datatype":"locationiq"},{"latitude":"35.371366","longitude":"-80.718688","name":"Concord Mills","address":"8111 Concord Mills Boulevard, Space 654, Concord, NC 28027 (704) 979-6631","street_number":"8227","street_name":"Concord Mills Boulevard","zip":"28027","city":"Concord","area":null,"county":"Cabarrus County","state":"North Carolina","country":"us","formatted_address":"8227, Concord Mills Boulevard, Concord Mills, Concord, Cabarrus County, North Carolina, 28027, United States of America","place_id":"197284314","datatype":"locationiq"},{"latitude":"36.0863299","longitude":"-79.8278424","name":"Friendly Center","address":"3002 Northline Avenue, Greensboro, NC 27048 (336) 292-0613","street_number":null,"street_name":"Green Valley Road","zip":"27408","city":"Greensboro","area":null,"county":"Guilford County","state":"North Carolina","country":"us","formatted_address":"Marathon, Green Valley Road, Greensboro, Guilford County, North Carolina, 27408, United States of America","place_id":"53278469","datatype":"locationiq"},{"latitude":"35.510547","longitude":"-78.309291","name":"Carolina Premium Outlets","address":"1205 Industrial Park Drive, Space 1090, Smithfield, NC 27577 (919) 938-1199","street_number":null,"street_name":"Industrial Park Drive","zip":"27577","city":null,"area":null,"county":"Johnston County","state":"North Carolina","country":"us","formatted_address":"Tommy Hilfiger, Industrial Park Drive, Selma, Johnston County, North Carolina, 27577, United States of America","place_id":"24976530","datatype":"locationiq"},{"latitude":"41.306963","longitude":"-81.345416","name":"Aurora Farms Premium Outlets","address":"549 South Chillicothe Road, Aurora, OH 44202 (330) 562-8018","street_number":"375","street_name":"South Chillicothe Road","zip":"44202","city":"Aurora","area":null,"county":"Portage County","state":"Ohio","country":"us","formatted_address":"375, South Chillicothe Road, Aurora, Portage County, Ohio, 44202, United States of America","place_id":"199736360","datatype":"locationiq"},{"latitude":"41.002549","longitude":"-81.996069","name":"Prime Outlets at Lodi","address":"9911 Avon Lake Road, Suite 210, Burbank, OH 44214 (330) 948-9515","street_number":"9939","street_name":"Avon Lake Road","zip":"44214","city":null,"area":null,"county":"Medina County","state":"Ohio","country":"us","formatted_address":"9939, Avon Lake Road, Lodi, Harrisville Township, Medina County, Ohio, 44214, United States of America","place_id":"199580635","datatype":"locationiq"},{"latitude":"39.620631","longitude":"-83.600828","name":"Prime Outlets at Jeffersonville","address":"8640 Factory Shops Blvd, Jeffersonville OH 43128 (740) 948-2100","street_number":null,"street_name":"Factory Shops Boulevard","zip":"43128","city":null,"area":null,"county":"Fayette County","state":"Ohio","country":"us","formatted_address":"Factory Shops Boulevard, Tanger Outlets, West Lancaster, Fayette County, Ohio, 43128, United States of America","place_id":"70294523","datatype":"locationiq"},{"latitude":"39.4486879","longitude":"-84.3699767","name":"Cincinnati Premium Outlets","address":"113 Premium Outlet Drive, Monroe, OH 45050 (513) 539-3401","street_number":"111","street_name":"Northwestern Avenue","zip":"45050","city":"Monroe","area":null,"county":"Butler County","state":"Ohio","country":"us","formatted_address":"111, Northwestern Avenue, Monroe, Lemon Township, Butler County, Ohio, 45050, United States of America","place_id":"198868938","datatype":"locationiq"},{"latitude":"44.959234","longitude":"-124.012341","name":"Tanger Outlet Center-Lincoln City","address":"1500 SE Devils Lake Road, Suite 217, Lincoln City, OR 97367 (541) 996-5081","street_number":"1026","street_name":"Southeast Jetty Avenue","zip":"97367","city":"Lincoln City","area":null,"county":"Lincoln County","state":"Oregon","country":"us","formatted_address":"Trillium Natural Foods, 1026, Southeast Jetty Avenue, Delake, Lincoln City, Lincoln County, Oregon, 97367, United States of America","place_id":"46588309","datatype":"locationiq"},{"latitude":"46.001023","longitude":"-123.917129","name":"Seaside Factory Outlet Center","address":"1111 N. Roosevelt Drive, Suite 344, Seaside, OR 97138 (503) 717-8343","street_number":null,"street_name":"12th Avenue","zip":"97138","city":"Seaside","area":null,"county":"Clatsop County","state":"Oregon","country":"us","formatted_address":"Eddie Bauer Outlet, 12th Avenue, Seaside, Clatsop County, Oregon, 97138, United States of America","place_id":"24590354","datatype":"locationiq"},{"latitude":"45.542963","longitude":"-122.389601","name":"Columbia Gorge Premium Outlets","address":"450 NW 257th Avenue, Suite 416, Troutdale, OR 97060 (503) 491-0148","street_number":null,"street_name":"Northwest 257th Way","zip":"97060","city":"Troutdale","area":null,"county":"Multnomah County","state":"Oregon","country":"us","formatted_address":"Northwest 257th Way, Columbia Gorge Premium Outlets, Troutdale, Multnomah County, Oregon, 97060, United States of America","place_id":"61928778","datatype":"locationiq"},{"latitude":"45.154408","longitude":"-122.878201","name":"Woodburn Company Stores","address":"1001 Arney Road, Suite 304, Woodburn, OR 97071 (503) 982-5779","street_number":null,"street_name":"Robert Hugh Baldock Freeway","zip":"97071","city":"Woodburn","area":null,"county":"Marion County","state":"Oregon","country":"us","formatted_address":"271, Robert Hugh Baldock Freeway, Woodburn, Marion County, Oregon, 97071, United States of America","place_id":"208259","datatype":"locationiq"},{"latitude":"39.795836","longitude":"-77.199672","name":"Gettysburg Village Factory Stores","address":"1863 Gettysburg Village Drive, Suite 540, Gettysburg, PA 17325 (717) 338-1923","street_number":"1896","street_name":"Gettysburg Village Drive","zip":"17325","city":null,"area":null,"county":"Adams County","state":"Pennsylvania","country":"us","formatted_address":"1896, Gettysburg Village Drive, The Outlet Shoppes, Round Top, Adams County, Pennsylvania, 17325, United States of America","place_id":"201167228","datatype":"locationiq"},{"latitude":"40.235345","longitude":"-75.574372","name":"Philadelphia Premium Outlets","address":"18 Lightcap Road, Suite #1165, Pottstown, PA 19464 (610) 237-1354","street_number":null,"street_name":"Lightcap Road","zip":"19457","city":"Limerick Township","area":null,"county":"Montgomery County","state":"Pennsylvania","country":"us","formatted_address":"Lightcap Road, Limerick Township, Montgomery County, Pennsylvania, 19457, United States of America","place_id":"113053001","datatype":"locationiq"},{"latitude":"40.294171","longitude":"-76.647239","name":"The Outlets at Hershey","address":"75 Outlet Square, Space A-2, Hershey, PA 17033 (717) 520-0553","street_number":null,"street_name":"Outlet Square","zip":"17033","city":null,"area":null,"county":"Dauphin County","state":"Pennsylvania","country":"us","formatted_address":"Outlet Square, Hershey Outlets, Hershey, Dauphin County, Pennsylvania, 17033, United States of America","place_id":"93328315","datatype":"locationiq"},{"latitude":"40.3474","longitude":"-75.0322","name":"Penn's Purchase Factory Outlet Stores","address":"5861 York Road, Building H, Shop 1, Lahaska, PA 18931 (215) 794-7801","street_number":null,"street_name":"Lower York Road","zip":"18931","city":"Solebury Townshp","area":null,"county":"Bucks County","state":"Pennsylvania","country":"us","formatted_address":"Lower York Road, Solebury Townshp, Bucks County, Pennsylvania, 18931, United States of America","place_id":"94988140","datatype":"locationiq"},{"latitude":"40.0237","longitude":"-76.2228","name":"Tanger Outlet Center-Lancaster","address":"221 Outlet Drive, Lancaster, PA 17602-1467 (717) 293-8620","street_number":"2177","street_name":"Millstream Road","zip":"17602","city":null,"area":null,"county":"Lancaster County","state":"Pennsylvania","country":"us","formatted_address":"2177, Millstream Road, Greenland, Lancaster County, Pennsylvania, 17602, United States of America","place_id":"201919342","datatype":"locationiq"},{"latitude":"41.143295","longitude":"-80.158231","name":"Prime Outlets at Grove City","address":"Intersection I-79, Route 208, Suite 640, Grove City PA 16127 (724) 748-4552","street_number":null,"street_name":"Leesburg-Grove City Road","zip":"16127","city":null,"area":null,"county":"Mercer County","state":"Pennsylvania","country":"us","formatted_address":"Eat'n Park Restaurant, Leesburg-Grove City Road, London, Mercer County, Pennsylvania, 16127, United States of America","place_id":"26274972","datatype":"locationiq"},{"latitude":"40.08988","longitude":"-74.95882","name":"Franklin Mills","address":"1442 Franklin Mills Circle, Philadelphia, PA 19154 (215) 281-0898","street_number":"1428","street_name":"Franklin Mills Circle","zip":"19154","city":"Philadelphia","area":"Longmead Farms","county":"Philadelphia County","state":"Pennsylvania","country":"us","formatted_address":"1428, Franklin Mills Circle, Longmead Farms, Philadelphia, Philadelphia County, Pennsylvania, 19154, United States of America","place_id":"202219633","datatype":"locationiq"},{"latitude":"41.047774","longitude":"-75.310939","name":"The Crossings Premium Outlets","address":"1000 Route 611, Suite D5, Tannersville, PA 18372 (570) 620-2042","street_number":"699","street_name":"PA 611","zip":"18372","city":"Pocono Township","area":null,"county":"Monroe County","state":"Pennsylvania","country":"us","formatted_address":"699, PA 611, Pocono Township, Monroe County, Pennsylvania, 18372, United States of America","place_id":"202094702","datatype":"locationiq"},{"latitude":"40.2160508","longitude":"-80.2110379","name":"Oshkosh B'Gosh","address":"2200 Tanger Blvd. Suite #222, Washington, PA 15301 ","street_number":null,"street_name":"Racetrack Road","zip":"15301","city":null,"area":null,"county":"Washington County","state":"Pennsylvania","country":"us","formatted_address":"Racetrack Road, McGovern, Washington County, Pennsylvania, 15301, United States of America","place_id":"83074208","datatype":"locationiq"},{"latitude":"40.337218","longitude":"-75.953838","name":"VF Outlet Village","address":"801 Hill Avenue, Box A-4, Wyomissing, PA 19610 (610) 478-8371","street_number":null,"street_name":"Cherry Drive","zip":"19611","city":"Wyomissing","area":null,"county":"Berks County","state":"Pennsylvania","country":"us","formatted_address":"Building 1, Cherry Drive, VF Outlet Center, Wyomissing, Berks County, Pennsylvania, 19611, United States of America","place_id":"131031137","datatype":"locationiq"},{"latitude":"18.4520562","longitude":"-66.5581092","name":"Prime Outlets Puerto Rico","address":"One Prime Outlets Boulevard, Suite 720, Barceloneta, PR 00617 (787) 846-3365","street_number":null,"street_name":"Avenida de Los Cabella","zip":"00617","city":"Garrochales","area":null,"county":"Barceloneta","state":"Puerto Rico","country":"us","formatted_address":"Avenida de Los Cabella, Garrochales, Barceloneta, Puerto Rico, 00617, United States of America","place_id":"72279326","datatype":"locationiq"},{"latitude":"18.377991","longitude":"-65.905487","name":"Belz Factory Outlet World","address":"KM. 18.4, State Road #3, Suite #235, Barrio Pueblo, Canovanas, PR 729 (787) 256-1134","street_number":null,"street_name":"Calle Palmer","zip":"00729","city":"Barrio Pueblo","area":null,"county":"Can\u00f3vanas","state":"Puerto Rico","country":"us","formatted_address":"Calle Palmer, Barrio Pueblo, Can\u00f3vanas, Puerto Rico, 00729, United States of America","place_id":"72571817","datatype":"locationiq"},{"latitude":"32.240865","longitude":"-80.819401","name":"Tanger Outlet Center-Hilton Head","address":"1414 Fording Island Road, Suite B100, Bluffton, SC 29910 (843) 837-6656","street_number":"1436","street_name":"Fording Island Road","zip":"29910","city":null,"area":null,"county":"Beaufort County","state":"South Carolina","country":"us","formatted_address":"1436, Fording Island Road, Buckingham Landing, Beaufort County, South Carolina, 29910, United States of America","place_id":"202690429","datatype":"locationiq"},{"latitude":"35.082213","longitude":"-81.709794","name":"Prime Outlets at Gafney","address":"300 Factory Shops Boulevard, Gaffney, SC 29341 (864) 902-9600","street_number":"181","street_name":"Factory Shops Boulevard","zip":"29341","city":null,"area":null,"county":"Cherokee County","state":"South Carolina","country":"us","formatted_address":"181, Factory Shops Boulevard, Gaffney Premium Outlets, Gaffney, Cherokee County, South Carolina, 29341, United States of America","place_id":"202763970","datatype":"locationiq"},{"latitude":"33.7438","longitude":"-78.9361","name":"Myrtle Beach Factory Stores\/ Tanger Outlet Center","address":"4638 Factory Stores Boulevard, EE230, Myrtle Beach, SC 29579 (843) 236-2445","street_number":null,"street_name":"Oxbow Drive","zip":"29579","city":null,"area":"Plantation Lakes","county":"Horry County","state":"South Carolina","country":"us","formatted_address":"0, Oxbow Drive, Plantation Lakes, Fantasy Harbour, Pine Island, Horry County, South Carolina, 29579, United States of America","place_id":"81857023","datatype":"locationiq"},{"latitude":"33.78526","longitude":"-78.770777","name":"Tanger Outlet Hywy 17 Myrtle Beach","address":"10843 Kings Road, Suite 695, Myrtle Beach, SC 29572 (843) 449-6060","street_number":null,"street_name":"Kings Road","zip":"29572","city":null,"area":null,"county":"Horry County","state":"South Carolina","country":"us","formatted_address":"E Z Street Car Wash, Kings Road, Arcadian Shores Commons, Windy Hill Beach, Arcadian Shores, Horry County, South Carolina, 29572, United States of America","place_id":"41347812","datatype":"locationiq"},{"latitude":"32.8804","longitude":"-80.0413","name":"Tanger Outlet Center","address":"4840 Tanger Outlet Blvd., North Charleston, SC 29418 843-308-0361","street_number":"5548","street_name":"Porche Boulevard","zip":"29418","city":"North Charleston","area":null,"county":"Charleston County","state":"South Carolina","country":"us","formatted_address":"5548, Porche Boulevard, Boeing South Carolina, North Charleston, Charleston County, South Carolina, 29418, United States of America","place_id":"202748972","datatype":"locationiq"},{"latitude":"35.860545","longitude":"-86.443052","name":"Avenue Murfreesboro","address":"2615 Medical Center Parkway, Suite 1535, Murfreesboro, TN 37129 (615) 907-9649","street_number":"2628","street_name":"Medical Center Parkway","zip":"37129","city":"Murfreesboro","area":null,"county":"Rutherford County","state":"Tennessee","country":"us","formatted_address":"2628, Medical Center Parkway, Murfreesboro, Rutherford County, Tennessee, 37129, United States of America","place_id":"204050710","datatype":"locationiq"},{"latitude":"36.203213","longitude":"-86.694579","name":"Opry Mills","address":"301 Opry Mills Drive, Space 301, Nashville, TN 37214 (615) 514-1888","street_number":null,"street_name":"Opry Mills Drive","zip":"37216","city":"Nashville-Davidson","area":null,"county":"Davidson County","state":"Tennessee","country":"us","formatted_address":"Opry Mills Drive, Dalewood, Nashville-Davidson, Davidson County, Tennessee, 37216, United States of America","place_id":"74874467","datatype":"locationiq"},{"latitude":"35.805616","longitude":"-83.574673","name":"Tanger Outlet Center-Pigeon Forge","address":"157 Wears Valley Road, East, Pigeon Forge, TN 37863 (865) 429-1506","street_number":null,"street_name":"East Wears Valley Road","zip":"37863","city":"Pigeon Forge","area":null,"county":"Sevier County","state":"Tennessee","country":"us","formatted_address":"Timbers Lodge Motel, East Wears Valley Road, Pigeon Forge, Sevier County, Tennessee, 37863, United States of America","place_id":"160097678","datatype":"locationiq"},{"latitude":"35.833037","longitude":"-83.572696","name":"Tanger Five Oaks","address":"1645 Parkway, Suite 1180, Sevierville, TN 37862 (865) 774-4148","street_number":"1668","street_name":"Parkway","zip":"37862","city":"Sevierville","area":null,"county":"Sevier County","state":"Tennessee","country":"us","formatted_address":"1668, Parkway, Sevierville, Sevier County, Tennessee, 37862, United States of America","place_id":"204081726","datatype":"locationiq"},{"latitude":"33.130037","longitude":"-96.66162","name":"Allen Premium Outlets","address":"820 W. Stacy Road, Suite 428, Allen TX 75013 (972) 678-0558","street_number":null,"street_name":"CR 150","zip":"75013","city":null,"area":null,"county":"Collin County","state":"Texas","country":"us","formatted_address":"Liberty Burger Allen, CR 150, Allen, Collin County, Texas, 75013, United States of America","place_id":"152325081","datatype":"locationiq"},{"latitude":"30.161146","longitude":"-97.789647","name":"Southpark Meadows","address":"9600 S IH-35, Space 500, Austin, TX 78748 (512) 280-7100","street_number":"9300","street_name":"Interstate 35 Frontage Road","zip":"78748","city":"Austin","area":null,"county":"Travis County","state":"Texas","country":"us","formatted_address":"9300, Interstate 35 Frontage Road, Austin, Travis County, Texas, 78748, United States of America","place_id":"206495956","datatype":"locationiq"},{"latitude":"31.910866","longitude":"-106.583501","name":"Outlet Shoppes at El Paso","address":"7051 South Desert Boulevard, Suite E530, Canutillo, TX 79835 (915) 877-7386","street_number":"7051","street_name":"South Desert Boulevard","zip":"79932","city":"El Paso City","area":null,"county":"El Paso County","state":"Texas","country":"us","formatted_address":"Starbucks, 7051, South Desert Boulevard, El Paso City, El Paso County, Texas, 79932, United States of America","place_id":"20375265","datatype":"locationiq"},{"latitude":"30.365305","longitude":"-95.479157","name":"Conroe Outlet Center","address":"1111 League Line Road, Suite 172, Conroe, TX 77303 (936) 760-4466","street_number":"1137","street_name":"League Line Road","zip":"77303","city":"Panorama Village","area":null,"county":"Montgomery County","state":"Texas","country":"us","formatted_address":"1137, League Line Road, Panorama Village, Montgomery County, Texas, 77303, United States of America","place_id":"205978103","datatype":"locationiq"},{"latitude":"29.994655","longitude":"-95.756423","name":"Houston Premium Outlets","address":"29300 Hempstead Road, Suite 854, Cypress, TX 77433 (281) 256-6197","street_number":null,"street_name":"Northwest Freeway Frontage Road","zip":"77433","city":"Houston","area":null,"county":"Harris County","state":"Texas","country":"us","formatted_address":"Northwest Freeway Frontage Road, Houston, Harris County, Texas, 77433, United States of America","place_id":"161559845","datatype":"locationiq"},{"latitude":"33.565537","longitude":"-97.165515","name":"Gainesville Factory Shops","address":"4321 IH-35 North, Suite 100, Gainesville, TX 76240 (940) 665-8995","street_number":null,"street_name":"I-35 Frontage Road","zip":"76240","city":null,"area":null,"county":"Cooke County","state":"Texas","country":"us","formatted_address":"I-35 Frontage Road, Valley View, Cooke County, Texas, 76240, United States of America","place_id":"75797597","datatype":"locationiq"},{"latitude":"32.968233","longitude":"-97.036927","name":"Grapevine Mills","address":"3000 Grapevine Mills Parkway, Suite 252, Grapevine, TX 76051 (972) 724-2558","street_number":null,"street_name":"International Parkway","zip":"75028","city":"Grapevine","area":null,"county":"Tarrant County","state":"Texas","country":"us","formatted_address":"International Parkway, Grapevine, Tarrant County, Texas, 75028, United States of America","place_id":"75173625","datatype":"locationiq"},{"latitude":"32.0247","longitude":"-97.1096","name":"Prime Outlets at Hillsboro","address":"104 Interstate Hwy. 35 NE, Suite 166, Hillsboro, TX 76645 (254) 582-7522","street_number":null,"street_name":"Industrial Loop","zip":"76645","city":"Hillsboro","area":null,"county":"Hill County","state":"Texas","country":"us","formatted_address":"Industrial Loop, Hillsboro, Hill County, Texas, 76645, United States of America","place_id":"71775134","datatype":"locationiq"},{"latitude":"29.779397","longitude":"-95.806984","name":"Katy Mills","address":"5000 Katy Mills Circle, Katy, TX 77494 (281) 644-4674","street_number":null,"street_name":"Katy Mills Circle","zip":"77492","city":"Katy","area":null,"county":"Harris County","state":"Texas","country":"us","formatted_address":"Katy Mills Circle, Katy, Harris County, Texas, 77492, United States of America","place_id":"69114592","datatype":"locationiq"},{"latitude":"26.158663","longitude":"-97.888703","name":"Rio Grande Valley Premium Outlets","address":"5001 E. Expressway 83, Suite 419, Mercedes, TX 78570 (956) 514-2416","street_number":null,"street_name":"Frontage Road","zip":"78570","city":"Mercedes","area":null,"county":"Hidalgo County","state":"Texas","country":"us","formatted_address":"Frontage Road, Mercedes, Hidalgo County, Texas, 78570, United States of America","place_id":"68995074","datatype":"locationiq"},{"latitude":"30.563013","longitude":"-97.69201","name":"Round Rock Premium Outlets","address":"4401 N IH-35, Suite 715, Round Rock, TX 78664 512-864-0131","street_number":null,"street_name":"Interstate Highway 35 Frontage Road","zip":"78665","city":"Round Rock","area":null,"county":"Williamson County","state":"Texas","country":"us","formatted_address":"Interstate Highway 35 Frontage Road, Round Rock, Williamson County, Texas, 78665, United States of America","place_id":"96737475","datatype":"locationiq"},{"latitude":"29.828618","longitude":"-97.983936","name":"Prime Outlets at San Marcos","address":"3939 IH-35 South, Suite 735, San Marcos, TX 78666 (512) 754-8822","street_number":null,"street_name":"I 35","zip":"78666","city":null,"area":null,"county":"Hays County","state":"Texas","country":"us","formatted_address":"201, I 35, San Marcos, Hays County, Texas, 78666, United States of America","place_id":"367982","datatype":"locationiq"},{"latitude":"29.638178","longitude":"-95.585507","name":"Fountains on the Lake","address":"12574 Fountain Lake Circle, Suite 42, Stafford, TX 77477 (281) 265-1557","street_number":null,"street_name":"Fountain Lake Circle","zip":"77477","city":"Stafford","area":null,"county":"Fort Bend County","state":"Texas","country":"us","formatted_address":"Fountain Lake Circle, Stafford, Fort Bend County, Texas, 77477, United States of America","place_id":"71455718","datatype":"locationiq"},{"latitude":"32.702007","longitude":"-96.278618","name":"Tanger Outlet Center-Terrell","address":"301 Tanger Drive, Suite 103, Terrell, TX 75160 (972) 551-3007","street_number":null,"street_name":"Tanger Drive","zip":"75160","city":"Terrell","area":null,"county":"Kaufman County","state":"Texas","country":"us","formatted_address":"Carmona's Tex-Mex, Tanger Drive, Terrell, Kaufman County, Texas, 75160, United States of America","place_id":"17966915","datatype":"locationiq"},{"latitude":"40.530824","longitude":"-111.890747","name":"Factory Stores of America","address":"12101 S. Factory Outlet Drive, Suite 143, Draper, UT 84020 (801) 523-2126","street_number":null,"street_name":"South State Street","zip":"84020","city":"Draper","area":null,"county":"Salt Lake County","state":"Utah","country":"us","formatted_address":"South State Street, Draper, Salt Lake County, Utah, 84020, United States of America","place_id":"79241293","datatype":"locationiq"},{"latitude":"40.729743","longitude":"-111.549661","name":"Tanger Outlet Center-Park City","address":"6699 N. Landmark Drive, Suite H135, Park City, UT 84098 (435) 649-3667","street_number":null,"street_name":null,"zip":"84098","city":null,"area":null,"county":"Summit County","state":"Utah","country":"us","formatted_address":"Brooks Brothers, Millenium Trail, Tanger Outlets Park City, Summit Park, Summit County, Utah, 84098, United States of America","place_id":"54861274","datatype":"locationiq"},{"latitude":"37.113709","longitude":"-113.554175","name":"Zion Factory Stores","address":"250 North Red Cliffs Drive, Unit 28, St. George, UT 84790 (435) 674-4564","street_number":null,"street_name":"River Road","zip":"84770","city":"St. George","area":null,"county":"Washington County","state":"Utah","country":"us","formatted_address":"Outback Steakhouse, River Road, Middleton, St. George, Washington County, Utah, 84770, United States of America","place_id":"7373065","datatype":"locationiq"},{"latitude":"39.109583","longitude":"-77.536586","name":"Leesburg Corner Premium Outlets","address":"241 Fort Evans Road, NE, Suite 689, Leesburg, VA 20176 (703) 443-8960","street_number":null,"street_name":"Fort Evans Road NE","zip":"20179","city":null,"area":null,"county":"Loudoun County","state":"Virginia","country":"us","formatted_address":"Bob Evans, Fort Evans Road NE, Leesburg, Loudoun County, Virginia, 20179, United States of America","place_id":"84227848","datatype":"locationiq"},{"latitude":"37.320728","longitude":"-76.736113","name":"Prime Outlets at Williamsburg","address":"5715 Richmond Road, Space 68, Williamsburg, VA 23188 (757) 564-0240","street_number":null,"street_name":"Richmond Road","zip":"23188","city":null,"area":"Chisel Run","county":"James City County","state":"Virginia","country":"us","formatted_address":"Banana Republic, Richmond Road, Chisel Run, Ewell, James City County, Virginia, 23188, United States of America","place_id":"13515950","datatype":"locationiq"},{"latitude":"38.645179","longitude":"-77.299372","name":"Potomac Mills","address":"2700 Potomac Mills Circle, Space 55, Suite 801, Woodbridge, VA 22192 (703) 491-4826","street_number":null,"street_name":"Potomac Mills Circle","zip":"2192","city":null,"area":null,"county":"Prince William County","state":"Virginia","country":"us","formatted_address":"Potomac Mills Circle, Potomac MIlls, Potomac Mills, Prince William County, Virginia, 2192, United States of America","place_id":"152461689","datatype":"locationiq"},{"latitude":"44.507573","longitude":"-73.079284","name":"Essex Outlet Mall","address":"31 Essex Way #221, Essex Junction, VT 05452 (802) 288-9258","street_number":"43","street_name":"Essex Way","zip":"05452","city":null,"area":null,"county":"Chittenden County","state":"Vermont","country":"us","formatted_address":"43, Essex Way, Butlers Corners, Chittenden County, Vermont, 05452, United States of America","place_id":"207008344","datatype":"locationiq"},{"latitude":"47.5594","longitude":"-122.1505","name":"Factoria Mall","address":"4092 Factoria Mall Boulevard, S.E., Bellevue, WA 98006 (425) 957-7217","street_number":"14182","street_name":"Southeast 49th Place","zip":"98006","city":"Bellevue","area":null,"county":"King County","state":"Washington","country":"us","formatted_address":"14182, Southeast 49th Place, Eastgate, Bellevue, King County, Washington, 98006, United States of America","place_id":"208518247","datatype":"locationiq"},{"latitude":"47.491328","longitude":"-121.792955","name":"Factory Stores at North Bend","address":"561 South Fork Avenue, S.W., Suite 3B, North Bend WA 98045 (425) 831-5688","street_number":null,"street_name":"South Fork Avenue Southwest","zip":"98045","city":"North Bend","area":null,"county":"King County","state":"Washington","country":"us","formatted_address":"eVgo, South Fork Avenue Southwest, North Bend, King County, Washington, 98045, United States of America","place_id":"49536508","datatype":"locationiq"},{"latitude":"48.09064","longitude":"-122.185901","name":"Seattle Premium Outlets","address":"10600 Quil Ceda Blvd, Suite 713, Tulalip, WA 98271 (360) 654-3891","street_number":null,"street_name":"105th Street Northeast","zip":"98271","city":null,"area":null,"county":"Snohomish County","state":"Washington","country":"us","formatted_address":"McDonald's, 105th Street Northeast, Kruse, Snohomish County, Washington, 98271, United States of America","place_id":"152312954","datatype":"locationiq"},{"latitude":"47.756578","longitude":"-122.15571","name":"Downtown Woodinville Retail Development","address":"17953 Garden Way NE, Woodinville, WA 98072 (425) 483-1997","street_number":"17670","street_name":"Garden Way Northeast","zip":"98072","city":"Woodinville","area":null,"county":"King County","state":"Washington","country":"us","formatted_address":"17670, Garden Way Northeast, Woodinville, King County, Washington, 98072, United States of America","place_id":"208410302","datatype":"locationiq"},{"latitude":"47.296563","longitude":"-122.245617","name":"The Super Mall of the Great Northwest","address":"1101 Supermall Way, Suite 1226, Auburn WA 98001 (253) 833-1547","street_number":null,"street_name":"15th Street Southwest","zip":"98001-6537","city":"Auburn","area":null,"county":"King County","state":"Washington","country":"us","formatted_address":"Verizon Wireless, 15th Street Southwest, Auburn, King County, Washington, 98001-6537, United States of America","place_id":"55173410","datatype":"locationiq"},{"latitude":"43.575563","longitude":"-89.783644","name":"Tanger Outlet Center","address":"210 Gasser Road, Suite #1060, Baraboo, WI 53913 608-253-1759","street_number":null,"street_name":"Gasser Road","zip":"53940","city":null,"area":null,"county":"Sauk County","state":"Wisconsin","country":"us","formatted_address":"Gasser Road, Dells Strip, Lake Delton, Sauk County, Wisconsin, 53940, United States of America","place_id":"95997787","datatype":"locationiq"},{"latitude":"43.089595","longitude":"-88.762715","name":"Johnson Creek Premium Outlets","address":"575 West Linmar Lane, Suite A-125, Johnson Creek, WI 53038 (920) 699-4904","street_number":null,"street_name":"Linmar Lane","zip":"53038","city":null,"area":null,"county":"Jefferson County","state":"Wisconsin","country":"us","formatted_address":"Linmar Lane, Johnson Creek, Jefferson County, Wisconsin, 53038, United States of America","place_id":"165375638","datatype":"locationiq"},{"latitude":"43.988006","longitude":"-88.586388","name":"Prime Outlets at Oshkosh","address":"3001 S. Washburn, Oshkosh, WI 54904 (920) 426-5817","street_number":null,"street_name":"State Highway 44","zip":"54902","city":"Oshkosh","area":null,"county":"Winnebago County","state":"Wisconsin","country":"us","formatted_address":"Shell, State Highway 44, Oshkosh, Winnebago County, Wisconsin, 54902, United States of America","place_id":"6494077","datatype":"locationiq"},{"latitude":"42.5765","longitude":"-87.9395","name":"Prime Outlets at Pleasant Prairie","address":"11601 108th Street, Pleasant Prairie, WI 53158 (262) 857-3975","street_number":"11099","street_name":"65th Street","zip":"53142","city":"Kenosha","area":null,"county":"Kenosha County","state":"Wisconsin","country":"us","formatted_address":"11099, 65th Street, Kenosha, Kenosha County, Wisconsin, 53142, United States of America","place_id":"209436943","datatype":"locationiq"},{"latitude":"44.8838","longitude":"-89.6197","name":"Cedar Creek Mall","address":"10101 Market Street, C-30, Rothschild, WI 54474 (715) 359-7943","street_number":"507","street_name":"Schmidt Avenue","zip":"54474","city":null,"area":null,"county":"Marathon County","state":"Wisconsin","country":"us","formatted_address":"507, Schmidt Avenue, Rothschild, Marathon County, Wisconsin, 54474, United States of America","place_id":"209479776","datatype":"locationiq"}]