[{"longitude":-87.68016829999999,"latitude":30.3756767,"name":"OshKosh B'Gosh","address":"Tanger Outlet Center Foley\n2601 South McKenzie Street\nSpace 212\nFoley AL 36535\n(251) 943-3727","street_number":"2601","street_name":"Mckenzie St S","zip":null,"city":"Foley","area":null,"county":"Baldwin County","state":"AL","country":"USA","formatted_address":"2601 Mckenzie St S, Foley, AL, USA","place_id":"openaddresses:address:us\/al\/baldwin:1d8ad9cf3826123c","datatype":"openaddresses"},{"longitude":-86.68202199999999,"latitude":34.742957,"name":"OshKosh B'Gosh","address":"Westside Centre\n6275 University Drive NW\nSpace 34\nHuntsville AL 35806\n(256) 922-5589","street_number":"6275","street_name":"University Drive Northwest","zip":"35806","city":"Huntsville","area":null,"county":"Madison County","state":"AL","country":"USA","formatted_address":"6275 University Drive Northwest, Huntsville, AL, USA","place_id":"openstreetmap:address:node:493609205","datatype":"openstreetmap"},{"longitude":-86.5961282,"latitude":33.5488005,"name":"OshKosh B'Gosh","address":"The Outlet Shops of Grand River\n6200 Grand River Boulevard East\nSuites 334 & 338\nLeeds AL 35094\n(205) 699-1161","street_number":"6200","street_name":"Grand River Boulevard East","zip":"35094","city":"Leeds","area":null,"county":"Jefferson County","state":"AL","country":"USA","formatted_address":"6200 Grand River Boulevard East, Leeds, AL, USA","place_id":"openaddresses:address:us\/al\/jefferson:9bc0aad643e9a20b","datatype":"openaddresses"},{"longitude":-88.11648629999999,"latitude":30.6494121,"name":"OshKosh B'Gosh","address":"McGowin Park\n1310 Tingle Circle East\nSuite A112\nMobile AL 36606","street_number":"1405","street_name":"Satchel Paige Dr","zip":"36606","city":"Mobile","area":null,"county":"Mobile County","state":"AL","country":"USA","formatted_address":"1405 Satchel Paige Dr, Mobile, AL, USA","place_id":"openaddresses:address:us\/al\/city_of_mobile:311107626055ec5c","datatype":"openaddresses"},{"longitude":-92.40794849999999,"latitude":34.6609511,"name":"OshKosh B'Gosh","address":"Outlets of Little Rock\n11201 Bass Pro Parkway\nM-133\nLittle Rock AR 72209\n(501) 407-0745","street_number":"11201","street_name":"Bass Pro Pky","zip":"72210","city":"Little Rock","area":null,"county":"Pulaski County","state":"AR","country":"USA","formatted_address":"11201 Bass Pro Pky, Little Rock, AR, USA","place_id":"openaddresses:address:us\/ar\/statewide:cfe29ae3e12a22bd","datatype":"openaddresses"},{"longitude":-112.2667164,"latitude":33.5334711,"name":"OshKosh B'Gosh","address":"Tanger Outlet Center Westgate\n6800 North 95th Avenue\nSuite #310\nGlendale AZ 85305\n(623) 877-8084","street_number":"6800","street_name":"N 95th Ave","zip":"85305","city":"Glendale","area":null,"county":"Maricopa County","state":"AZ","country":"USA","formatted_address":"6800 N 95th Ave, Glendale, AZ, USA","place_id":"openaddresses:address:us\/az\/city_of_glendale:2ff33e73103e8b32","datatype":"openaddresses"},{"longitude":-111.9644722,"latitude":33.3830454,"name":"OshKosh B'Gosh","address":"Arizona Mills\n5000 S Arizona Mills Circle\nSuite 314\nTempe AZ 85282\n(480) 456-2083","street_number":null,"street_name":null,"zip":null,"city":null,"area":null,"county":null,"state":null,"country":null,"formatted_address":null,"place_id":null,"datatype":null},{"longitude":-111.1023277,"latitude":32.3784798,"name":"OshKosh B'Gosh","address":"Tucson Premium Outlets\n6401 West Marana Center Boulevard\nSuite 412\nTucson AZ 85742\n(520) 918-5513","street_number":"6397","street_name":"W Linda Vista Bl","zip":"85742","city":"Marana","area":null,"county":"Pima County","state":"AZ","country":"USA","formatted_address":"6397 W Linda Vista Bl, Marana, AZ, USA","place_id":"openaddresses:address:us\/az\/pima:53b62426e3ff935b","datatype":"openaddresses"},{"longitude":-117.2489894,"latitude":34.4692352,"name":"OshKosh B'Gosh","address":"Jess Ranch Marketplace\n19157 Bear Valley Road\nSuite #1\nApple Valley CA 92308\n(760) 240-1539","street_number":"18985","street_name":"Bear Valley Rd","zip":"92308","city":"Apple Valley","area":null,"county":"San Bernardino County","state":"CA","country":"USA","formatted_address":"18985 Bear Valley Rd, Apple Valley, CA, USA","place_id":"openaddresses:address:us\/ca\/san_bernardino:2fadf5a7de8ffc12","datatype":"openaddresses"},{"longitude":-118.9417171,"latitude":34.9850429,"name":"OshKosh B'Gosh","address":"Outlets at Tejon\n5701 Outlets at Tejon Parkway\nSpace #825\nArvin CA 93243\n(661) 858-2789","street_number":null,"street_name":null,"zip":null,"city":null,"area":null,"county":null,"state":null,"country":null,"formatted_address":null,"place_id":null,"datatype":null},{"longitude":-116.8154907,"latitude":33.9287776,"name":"OshKosh B'Gosh","address":"Desert Hills Premium Outlets\n48400 Seminole Rd.\nSuite 610\nCabazon CA 92230\n(951) 849-3883","street_number":"48555","street_name":"Seminole Dr","zip":"92230","city":"Cabazon","area":null,"county":"Riverside County","state":"CA","country":"USA","formatted_address":"48555 Seminole Dr, Cabazon, CA, USA","place_id":"openaddresses:address:us\/ca\/riverside:eedc36cfdb38c917","datatype":"openaddresses"},{"longitude":-115.5087837,"latitude":32.6650235,"name":"OshKosh B'Gosh","address":"Gran Plaza Outlets\n888 West 2nd Street,\nSuite E170\nCalexico CA 92231\n(760) 357-0744","street_number":"2249","street_name":"Avenida Internacional","zip":"21110","city":"Mexicali","area":null,"county":"Mexicali","state":"CA","country":"MEX","formatted_address":"2249 Avenida Internacional, Mexicali, Mexico","place_id":"openaddresses:address:mx\/countrywide:683740de3c59cb68","datatype":"openaddresses"},{"longitude":-119.0603778,"latitude":34.21665,"name":"OshKosh B'Gosh","address":"Camarillo Premium Outlets\n740 Ventura Blvd.\nSuite 436\nCamarillo CA 93010\n(805) 445-1116","street_number":"740","street_name":"Ventura Boulevard","zip":"93010","city":"Camarillo","area":null,"county":"Ventura County","state":"CA","country":"USA","formatted_address":"740 Ventura Boulevard, Camarillo, CA, USA","place_id":"openstreetmap:address:node:4268623921","datatype":"openstreetmap"},{"longitude":-117.3210992,"latitude":33.1264551,"name":"OshKosh B'Gosh","address":"Carlsbad Premium Outlets\n5600 Paseo Del Norte\nSuite 107\nCarlsbad CA 92008\n(760) 804-1637","street_number":"5600","street_name":"Paseo Del Norte","zip":"92008","city":"Carlsbad","area":null,"county":"San Diego County","state":"CA","country":"USA","formatted_address":"5600 Paseo Del Norte, Carlsbad, CA, USA","place_id":"openaddresses:address:us\/ca\/san_diego:5a78f6f5d322f6c3","datatype":"openaddresses"},{"longitude":-118.1539586,"latitude":34.0066625,"name":"OshKosh B'Gosh","address":"Citadel Outlets\n100 Citadel Dr.\nSuite 422\nCommerce CA 90040\n(323) 727-6780","street_number":"5675","street_name":"Telegraph Rd","zip":"90040","city":"Commerce","area":null,"county":"Los Angeles County","state":"CA","country":"USA","formatted_address":"5675 Telegraph Rd, Commerce, CA, USA","place_id":"openaddresses:address:us\/ca\/los_angeles:be010cee1b791cc9","datatype":"openaddresses"},{"longitude":-118.129828,"latitude":33.9217578,"name":"OshKosh B'Gosh","address":"The Promenade at Downey\n8960 Apollo Way\n#A11 A & B\nDowney CA 90242","street_number":"9343","street_name":"Imperial Hwy","zip":"90242","city":"Downey","area":null,"county":"Los Angeles County","state":"CA","country":"USA","formatted_address":"9343 Imperial Hwy, Downey, CA, USA","place_id":"openaddresses:address:us\/ca\/los_angeles:1520240692cc622b","datatype":"openaddresses"},{"longitude":-121.187932,"latitude":38.643781,"name":"OshKosh B'Gosh","address":"Folsom Premium Outlets\n13000 Folsom Blvd.\nSuite 1530\nFolsom CA 95630\n(916) 985-4406","street_number":null,"street_name":null,"zip":null,"city":null,"area":null,"county":null,"state":null,"country":null,"formatted_address":null,"place_id":null,"datatype":null},{"longitude":-121.969177,"latitude":37.501275,"name":"OshKosh B'Gosh","address":"Pacific Commons\n43960 Pacific Commons Boulevard\nSpace #J1-A\nFremont CA 94538\n(510) 249-9501","street_number":"43956","street_name":"Pacific Commons Bl","zip":"94538","city":"Fremont","area":null,"county":"Alameda County","state":"CA","country":"USA","formatted_address":"43956 Pacific Commons Bl, Fremont, CA, USA","place_id":"openaddresses:address:us\/ca\/alameda:8f947d5cb972a74c","datatype":"openaddresses"},{"longitude":-121.5644706,"latitude":37.025183,"name":"OshKosh B'Gosh","address":"Gilroy Premium Outlets\n8300 Arroyo Circle\nSuite B400\nGilroy CA 95020\n(408) 842-3280","street_number":null,"street_name":null,"zip":null,"city":null,"area":null,"county":null,"state":null,"country":null,"formatted_address":null,"place_id":null,"datatype":null},{"longitude":-118.2329341,"latitude":33.9741145,"name":"OshKosh B'Gosh","address":"La Alameda\n7430 South Alameda Street\nHuntington Park CA 90255\n(323) 587-1458","street_number":"2130","street_name":"E Florence Ave","zip":"90255","city":"Florence-Graham","area":null,"county":"Los Angeles County","state":"CA","country":"USA","formatted_address":"2130 E Florence Ave, Florence-Graham, CA, USA","place_id":"openaddresses:address:us\/ca\/los_angeles:41dfd4e069f77206","datatype":"openaddresses"},{"longitude":-117.9639907,"latitude":33.9187265,"name":"OshKosh B'Gosh","address":"La Habra Marketplace\n1651 West Imperial Highway\nSuite A\nLa Habra CA 90631\n(562) 266-1066","street_number":"1631","street_name":"W Imperial Hw","zip":null,"city":"La Habra","area":null,"county":"Orange County","state":"CA","country":"USA","formatted_address":"1631 W Imperial Hw, La Habra, CA, USA","place_id":"openaddresses:address:us\/ca\/orange:7d9e5177b708533f","datatype":"openaddresses"},{"longitude":-117.7019254,"latitude":33.6180731,"name":"OshKosh B'Gosh","address":"The Orchard\n23622 El Toro Road\nSuite A\nLake Forest CA 92630\n(949) 457-1630","street_number":"92626","street_name":"El Toro Road","zip":"92630","city":"Lake Forest","area":null,"county":"Orange County","state":"CA","country":"USA","formatted_address":"92626 El Toro Road, Lake Forest, CA, USA","place_id":"openstreetmap:address:way:138515823","datatype":"openstreetmap"},{"longitude":-121.8451423,"latitude":37.6986774,"name":"OshKosh B'Gosh","address":"San Francisco Premium Outlets\n3230 Paragon Outlets Drive\nLivermore CA 94588\n(925) 243-9380","street_number":"3400","street_name":"Livermore Outlets Dr","zip":"94551","city":"Livermore","area":null,"county":"Alameda County","state":"CA","country":"USA","formatted_address":"3400 Livermore Outlets Dr, Livermore, CA, USA","place_id":"openaddresses:address:us\/ca\/alameda:178c0c155ae4281e","datatype":"openaddresses"},{"longitude":-118.0866229,"latitude":33.8290361,"name":"OshKosh B'Gosh","address":"Long Beach Towne Center\n7378 Carson Boulevard\nLong Beach CA 90808\n(562) 429-5952","street_number":"7411","street_name":"Carson Blvd","zip":"90808","city":"Long Beach","area":null,"county":"Los Angeles County","state":"CA","country":"USA","formatted_address":"7411 Carson Blvd, Long Beach, CA, USA","place_id":"openaddresses:address:us\/ca\/los_angeles:224f3136b565379f","datatype":"openaddresses"},{"longitude":-118.3365151,"latitude":34.0103542,"name":"OshKosh B'Gosh","address":"Baldwin Hills\n3650 West Martin Luther King Boulevard\nSuite 226\nLos Angeles CA 90008\n(323) 293-3691","street_number":"3650","street_name":"W Martin Luther King Jr Blvd","zip":"90008","city":"Los Angeles","area":null,"county":"Los Angeles County","state":"CA","country":"USA","formatted_address":"3650 W Martin Luther King Jr Blvd, Los Angeles, CA, USA","place_id":"openaddresses:address:us\/ca\/los_angeles:08074e3a4e381135","datatype":"openaddresses"},{"longitude":-121.897412,"latitude":37.415738,"name":"OshKosh B'Gosh","address":"Great Mall of the Bay Area\n292 Great Mall Dr.\nMilpitas CA 95035\n(408) 719-8957","street_number":"414","street_name":"Great Mall Dr","zip":"95035","city":"Milpitas","area":null,"county":"Santa Clara County","state":"CA","country":"USA","formatted_address":"414 Great Mall Dr, Milpitas, CA, USA","place_id":"openaddresses:address:us\/ca\/santa_clara:26b95ca7f21fcd0d","datatype":"openaddresses"},{"longitude":-117.5506018,"latitude":34.0725964,"name":"OshKosh B'Gosh","address":"Ontario Mills\n1 Mills Circle\nSpace 708\nOntario CA 91764\n(909) 987-5966","street_number":"1","street_name":"Mills Circle","zip":"91764","city":"Ontario","area":null,"county":"San Bernardino County","state":"CA","country":"USA","formatted_address":"1 Mills Circle, Ontario, CA, USA","place_id":"openstreetmap:address:way:41941181","datatype":"openstreetmap"},{"longitude":-118.152456,"latitude":34.604844,"name":"OshKosh B'Gosh","address":"Antelope Valley Mall\n1301 Rancho Vista Boulevard\nSuite L\nPalmdale CA 93551\n(661) 575-9925","street_number":"1233","street_name":"W Avenue P","zip":"93551","city":"Palmdale","area":null,"county":"Los Angeles County","state":"CA","country":"USA","formatted_address":"1233 W Avenue P, Palmdale, CA, USA","place_id":"openaddresses:address:us\/ca\/los_angeles:57ee2dd849a15561","datatype":"openaddresses"},{"longitude":-118.4502317,"latitude":34.2231832,"name":"OshKosh B'Gosh","address":"Panorama Mall\n8401 Van Nuys Boulevard\nPanorama City CA 91402\n(818) 221-3666","street_number":"8403","street_name":"Van Nuys Blvd","zip":"91402","city":"Los Angeles","area":null,"county":"Los Angeles County","state":"CA","country":"USA","formatted_address":"8403 Van Nuys Blvd, Los Angeles, CA, USA","place_id":"openaddresses:address:us\/ca\/los_angeles:59b80991dd016dfe","datatype":"openaddresses"},{"longitude":-122.6498974,"latitude":38.256944,"name":"OshKosh B'Gosh","address":"Petaluma Village Premium Outlets\n2200 Petaluma Blvd. North\nSuite 700\nPetaluma CA 94952\n(707) 766-8113","street_number":"2020","street_name":"Petaluma Boulevard North","zip":"94952","city":"Petaluma","area":null,"county":"Sonoma County","state":"CA","country":"USA","formatted_address":"2020 Petaluma Boulevard North, Petaluma, CA, USA","place_id":"openstreetmap:address:node:1747982704","datatype":"openstreetmap"},{"longitude":-120.6278332,"latitude":35.1354352,"name":"OshKosh B'Gosh","address":"Pismo Beach Premium Outlets\n333 Five Cities Dr.\nSuite 130\nPismo Beach CA 93449\n(805) 773-6064","street_number":"333","street_name":"Five Cities Drive","zip":"93449","city":"Pismo Beach","area":null,"county":"San Luis Obispo County","state":"CA","country":"USA","formatted_address":"333 Five Cities Drive, Pismo Beach, CA, USA","place_id":"openstreetmap:address:way:312672543","datatype":"openstreetmap"},{"longitude":-117.9266525,"latitude":33.99016280000001,"name":"OshKosh B'Gosh","address":"Puente Hills Town Center\n17406 Colima Road\nW-16A\nRowland Heights CA 91748\n(626) 964-5137","street_number":"17416","street_name":"Colima Rd","zip":"91748","city":"Rowland Heights","area":null,"county":"Los Angeles County","state":"CA","country":"USA","formatted_address":"17416 Colima Rd, Rowland Heights, CA, USA","place_id":"openaddresses:address:us\/ca\/los_angeles:5f800287d738d908","datatype":"openaddresses"},{"longitude":-121.658187,"latitude":36.7169,"name":"OshKosh B'Gosh","address":"Northridge Mall\n880 Northridge Mall\nSpace T01A\nSalinas CA 93906\n(831) 449-2186","street_number":"796","street_name":"Northridge Mall","zip":"93906","city":"Salinas","area":null,"county":"Monterey County","state":"CA","country":"USA","formatted_address":"796 Northridge Mall, Salinas, CA, USA","place_id":"openstreetmap:address:way:36470614","datatype":"openstreetmap"},{"longitude":-117.628282,"latitude":33.438464,"name":"OshKosh B'Gosh","address":"Outlets at San Clemente\n101 West Avenida Hermosa\nUnit #544\nSan Clemente CA 92672\n(949) 361-6947","street_number":"115","street_name":"Via Pamplona","zip":null,"city":"San Clemente","area":null,"county":"Orange County","state":"CA","country":"USA","formatted_address":"115 Via Pamplona, San Clemente, CA, USA","place_id":"openstreetmap:address:node:4911297209","datatype":"openstreetmap"},{"longitude":-121.9881879,"latitude":37.2925802,"name":"OshKosh B'Gosh","address":"Westgate Mall\n1600 Saratoga Avenue\nSuite #229\nSan Jose CA 95129\n(408) 866-5247","street_number":"1600","street_name":"Saratoga Ave","zip":"95129","city":"San Jose","area":null,"county":"Santa Clara County","state":"CA","country":"USA","formatted_address":"1600 Saratoga Ave, San Jose, CA, USA","place_id":"openaddresses:address:us\/ca\/santa_clara:17c91e706b4c4abf","datatype":"openaddresses"},{"longitude":-117.0402388,"latitude":32.5468212,"name":"OshKosh B'Gosh","address":"San Ysidro Village\n4460 Camino de la Plaza\nSan Ysidro CA 92173\n(619) 690-2255","street_number":"4330","street_name":"Camino De La Plaza","zip":"92173","city":"San Diego","area":null,"county":"San Diego County","state":"CA","country":"USA","formatted_address":"4330 Camino De La Plaza, San Diego, CA, USA","place_id":"openaddresses:address:us\/ca\/san_diego:5ebe5418910f9684","datatype":"openaddresses"},{"longitude":-121.9456446,"latitude":37.3255266,"name":"OshKosh B'Gosh","address":"Westfield Valley Fair\n2855 Stevens Creek Boulevard\nSuite #1265\nSanta Clara CA 95050\n(408) 423-8640","street_number":"2855","street_name":"Stevens Creek Boulevard","zip":"95050","city":"San Jose","area":null,"county":"Santa Clara County","state":"CA","country":"USA","formatted_address":"2855 Stevens Creek Boulevard, San Jose, CA, USA","place_id":"openstreetmap:address:node:3219883702","datatype":"openstreetmap"},{"longitude":-121.4579987,"latitude":37.7595957,"name":"OshKosh B'Gosh","address":"West Valley Mall\n3200 North Naglee Road\nSpace #248\nTracy CA 95304\n(209) 835-6240","street_number":"3200","street_name":"Naglee Road","zip":"95304","city":"Tracy","area":null,"county":"San Joaquin County","state":"CA","country":"USA","formatted_address":"3200 Naglee Road, Tracy, CA, USA","place_id":"openstreetmap:address:way:252937054","datatype":"openstreetmap"},{"longitude":-121.956992,"latitude":38.3657188,"name":"OshKosh B'Gosh","address":"Vacaville Premium Outlets\n101-A Nut Tree Rd.\nVacaville CA 95687\n(707) 446-9275","street_number":null,"street_name":null,"zip":null,"city":null,"area":null,"county":null,"state":null,"country":null,"formatted_address":null,"place_id":null,"datatype":null},{"longitude":-117.8854737,"latitude":34.0743177,"name":"OshKosh B'Gosh","address":"Eastland Center\n2620 E. Workman Avenue #4\nWest Covina CA 91791\n(626) 331-1595","street_number":"2753","street_name":"E Eastland Center Dr","zip":"91791","city":"West Covina","area":null,"county":"Los Angeles County","state":"CA","country":"USA","formatted_address":"2753 E Eastland Center Dr, West Covina, CA, USA","place_id":"openaddresses:address:us\/ca\/los_angeles:c14606de2603b6c9","datatype":"openaddresses"},{"longitude":-104.8747962,"latitude":39.4161671,"name":"OshKosh B'Gosh","address":"Outlets at Castle Rock\n5050 Factory Shops Blvd.\nStore 900\nCastle Rock CO 80104\n(303) 660-3378","street_number":null,"street_name":null,"zip":null,"city":null,"area":null,"county":null,"state":null,"country":null,"formatted_address":null,"place_id":null,"datatype":null},{"longitude":-105.1586744,"latitude":39.7325357,"name":"OshKosh B'Gosh","address":"Colorado Mills\n14500 West Colfax Avenue\nRoom #506\nLakewood CO 80401\n(303) 271-1366","street_number":"14255 Unit D","street_name":"West Colfax Avenue","zip":"80401","city":"Lakewood","area":null,"county":"Jefferson County","state":"CO","country":"USA","formatted_address":"14255 Unit D West Colfax Avenue, Lakewood, CO, USA","place_id":"openstreetmap:address:node:2967846477","datatype":"openstreetmap"},{"longitude":-104.876604,"latitude":39.562641,"name":"OshKosh B'Gosh","address":"Park Meadows\n8505 Park Meadows Center Drive\nSuite 2533\nLone Tree CO 80124\n(303) 858-0211","street_number":"8405","street_name":"Park Meadows Center Dr","zip":"80124","city":"Lone Tree","area":null,"county":"Douglas County","state":"CO","country":"USA","formatted_address":"8405 Park Meadows Center Dr, Lone Tree, CO, USA","place_id":"openaddresses:address:us\/co\/douglas:5c70420ae8d53855","datatype":"openaddresses"},{"longitude":-104.99504,"latitude":40.41215580000001,"name":"OshKosh B'Gosh","address":"Outlets at Loveland\n5753 McWhinney Blvd.\nSuite A-360\nLoveland CO 80538\n(970) 635-9963","street_number":"5659","street_name":"Mcwhinney Blvd","zip":"80538","city":"Loveland","area":null,"county":"Larimer County","state":"CO","country":"USA","formatted_address":"5659 Mcwhinney Blvd, Loveland, CO, USA","place_id":"openaddresses:address:us\/co\/city_of_loveland:d8f9c58b57447bf6","datatype":"openaddresses"},{"longitude":-106.0704771,"latitude":39.63098249999999,"name":"OshKosh B'Gosh","address":"Silverthorne Factory Stores\n246 Rainbow Dr.\nSuite R\nSilverthorne CO 80498\n(970) 468-4804","street_number":null,"street_name":null,"zip":null,"city":null,"area":null,"county":null,"state":null,"country":null,"formatted_address":null,"place_id":null,"datatype":null},{"longitude":-73.38523719999999,"latitude":41.1281244,"name":"OshKosh B'Gosh","address":"Westport Avenue Shopping Center\n542 Westport Avenue\nNorwalk CT 06851\n(203) 845-0037","street_number":"509","street_name":"Westport Ave","zip":"06851","city":"Norwalk","area":null,"county":"Fairfield County","state":"CT","country":"USA","formatted_address":"509 Westport Ave, Norwalk, CT, USA","place_id":"openaddresses:address:us\/ct\/statewide:a77dc41bd08800cd","datatype":"openaddresses"},{"longitude":-72.4294333,"latitude":41.2892087,"name":"OshKosh B'Gosh","address":"Tanger Outlet Center Westbrook\n314 Flat Rock Place\nSuite C100\nWestbrook CT 6498\n(860) 399-0215","street_number":"314","street_name":"Flat Rock Place","zip":"06498","city":null,"area":null,"county":"Middlesex County","state":"CT","country":"USA","formatted_address":"314 Flat Rock Place, Westbrook, CT, USA","place_id":"openstreetmap:address:way:374945936","datatype":"openstreetmap"},{"longitude":-75.1124579,"latitude":38.7192896,"name":"OshKosh B'Gosh","address":"Tanger Outlet Center Rehoboth Beach\n36470 Seaside Outlet Dr.\nSuite 1640-S\nRehoboth Beach DE 19971\n(302) 227-4787","street_number":"36470","street_name":"Seaside Outlet Dr","zip":"19971","city":null,"area":null,"county":"Sussex County","state":"DE","country":"USA","formatted_address":"36470 Seaside Outlet Dr, Sussex County, DE, USA","place_id":"openaddresses:address:us\/de\/sussex:9a4c92a034d51995","datatype":"openaddresses"},{"longitude":-75.5471718,"latitude":39.8129892,"name":"OshKosh B'Gosh","address":"Concord Square Shopping Center\n4433 Concord Pike\nWilmington DE 19803\n(302) 478-1764","street_number":"4211","street_name":"Concord Pk","zip":"19803","city":null,"area":null,"county":"New Castle County","state":"DE","country":"USA","formatted_address":"4211 Concord Pk, New Castle County, DE, USA","place_id":"openaddresses:address:us\/de\/new_castle:8a526cc05f933dc8","datatype":"openaddresses"},{"longitude":-81.09901479999999,"latitude":29.2139765,"name":"OshKosh B'Gosh","address":"Tanger Outlets Daytona\n1100 Cornerstone Boulevard\nSuite 1045\nDaytona Beach FL 32117\n(386) 274-1991","street_number":"1100","street_name":"Cornerstone Blvd","zip":"32117","city":"Daytona Beach","area":null,"county":"Volusia County","state":"FL","country":"USA","formatted_address":"1100 Cornerstone Blvd, Daytona Beach, FL, USA","place_id":"openaddresses:address:us\/fl\/volusia:ec8a345cb3589467","datatype":"openaddresses"},{"longitude":-86.350436,"latitude":30.378132,"name":"OshKosh B'Gosh","address":"Silver Sands Premium Outlets\n10406 West Emerald Coast Parkway\nSuite 48\nDestin FL 32550\n(850) 654-8860","street_number":"200","street_name":"Silver Sands","zip":"32550","city":"Miramar Beach","area":null,"county":"Walton County","state":"FL","country":"USA","formatted_address":"200 Silver Sands, Miramar Beach, FL, USA","place_id":"openaddresses:address:us\/fl\/_loveland:0d2f29e6049afd0a","datatype":"openaddresses"},{"longitude":-82.50760559999999,"latitude":27.5342752,"name":"OshKosh B'Gosh","address":"Ellenton Premium Outlets\n5455 Factory Shops Blvd.\nEllenton FL 34222\n(941) 723-1511","street_number":"5422","street_name":"Factory Shops Blvd","zip":"34222","city":null,"area":null,"county":"Manatee County","state":"FL","country":"USA","formatted_address":"5422 Factory Shops Blvd, Manatee County, FL, USA","place_id":"openaddresses:address:us\/fl\/manatee:b33b05e69e264e86","datatype":"openaddresses"},{"longitude":-81.7747808,"latitude":26.4362622,"name":"OshKosh B'Gosh","address":"Miromar Outlets\n10801 Corkscrew Rd.\nSuite 130\nEstero FL 33928\n(239) 947-1098","street_number":"10801","street_name":"Corkscrew Rd","zip":"33928","city":"Estero","area":null,"county":"Lee County","state":"FL","country":"USA","formatted_address":"10801 Corkscrew Rd, Estero, FL, USA","place_id":"openaddresses:address:us\/fl\/lee:a8b9672492b8016b","datatype":"openaddresses"},{"longitude":-80.47309469999999,"latitude":25.4525539,"name":"OshKosh B'Gosh","address":"Florida Keys Outlet Marketplace\n250 East Palm Dr.\nSuite 200\nFlorida City FL 33034\n(305) 248-7100","street_number":"553","street_name":"NE 1st Avenue","zip":"33034","city":"Florida City","area":null,"county":"Miami-Dade County","state":"FL","country":"USA","formatted_address":"553 NE 1st Avenue, Florida City, FL, USA","place_id":"openstreetmap:address:way:462904006","datatype":"openstreetmap"},{"longitude":-80.1157656,"latitude":26.1689073,"name":"OshKosh B'Gosh","address":"Coral Ridge Mall\n3200 North Federal Highway\nSpace 603\nFort Lauderdale FL 33306\n(954) 565-2188","street_number":"3200","street_name":"N Federal Hwy","zip":"33306","city":"Fort Lauderdale","area":null,"county":"Broward County","state":"FL","country":"USA","formatted_address":"3200 N Federal Hwy, Fort Lauderdale, FL, USA","place_id":"openaddresses:address:us\/fl\/broward:db710ccec4aeba0a","datatype":"openaddresses"},{"longitude":-81.9735109,"latitude":26.494744,"name":"OshKosh B'Gosh","address":"Sanibel Outlets\n20350 Summerlin Rd.\nSuite 2130\nFort Myers FL 33908\n(239) 432-9589","street_number":"20350","street_name":"Summerlin Rd","zip":"33908","city":"Iona","area":null,"county":"Lee County","state":"FL","country":"USA","formatted_address":"20350 Summerlin Rd, Iona, FL, USA","place_id":"openaddresses:address:us\/fl\/statewide:592685f664caf1d6","datatype":"openaddresses"},{"longitude":-80.296686,"latitude":25.8663095,"name":"OshKosh B'Gosh","address":"Palm Springs Mile\n407 West 49th Street\nSuite #4\nHialeah FL 33012\n(305) 825-7066","street_number":"680","street_name":"West 49th Street","zip":"33012","city":"Hialeah","area":null,"county":"Miami-Dade County","state":"FL","country":"USA","formatted_address":"680 West 49th Street, Hialeah, FL, USA","place_id":"openstreetmap:address:way:435884531","datatype":"openstreetmap"},{"longitude":-81.40942230000002,"latitude":28.3404336,"name":"OshKosh B'Gosh","address":"The Crosslands\n616 Centerview Boulevard\nKissimmee FL 34741\n(407) 846-2018","street_number":"750","street_name":"Centerview Blvd","zip":"34741","city":null,"area":null,"county":"Osceola County","state":"FL","country":"USA","formatted_address":"750 Centerview Blvd, Osceola County, FL, USA","place_id":"openaddresses:address:us\/fl\/osceola:b1a06496d3b865a2","datatype":"openaddresses"},{"longitude":-82.3905997,"latitude":28.1903542,"name":"OshKosh B'Gosh","address":"Tampa Premium Outlets\n2300 Grand Cypress Drive\nSuite 120\nLutz FL 33559\n(813) 949-9173","street_number":"2398","street_name":"Grand Cypress Dr","zip":"33559","city":"Wesley Chapel","area":null,"county":"Pasco County","state":"FL","country":"USA","formatted_address":"2398 Grand Cypress Dr, Wesley Chapel, FL, USA","place_id":"openaddresses:address:us\/fl\/statewide:2753775ae650eb7b","datatype":"openaddresses"},{"longitude":-80.194315,"latitude":25.807479,"name":"OshKosh B'Gosh","address":"Shops at Midtown Miami\n3401 North Miami Avenue\nSuite #138\nMiami FL 33127\n(305) 438-3764","street_number":"3201","street_name":"North Miami Avenue","zip":"33127","city":"Miami","area":null,"county":"Miami-Dade County","state":"FL","country":"USA","formatted_address":"3201 North Miami Avenue, Miami, FL, USA","place_id":"openstreetmap:address:way:279630048","datatype":"openstreetmap"},{"longitude":-80.3808011,"latitude":25.7870262,"name":"OshKosh B'Gosh","address":"Dolphin Mall\n11401 NW 12th St.\nSpace #181\nMiami FL 33172\n(305) 513-4557","street_number":"11401","street_name":"NW 12th Street","zip":"33172","city":"Sweetwater","area":null,"county":"Miami-Dade County","state":"FL","country":"USA","formatted_address":"11401 NW 12th Street, Sweetwater, FL, USA","place_id":"openstreetmap:address:way:112955292","datatype":"openstreetmap"},{"longitude":-81.48578359999999,"latitude":28.3496209,"name":"OshKosh B'Gosh","address":"Lake Buena Vista Factory Stores\n15795 State Road 535\nOrlando FL 32821\n(407) 239-6252","street_number":"15659","street_name":"State Road 535","zip":"32821","city":null,"area":null,"county":"Orange County","state":"FL","country":"USA","formatted_address":"15659 State Road 535, Orange County, FL, USA","place_id":"openaddresses:address:us\/fl\/orange_county:3ddd9a9a7f9534a8","datatype":"openaddresses"},{"longitude":-81.4923639,"latitude":28.3871744,"name":"OshKosh B'Gosh","address":"Orlando Vineland Premium Outlets\n8200 Vineland Ave.\nSuite 820\nOrlando FL 32821\n(407) 239-4666","street_number":"8200","street_name":"Vineland Avenue","zip":"32821","city":null,"area":null,"county":"Orange County","state":"FL","country":"USA","formatted_address":"8200 Vineland Avenue, Orange County, FL, USA","place_id":"openaddresses:address:us\/fl\/orange_county:ffb7a14bd5b4e81c","datatype":"openaddresses"},{"longitude":-81.4513577,"latitude":28.4746886,"name":"OshKosh B'Gosh","address":"Orlando International Premium Outlets\n4967 International Dr. 3A.25\nOrlando FL 32819\n(407) 352-6414","street_number":"4965","street_name":"International Drive","zip":"32819","city":"Orlando","area":null,"county":"Orange County","state":"FL","country":"USA","formatted_address":"4965 International Drive, Orlando, FL, USA","place_id":"openaddresses:address:us\/fl\/orange_county:32504bc6692c92af","datatype":"openaddresses"},{"longitude":-80.3367607,"latitude":26.0043472,"name":"OshKosh B'Gosh","address":"Shops at Pembroke Gardens\n524 SW 145th Terrace\nSpace 10040\nPembroke Pines FL 33027\n(954) 431-8258","street_number":"527","street_name":"Sw 145 Ter","zip":"33027","city":"Pembroke Pines","area":null,"county":"Broward County","state":"FL","country":"USA","formatted_address":"527 Sw 145 Ter, Pembroke Pines, FL, USA","place_id":"openaddresses:address:us\/fl\/broward:4215c88f006e4874","datatype":"openaddresses"},{"longitude":-81.41706769999999,"latitude":29.9240166,"name":"OshKosh B'Gosh","address":"St. Augustine Premium Outlets\n2700 State Rd. 16\nSuite 505\nSt. Augustine FL 32092\n(904) 829-8923","street_number":"2700","street_name":"State Road 16","zip":"32092","city":null,"area":null,"county":"St. Johns County","state":"FL","country":"USA","formatted_address":"2700 State Road 16, St. Johns County, FL, USA","place_id":"openaddresses:address:us\/fl\/statewide:e90676eaa8f38393","datatype":"openaddresses"},{"longitude":-80.320787,"latitude":26.151701,"name":"OshKosh B'Gosh","address":"Sawgrass Mills\n12801 West Sunrise Blvd.\nSuite 875\nSunrise FL 33323\n(954) 846-7953","street_number":"12801","street_name":"W Sunrise Blvd","zip":"33323","city":"Sunrise","area":null,"county":"Broward County","state":"FL","country":"USA","formatted_address":"12801 W Sunrise Blvd, Sunrise, FL, USA","place_id":"openaddresses:address:us\/fl\/broward:951e371527e127a3","datatype":"openaddresses"},{"longitude":-80.085002,"latitude":26.723731,"name":"OshKosh B'Gosh","address":"Palm Beach Outlets\n1741 Palm Beach Lakes Blvd\nSpace #E209\nWest Palm Beach FL 33401\n(561) 689-7239","street_number":"1703","street_name":"Palm Beach Lakes Blvd","zip":"33401","city":"West Palm Beach","area":null,"county":"Palm Beach County","state":"FL","country":"USA","formatted_address":"1703 Palm Beach Lakes Blvd, West Palm Beach, FL, USA","place_id":"openaddresses:address:us\/fl\/palm_beach_county:452e12d61f86e662","datatype":"openaddresses"},{"longitude":-81.583373,"latitude":28.523497,"name":"OshKosh B'Gosh","address":"Winter Garden Village\n3049 Daniels Road\nUnit #220B\nWinter Garden FL 34787\n(407) 654-7842","street_number":"3255","street_name":"Daniels Road","zip":"34787","city":"Winter Garden","area":null,"county":"Orange County","state":"FL","country":"USA","formatted_address":"3255 Daniels Road, Winter Garden, FL, USA","place_id":"openaddresses:address:us\/fl\/orange_county:1c11557eae36a9c6","datatype":"openaddresses"},{"longitude":-84.3356469,"latitude":33.9333148,"name":"OshKosh B'Gosh","address":"Perimeter Village\n4737A Ashford Dunwoody Road,\nUnit BOH\nAtlanta GA 30338\n(770) 668-9487","street_number":"4721","street_name":"Ashford Dunwoody Road","zip":"30338","city":"Dunwoody","area":null,"county":"DeKalb County","state":"GA","country":"USA","formatted_address":"4721 Ashford Dunwoody Road, Dunwoody, GA, USA","place_id":"openaddresses:address:us\/ga\/dekalb:66b9f29ef61539c0","datatype":"openaddresses"},{"longitude":-84.3867508,"latitude":33.8295151,"name":"OshKosh B'Gosh","address":"Peachtree Battle\n2345 B Peachtree Road NW\nAtlanta GA 30305\n(404) 869-3373","street_number":"2715","street_name":"Peachtree Rd Ne","zip":"30305","city":"Atlanta","area":null,"county":"Fulton County","state":"GA","country":"USA","formatted_address":"2715 Peachtree Rd Ne, Atlanta, GA, USA","place_id":"openaddresses:address:us\/ga\/city_of_atlanta:869a29932fabf1f0","datatype":"openaddresses"},{"longitude":-82.0398623,"latitude":33.5121626,"name":"OshKosh B'Gosh","address":"Washington Crossing\n2907 Washington Road\nSuite #208\nAugusta GA 30909\n(706) 481-5007","street_number":"2951","street_name":"Washington Rd","zip":"30909","city":"Augusta-Richmond County","area":null,"county":"Richmond County","state":"GA","country":"USA","formatted_address":"2951 Washington Rd, Augusta-Richmond County, GA, USA","place_id":"openaddresses:address:us\/ga\/richmond:535e99344a29145f","datatype":"openaddresses"},{"longitude":-83.9822512,"latitude":34.0656681,"name":"OshKosh B'Gosh","address":"Mall of Georgia\n3333 Buford Drive\nSuite 1062\nBuford GA 30519\n(770) 904-6548","street_number":"3333","street_name":"Buford Dr","zip":"30519","city":null,"area":null,"county":"Gwinnett County","state":"GA","country":"USA","formatted_address":"3333 Buford Dr, Gwinnett County, GA, USA","place_id":"openaddresses:address:us\/ga\/gwinnett:7120d5bb2e2ab70c","datatype":"openaddresses"},{"longitude":-84.91858719999999,"latitude":34.4602511,"name":"OshKosh B'Gosh","address":"Calhoun Outlet Marketplace\n455 Belwood Rd.\nSuite 47\nCalhoun GA 30701\n(706) 624-3608","street_number":"64","street_name":"Belwood Rd Se","zip":null,"city":"Calhoun","area":null,"county":"Gordon County","state":"GA","country":"USA","formatted_address":"64 Belwood Rd Se, Calhoun, GA, USA","place_id":"openaddresses:address:us\/ga\/gordon:4f94afd103859bab","datatype":"openaddresses"},{"longitude":-84.9465189,"latitude":32.546175,"name":"OshKosh B'Gosh","address":"Columbus Park Crossing\n5555 Whittlesey Blvd.\nSuite 2001\nColumbus GA 31909\n(706) 494-8909","street_number":"5525","street_name":"Whittlesey Blvd","zip":null,"city":"Columbus","area":null,"county":"Muscogee County","state":"GA","country":"USA","formatted_address":"5525 Whittlesey Blvd, Columbus, GA, USA","place_id":"openaddresses:address:us\/ga\/muscogee:73c13cb7cf7650de","datatype":"openaddresses"},{"longitude":-83.47064200000001,"latitude":34.25181,"name":"OshKosh B'Gosh","address":"Tanger Outlet Center Commerce\n800 Steven B. Tanger Blvd.\nSuite 505\nCommerce GA 30529\n(706) 336-8474","street_number":"594","street_name":"Steven B Tanger Blvd","zip":null,"city":null,"area":null,"county":"Jackson County","state":"GA","country":"USA","formatted_address":"594 Steven B Tanger Blvd, Jackson County, GA, USA","place_id":"openaddresses:address:us\/ga\/jackson:af953f96fcaa39d7","datatype":"openaddresses"},{"longitude":-84.048047,"latitude":34.358497,"name":"OshKosh B'Gosh","address":"North Georgia Premium Outlets\n800 Highway 400 South\nSuite 100\nDawsonville GA 30534\n(706) 216-2294","street_number":null,"street_name":null,"zip":null,"city":null,"area":null,"county":null,"state":null,"country":null,"formatted_address":null,"place_id":null,"datatype":null},{"longitude":-84.1230327,"latitude":33.347566,"name":"OshKosh B'Gosh","address":"Tanger Outlet Center Locust Grove\n1000 Tanger Dr.\nSuite 314\nLocust Grove GA 30248\n(770) 914-7423","street_number":"1000","street_name":"Tanger Dr","zip":null,"city":"Locust Grove","area":null,"county":"Henry County","state":"GA","country":"USA","formatted_address":"1000 Tanger Dr, Locust Grove, GA, USA","place_id":"openaddresses:address:us\/ga\/henry:1cfe85bec68f4073","datatype":"openaddresses"},{"longitude":-84.42813699999999,"latitude":33.980178,"name":"OshKosh B'Gosh","address":"Merchant's Walk\n1311 Johnson Ferry Road\nSuite 544\nMarietta GA 30068","street_number":"1311","street_name":"1329 Johnson Ferry Rd","zip":null,"city":null,"area":null,"county":"Cobb County","state":"GA","country":"USA","formatted_address":"1311 1329 Johnson Ferry Rd, Cobb County, GA, USA","place_id":"openaddresses:address:us\/ga\/cobb:2c6d2416d5eaead0","datatype":"openaddresses"},{"longitude":-84.74504089999999,"latitude":33.3946692,"name":"OshKosh B'Gosh","address":"Newnan Crossing\n595 Bullsboro Drive\nNewnan GA 30265\n(770) 252-5982","street_number":"997","street_name":"Bullsboro Dr","zip":"30265","city":"Newnan","area":null,"county":"Coweta County","state":"GA","country":"USA","formatted_address":"997 Bullsboro Dr, Newnan, GA, USA","place_id":"openaddresses:address:us\/ga\/coweta:80e33863ca80d658","datatype":"openaddresses"},{"longitude":-81.2433679,"latitude":32.1343987,"name":"OshKosh B'Gosh","address":"Tanger Outlet Center Savannah\n200 Tanger Outlet Boulevard\nSuite #677 (Building #6)\nPooler GA 31322\n(912) 450-0720","street_number":"200","street_name":"Tanger Outlets Blvd","zip":"31322","city":"Pooler","area":null,"county":"Chatham County","state":"GA","country":"USA","formatted_address":"200 Tanger Outlets Blvd, Pooler, GA, USA","place_id":"openaddresses:address:us\/ga\/chatham:200034afde95f3fc","datatype":"openaddresses"},{"longitude":-84.5262444,"latitude":34.1201198,"name":"OshKosh B'Gosh","address":"Outlet Shoppes at Atlanta\n915 Ridgewalk Parkway\nSpace D430\nWoodstock GA 30188\n(770) 928-2836","street_number":"215","street_name":"Winthrope Dr","zip":"30188","city":"Woodstock","area":null,"county":"Cherokee County","state":"GA","country":"USA","formatted_address":"215 Winthrope Dr, Woodstock, GA, USA","place_id":"openaddresses:address:us\/ga\/cherokee:d2898b1c90ddf9c6","datatype":"openaddresses"},{"longitude":-158.0066404,"latitude":21.4007982,"name":"OshKosh B'Gosh","address":"Waikele Premium Outlets\n94-792 Lumiaina St.\nSuite 210\nWaipahu HI 96797\n(808) 678-2773","street_number":"94-205","street_name":"Lumiaina Pl","zip":null,"city":"Waikele","area":null,"county":"Honolulu County","state":"HI","country":"USA","formatted_address":"94-205 Lumiaina Pl, Waikele, HI, USA","place_id":"openaddresses:address:us\/hi\/honolulu:558be20b6288873e","datatype":"openaddresses"},{"longitude":-91.6264741,"latitude":42.0256515,"name":"OshKosh B'Gosh","address":"Lindale Mall\n4444 First Avenue NE\nCedar Rapids IA 52402\n(319) 409-1265","street_number":"4441","street_name":"1st Avenue East","zip":"52402","city":"Cedar Rapids","area":null,"county":"Linn County","state":"IA","country":"USA","formatted_address":"4441 1st Avenue East, Cedar Rapids, IA, USA","place_id":"openstreetmap:address:way:65446866","datatype":"openstreetmap"},{"longitude":-93.79455089999999,"latitude":41.5620346,"name":"OshKosh B'Gosh","address":"Galleria at Jordan Creek\n6305 Mills Civic Parkway\nSuite 2117\nWest Des Moines IA 50266\n(515) 224-5977","street_number":"6305","street_name":"Mills Civic Parkway","zip":"50266","city":"West Des Moines","area":null,"county":"Dallas County","state":"IA","country":"USA","formatted_address":"6305 Mills Civic Parkway, West Des Moines, IA, USA","place_id":"openstreetmap:address:node:3036238701","datatype":"openstreetmap"},{"longitude":-92.0051818,"latitude":41.6898499,"name":"OshKosh B'Gosh","address":"Tanger Outlet Center Williamsburg\n130 Tanger Dr.\nSuite 130\nWilliamsburg IA 52361\n(319) 668-8092","street_number":null,"street_name":null,"zip":null,"city":null,"area":null,"county":null,"state":null,"country":null,"formatted_address":null,"place_id":null,"datatype":null},{"longitude":-111.9844778,"latitude":43.47894760000001,"name":"OshKosh B'Gosh","address":"Ammon Town Center\n2037 South 25th Street\nAmmon ID 83406\n(208) 522-9940","street_number":"2001","street_name":"S 25th E","zip":"83406","city":"Ammon","area":null,"county":"Bonneville County","state":"ID","country":"USA","formatted_address":"2001 S 25th E, Ammon, ID, USA","place_id":"openaddresses:address:us\/id\/bonneville:75fba34eceaa4fab","datatype":"openaddresses"},{"longitude":-88.2739699,"latitude":41.800478,"name":"OshKosh B'Gosh","address":"Chicago Premium Outlets\n1650 Premium Outlets Blvd.\nSuite 115\nAurora IL 60504\n(630) 236-0000","street_number":"1650","street_name":"Premium Outlets Bl","zip":"60502","city":"Aurora","area":null,"county":"Kane County","state":"IL","country":"USA","formatted_address":"1650 Premium Outlets Bl, Aurora, IL, USA","place_id":"openaddresses:address:us\/il\/city_of_aurora:06ece7d3233ff415","datatype":"openaddresses"},{"longitude":-88.9579937,"latitude":40.4907031,"name":"OshKosh B'Gosh","address":"Empire Plaza\n1608-D East Empire Street\nBloomington IL 61701\n(309) 661-2207","street_number":null,"street_name":null,"zip":null,"city":null,"area":null,"county":null,"state":null,"country":null,"formatted_address":null,"place_id":null,"datatype":null},{"longitude":-87.725382,"latitude":41.8172609,"name":"OshKosh B'Gosh","address":"Pulaski Promenade\n4144 South Pulaski Road\nChicago IL 60632\n(773) 650-0525","street_number":"4150","street_name":"South Pulaski Road","zip":"60632","city":"Chicago","area":null,"county":"Cook County","state":"IL","country":"USA","formatted_address":"4150 South Pulaski Road, South Side, Chicago, IL, USA","place_id":"openstreetmap:address:node:3412762907","datatype":"openstreetmap"},{"longitude":-87.70166189999999,"latitude":41.9458278,"name":"OshKosh B'Gosh","address":"Addison Mall\n2905 West Addison Street\nChicago IL 60618","street_number":"2959","street_name":"West Addison Street","zip":"60618","city":"Chicago","area":null,"county":"Cook County","state":"IL","country":"USA","formatted_address":"2959 West Addison Street, North Side, Chicago, IL, USA","place_id":"openaddresses:address:us\/il\/cook:053c4859305fb42c","datatype":"openaddresses"},{"longitude":-89.954473,"latitude":38.7889614,"name":"OshKosh B'Gosh","address":"Edwardsville Crossing\n6622 Edwardsville Crossing Drive\nEdwardsville IL 62025\n(618) 659-0512","street_number":"6654A","street_name":"Edwardsville Crossing Dr","zip":"62025","city":"Edwardsville","area":null,"county":"Madison County","state":"IL","country":"USA","formatted_address":"6654A Edwardsville Crossing Dr, Edwardsville, IL, USA","place_id":"openstreetmap:address:node:2893062183","datatype":"openstreetmap"},{"longitude":-87.95716399999999,"latitude":42.38904,"name":"OshKosh B'Gosh","address":"Gurnee Mills\n6170 West Grand Ave.\nSpace 573\nGurnee IL 60031\n(847) 856-8172","street_number":"6170","street_name":"Grand Ave","zip":"60031","city":"Gurnee","area":null,"county":"Lake County","state":"IL","country":"USA","formatted_address":"6170 Grand Ave, Gurnee, IL, USA","place_id":"openaddresses:address:us\/il\/lake:b6f051e616e5fed7","datatype":"openaddresses"},{"longitude":-87.85551679999999,"latitude":41.603188,"name":"OshKosh B'Gosh","address":"Lake View Plaza\n15782 South LaGrange Rd.\nOrland Park IL 60462\n(708) 403-5904","street_number":"15766","street_name":"La Grange Road","zip":"60462","city":"Orland Park","area":null,"county":"Cook County","state":"IL","country":"USA","formatted_address":"15766 La Grange Road, Orland, IL, USA","place_id":"openaddresses:address:us\/il\/cook:651fb65b43f3d7bb","datatype":"openaddresses"},{"longitude":-87.86711810000001,"latitude":41.9749898,"name":"OshKosh B'Gosh","address":"Fashion Outlets of Chicago\n5220 Fashion Outlets Way\nSpace #1060\nRosemont IL 60018\n(847) 678-7681","street_number":"5220","street_name":"Fashion Outlets Way","zip":"60018","city":"Rosemont","area":null,"county":"Cook County","state":"IL","country":"USA","formatted_address":"5220 Fashion Outlets Way, Rosemont, IL, USA","place_id":"openstreetmap:address:way:253716424","datatype":"openstreetmap"},{"longitude":-88.2691997,"latitude":39.78910219999999,"name":"OshKosh B'Gosh","address":"Outlets at Tuscola\nD1300 Tuscola Blvd.\nP.O. Box 4056\nTuscola IL 61953\n(217) 253-3349","street_number":null,"street_name":null,"zip":null,"city":null,"area":null,"county":null,"state":null,"country":null,"formatted_address":null,"place_id":null,"datatype":null},{"longitude":-86.12410059999999,"latitude":40.00541279999999,"name":"OshKosh B'Gosh","address":"Village Park Plaza\n1950-9 East Greyhound Pass\nCarmel IN 46033\n(317) 569-0258","street_number":"1950","street_name":"E Greyhound Pass","zip":"46033","city":"Westfield","area":null,"county":"Hamilton County","state":"IN","country":"USA","formatted_address":"1950 E Greyhound Pass, Westfield, IN, USA","place_id":"openaddresses:address:us\/in\/statewide:5a7fb92886995ada","datatype":"openaddresses"},{"longitude":-85.966657,"latitude":39.35448299999999,"name":"OshKosh B'Gosh","address":"Edinburgh Premium Outlets\n3080 Outlet Dr.\nSuite F90\nEdinburgh IN 46124\n(812) 526-9505","street_number":"100","street_name":"W Main Cross","zip":"46124","city":"Edinburgh","area":null,"county":"Johnson County","state":"IN","country":"USA","formatted_address":"100 W Main Cross, Edinburgh, IN, USA","place_id":"openaddresses:address:us\/in\/statewide:5d3f5adf0ef13632","datatype":"openaddresses"},{"longitude":-85.00279019999999,"latitude":41.7346333,"name":"OshKosh B'Gosh","address":"Outlet Shoppes at Fremont\n6245 North Old 27\nSuite B-60\nFremont IN 46737\n(260) 833-3627","street_number":"6245","street_name":"Fremont","zip":"46737","city":null,"area":null,"county":"Steuben County","state":"IN","country":"USA","formatted_address":"6245 Fremont, Jamestown, IN, USA","place_id":"openaddresses:address:us\/in\/statewide:951f761994ca77d9","datatype":"openaddresses"},{"longitude":-86.1047147,"latitude":39.91359990000001,"name":"OshKosh B'Gosh","address":"The Shops at River Crossing\n8661 River Crossing Blvd.\nIndianapolis IN 46240\n(317) 581-1328","street_number":"8655","street_name":"River Crossing Blvd","zip":"46240","city":"Indianapolis","area":null,"county":"Marion County","state":"IN","country":"USA","formatted_address":"8655 River Crossing Blvd, Indianapolis, IN, USA","place_id":"openaddresses:address:us\/in\/marion_county:de34c867dbf1f61e","datatype":"openaddresses"},{"longitude":-86.12396989999999,"latitude":39.6379678,"name":"OshKosh B'Gosh","address":"Shoppes at County Line\n8811 Hardegan Street\nSpace 240A\nIndianapolis IN 46227","street_number":"2110","street_name":"E County Line Rd","zip":"46227","city":"Indianapolis","area":null,"county":"Marion County","state":"IN","country":"USA","formatted_address":"2110 E County Line Rd, Indianapolis, IN, USA","place_id":"openaddresses:address:us\/in\/statewide:509d4b7722672713","datatype":"openaddresses"},{"longitude":-86.9067324,"latitude":41.7145907,"name":"OshKosh B'Gosh","address":"Lighthouse Place Premium Outlets\n1730 Lighthouse Place\nMichigan City IN 46360\n(219) 878-0942","street_number":"507","street_name":"Lighthouse","zip":"46360","city":"Michigan City","area":null,"county":"LaPorte County","state":"IN","country":"USA","formatted_address":"507 Lighthouse, Michigan City, IN, USA","place_id":"openaddresses:address:us\/in\/statewide:1245d796533c5ada","datatype":"openaddresses"},{"longitude":-86.1854372,"latitude":41.7112153,"name":"OshKosh B'Gosh","address":"Wilshire Plaza\n5534 Grape Road\nSpace 250\nMishawaka IN 46545\n(574) 404-3040","street_number":"5650","street_name":"Grape Rd","zip":"46530","city":"Mishawaka","area":null,"county":"St. Joseph County","state":"IN","country":"USA","formatted_address":"5650 Grape Rd, Mishawaka, IN, USA","place_id":"openaddresses:address:us\/in\/statewide:886034eeb7178a98","datatype":"openaddresses"},{"longitude":-87.46939909999999,"latitude":41.5215798,"name":"OshKosh B'Gosh","address":"Shops on Main\n59 U.S. Highway 41\nSuite #440\nSchererville IN 46375\n(219) 322-3231","street_number":"721-687","street_name":"Main St","zip":"46375","city":"Schererville","area":null,"county":"Lake County","state":"IN","country":"USA","formatted_address":"721-687 Main St, Schererville, IN, USA","place_id":"openaddresses:address:us\/in\/statewide:e80543497460c322","datatype":"openaddresses"},{"longitude":-94.82351,"latitude":39.12662,"name":"OshKosh B'Gosh","address":"Legends Outlets Kansas City\n1813 Village West Parkway\nSuite Q-118\nKansas City KS 66111\n(913) 299-9047","street_number":"1813","street_name":"Village West Parkway","zip":"66111","city":"Kansas City","area":null,"county":"Wyandotte County","state":"KS","country":"USA","formatted_address":"1813 Village West Parkway, Kansas City, KS, USA","place_id":"openstreetmap:address:node:3919188891","datatype":"openstreetmap"},{"longitude":-94.7583889,"latitude":38.90976000000001,"name":"OshKosh B'Gosh","address":"Olathe Pointe\n14677 West 119th Street\nOlathe KS 66062\n(913) 397-0521","street_number":"14677","street_name":"W 119th St","zip":null,"city":"Olathe","area":null,"county":"Johnson County","state":"KS","country":"USA","formatted_address":"14677 W 119th St, Olathe, KS, USA","place_id":"openaddresses:address:us\/ks\/city_of_olathe:46101614a5d33389","datatype":"openaddresses"},{"longitude":-97.24111839999999,"latitude":37.6784289,"name":"OshKosh B'Gosh","address":"Eastgate Plaza\n8131 East Kellogg Drive\nWichita KS 67207\n(316) 683-6905","street_number":"8113","street_name":"East Kellogg Street","zip":"67207","city":"Wichita","area":null,"county":"Sedgwick County","state":"KS","country":"USA","formatted_address":"8113 East Kellogg Street, Wichita, KS, USA","place_id":"openstreetmap:address:node:2689279750","datatype":"openstreetmap"},{"longitude":-84.5785473,"latitude":39.025231,"name":"OshKosh B'Gosh","address":"Crestview Hills Town Center\n2863 Town Center Boulevard\nSuite 3030\nCrestview Hills KY 41017\n(859) 331-1785","street_number":"2833","street_name":"Dixie Hwy","zip":"41017","city":"Crestview Hills","area":null,"county":"Kenton County","state":"KY","country":"USA","formatted_address":"2833 Dixie Hwy, Crestview Hills, KY, USA","place_id":"openaddresses:address:us\/ky\/kenton:adf3f694211d6448","datatype":"openaddresses"},{"longitude":-85.6291097,"latitude":38.2494924,"name":"OshKosh B'Gosh","address":"Shelbyville Road Plaza\n4600 Shelbyville Road\nSuite 230\nLouisville KY 40207\n(502) 721-2102","street_number":"4600","street_name":"Shelbyville Rd","zip":"40207","city":"St. Matthews","area":null,"county":"Jefferson County","state":"KY","country":"USA","formatted_address":"4600 Shelbyville Rd, St. Matthews, KY, USA","place_id":"openaddresses:address:us\/ky\/jefferson:819aa31039511ad9","datatype":"openaddresses"},{"longitude":-85.3515396,"latitude":38.2059821,"name":"OshKosh B'Gosh","address":"Outlet Shoppes of the Bluegrass\n1155 Buck Creek Road\nSpace #F-606\nSimpsonville KY 40067\n(502) 722-8046","street_number":"1155","street_name":"Buck Creek Rd","zip":"40067","city":"Simpsonville","area":null,"county":"Shelby County","state":"KY","country":"USA","formatted_address":"1155 Buck Creek Rd, Simpsonville, KY, USA","place_id":"openaddresses:address:us\/ky\/shelby:8290337205473dd1","datatype":"openaddresses"},{"longitude":-93.7411479,"latitude":32.5202552,"name":"OshKosh B'Gosh","address":"Louisiana Boardwalk\n435 Boardwalk Blvd.\nBossier City LA 71111\n(318) 549-9287","street_number":"600","street_name":"Boardwalk Boulevard","zip":"71111","city":"Bossier City","area":null,"county":"Bossier Parish","state":"LA","country":"USA","formatted_address":"600 Boardwalk Boulevard, Bossier City, LA, USA","place_id":"openstreetmap:address:way:199074054","datatype":"openstreetmap"},{"longitude":-90.91830329999999,"latitude":30.46924869999999,"name":"OshKosh B'Gosh","address":"Juban Crossing\n27853 Juban Road\nDenham Springs LA 70726\n(225) 667-3519","street_number":"~","street_name":"Juban Rd","zip":null,"city":null,"area":null,"county":"Livingston Parish","state":"LA","country":"USA","formatted_address":"~ Juban Rd, Livingston Parish, LA, USA","place_id":"openaddresses:address:us\/la\/city_of_denham_springs:9145d158ee437b8c","datatype":"openaddresses"},{"longitude":-90.9505124,"latitude":30.2121217,"name":"OshKosh B'Gosh","address":"Tanger Outlet Center Gonzales\n2400 Tanger Blvd.\nSuite 151\nGonzales LA 70737\n(225) 647-2926","street_number":"2410","street_name":"S Tanger Blvd","zip":"70737","city":"Gonzales","area":null,"county":"Ascension Parish","state":"LA","country":"USA","formatted_address":"2410 S Tanger Blvd, Gonzales, LA, USA","place_id":"openaddresses:address:us\/la\/ascension:554ee8275ea9ab31","datatype":"openaddresses"},{"longitude":-90.0385702,"latitude":29.9218551,"name":"OshKosh B'Gosh","address":"Oakwood Center\n197 West Bank Expressway\nSuite 1380\nGretna LA 70053\n(504) 227-7363","street_number":"197","street_name":"Westbank Expwy","zip":"70056","city":"Terrytown","area":null,"county":"Jefferson Parish","state":"LA","country":"USA","formatted_address":"197 Westbank Expwy, Terrytown, LA, USA","place_id":"openaddresses:address:us\/la\/jefferson_parish:94331d8852a1e06b","datatype":"openaddresses"},{"longitude":-92.0528516,"latitude":30.161812,"name":"OshKosh B'Gosh","address":"Ambassador Crossing\n4243 Ambassador Caffery Parkway\nSuite 109\nLafayette LA 70508\n(337) 989-8521","street_number":"4243","street_name":"Ambassador Caffery Pkwy","zip":"70508","city":"Lafayette","area":null,"county":"Lafayette Parish","state":"LA","country":"USA","formatted_address":"4243 Ambassador Caffery Pkwy, Lafayette, LA, USA","place_id":"openaddresses:address:us\/la\/lafayette:42cca7fc347c2e60","datatype":"openaddresses"},{"longitude":-93.2272229,"latitude":30.2003359,"name":"OshKosh B'Gosh","address":"Prien Lake\n1776 W Prien Lake Rd\nSuite D\nLake Charles LA 70601\n(337) 475-8985","street_number":"496","street_name":"West Prien Lake Road","zip":null,"city":"Lake Charles","area":null,"county":"Calcasieu Parish","state":"LA","country":"USA","formatted_address":"496 West Prien Lake Road, Lake Charles, LA, USA","place_id":"openstreetmap:address:way:424946292","datatype":"openstreetmap"},{"longitude":-71.0237679,"latitude":42.22199519999999,"name":"OshKosh B'Gosh","address":"South Shore Plaza\n250 Granite Street\nSuite 2370\nBraintree MA 02184\n(781) 348-4976","street_number":"250","street_name":"Granite Street","zip":"02184","city":"Braintree Town","area":null,"county":"Norfolk County","state":"MA","country":"USA","formatted_address":"250 Granite Street, Braintree Town, MA, USA","place_id":"openaddresses:address:us\/ma\/statewide:dbbf377f3e29c25a","datatype":"openaddresses"},{"longitude":-71.19349439999999,"latitude":42.4854115,"name":"OshKosh B'Gosh","address":"Wayside Commons\n6H Wayside Road\nBurlington MA 01803\n(781) 272-3241","street_number":"2","street_name":"Wayside Road","zip":"01803","city":"Burlington","area":null,"county":"Middlesex County","state":"MA","country":"USA","formatted_address":"2 Wayside Road, Burlington, MA, USA","place_id":"openaddresses:address:us\/ma\/statewide:ee1881322c5bfaed","datatype":"openaddresses"},{"longitude":-71.1789242,"latitude":42.2402647,"name":"OshKosh B'Gosh","address":"Dedham Plaza\n757 Providence Highway\nDedham MA 02026\n(781) 326-4064","street_number":"761","street_name":"Providence Highway","zip":"02026","city":"Dedham","area":null,"county":"Norfolk County","state":"MA","country":"USA","formatted_address":"761 Providence Highway, Dedham, MA, USA","place_id":"openaddresses:address:us\/ma\/statewide:85badb5bf4cf9e96","datatype":"openaddresses"},{"longitude":-73.2341766,"latitude":42.2944639,"name":"OshKosh B'Gosh","address":"Lee Premium Outlets\n220 Premium Outlets Blvd\nLee MA 01238\n(413) 243-4761","street_number":"17","street_name":"Premium Outlet Blvd","zip":"01238","city":null,"area":null,"county":"Berkshire County","state":"MA","country":"USA","formatted_address":"17 Premium Outlet Blvd, Lee, MA, USA","place_id":"openstreetmap:address:way:44205007","datatype":"openstreetmap"},{"longitude":-71.0200353,"latitude":42.4889157,"name":"OshKosh B'Gosh","address":"Saugus Plaza\n331 Broadway\nSuite 3\nSaugus MA 01906\n(781) 941-1402","street_number":"343","street_name":"Broadway","zip":"01906","city":"Saugus","area":null,"county":"Essex County","state":"MA","country":"USA","formatted_address":"343 Broadway, Saugus, MA, USA","place_id":"openaddresses:address:us\/ma\/statewide:8ff39431c3ceb9f2","datatype":"openaddresses"},{"longitude":-71.07861319999999,"latitude":42.3954187,"name":"OshKosh B'Gosh","address":"Assembly Row\n478 Artisan Way\nSomerville MA 02145\n(617) 666-1079","street_number":"478","street_name":"Artisan Way","zip":"02145","city":"Somerville","area":null,"county":"Middlesex County","state":"MA","country":"USA","formatted_address":"478 Artisan Way, Somerville, MA, USA","place_id":"openstreetmap:address:node:4393788889","datatype":"openstreetmap"},{"longitude":-71.35263909999999,"latitude":42.0381377,"name":"OshKosh B'Gosh","address":"Wrentham Village Premium Outlets\n1 Premium Outlets Blvd.\nSuite 520\nWrentham MA 02093\n(508) 384-0271","street_number":"1","street_name":"Premium Outlets Boulevard","zip":"02093","city":null,"area":null,"county":"Norfolk County","state":"MA","country":"USA","formatted_address":"1 Premium Outlets Boulevard, Wrentham, MA, USA","place_id":"openaddresses:address:us\/ma\/statewide:7082069d949c837c","datatype":"openaddresses"},{"longitude":-76.326033,"latitude":39.495352,"name":"OshKosh B'Gosh","address":"Festival at Bel Air\n5 Bel Air South Parkway\nSuite M05A\nBel Air MD 21015\n(410) 569-0864","street_number":"5","street_name":"Bel Air South Parkway","zip":"21015","city":"Bel Air South","area":null,"county":"Harford County","state":"MD","country":"USA","formatted_address":"5 Bel Air South Parkway, Bel Air South, MD, USA","place_id":"openstreetmap:address:way:103939757","datatype":"openstreetmap"},{"longitude":-77.28651889999999,"latitude":39.2271349,"name":"OshKosh B'Gosh","address":"Clarksburg Premium Outlets\n22705 Clarksburg Road\nSuite 731\nClarksburg MD 20871\n(301) 916-2761","street_number":"22705","street_name":"Clarksburg Road","zip":"20871","city":"Clarksburg","area":null,"county":"Montgomery County","state":"MD","country":"USA","formatted_address":"22705 Clarksburg Road, Clarksburg, MD, USA","place_id":"openstreetmap:address:node:4511212518","datatype":"openstreetmap"},{"longitude":-77.7331293,"latitude":39.6080927,"name":"OshKosh B'Gosh","address":"Hagerstown Premium Outlets\n225 Premium Outlets Blvd\nHagerstown MD 21740\n(301) 766-7008","street_number":"100","street_name":"Premium Outlets Blvd","zip":"21740","city":null,"area":null,"county":"Washington County","state":"MD","country":"USA","formatted_address":"100 Premium Outlets Blvd, Washington County, MD, USA","place_id":"openaddresses:address:us\/md\/statewide:91882789aed70434","datatype":"openaddresses"},{"longitude":-76.72470679999999,"latitude":39.1578188,"name":"OshKosh B'Gosh","address":"Arundel Mills\n7000 Arundel Mills Circle\nSpace 252\nHanover MD 21076\n(443) 755-8950","street_number":"7000","street_name":"Arundel Mills Cir","zip":"21076","city":"Severn","area":null,"county":"Anne Arundel County","state":"MD","country":"USA","formatted_address":"7000 Arundel Mills Cir, Severn, MD, USA","place_id":"openaddresses:address:us\/md\/anne_arundel:2b84d3e78033efce","datatype":"openaddresses"},{"longitude":-76.8649331,"latitude":39.0802994,"name":"OshKosh B'Gosh","address":"Town Centre at Laurel\n14708 Baltimore Avenue\nSuite #103\nLaurel MD 20707\n(301) 604-3124","street_number":"8204","street_name":"Willow St","zip":"20707","city":"South Laurel","area":null,"county":"Prince George's County","state":"MD","country":"USA","formatted_address":"8204 Willow St, South Laurel, MD, USA","place_id":"openaddresses:address:us\/md\/statewide:31985b961329aefb","datatype":"openaddresses"},{"longitude":-77.0008077,"latitude":38.7952682,"name":"OshKosh B'Gosh","address":"Tanger Outlet Center National Harbor\n6800 Oxon Hill Road\nSuite #765\nOxon Hill MD 20745\n(301) 567-9259","street_number":"6800","street_name":"Oxon Hill Road","zip":"20745","city":"National Harbor","area":null,"county":"Prince George's County","state":"MD","country":"USA","formatted_address":"6800 Oxon Hill Road, National Harbor, MD, USA","place_id":"openstreetmap:address:way:291611590","datatype":"openstreetmap"},{"longitude":-70.1187514,"latitude":43.8444793,"name":"OshKosh B'Gosh","address":"Freeport Crossing\n200 Lower Main St.\nFreeport ME 04032\n(207) 865-4881","street_number":"200","street_name":"Lower Main St","zip":"04032","city":"Freeport","area":null,"county":"Cumberland County","state":"ME","country":"USA","formatted_address":"200 Lower Main St, Freeport, ME, USA","place_id":"openaddresses:address:us\/me\/statewide:c1f62ce2c88534cd","datatype":"openaddresses"},{"longitude":-83.7814003,"latitude":42.2840913,"name":"OshKosh B'Gosh","address":"le Village Shopping Cener\n343 North Maple Road\nAnn Arbor MI 48103\n(734) 769-1280","street_number":"241","street_name":"North Maple Road","zip":"48103","city":"Ann Arbor","area":null,"county":"Washtenaw County","state":"MI","country":"USA","formatted_address":"241 North Maple Road, Ann Arbor, MI, USA","place_id":"openstreetmap:address:node:3462220409","datatype":"openstreetmap"},{"longitude":-83.2994742,"latitude":42.7025943,"name":"OshKosh B'Gosh","address":"Great Lakes Crossing\n4198 Baldwin Rd.\nSpace 318\nAuburn Hills MI 48326\n(248) 454-7934","street_number":"4000","street_name":"Baldwin Rd","zip":"48326","city":"Auburn Hills","area":null,"county":"Oakland County","state":"MI","country":"USA","formatted_address":"4000 Baldwin Rd, Auburn Hills, MI, USA","place_id":"openaddresses:address:us\/mi\/semcog:ddb77fb841097d3b","datatype":"openaddresses"},{"longitude":-83.777537,"latitude":43.246775,"name":"OshKosh B'Gosh","address":"Birch Run Premium Outlets\n12150 South Beyer Rd.\nSpace F-200\nBirch Run MI 48415\n(989) 624-4600","street_number":null,"street_name":null,"zip":null,"city":null,"area":null,"county":null,"state":null,"country":null,"formatted_address":null,"place_id":null,"datatype":null},{"longitude":-85.67271079999999,"latitude":42.8113456,"name":"OshKosh B'Gosh","address":"Tanger Outlet Center Grand Rapids\n350 84th Street S.W\nSuite #200\nByron Center MI 49315\n(616) 583-0026","street_number":"324","street_name":"84th St Sw","zip":"MI","city":null,"area":null,"county":"Kent County","state":"MI","country":"USA","formatted_address":"324 84th St Sw, Byron, MI, USA","place_id":"openaddresses:address:us\/mi\/kent:d7c43f6a730ade62","datatype":"openaddresses"},{"longitude":-83.4815667,"latitude":42.3237046,"name":"OshKosh B'Gosh","address":"New Towne Plaza\n44700 Ford Road\nCanton MI 48187\n(734) 254-9756","street_number":"44524","street_name":"Ford","zip":"48187","city":null,"area":null,"county":"Wayne County","state":"MI","country":"USA","formatted_address":"44524 Ford, Canton, MI, USA","place_id":"openaddresses:address:us\/mi\/semcog:8e2ca65adbc0a0bb","datatype":"openaddresses"},{"longitude":-85.7417126,"latitude":42.8820489,"name":"OshKosh B'Gosh","address":"Bucktown\n3170 44th Street\nGrandville MI 49418\n(616) 530-7463","street_number":"3160","street_name":"44th St Sw","zip":"MI","city":"Grandville","area":null,"county":"Kent County","state":"MI","country":"USA","formatted_address":"3160 44th St Sw, Grandville, MI, USA","place_id":"openaddresses:address:us\/mi\/kent:c6e69b9e8135c90f","datatype":"openaddresses"},{"longitude":-83.997058,"latitude":42.622007,"name":"OshKosh B'Gosh","address":"Tanger Outlet Center Howell\n1475 North Burkhart Rd.\nSuite C160\nHowell MI 48855\n(517) 552-1744","street_number":"1475","street_name":"N Burkhart","zip":"48855","city":null,"area":null,"county":"Livingston County","state":"MI","country":"USA","formatted_address":"1475 N Burkhart, Howell, MI, USA","place_id":"openaddresses:address:us\/mi\/semcog:ed6c15a80f14a4cc","datatype":"openaddresses"},{"longitude":-84.50714359999999,"latitude":42.7378069,"name":"OshKosh B'Gosh","address":"Frandor Mall\n434 Frandor Avenue\nLansing MI 48912\n(517) 333-0310","street_number":"415","street_name":"Mall Court","zip":"48912","city":"Lansing","area":null,"county":"Ingham County","state":"MI","country":"USA","formatted_address":"415 Mall Court, Lansing, MI, USA","place_id":"openstreetmap:address:node:2710137113","datatype":"openstreetmap"},{"longitude":-83.0258006,"latitude":42.5079946,"name":"OshKosh B'Gosh","address":"Tech Plaza\n8347 East 12 Mile Road\nWarren MI 48093\n(586) 751-3879","street_number":"29158","street_name":"Van Dyke Ave","zip":"48093","city":"Warren","area":null,"county":"Macomb County","state":"MI","country":"USA","formatted_address":"29158 Van Dyke Ave, Warren, MI, USA","place_id":"openaddresses:address:us\/mi\/macomb:43c0e5ff3468acf6","datatype":"openaddresses"},{"longitude":-93.6675131,"latitude":45.2466426,"name":"OshKosh B'Gosh","address":"Albertville Premium Outlets\n6415 Labeaux Ave.\nNE, Space B280\nAlbertville MN 55301\n(763) 497-6037","street_number":null,"street_name":null,"zip":null,"city":null,"area":null,"county":null,"state":null,"country":null,"formatted_address":null,"place_id":null,"datatype":null},{"longitude":-93.21460599999999,"latitude":44.81562940000001,"name":"OshKosh B'Gosh","address":"Twin Cities Premium Outlets\n3905 Eagan Outlets Parkway\nSuite #245\nEagan MN 55122\n(952) 686-7475","street_number":"3905","street_name":"Eagan Outlets Parkway","zip":null,"city":"Eagan","area":null,"county":"Dakota County","state":"MN","country":"USA","formatted_address":"3905 Eagan Outlets Parkway, Eagan, MN, USA","place_id":"openaddresses:address:us\/mn\/dakota:b5c12f3434e3bc95","datatype":"openaddresses"},{"longitude":-93.44774950000001,"latitude":45.0301355,"name":"OshKosh B'Gosh","address":"Rockford Road Plaza\n4190 Vinewood Lane North\nSpaces 124 & 125\nPlymouth MN 55442\n(763) 559-9009","street_number":"4100","street_name":"Vinewood Lane North","zip":"55442","city":"Plymouth","area":null,"county":"Hennepin County","state":"MN","country":"USA","formatted_address":"4100 Vinewood Lane North, Plymouth, MN, USA","place_id":"openaddresses:address:us\/mn\/hennepin:519bca39b2733141","datatype":"openaddresses"},{"longitude":-92.9374958,"latitude":44.9414187,"name":"OshKosh B'Gosh","address":"Tamarack Village\n8390 Tamarack Village\nWoodbury MN 55125\n(651) 735-9434","street_number":"8390","street_name":"Tamarack Village","zip":"MN - 55123","city":"Woodbury","area":null,"county":"Washington County","state":"MN","country":"USA","formatted_address":"8390 Tamarack Village, Woodbury, MN, USA","place_id":"openstreetmap:address:node:4545153848","datatype":"openstreetmap"},{"longitude":-93.2649443,"latitude":36.6440444,"name":"OshKosh B'Gosh","address":"Tanger Outlet Center Branson\n300 Tanger Blvd.\nSuite 307B\nBranson MO 65616\n(417) 334-7213","street_number":"300","street_name":"Tanger Blvd","zip":"65616","city":"Branson","area":null,"county":"Taney County","state":"MO","country":"USA","formatted_address":"300 Tanger Blvd, Branson, MO, USA","place_id":"openaddresses:address:us\/mo\/taney:88f1f5970821130b","datatype":"openaddresses"},{"longitude":-90.6614633,"latitude":38.6774199,"name":"OshKosh B'Gosh","address":"St. Louis Premium Outlets\n18521 Outlet Boulevard\nSuite 751\nChesterfield MO 63005\n(636) 778-2266","street_number":"18527","street_name":"Outlet Blvd","zip":"63005","city":"Chesterfield","area":null,"county":"St. Louis County","state":"MO","country":"USA","formatted_address":"18527 Outlet Blvd, Chesterfield, MO, USA","place_id":"openaddresses:address:us\/mo\/st_louis:d5773a948462f2d4","datatype":"openaddresses"},{"longitude":-94.3554853,"latitude":39.0496722,"name":"OshKosh B'Gosh","address":"Independence Commons\n18810 B & C East 39th Street\nIndependence MO 64057\n(816) 373-0425","street_number":"19020","street_name":"E 39th St S","zip":"64057","city":"Independence","area":null,"county":"Jackson County","state":"MO","country":"USA","formatted_address":"19020 E 39th St S, Independence, MO, USA","place_id":"openaddresses:address:us\/mo\/jackson:0343ea2dd8c85caa","datatype":"openaddresses"},{"longitude":-94.4570518,"latitude":39.2456441,"name":"OshKosh B'Gosh","address":"Wilshire Plaza\n8452 North Church Road\nKansas City MO 64157\n(816) 781-8435","street_number":"9001","street_name":"N Church Rd","zip":null,"city":"Liberty","area":null,"county":"Clay County","state":"MO","country":"USA","formatted_address":"9001 N Church Rd, Liberty, MO, USA","place_id":"openaddresses:address:us\/mo\/city_of_kansas_city:bcaa42c9c7c918dd","datatype":"openaddresses"},{"longitude":-92.62727989999999,"latitude":38.1438834,"name":"OshKosh B'Gosh","address":"Osage Beach Premium Outlets\n4540 Osage Beach Parkway\nSuite E-1\nOsage Beach MO 65065\n(573) 348-4270","street_number":"4540","street_name":"Osage Beach Parkway","zip":null,"city":"Osage Beach","area":null,"county":"Camden County","state":"MO","country":"USA","formatted_address":"4540 Osage Beach Parkway, Osage Beach, MO, USA","place_id":"openstreetmap:address:way:470153553","datatype":"openstreetmap"},{"longitude":-89.0992574,"latitude":30.4290731,"name":"OshKosh B'Gosh","address":"Gulfport Premium Outlets\n10415 Factory Shops Blvd.\nGulfport MS 39503\n(228) 868-0301","street_number":"10100","street_name":"Factory Shops Boulevard","zip":"39503","city":"Gulfport","area":null,"county":"Harrison County","state":"MS","country":"USA","formatted_address":"10100 Factory Shops Boulevard, Gulfport, MS, USA","place_id":"openstreetmap:address:way:166065137","datatype":"openstreetmap"},{"longitude":-90.1534123,"latitude":32.2739008,"name":"OshKosh B'Gosh","address":"Outlets of Mississippi\n200 Bass Pro Drive\n#310\nPearl MS 39208\n(601) 664-1607","street_number":"200","street_name":"Bass Pro Dr","zip":"39208","city":"Pearl","area":null,"county":"Rankin County","state":"MS","country":"USA","formatted_address":"200 Bass Pro Dr, Pearl, MS, USA","place_id":"openaddresses:address:us\/ms\/rankin:22b2dc911c7e9c06","datatype":"openaddresses"},{"longitude":-89.99154240000001,"latitude":34.9362137,"name":"OshKosh B'Gosh","address":"Tanger Outlet Center Southaven\n5205 Airways Boulevard\n#1075\nSouthaven MS 38671\n(662) 349-8490","street_number":"5205","street_name":"Airways Boulevard","zip":"38671","city":"Southaven","area":null,"county":"DeSoto County","state":"MS","country":"USA","formatted_address":"5205 Airways Boulevard, Southaven, MS, USA","place_id":"openstreetmap:address:way:382768593","datatype":"openstreetmap"},{"longitude":-82.6033576,"latitude":35.52930060000001,"name":"OshKosh B'Gosh","address":"Asheville Outlets\n800 Brevard Road\nSpace #N102\nAsheville NC 28806\n(828) 665-9545","street_number":"800","street_name":"Brevard Road","zip":"28806","city":"Asheville","area":null,"county":"Buncombe County","state":"NC","country":"USA","formatted_address":"800 Brevard Road, Asheville, NC, USA","place_id":"openaddresses:address:us\/nc\/statewide:42e3894f91f11213","datatype":"openaddresses"},{"longitude":-81.67201279999999,"latitude":36.1417188,"name":"OshKosh B'Gosh","address":"Tanger Outlet Center Blowing Rock\n310 Shoppes on the Parkway Rd.\nNo. 28\nBlowing Rock NC 28605\n(828) 295-7471","street_number":"278","street_name":"Shoppes On The Parkway Road","zip":"28605","city":"Blowing Rock","area":null,"county":"Watauga County","state":"NC","country":"USA","formatted_address":"278 Shoppes On The Parkway Road, Blowing Rock, NC, USA","place_id":"openaddresses:address:us\/nc\/statewide:e45639043e040be8","datatype":"openaddresses"},{"longitude":-78.7377921,"latitude":35.7615138,"name":"OshKosh B'Gosh","address":"Crossroads Plaza\n241 Crossroads Boulevard\nCary NC 27518\n(919) 233-0131","street_number":"319","street_name":"Crossroads Boulevard","zip":"27511","city":"Cary","area":null,"county":"Wake County","state":"NC","country":"USA","formatted_address":"319 Crossroads Boulevard, Cary, NC, USA","place_id":"openstreetmap:address:node:2121961578","datatype":"openstreetmap"},{"longitude":-80.9700376,"latitude":35.1694291,"name":"OshKosh B'Gosh","address":"Charlotte Premium Outlets\n5512 New Fashion Way\nSuite #1024\nCharlotte NC 28278\n(704) 504-0362","street_number":"5434","street_name":"New Fashion Wy","zip":"28278","city":null,"area":null,"county":"Mecklenburg County","state":"NC","country":"USA","formatted_address":"5434 New Fashion Wy, Mecklenburg County, NC, USA","place_id":"openaddresses:address:us\/nc\/mecklenburg:26517e06e196a0d1","datatype":"openaddresses"},{"longitude":-80.72197059999999,"latitude":35.3690086,"name":"OshKosh B'Gosh","address":"Concord Mills\n8111 Concord Mills Blvd.\nSpace 654\nConcord NC 28027\n(704) 979-6631","street_number":"8111","street_name":"Concord Mills Blvd","zip":"28027","city":"Concord","area":null,"county":"Cabarrus County","state":"NC","country":"USA","formatted_address":"8111 Concord Mills Blvd, Concord, NC, USA","place_id":"openaddresses:address:us\/nc\/cabarrus:1e5714c27e09ced9","datatype":"openaddresses"},{"longitude":-79.8309651,"latitude":36.0869764,"name":"OshKosh B'Gosh","address":"Friendly Center\n3002 Northline Ave.\nGreensboro NC 27408\n(336) 292-0613","street_number":"803","street_name":"Friendly Center Road","zip":"27408","city":"Greensboro","area":null,"county":"Guilford County","state":"NC","country":"USA","formatted_address":"803 Friendly Center Road, Greensboro, NC, USA","place_id":"openaddresses:address:us\/nc\/statewide:f54f84c762a795ec","datatype":"openaddresses"},{"longitude":-78.31611319999999,"latitude":35.5103829,"name":"OshKosh B'Gosh","address":"Carolina Premium Outlets\n1245 Industrial Park Dr.\nSpace 1090\nSmithfield NC 27577\n(919) 938-1199","street_number":null,"street_name":null,"zip":null,"city":null,"area":null,"county":null,"state":null,"country":null,"formatted_address":null,"place_id":null,"datatype":null},{"longitude":-96.8568871,"latitude":46.8598458,"name":"OshKosh B'Gosh","address":"TJ Maxx Plaza\n4340 13th Avenue Southwest, Suites R & Y\nFargo ND 58103\n(701) 277-3083","street_number":"4340","street_name":"13th Ave S","zip":"58103","city":"Fargo","area":null,"county":"Cass County","state":"ND","country":"USA","formatted_address":"4340 13th Ave S, Fargo, ND, USA","place_id":"openaddresses:address:us\/nd\/city_of_fargo:8f880f8236a84a3a","datatype":"openaddresses"},{"longitude":-101.3124807,"latitude":48.206467,"name":"OshKosh B'Gosh","address":"Dakota Square Mall\n2400 10th Street\nSpace 705\nMinot ND 58701\n(701) 852-1062","street_number":"2410","street_name":"Sw 10th St","zip":null,"city":"Minot","area":null,"county":"Ward County","state":"ND","country":"USA","formatted_address":"2410 Sw 10th St, Minot, ND, USA","place_id":"openaddresses:address:us\/nd\/ward:b6cec6d19d7f4a1a","datatype":"openaddresses"},{"longitude":-96.25015649999999,"latitude":41.0987262,"name":"OshKosh B'Gosh","address":"Nebraska Crossing Outlets\n21355 Nebraska Crossing Drive\nSuite F-139\nGretna NE 68025\n(402) 332-5594","street_number":"21331","street_name":"Nebraska Crossing Dr","zip":null,"city":"Gretna","area":null,"county":"Sarpy County","state":"NE","country":"USA","formatted_address":"21331 Nebraska Crossing Dr, Gretna, NE, USA","place_id":"openaddresses:address:us\/ne\/sarpy:45f96184ac5d0f86","datatype":"openaddresses"},{"longitude":-71.49976099999999,"latitude":42.8259282,"name":"OshKosh B'Gosh","address":"Merrimack Premium Outlets\n80 Premium Outlets Boulevard\nSuite 465\nMerrimack NH 03054\n(603) 424-6973","street_number":"80","street_name":"80-1 Premium Outlets Blvd","zip":"03054","city":null,"area":null,"county":"Hillsborough County","state":"NH","country":"USA","formatted_address":"80 80-1 Premium Outlets Blvd, Merrimack, NH, USA","place_id":"openaddresses:address:us\/nh\/statewide:2aba40a9f7ff6ce3","datatype":"openaddresses"},{"longitude":-71.1147639,"latitude":44.024722,"name":"OshKosh B'Gosh","address":"Settlers Green Outlet Village\n2 Common Court\nSpace I-30\nNorth Conway NH 03860\n(603) 356-8937","street_number":null,"street_name":null,"zip":null,"city":null,"area":null,"county":null,"state":null,"country":null,"formatted_address":null,"place_id":null,"datatype":null},{"longitude":-71.55973,"latitude":43.45947899999999,"name":"OshKosh B'Gosh","address":"Tanger Outlet Center Tilton\n120 Laconia Road\nSpace #118\nTilton NH 03276\n(603) 286-3098","street_number":"154","street_name":"Laconia Road","zip":null,"city":null,"area":null,"county":"Belknap County","state":"NH","country":"USA","formatted_address":"154 Laconia Road, Tilton, NH, USA","place_id":"openaddresses:address:us\/nh\/statewide:b19621d03fc3d589","datatype":"openaddresses"},{"longitude":-75.0521882,"latitude":39.7858525,"name":"OshKosh B'Gosh","address":"Gloucester Premium Outlets\n100 Premium Outlets Drive\nSuite #435\nBlackwood NJ 08012\n(856) 302-4582","street_number":"100","street_name":"Premium Outlets Drive","zip":"08012","city":null,"area":null,"county":"Camden County","state":"NJ","country":"USA","formatted_address":"100 Premium Outlets Drive, Gloucester, NJ, USA","place_id":"openstreetmap:address:node:3447125634","datatype":"openstreetmap"},{"longitude":-74.3042243,"latitude":40.6312771,"name":"OshKosh B'Gosh","address":"Clark Commons\n1255 Raritan Road\nUnit #170\nClark NJ 07066\n(732) 388-4348","street_number":"1225","street_name":"Raritan Road","zip":"07066","city":null,"area":null,"county":"Union County","state":"NJ","country":"USA","formatted_address":"1225 Raritan Road, Clark, NJ, USA","place_id":"openstreetmap:address:way:380508152","datatype":"openstreetmap"},{"longitude":-74.36160149999999,"latitude":40.8031059,"name":"OshKosh B'Gosh","address":"Castle Ridge Plaza\n374 State Route 10\nEast Hanover NJ 07936\n(973) 887-2405","street_number":"364","street_name":"Rt 10 East","zip":"07936","city":null,"area":null,"county":"Morris County","state":"NJ","country":"USA","formatted_address":"364 Rt 10 East, East Hanover, NJ, USA","place_id":"openaddresses:address:us\/nj\/statewide:5dc3b0a688b32e86","datatype":"openaddresses"},{"longitude":-74.1715816,"latitude":40.6601139,"name":"OshKosh B'Gosh","address":"The Mills at Jersey Gardens\n651 Kapkowski Rd.\nSpace 2004\nElizabeth NJ 07201\n(908) 352-4859","street_number":"640","street_name":"Kapkowski Road","zip":null,"city":"Elizabeth","area":null,"county":"Union County","state":"NJ","country":"USA","formatted_address":"640 Kapkowski Road, Elizabeth, NJ, USA","place_id":"openaddresses:address:us\/nj\/statewide:86f68ada7784a09b","datatype":"openaddresses"},{"longitude":-74.86151400000001,"latitude":40.503529,"name":"OshKosh B'Gosh","address":"Liberty Village Premium Outlets\n1 Church Street\nSuite #72\nFlemington NJ 08822\n(908) 782-7474","street_number":"9","street_name":"Stangl Road","zip":"08822","city":"Flemington","area":null,"county":"Hunterdon County","state":"NJ","country":"USA","formatted_address":"9 Stangl Road, Flemington, NJ, USA","place_id":"openstreetmap:address:way:275259069","datatype":"openstreetmap"},{"longitude":-74.41735229999999,"latitude":40.1616896,"name":"OshKosh B'Gosh","address":"Jackson Premium Outlets\n537 Monmouth Rd.\nSpace 101\nJackson NJ 08527\n(732) 833-0242","street_number":"529","street_name":"Monmouth Road","zip":"08527","city":null,"area":null,"county":"Ocean County","state":"NJ","country":"USA","formatted_address":"529 Monmouth Road, Jackson, NJ, USA","place_id":"openaddresses:address:us\/nj\/statewide:296edac4613ef0e8","datatype":"openaddresses"},{"longitude":-74.9632756,"latitude":39.94018020000001,"name":"OshKosh B'Gosh","address":"East Gate Square\n1520 Nixon Drive\nMoorestown NJ 08057\n(856) 866-2950","street_number":"1205","street_name":"Nixon Drive","zip":"08054","city":"Moorestown-Lenola","area":null,"county":"Burlington County","state":"NJ","country":"USA","formatted_address":"1205 Nixon Drive, Mount Laurel, NJ, USA","place_id":"openaddresses:address:us\/nj\/statewide:2fa6f1ecb47bfed5","datatype":"openaddresses"},{"longitude":-74.0347439,"latitude":40.7758679,"name":"OshKosh B'Gosh","address":"Columbia Park Shopping Center\n3103 Kennedy Boulevard\nSuite #105\nNorth Bergen NJ 07047\n(201) 223-7847","street_number":null,"street_name":null,"zip":null,"city":null,"area":null,"county":null,"state":null,"country":null,"formatted_address":null,"place_id":null,"datatype":null},{"longitude":-74.0610322,"latitude":40.9163595,"name":"OshKosh B'Gosh","address":"Bergen Town Center\n2701 Bergen Town Center\nSuite 25\nParamus NJ 07652\n(201) 843-0593","street_number":"6","street_name":"Spring Valley Road","zip":"07652","city":"Paramus","area":null,"county":"Bergen County","state":"NJ","country":"USA","formatted_address":"6 Spring Valley Road, Paramus, NJ, USA","place_id":"openaddresses:address:us\/nj\/statewide:d0320b451cbd87d0","datatype":"openaddresses"},{"longitude":-74.094329,"latitude":40.224152,"name":"OshKosh B'Gosh","address":"Jersey Shore Premium Outlets\n1 Premium Blvd\nSuite #729\nTinton Falls NJ 07753\n(732) 493-3607","street_number":"1","street_name":"Premium Outlets Boulevard","zip":"07753","city":"Tinton Falls","area":null,"county":"Monmouth County","state":"NJ","country":"USA","formatted_address":"1 Premium Outlets Boulevard, Tinton Falls, NJ, USA","place_id":"openaddresses:address:us\/nj\/statewide:bfb8e7f78e45810f","datatype":"openaddresses"},{"longitude":-74.2994775,"latitude":40.6888997,"name":"OshKosh B'Gosh","address":"Union 22 Plaza\n910 Springfield Road\nUnion NJ 07083\n(908) 688-1908","street_number":"950","street_name":"Springfield Road","zip":"07083","city":null,"area":null,"county":"Union County","state":"NJ","country":"USA","formatted_address":"950 Springfield Road, Union, NJ, USA","place_id":"openaddresses:address:us\/nj\/statewide:358dffe45e9ff556","datatype":"openaddresses"},{"longitude":-74.2713498,"latitude":40.9391984,"name":"OshKosh B'Gosh","address":"Brentwood Plaza Shopping Center\n1653 State Route 23\nSpace 34\nWayne NJ 07470\n(973) 696-1710","street_number":null,"street_name":null,"zip":null,"city":null,"area":null,"county":null,"state":null,"country":null,"formatted_address":null,"place_id":null,"datatype":null},{"longitude":-115.0472617,"latitude":36.0586316,"name":"OshKosh B'Gosh","address":"Stephanie Street Power Center\n523 North Stephanie Street\nHenderson NV 89014\n(702) 435-1181","street_number":"501","street_name":"N Stephanie St","zip":"89014","city":"Henderson","area":null,"county":"Clark County","state":"NV","country":"USA","formatted_address":"501 N Stephanie St, Henderson, NV, USA","place_id":"openaddresses:address:us\/nv\/henderson:a3afe0082faa1c43","datatype":"openaddresses"},{"longitude":-115.1689283,"latitude":36.0539333,"name":"OshKosh B'Gosh","address":"Las Vegas South Premium Outlets\n7400 South Las Vegas Blvd.\nSuite 75\nLas Vegas NV 89123\n(702) 897-1727","street_number":"7400","street_name":"S Las Vegas Boulevard","zip":"89123","city":"Enterprise","area":null,"county":"Clark County","state":"NV","country":"USA","formatted_address":"7400 S Las Vegas Boulevard, Enterprise, NV, USA","place_id":"openstreetmap:address:way:38358961","datatype":"openstreetmap"},{"longitude":-115.0640617,"latitude":36.159426,"name":"OshKosh B'Gosh","address":"Charleston Commons\n147 North Nellis Boulevard\nLas Vegas NV 89110\n(702) 453-0001","street_number":"7","street_name":"N Arlington St","zip":null,"city":"Las Vegas","area":null,"county":"Clark County","state":"NV","country":"USA","formatted_address":"7 N Arlington St, Las Vegas, NV, USA","place_id":"openaddresses:address:us\/nv\/clark:cbb8bcbef272c3a2","datatype":"openaddresses"},{"longitude":-115.1577492,"latitude":36.1636508,"name":"OshKosh B'Gosh","address":"Las Vegas North Premium Outlets\n805 South Grand Central Parkway\nSuite 1973\nLas Vegas NV 89106\n(702) 221-1400","street_number":"825","street_name":"S Grand Central Pkwy","zip":"89106","city":"Las Vegas","area":null,"county":"Clark County","state":"NV","country":"USA","formatted_address":"825 S Grand Central Pkwy, Las Vegas, NV, USA","place_id":"openaddresses:address:us\/nv\/clark:6ec619147777ae38","datatype":"openaddresses"},{"longitude":-119.7207185,"latitude":39.5317981,"name":"OshKosh B'Gosh","address":"Legends at Sparks Marina\n1350 Scheels Dr.\nSuite 114\nSparks NV 89434\n(775) 358-5851","street_number":"1330","street_name":"Scheels Dr","zip":"89434","city":"Sparks","area":null,"county":"Washoe County","state":"NV","country":"USA","formatted_address":"1330 Scheels Dr, Sparks, NV, USA","place_id":"openaddresses:address:us\/nv\/washoe:b79d69f178def1c6","datatype":"openaddresses"},{"longitude":-73.85697619999999,"latitude":40.8238186,"name":"OshKosh B'Gosh","address":"The Shops at Bruckner Boulevard\n845 White Plains Road\nBronx NY 10473\n(718) 822-2976","street_number":"1994","street_name":"Bruckner Blvd","zip":"10473","city":"New York","area":null,"county":"Bronx County","state":"NY","country":"USA","formatted_address":"1994 Bruckner Blvd, The Bronx, New York, NY, USA","place_id":"openaddresses:address:us\/ny\/city_of_new_york:a26e834adf72ad20","datatype":"openaddresses"},{"longitude":-73.9051305,"latitude":40.877951,"name":"OshKosh B'Gosh","address":"5550 Broadway\n5550 Broadway\nBronx NY 10463\n(718) 732-1005","street_number":"5550","street_name":"Broadway","zip":"10463","city":"New York","area":null,"county":"Bronx County","state":"NY","country":"USA","formatted_address":"5550 Broadway, The Bronx, New York, NY, USA","place_id":"openaddresses:address:us\/ny\/city_of_new_york:bfccf241941f4629","datatype":"openaddresses"},{"longitude":-73.9166614,"latitude":40.625999,"name":"OshKosh B'Gosh","address":"Georgetown Shopping Center\n2099 Ralph Avenue\nBrooklyn NY 11234\n(718) 531-6062","street_number":"2175","street_name":"Ralph Avenue","zip":"11234","city":"New York","area":null,"county":"Kings County","state":"NY","country":"USA","formatted_address":"2175 Ralph Avenue, Brooklyn, New York, NY, USA","place_id":"openstreetmap:address:node:2565369134","datatype":"openstreetmap"},{"longitude":-73.99544350000001,"latitude":40.6032655,"name":"OshKosh B'Gosh","address":"Bensonhurst - 86th Street\n2111 86th Street\nBrooklyn NY 11214\n(718) 372-4327","street_number":"2111","street_name":"86 St","zip":"11214","city":"New York","area":null,"county":"Kings County","state":"NY","country":"USA","formatted_address":"2111 86 St, Brooklyn, New York, NY, USA","place_id":"openaddresses:address:us\/ny\/city_of_new_york:0bb8a6c5cad9ba93","datatype":"openaddresses"},{"longitude":-73.9891331,"latitude":40.6381172,"name":"OshKosh B'Gosh","address":"Borough Park - 13th Avenue\n4316 Thirteenth Avenue\nBrooklyn NY 11219\n(718) 438-1024","street_number":"4316","street_name":"13 Ave","zip":"11219","city":"New York","area":null,"county":"Kings County","state":"NY","country":"USA","formatted_address":"4316 13 Ave, Brooklyn, New York, NY, USA","place_id":"openaddresses:address:us\/ny\/city_of_new_york:5489ee0d43f49ea0","datatype":"openaddresses"},{"longitude":-73.6199184,"latitude":40.7465601,"name":"OshKosh B'Gosh","address":"Voice Road Plaza\n240 Voice Road\nCarle Place NY 11514\n(516) 248-2540","street_number":null,"street_name":null,"zip":null,"city":null,"area":null,"county":null,"state":null,"country":null,"formatted_address":null,"place_id":null,"datatype":null},{"longitude":-74.12576899999999,"latitude":41.31628,"name":"OshKosh B'Gosh","address":"Woodbury Common Premium Outlets\n601 Race Track Lane\nCentral Valley NY 10917\n(845) 928-4449","street_number":"266","street_name":"Red Apple Court","zip":"10917","city":"Woodbury","area":null,"county":"Orange County","state":"NY","country":"USA","formatted_address":"266 Red Apple Court, Woodbury, NY, USA","place_id":"openaddresses:address:us\/ny\/statewide:4ae0b8a8ec827bea","datatype":"openaddresses"},{"longitude":-73.3033493,"latitude":40.76507429999999,"name":"OshKosh B'Gosh","address":"Tanger Outlet Center Deer Park\n762 The Arches Circle\nDeer Park NY 11729\n(631) 586-0487","street_number":"701","street_name":"The Arches Circle","zip":"11729","city":"Deer Park","area":null,"county":"Suffolk County","state":"NY","country":"USA","formatted_address":"701 The Arches Circle, Deer Park, NY, USA","place_id":"openaddresses:address:us\/ny\/statewide:7ac6f1f318f4b428","datatype":"openaddresses"},{"longitude":-73.8351872,"latitude":40.7572591,"name":"OshKosh B'Gosh","address":"The Shops at Sky View Center\n40-24 College Point Boulevard\nSpace #B-04a2\nFlushing NY 11354\n(718) 460-2624","street_number":"40-24","street_name":"College Point Boulevard","zip":"11354","city":"New York","area":null,"county":"Queens County","state":"NY","country":"USA","formatted_address":"40-24 College Point Boulevard, Queens, New York, NY, USA","place_id":"openstreetmap:address:node:1799454473","datatype":"openstreetmap"},{"longitude":-73.5314125,"latitude":40.7730993,"name":"OshKosh B'Gosh","address":"Broadway Mall\n358 Broadway Mall\nSuite #522\nHicksville NY 11801\n(516) 932-5057","street_number":"1100","street_name":"Broadway Mall","zip":"11801","city":"Hicksville","area":null,"county":"Nassau County","state":"NY","country":"USA","formatted_address":"1100 Broadway Mall, Hicksville, NY, USA","place_id":"openstreetmap:address:node:2432762151","datatype":"openstreetmap"},{"longitude":-73.700721,"latitude":43.365763,"name":"OshKosh B'Gosh","address":"French Mountain Commons\n1439 Route 9\nBox 3095-8\nLake George NY 12845\n(518) 745-7910","street_number":"1439","street_name":"State Route 9","zip":"12845","city":null,"area":null,"county":"Warren County","state":"NY","country":"USA","formatted_address":"1439 State Route 9, Queensbury, NY, USA","place_id":"openaddresses:address:us\/ny\/statewide:ceee43be96220db1","datatype":"openaddresses"},{"longitude":-73.94896709999999,"latitude":40.809726,"name":"OshKosh B'Gosh","address":"Harlem - W. 125th Street\n215 West 125th Street\nManhattan NY 10027\n(212) 865-1846","street_number":"204","street_name":"West 126th Street","zip":"10027","city":"New York","area":null,"county":"New York County","state":"NY","country":"USA","formatted_address":"204 West 126th Street, Manhattan, New York, NY, USA","place_id":"openstreetmap:address:node:2767369864","datatype":"openstreetmap"},{"longitude":-73.6945381,"latitude":40.7531367,"name":"OshKosh B'Gosh","address":"Lake Success\n1440 Union Turnpike\nNew Hyde Park NY 11040\n(516) 437-2050","street_number":null,"street_name":null,"zip":null,"city":null,"area":null,"county":null,"state":null,"country":null,"formatted_address":null,"place_id":null,"datatype":null},{"longitude":-78.9781667,"latitude":43.0989798,"name":"OshKosh B'Gosh","address":"Fashion Outlets of Niagara Falls USA\n1960 Military Rd.\nNiagara Falls NY 14304\n(716) 297-0277","street_number":"2034","street_name":"Military Road","zip":"14304","city":null,"area":null,"county":"Niagara County","state":"NY","country":"USA","formatted_address":"2034 Military Road, Niagara, NY, USA","place_id":"openaddresses:address:us\/ny\/statewide:6723aef52b2663ec","datatype":"openaddresses"},{"longitude":-78.7821587,"latitude":42.7920164,"name":"OshKosh B'Gosh","address":"Quaker Crossing\n3424 Amelia Drive\nOrchard Park NY 14127\n(716) 825-1304","street_number":"5622","street_name":"Amanda Ln","zip":"55440 9456","city":null,"area":null,"county":"Erie County","state":"NY","country":"USA","formatted_address":"5622 Amanda Ln, Orchard Park, NY, USA","place_id":"openaddresses:address:us\/ny\/erie:9f33621b7d08170d","datatype":"openaddresses"},{"longitude":-73.9021479,"latitude":40.7006579,"name":"OshKosh B'Gosh","address":"Ridgewood - Myrtle Avenue\n57-33 Myrtle Avenue\nRidgewood NY 11385\n(718) 497-1941","street_number":"57-37","street_name":"Myrtle Ave","zip":"11385","city":"New York","area":null,"county":"Queens County","state":"NY","country":"USA","formatted_address":"57-37 Myrtle Ave, Queens, New York, NY, USA","place_id":"openaddresses:address:us\/ny\/city_of_new_york:46a7296abc012917","datatype":"openaddresses"},{"longitude":-72.71700469999999,"latitude":40.9195219,"name":"OshKosh B'Gosh","address":"Tanger Outlet Center Riverhead\n211 Tanger Dr.\nRiverhead NY 11901\n(631) 727-7657","street_number":"1770","street_name":"West Main Street","zip":"11901","city":"Calverton","area":null,"county":"Suffolk County","state":"NY","country":"USA","formatted_address":"1770 West Main Street, Calverton, NY, USA","place_id":"openaddresses:address:us\/ny\/statewide:466b88cd2b1e5dcd","datatype":"openaddresses"},{"longitude":-77.62813799999999,"latitude":43.080673,"name":"OshKosh B'Gosh","address":"Jay Scutti Plaza\n300 Hylan Drive\nRochester NY 14623\n(585) 272-0489","street_number":"1000","street_name":"Hylan Drive","zip":"14623","city":null,"area":null,"county":"Monroe County","state":"NY","country":"USA","formatted_address":"1000 Hylan Drive, Henrietta, NY, USA","place_id":"openaddresses:address:us\/ny\/statewide:ab67fab4e9524397","datatype":"openaddresses"},{"longitude":-74.027416,"latitude":41.10577500000001,"name":"OshKosh B'Gosh","address":"Spring Valley Marketplace\n17 Spring Valley Marketplace\nSpring Valley NY 10977\n(845) 426-6074","street_number":null,"street_name":null,"zip":null,"city":null,"area":null,"county":null,"state":null,"country":null,"formatted_address":null,"place_id":null,"datatype":null},{"longitude":-76.9213771,"latitude":42.9561869,"name":"OshKosh B'Gosh","address":"Waterloo Premium Outlets\n655 Route 318\nStore 10\nWaterloo NY 13165\n(315) 539-4900","street_number":"655","street_name":"State Route 318","zip":"13165","city":null,"area":null,"county":"Seneca County","state":"NY","country":"USA","formatted_address":"655 State Route 318, Junius, NY, USA","place_id":"openstreetmap:address:way:108707280","datatype":"openstreetmap"},{"longitude":-73.8267844,"latitude":40.9838932,"name":"OshKosh B'Gosh","address":"Central Plaza\n2590 Central Park Avenue\nYonkers NY 10710\n(914) 961-1798","street_number":"2548","street_name":"Central Park Avenue","zip":"10710","city":"Yonkers","area":null,"county":"Westchester County","state":"NY","country":"USA","formatted_address":"2548 Central Park Avenue, Yonkers, NY, USA","place_id":"openstreetmap:address:way:232194703","datatype":"openstreetmap"},{"longitude":-81.3435401,"latitude":41.3020292,"name":"OshKosh B'Gosh","address":"Aurora Farms Premium Outlets\n549 South Chillicothe Rd.\nAurora OH 44202\n(330) 562-8018","street_number":"549","street_name":"S Chillicothe Rd","zip":"44202","city":"Aurora","area":null,"county":"Portage County","state":"OH","country":"USA","formatted_address":"549 S Chillicothe Rd, Aurora, OH, USA","place_id":"openaddresses:address:us\/oh\/portage:3ba3ece637671368","datatype":"openaddresses"},{"longitude":-82.01767559999999,"latitude":41.4609135,"name":"OshKosh B'Gosh","address":"Avon Commons\n35894 Detroit Road\nAvon OH 44011\n(440) 937-0273","street_number":"35948","street_name":"Detroit Road","zip":"44011","city":"Avon","area":null,"county":"Lorain County","state":"OH","country":"USA","formatted_address":"35948 Detroit Road, Avon, OH, USA","place_id":"openstreetmap:address:way:496478095","datatype":"openstreetmap"},{"longitude":-84.3771404,"latitude":39.2022336,"name":"OshKosh B'Gosh","address":"Kenwood Towne Centre\n7875 Montgomery Road\nSpace 87\nCincinnati OH 45236\n(513) 745-9436","street_number":null,"street_name":null,"zip":null,"city":null,"area":null,"county":null,"state":null,"country":null,"formatted_address":null,"place_id":null,"datatype":null},{"longitude":-82.980564,"latitude":40.139889,"name":"OshKosh B'Gosh","address":"Polaris Towne Center\n1311 Polaris Parkway\nColumbus OH 43240\n(614) 781-1746","street_number":"1429","street_name":"Polaris Pkwy","zip":"43240","city":"Columbus","area":null,"county":"Delaware County","state":"OH","country":"USA","formatted_address":"1429 Polaris Pkwy, Columbus, OH, USA","place_id":"openaddresses:address:us\/oh\/delaware:82ed993121034ea2","datatype":"openaddresses"},{"longitude":-83.087273,"latitude":40.09718900000001,"name":"OshKosh B'Gosh","address":"Sun Center\n3614 W Dublin Granville Road\nSpace #2C\nColumbus OH 43235\n(614) 793-8624","street_number":"3696","street_name":"W Dublin-granville Rd","zip":"43235","city":"Columbus","area":null,"county":"Franklin County","state":"OH","country":"USA","formatted_address":"3696 W Dublin-granville Rd, Columbus, OH, USA","place_id":"openaddresses:address:us\/oh\/franklin:fa604b04c68d0d60","datatype":"openaddresses"},{"longitude":-81.849687,"latitude":41.460802,"name":"OshKosh B'Gosh","address":"Westgate Shopping Center\n3165 Westgate\nSuite B204\nFairview Park OH 44126\n(440) 331-3732","street_number":"3221","street_name":"Westgate Mall","zip":"44126","city":"Fairview Park","area":null,"county":"Cuyahoga County","state":"OH","country":"USA","formatted_address":"3221 Westgate Mall, Fairview Park, OH, USA","place_id":"openaddresses:address:us\/oh\/cuyahoga:8862729bd6124f7d","datatype":"openaddresses"},{"longitude":-83.60142139999999,"latitude":39.6204891,"name":"OshKosh B'Gosh","address":"Tanger Outlets at Jeffersonville\n8250 Factory Shops Boulevard\nSuite 240\nJeffersonville OH 43128\n(740) 948-2087","street_number":"8445","street_name":"Factory Shops Blvd Nw","zip":"43128","city":null,"area":null,"county":"Fayette County","state":"OH","country":"USA","formatted_address":"8445 Factory Shops Blvd Nw, Jefferson, OH, USA","place_id":"openaddresses:address:us\/oh\/fayette:af7fde120161719a","datatype":"openaddresses"},{"longitude":-81.2965534,"latitude":41.6833372,"name":"OshKosh B'Gosh","address":"Creekside Commons\n9597 Mentor Avenue\nSuite 16\nMentor OH 44060\n(440) 350-1404","street_number":"9575","street_name":"Mentor Ave","zip":"44060","city":"Mentor","area":null,"county":"Lake County","state":"OH","country":"USA","formatted_address":"9575 Mentor Ave, Mentor, OH, USA","place_id":"openaddresses:address:us\/oh\/lake:6549926852e11573","datatype":"openaddresses"},{"longitude":-84.33713499999999,"latitude":39.433908,"name":"OshKosh B'Gosh","address":"Cincinnati Premium Outlets\n113 Premium Outlet Dr\nMonroe OH 45050\n(513) 539-7502","street_number":"400","street_name":"Premium Outlets Drive","zip":"45050","city":"Monroe","area":null,"county":"Warren County","state":"OH","country":"USA","formatted_address":"400 Premium Outlets Drive, Monroe, OH, USA","place_id":"openstreetmap:address:node:4170162591","datatype":"openstreetmap"},{"longitude":-82.9244935,"latitude":40.2600052,"name":"OshKosh B'Gosh","address":"Tanger Outlets - Columbus\n400 South Wilson Road\nSuite 925\nSunbury OH 43074","street_number":"400","street_name":"Wilson Rd S","zip":"43074","city":null,"area":null,"county":"Delaware County","state":"OH","country":"USA","formatted_address":"400 Wilson Rd S, Berkshire, OH, USA","place_id":"openaddresses:address:us\/oh\/delaware:f683d127a776d846","datatype":"openaddresses"},