[{"latitude":"39.86623","longitude":"-105.05302","name":"Outback Steakhouse","address":"USA-Westminster","street_number":"9310","street_name":"Sheridan Boulevard","zip":"80030","city":null,"area":null,"county":"Jefferson County","state":"Colorado","country":"us","formatted_address":"Jack-n-Grill, 9310, Sheridan Boulevard, Westminster, Jefferson County, Colorado, 80030, United States of America","place_id":"123242428","datatype":"locationiq"},{"latitude":"40.60958","longitude":"-111.85306","name":"Outback Steakhouse","address":"USA-Sandy","street_number":null,"street_name":"1300 East","zip":"84121","city":"Midvale","area":null,"county":"Salt Lake County","state":"Utah","country":"us","formatted_address":"Burger King, 1300 East, Midvale, Salt Lake County, Utah, 84121, United States of America","place_id":"24167790","datatype":"locationiq"},{"latitude":"34.97775","longitude":"-80.99007","name":"Outback Steakhouse","address":"USA-Rock Hill","street_number":null,"street_name":"River Run Court","zip":"29732","city":"Rock Hill","area":null,"county":"York County","state":"South Carolina","country":"us","formatted_address":"Outback Steakhouse, River Run Court, Rock Hill, York County, South Carolina, 29732, United States of America","place_id":"75344837","datatype":"locationiq"},{"latitude":"27.80922","longitude":"-82.75371","name":"Outback Steakhouse","address":"USA-St. Petersburg","street_number":null,"street_name":"Park Street N","zip":"33777; 33710","city":"Saint Petersburg","area":"Jungle Terrace","county":"Pinellas County","state":"Florida","country":"us","formatted_address":"Bed Pros, Park Street N, Jungle Terrace, Saint Petersburg, Pinellas County, Florida, 33777; 33710, United States of America","place_id":"113859459","datatype":"locationiq"},{"latitude":"32.33736","longitude":"-111.01606","name":"Outback Steakhouse","address":"USA-Tucson","street_number":"2268","street_name":"West Ina Road","zip":"85741","city":"Tucson","area":"Tucson National Estates","county":"Pima County","state":"Arizona","country":"us","formatted_address":"2268, West Ina Road, Tucson National Estates, Casas Adobes, Tucson, Pima County, Arizona, 85741, United States of America","place_id":"177358315","datatype":"locationiq"},{"latitude":"36.04720","longitude":"-86.64806","name":"Outback Steakhouse","address":"USA-Antioch","street_number":"5358","street_name":"Mount View Road","zip":"37013","city":"Nashville-Davidson","area":null,"county":"Davidson County","state":"Tennessee","country":"us","formatted_address":"5358, Mount View Road, Nashville-Davidson, Davidson County, Tennessee, 37013, United States of America","place_id":"203625564","datatype":"locationiq"},{"latitude":"37.38586","longitude":"-79.16473","name":"Outback Steakhouse","address":"USA-Lynchburg","street_number":"3113","street_name":"Albert Lankford Drive","zip":"24501","city":"Lynchburg","area":null,"county":null,"state":"Virginia","country":"us","formatted_address":"3113, Albert Lankford Drive, Lynchburg City, Lynchburg, Virginia, 24501, United States of America","place_id":"208037437","datatype":"locationiq"},{"latitude":"43.01933","longitude":"-88.10694","name":"Outback Steakhouse","address":"USA-Brookfield","street_number":"1148","street_name":"South Moorland Road","zip":"53005","city":"Brookfield","area":null,"county":"Waukesha County","state":"Wisconsin","country":"us","formatted_address":"1148, South Moorland Road, Brookfield, Waukesha County, Wisconsin, 53005, United States of America","place_id":"209755859","datatype":"locationiq"},{"latitude":"36.29075","longitude":"-86.70357","name":"Outback Steakhouse","address":"USA-United States","street_number":"1801","street_name":"Gallatin Pike North","zip":"37115","city":"Nashville-Davidson","area":null,"county":"Davidson County","state":"Tennessee","country":"us","formatted_address":"1801, Gallatin Pike North, Nashville-Davidson, Davidson County, Tennessee, 37115, United States of America","place_id":"203620452","datatype":"locationiq"},{"latitude":"36.18311","longitude":"-86.32405","name":"Outback Steakhouse","address":"USA-Lebanon","street_number":null,"street_name":"I 40","zip":"37090","city":"Lebanon","area":null,"county":"Wilson County","state":"Tennessee","country":"us","formatted_address":"I 40, Lebanon, Wilson County, Tennessee, 37090, United States of America","place_id":"109596873","datatype":"locationiq"},{"latitude":"38.93389","longitude":"-104.81511","name":"Outback Steakhouse","address":"USA-Colorado Springs","street_number":null,"street_name":"Commerce Center Drive","zip":"80920","city":"Colorado Springs","area":null,"county":"El Paso County","state":"Colorado","country":"us","formatted_address":"Fairfield Inn Colorado Springs Air Force Academy, Commerce Center Drive, Colorado Springs, El Paso County, Colorado, 80920, United States of America","place_id":"120110614","datatype":"locationiq"},{"latitude":"34.06994","longitude":"-117.54825","name":"Outback Steakhouse","address":"USA-Ontario","street_number":null,"street_name":"Ontario Mills Parkway","zip":"91730","city":"Ontario","area":null,"county":"San Bernardino County","state":"California","country":"us","formatted_address":"Ontario Mills Parkway, Ontario, San Bernardino County, California, 91730, United States of America","place_id":"170068936","datatype":"locationiq"},{"latitude":"34.61656","longitude":"-118.14910","name":"Outback Steakhouse","address":"USA-Palmdale","street_number":null,"street_name":"Avenue O","zip":"93551","city":"Palmdale","area":null,"county":"Los Angeles County","state":"California","country":"us","formatted_address":"Avenue O, Palmdale, Los Angeles County, California, 93551, United States of America","place_id":"111184945","datatype":"locationiq"},{"latitude":"34.17915","longitude":"-118.87448","name":"Outback Steakhouse","address":"USA-Thousand Oaks","street_number":"137","street_name":"East Thousand Oaks Boulevard","zip":"91360","city":"Thousand Oaks","area":null,"county":"Ventura County","state":"California","country":"us","formatted_address":"Outback Steakhouse, 137, East Thousand Oaks Boulevard, Thousand Oaks, Ventura County, California, 91360, United States of America","place_id":"144017375","datatype":"locationiq"},{"latitude":"38.36886","longitude":"-122.71493","name":"Outback Steakhouse","address":"USA-Rohnert Park","street_number":null,"street_name":"Millbrae Avenue","zip":"94928","city":"Rohnert Park","area":null,"county":"Sonoma County","state":"California","country":"us","formatted_address":"Outback Stakehouse, Millbrae Avenue, Rohnert Park, Sonoma County, California, 94928, United States of America","place_id":"19117610","datatype":"locationiq"},{"latitude":"33.41828","longitude":"-86.68512","name":"Outback Steakhouse","address":"USA-Birmingham","street_number":null,"street_name":"US 280","zip":"35242","city":"Hoover","area":null,"county":"Shelby County","state":"Alabama","country":"us","formatted_address":"US 280, Hoover, Shelby County, Alabama, 35242, United States of America","place_id":"94924854","datatype":"locationiq"},{"latitude":"41.75483","longitude":"-88.20123","name":"Outback Steakhouse","address":"USA-Naperville","street_number":null,"street_name":"West Ogden Avenue","zip":"60504","city":"Naperville","area":null,"county":"DuPage County","state":"Illinois","country":"us","formatted_address":"West Ogden Avenue, Naperville, DuPage County, Illinois, 60504, United States of America","place_id":"95584255","datatype":"locationiq"},{"latitude":"42.01737","longitude":"-91.63410","name":"Outback Steakhouse","address":"USA-Cedar Rapids","street_number":"3801","street_name":"1st Avenue East","zip":"52402","city":"Cedar Rapids","area":null,"county":"Linn County","state":"Iowa","country":"us","formatted_address":"3801, 1st Avenue East, Town & Country Shopping Center, Cedar Rapids, Linn County, Iowa, 52402, United States of America","place_id":"187360020","datatype":"locationiq"},{"latitude":"33.40178","longitude":"-86.80729","name":"Outback Steakhouse","address":"USA-Hoover","street_number":"1945","street_name":"Hoover Court","zip":"35226","city":"Hoover","area":"Monte D'Oro","county":"Jefferson County","state":"Alabama","country":"us","formatted_address":"1945, Hoover Court, Monte D'Oro, Hoover, Jefferson County, Alabama, 35226, United States of America","place_id":"176365724","datatype":"locationiq"},{"latitude":"21.28509","longitude":"-157.71550","name":"Outback Steakhouse","address":"USA-Honolulu","street_number":null,"street_name":"Hawai\u2019i Kai Drive","zip":"96825","city":"Honolulu","area":"Kealaula Kai","county":"Honolulu County","state":"Hawaii","country":"us","formatted_address":"Hawai\u2019i Kai Drive, Kealaula Kai, Hawaii Kai, Honolulu, Honolulu County, Hawaii, 96825, United States of America","place_id":"105301578","datatype":"locationiq"},{"latitude":"42.37832","longitude":"-87.94258","name":"Outback Steakhouse","address":"USA-Gurnee","street_number":null,"street_name":"Grand Avenue","zip":"60031","city":null,"area":null,"county":"Lake County","state":"Illinois","country":"us","formatted_address":"Joe's Crab Shack, Grand Avenue, Gurnee, Lake County, Illinois, 60031, United States of America","place_id":"105151463","datatype":"locationiq"},{"latitude":"42.74113","longitude":"-84.64744","name":"Outback Steakhouse","address":"USA-Lansing","street_number":"6598","street_name":"West Saginaw Highway","zip":"48917","city":null,"area":null,"county":"Eaton County","state":"Michigan","country":"us","formatted_address":"6598, West Saginaw Highway, Delta Center, Eaton County, Michigan, 48917, United States of America","place_id":"190807255","datatype":"locationiq"},{"latitude":"45.65655","longitude":"-122.58209","name":"Outback Steakhouse","address":"USA-United States","street_number":"8960","street_name":"Northeast Vancouver Mall Drive","zip":"98662","city":"Vancouver","area":null,"county":"Clark County","state":"Washington","country":"us","formatted_address":"8960, Northeast Vancouver Mall Drive, Burton Homes, Vancouver, Clark County, Washington, 98662, United States of America","place_id":"208236461","datatype":"locationiq"},{"latitude":"40.60604","longitude":"-74.47093","name":"Outback Steakhouse","address":"USA-Brook","street_number":"79","street_name":"US 22","zip":"08812","city":"Green Brook Township","area":null,"county":"Somerset County","state":"New Jersey","country":"us","formatted_address":"79, US 22, Green Brook Township, Somerset County, New Jersey, 08812, United States of America","place_id":"195732305","datatype":"locationiq"},{"latitude":"39.03807","longitude":"-94.34526","name":"Outback Steakhouse","address":"USA-Independence","street_number":null,"street_name":"South Arrowhead Drive","zip":"64055","city":"Independence","area":null,"county":"Jackson County","state":"Missouri","country":"us","formatted_address":"Outback Steakhouse, South Arrowhead Drive, Independence, Jackson County, Missouri, 64055, United States of America","place_id":"101218517","datatype":"locationiq"},{"latitude":"37.40510","longitude":"-77.66129","name":"Outback Steakhouse","address":"USA-Midlothian","street_number":null,"street_name":"Hull Street Road","zip":"23120","city":null,"area":"Thornridge","county":"Chesterfield County","state":"Virginia","country":"us","formatted_address":"South Beach Bar and Grill, Hull Street Road, Thornridge, Birkdale, Chesterfield County, Virginia, 23120, United States of America","place_id":"124423572","datatype":"locationiq"},{"latitude":"30.29797","longitude":"-95.46553","name":"Outback Steakhouse","address":"USA-United States","street_number":"896","street_name":"I-45 Frontage Road","zip":"77301","city":"Conroe","area":null,"county":"Montgomery County","state":"Texas","country":"us","formatted_address":"896, I-45 Frontage Road, Conroe, Montgomery County, Texas, 77301, United States of America","place_id":"205978458","datatype":"locationiq"},{"latitude":"39.95472","longitude":"-82.83727","name":"Outback Steakhouse","address":"USA-Columbus","street_number":"6002","street_name":"East Main Street","zip":"43213","city":"Reynoldsburg","area":null,"county":"Franklin County","state":"Ohio","country":"us","formatted_address":"6002, East Main Street, Reynoldsburg, Franklin County, Ohio, 43213, United States of America","place_id":"199138506","datatype":"locationiq"},{"latitude":"39.72730","longitude":"-121.80212","name":"Outback Steakhouse","address":"USA-Chico","street_number":null,"street_name":"East 20th Street","zip":"95928","city":"Chico","area":null,"county":"Butte County","state":"California","country":"us","formatted_address":"Outback Steakhouse, East 20th Street, Chico, Butte County, California, 95928, United States of America","place_id":"87500560","datatype":"locationiq"},{"latitude":"41.31351","longitude":"-81.51401","name":"Outback Steakhouse","address":"USA-United States","street_number":"8265","street_name":"Macedonia Commons Boulevard","zip":"44056","city":"Macedonia","area":null,"county":"Summit County","state":"Ohio","country":"us","formatted_address":"8265, Macedonia Commons Boulevard, Macedonia, Summit County, Ohio, 44056, United States of America","place_id":"199894791","datatype":"locationiq"},{"latitude":"42.22593","longitude":"-88.28953","name":"Outback Steakhouse","address":"USA-Crystal Lake","street_number":null,"street_name":"Cog Circle","zip":"60014","city":"Crystal Lake","area":null,"county":"McHenry County","state":"Illinois","country":"us","formatted_address":"TGI Friday's, Cog Circle, Crystal Lake, McHenry County, Illinois, 60014, United States of America","place_id":"18499458","datatype":"locationiq"},{"latitude":"34.79569","longitude":"-92.22029","name":"Outback Steakhouse","address":"USA-North Little Rock","street_number":"4541","street_name":"Warden Road","zip":"72116","city":"North Little Rock","area":null,"county":"Pulaski County","state":"Arkansas","country":"us","formatted_address":"4541, Warden Road, McCain Mall, North Little Rock, Pulaski County, Arkansas, 72116, United States of America","place_id":"177944119","datatype":"locationiq"},{"latitude":"33.74869","longitude":"-118.01049","name":"Outback Steakhouse","address":"USA-Westminster","street_number":null,"street_name":"San Diego Freeway","zip":"92683","city":"Westminster","area":null,"county":"Orange County","state":"California","country":"us","formatted_address":"San Diego Freeway, Little Saigon, Westminster, Orange County, California, 92683, United States of America","place_id":"85018567","datatype":"locationiq"},{"latitude":"45.38067","longitude":"-122.76682","name":"Outback Steakhouse","address":"USA-United States","street_number":"8680","street_name":"Southwest Old Tualatin Sherwood Road","zip":"97062","city":"Tualatin","area":null,"county":"Washington County","state":"Oregon","country":"us","formatted_address":"8680, Southwest Old Tualatin Sherwood Road, Tualatin, Washington County, Oregon, 97062, United States of America","place_id":"148002324","datatype":"locationiq"},{"latitude":"29.54570","longitude":"-95.13265","name":"Outback Steakhouse","address":"USA-Webster","street_number":null,"street_name":"West Bay Area Boulevard","zip":"77598","city":"Webster","area":null,"county":"Harris County","state":"Texas","country":"us","formatted_address":"Jason's Deli, West Bay Area Boulevard, Webster, Harris County, Texas, 77598, United States of America","place_id":"46210425","datatype":"locationiq"},{"latitude":"38.13047","longitude":"-85.57725","name":"Outback Steakhouse","address":"USA-Louisville","street_number":"8102","street_name":"Old Bardstown Road","zip":"40291","city":"Louisville","area":null,"county":"Jefferson County","state":"Kentucky","country":"us","formatted_address":"8102, Old Bardstown Road, Louisville, Jefferson County, Kentucky, 40291, United States of America","place_id":"47081585","datatype":"locationiq"},{"latitude":"38.33748","longitude":"-75.10923","name":"Outback Steakhouse","address":"USA-Ocean City","street_number":null,"street_name":"Ocean Gateway","zip":"21842","city":null,"area":null,"county":"Worcester County","state":"Maryland","country":"us","formatted_address":"Jiffy Lube, Ocean Gateway, West Ocean City, Worcester County, Maryland, 21842, United States of America","place_id":"25026580","datatype":"locationiq"},{"latitude":"40.73460","longitude":"-73.87474","name":"Outback Steakhouse","address":"USA-Elmhurst","street_number":"89-08","street_name":"Queens Boulevard","zip":"11373","city":"New York City","area":"Elmhurst","county":"Queens County","state":"New York","country":"us","formatted_address":"89-08, Queens Boulevard, Elmhurst, Queens County, New York City, New York, 11373, United States of America","place_id":"134119149","datatype":"locationiq"},{"latitude":"34.10635","longitude":"-117.90758","name":"Outback Steakhouse","address":"USA-United States","street_number":null,"street_name":"North Azusa Avenue","zip":"91722","city":"Covina","area":null,"county":"Los Angeles County","state":"California","country":"us","formatted_address":"Foothill Transit 280, North Azusa Avenue, Covina, Los Angeles County, California, 91722, United States of America","place_id":"54292672","datatype":"locationiq"},{"latitude":"30.19432","longitude":"-92.01609","name":"Outback Steakhouse","address":"USA-United States","street_number":"1700","street_name":"West Pinhook Road","zip":"70508","city":"Lafayette","area":"Bois de Lafayette","county":"Lafayette Parish","state":"Louisiana","country":"us","formatted_address":"1700, West Pinhook Road, Bois de Lafayette, Lafayette, Lafayette Parish, Louisiana, 70508, United States of America","place_id":"189068632","datatype":"locationiq"},{"latitude":"38.47597","longitude":"-77.41954","name":"Outback Steakhouse","address":"USA-Stafford","street_number":null,"street_name":"Worth Avenue","zip":"22556","city":null,"area":null,"county":"Stafford County","state":"Virginia","country":"us","formatted_address":"Worth Avenue, Garrisonville, Stafford County, Virginia, 22556, United States of America","place_id":"72187683","datatype":"locationiq"},{"latitude":"39.76375","longitude":"-86.32430","name":"Outback Steakhouse","address":"USA-Indianapolis","street_number":null,"street_name":"Rockville Road","zip":"46234","city":null,"area":null,"county":"Marion County","state":"Indiana","country":"us","formatted_address":"Outback, Rockville Road, Tremont, Marion County, Indiana, 46234, United States of America","place_id":"11598587","datatype":"locationiq"},{"latitude":"40.61446","longitude":"-73.64488","name":"Outback Steakhouse","address":"USA-Island Park","street_number":"3934","street_name":"Long Beach Road","zip":"11558","city":null,"area":null,"county":"Nassau","state":"New York","country":"us","formatted_address":"3934, Long Beach Road, Island Park, Nassau, New York, 11558, United States of America","place_id":"196561064","datatype":"locationiq"},{"latitude":"32.79930","longitude":"-80.02130","name":"Outback Steakhouse","address":"USA-Charleston","street_number":"1892","street_name":"Sam Rittenberg Boulevard","zip":"29407","city":"Charleston","area":null,"county":"Charleston County","state":"South Carolina","country":"us","formatted_address":"1892, Sam Rittenberg Boulevard, Charleston, Charleston County, South Carolina, 29407, United States of America","place_id":"202751572","datatype":"locationiq"},{"latitude":"38.96619","longitude":"-77.36846","name":"Outback Steakhouse","address":"USA-United States","street_number":null,"street_name":"Elden Street","zip":"20194","city":null,"area":null,"county":"Fairfax County","state":"Virginia","country":"us","formatted_address":"Elden Street, Herndon, Fairfax County, Virginia, 20194, United States of America","place_id":"109654826","datatype":"locationiq"},{"latitude":"41.08260","longitude":"-111.98405","name":"Outback Steakhouse","address":"USA-United States","street_number":null,"street_name":"Woodland Park Drive","zip":"84041","city":null,"area":"Layton Meadows Apartments","county":"Davis County","state":"Utah","country":"us","formatted_address":"Red Robin, Woodland Park Drive, Layton Meadows Apartments, Layton, Davis County, Utah, 84041, United States of America","place_id":"172103603","datatype":"locationiq"},{"latitude":"32.60560","longitude":"-96.82351","name":"Outback Steakhouse","address":"USA-DeSoto","street_number":null,"street_name":"North Beckley Avenue","zip":"75115","city":"DeSoto","area":null,"county":"Dallas County","state":"Texas","country":"us","formatted_address":"Burger King, North Beckley Avenue, DeSoto, Dallas County, Texas, 75115, United States of America","place_id":"16725935","datatype":"locationiq"},{"latitude":"38.30634","longitude":"-85.57603","name":"Outback Steakhouse","address":"USA-Louisville","street_number":"3900","street_name":"Summit Plaza Drive","zip":"40241-8103","city":"Louisville","area":null,"county":"Jefferson County","state":"Kentucky","country":"us","formatted_address":"Stoney River, 3900, Summit Plaza Drive, Paddock Shops, Louisville, Jefferson County, Kentucky, 40241-8103, United States of America","place_id":"83825745","datatype":"locationiq"},{"latitude":"39.64383","longitude":"-84.15437","name":"Outback Steakhouse","address":"USA-Centerville","street_number":null,"street_name":"Alexandersville\u2013Bellbrook Road East","zip":"45459","city":"Centerville","area":"Centerville Historic District","county":"Montgomery County","state":"Ohio","country":"us","formatted_address":"Alexandersville\u2013Bellbrook Road East, Centerville Historic District, Centerville, Montgomery County, Ohio, 45459, United States of America","place_id":"70853679","datatype":"locationiq"},{"latitude":"36.13789","longitude":"-85.51131","name":"Outback Steakhouse","address":"USA-Cookeville","street_number":"1399","street_name":"Interstate Drive","zip":"38501","city":null,"area":null,"county":"Putnam County","state":"Tennessee","country":"us","formatted_address":"1399, Interstate Drive, Cookeville, Putnam County, Tennessee, 38501, United States of America","place_id":"204010410","datatype":"locationiq"},{"latitude":"40.46054","longitude":"-78.41213","name":"Outback Steakhouse","address":"USA-Altoona","street_number":"198","street_name":"Sheraton Drive","zip":"16601","city":null,"area":null,"county":"Blair County","state":"Pennsylvania","country":"us","formatted_address":"198, Sheraton Drive, Eldorado, Blair County, Pennsylvania, 16601, United States of America","place_id":"201387395","datatype":"locationiq"},{"latitude":"40.09884","longitude":"-75.12576","name":"Outback Steakhouse","address":"USA-Jenkintown","street_number":"500","street_name":"Old York Road","zip":"19046","city":"Jenkintown","area":null,"county":"Montgomery County","state":"Pennsylvania","country":"us","formatted_address":"Rydal Square, 500, Old York Road, Jenkintown, Montgomery County, Pennsylvania, 19046, United States of America","place_id":"152713613","datatype":"locationiq"},{"latitude":"40.11658","longitude":"-74.95878","name":"Outback Steakhouse","address":"USA-Bensalem","street_number":null,"street_name":"East Street Road","zip":"19053","city":"Bensalem Township","area":null,"county":"Bucks County","state":"Pennsylvania","country":"us","formatted_address":"East Street Road, Bensalem Township, Bucks County, Pennsylvania, 19053, United States of America","place_id":"161697037","datatype":"locationiq"},{"latitude":"32.25055","longitude":"-110.88904","name":"Outback Steakhouse","address":"USA-Tucson","street_number":"4872","street_name":"East Grant Road","zip":"85712","city":"Tucson","area":null,"county":"Pima County","state":"Arizona","country":"us","formatted_address":"4872, East Grant Road, Tucson, Pima County, Arizona, 85712, United States of America","place_id":"177338276","datatype":"locationiq"},{"latitude":"40.86366","longitude":"-74.39324","name":"Outback Steakhouse","address":"USA-Parsippany","street_number":"1300","street_name":"Route 46 West","zip":"07058","city":null,"area":null,"county":"Morris County","state":"New Jersey","country":"us","formatted_address":"Outback Steakhouse, 1300, Route 46 West, Parsippany-Troy Hills, Morris County, New Jersey, 07058, United States of America","place_id":"136844321","datatype":"locationiq"},{"latitude":"32.78142","longitude":"-117.03167","name":"Outback Steakhouse","address":"USA-La Mesa","street_number":"5634","street_name":"Lake Murray Boulevard","zip":"91942","city":"La Mesa","area":null,"county":"San Diego County","state":"California","country":"us","formatted_address":"5634, Lake Murray Boulevard, La Mesa, San Diego County, California, 91942, United States of America","place_id":"6193956","datatype":"locationiq"},{"latitude":"28.34119","longitude":"-81.59817","name":"Outback Steakhouse","address":"USA-Hwy. Kissimmee","street_number":null,"street_name":"Bronson Highway","zip":"34747","city":null,"area":null,"county":"Osceola County","state":"Florida","country":"us","formatted_address":"Bronson Highway, Osceola County, Florida, 34747, United States of America","place_id":"87133489","datatype":"locationiq"},{"latitude":"36.23949","longitude":"-115.17763","name":"Outback Steakhouse","address":"USA-Las Vegas","street_number":"2636","street_name":"West Craig Road","zip":"89032","city":"Las Vegas","area":null,"county":"Clark County","state":"Nevada","country":"us","formatted_address":"2636, West Craig Road, Centennial Hills, Las Vegas, Clark County, Nevada, 89032, United States of America","place_id":"194878932","datatype":"locationiq"},{"latitude":"34.77250","longitude":"-87.66995","name":"Outback Steakhouse","address":"USA-Sheffield","street_number":"4902","street_name":"Hatch Boulevard","zip":"35660","city":null,"area":null,"county":"Colbert County","state":"Alabama","country":"us","formatted_address":"4902, Hatch Boulevard, Easton, Colbert County, Alabama, 35660, United States of America","place_id":"176165300","datatype":"locationiq"},{"latitude":"32.41882","longitude":"-93.73644","name":"Outback Steakhouse","address":"USA-Shreveport","street_number":"8812","street_name":"Line Avenue","zip":"71106","city":"Shreveport","area":null,"county":"Caddo Parish","state":"Louisiana","country":"us","formatted_address":"8812, Line Avenue, Shreveport, Caddo Parish, Louisiana, 71106, United States of America","place_id":"188895319","datatype":"locationiq"},{"latitude":"36.14362","longitude":"-86.81897","name":"Outback Steakhouse","address":"USA-Nashville","street_number":"3201","street_name":"West End Circle","zip":"37203","city":"Nashville-Davidson","area":null,"county":"Davidson County","state":"Tennessee","country":"us","formatted_address":"3201, West End Circle, Nashville-Davidson, Davidson County, Tennessee, 37203, United States of America","place_id":"203586645","datatype":"locationiq"},{"latitude":"37.98035","longitude":"-84.52843","name":"Outback Steakhouse","address":"USA-Lexington","street_number":"4009","street_name":"Nicholasville Road","zip":"40503-4416","city":null,"area":"Brigadoon","county":"Fayette County","state":"Kentucky","country":"us","formatted_address":"Applebee's, 4009, Nicholasville Road, Brigadoon, Blueberry Hill, Fayette County, Kentucky, 40503-4416, United States of America","place_id":"140400438","datatype":"locationiq"},{"latitude":"43.12750","longitude":"-89.30712","name":"Outback Steakhouse","address":"USA-Madison","street_number":"4513","street_name":"East Towne Boulevard","zip":"53704","city":"Madison","area":null,"county":"Dane County","state":"Wisconsin","country":"us","formatted_address":"4513, East Towne Boulevard, Madison, Dane County, Wisconsin, 53704, United States of America","place_id":"209303460","datatype":"locationiq"},{"latitude":"40.50420","longitude":"-80.19341","name":"Outback Steakhouse","address":"USA-Moon Township","street_number":"1452","street_name":"Coraopolis Heights Road","zip":"15108","city":null,"area":null,"county":"Allegheny County","state":"Pennsylvania","country":"us","formatted_address":"1452, Coraopolis Heights Road, Moon Township, Allegheny County, Pennsylvania, 15108, United States of America","place_id":"201244741","datatype":"locationiq"},{"latitude":"39.62990","longitude":"-77.76942","name":"Outback Steakhouse","address":"USA-Hagerstown","street_number":null,"street_name":"Railway Lane","zip":"21740","city":null,"area":null,"county":"Washington County","state":"Maryland","country":"us","formatted_address":"Railway Lane, Halfway, Washington County, Maryland, 21740, United States of America","place_id":"101799189","datatype":"locationiq"},{"latitude":"26.34440","longitude":"-81.80590","name":"Outback Steakhouse","address":"USA-Bonita Springs","street_number":"27263","street_name":"Bay Landing Drive","zip":"34135","city":null,"area":null,"county":"Lee County","state":"Florida","country":"us","formatted_address":"27263, Bay Landing Drive, Bonita Springs, Lee County, Florida, 34135, United States of America","place_id":"182304702","datatype":"locationiq"},{"latitude":"33.45702","longitude":"-94.08379","name":"Outback Steakhouse","address":"USA-Texarkana","street_number":null,"street_name":"Mall Drive","zip":"75501","city":"Texarkana","area":null,"county":"Bowie County","state":"Texas","country":"us","formatted_address":"Books-A-Million, Mall Drive, Texarkana, Bowie County, Texas, 75501, United States of America","place_id":"83897487","datatype":"locationiq"},{"latitude":"32.56351","longitude":"-97.31784","name":"Outback Steakhouse","address":"USA-Burleson","street_number":null,"street_name":"South Freeway","zip":"76028","city":"Burleson","area":null,"county":"Tarrant County","state":"Texas","country":"us","formatted_address":"Chevron, South Freeway, Burleson, Tarrant County, Texas, 76028, United States of America","place_id":"17597163","datatype":"locationiq"},{"latitude":"25.68776","longitude":"-80.38418","name":"Outback Steakhouse","address":"USA-Kendall","street_number":null,"street_name":"Sherry Lane","zip":"33183","city":"Kendall","area":null,"county":"Miami-Dade County","state":"Florida","country":"us","formatted_address":"Wells Fargo, Sherry Lane, Kendall, Miami-Dade County, Florida, 33183, United States of America","place_id":"135581628","datatype":"locationiq"},{"latitude":"33.45171","longitude":"-111.79038","name":"Outback Steakhouse","address":"USA-Mesa","street_number":"1903","street_name":"East McKellips Road","zip":"85203","city":"Mesa","area":null,"county":"Maricopa County","state":"Arizona","country":"us","formatted_address":"1903, East McKellips Road, Mesa, Maricopa County, Arizona, 85203, United States of America","place_id":"177134554","datatype":"locationiq"},{"latitude":"32.65762","longitude":"-117.06941","name":"Outback Steakhouse","address":"USA-National City","street_number":"3305","street_name":"Plaza Bonita Road","zip":"91950","city":"National City","area":null,"county":"San Diego County","state":"California","country":"us","formatted_address":"3305, Plaza Bonita Road, National City, San Diego County, California, 91950, United States of America","place_id":"179873534","datatype":"locationiq"},{"latitude":"29.97887","longitude":"-95.51464","name":"Outback Steakhouse","address":"USA-Houston","street_number":"5710","street_name":"Cypress Creek Parkway","zip":"77076","city":"Houston","area":null,"county":"Harris County","state":"Texas","country":"us","formatted_address":"Outback Steakhouse, 5710, Cypress Creek Parkway, Houston, Harris County, Texas, 77076, United States of America","place_id":"52639296","datatype":"locationiq"},{"latitude":"40.05627","longitude":"-74.13523","name":"Outback Steakhouse","address":"USA-Brick","street_number":null,"street_name":"Crimson Terrace","zip":"08723","city":"Brick Township","area":null,"county":"Ocean County","state":"New Jersey","country":"us","formatted_address":"Best Laundramat, Crimson Terrace, Brick Township, Ocean County, New Jersey, 08723, United States of America","place_id":"166367157","datatype":"locationiq"},{"latitude":"41.83277","longitude":"-88.10163","name":"Outback Steakhouse","address":"USA-Wheaton","street_number":null,"street_name":"East Loop Road","zip":"60189","city":"Wheaton","area":"Danada Farms","county":"DuPage County","state":"Illinois","country":"us","formatted_address":"Circle K, East Loop Road, Danada Farms, Wheaton, DuPage County, Illinois, 60189, United States of America","place_id":"76292432","datatype":"locationiq"},{"latitude":"37.28933","longitude":"-121.93167","name":"Outback Steakhouse","address":"USA-Campbell","street_number":"1875","street_name":"South Bascom Avenue","zip":"95008","city":"Campbell","area":null,"county":"Santa Clara County","state":"California","country":"us","formatted_address":"Pacific Catch, 1875, South Bascom Avenue, Campbell, Santa Clara County, California, 95008, United States of America","place_id":"58576674","datatype":"locationiq"},{"latitude":"30.38888","longitude":"-87.68335","name":"Outback Steakhouse","address":"USA-United States","street_number":null,"street_name":"McKenzie Street","zip":"36539","city":"Foley","area":null,"county":"Baldwin County","state":"Alabama","country":"us","formatted_address":"America's Best Inn Foley, McKenzie Street, Foley, Baldwin County, Alabama, 36539, United States of America","place_id":"19951822","datatype":"locationiq"},{"latitude":"45.45426","longitude":"-122.57910","name":"Outback Steakhouse","address":"USA-Portland","street_number":"9500","street_name":"Southeast 82nd Avenue","zip":"97086","city":null,"area":null,"county":"Clackamas County","state":"Oregon","country":"us","formatted_address":"Outback, 9500, Southeast 82nd Avenue, Battin, Clackamas County, Oregon, 97086, United States of America","place_id":"94864269","datatype":"locationiq"},{"latitude":"37.41224","longitude":"-121.89638","name":"Outback Steakhouse","address":"USA-Milpitas","street_number":"836","street_name":"Great Mall Drive","zip":"95035","city":"Milpitas","area":null,"county":"Santa Clara County","state":"California","country":"us","formatted_address":"836, Great Mall Drive, Great Mall, Milpitas, Santa Clara County, California, 95035, United States of America","place_id":"180206302","datatype":"locationiq"},{"latitude":"40.07323","longitude":"-75.43027","name":"Outback Steakhouse","address":"USA-Wayne","street_number":null,"street_name":"East Swedesford Road","zip":"19087","city":"Tredyffrin Township","area":null,"county":"Chester County","state":"Pennsylvania","country":"us","formatted_address":"Outback Steakhouse, East Swedesford Road, Tredyffrin Township, Chester County, Pennsylvania, 19087, United States of America","place_id":"81515897","datatype":"locationiq"},{"latitude":"46.88723","longitude":"-114.03929","name":"Outback Steakhouse","address":"USA-Missoula","street_number":"2301","street_name":"North Reserve Street","zip":"59808","city":"Missoula","area":null,"county":"Missoula County","state":"Montana","country":"us","formatted_address":"2301, North Reserve Street, North Reserve, Missoula, Missoula County, Montana, 59808, United States of America","place_id":"194330991","datatype":"locationiq"},{"latitude":"36.11440","longitude":"-115.10088","name":"Outback Steakhouse","address":"USA-Las Vegas","street_number":null,"street_name":"South Pecos Road","zip":"89121","city":null,"area":null,"county":"Clark County","state":"Nevada","country":"us","formatted_address":"Spanish Church of God, South Pecos Road, Midtown UNLV, Paradise, Clark County, Nevada, 89121, United States of America","place_id":"3066920","datatype":"locationiq"},{"latitude":"40.27812","longitude":"-76.82861","name":"Outback Steakhouse","address":"USA-Harrisburg","street_number":"3523","street_name":"Union Deposit Road","zip":"17109","city":null,"area":null,"county":"Dauphin County","state":"Pennsylvania","country":"us","formatted_address":"Joe K's Brewhouse, 3523, Union Deposit Road, Progress, Dauphin County, Pennsylvania, 17109, United States of America","place_id":"7959682","datatype":"locationiq"},{"latitude":"27.38871","longitude":"-82.50551","name":"Outback Steakhouse","address":"USA-Road Sarasota","street_number":null,"street_name":"Lockwood Ridge Road","zip":"34243","city":"Sarasota","area":null,"county":"Sarasota County","state":"Florida","country":"us","formatted_address":"Wells Fargo, Lockwood Ridge Road, Sarasota, Sarasota County, Florida, 34243, United States of America","place_id":"9061522","datatype":"locationiq"},{"latitude":"37.30223","longitude":"-89.58081","name":"Outback Steakhouse","address":"USA-Cape Girardeau","street_number":null,"street_name":"Campster Drive","zip":"63701","city":"Cape Girardeau","area":null,"county":"Cape Girardeau County","state":"Missouri","country":"us","formatted_address":"Drury Suites Cape Girardeau, Campster Drive, Cape Girardeau, Cape Girardeau County, Missouri, 63701, United States of America","place_id":"53041373","datatype":"locationiq"},{"latitude":"20.76508","longitude":"-156.42498","name":"Outback Steakhouse","address":"USA-Kihei Maui","street_number":null,"street_name":"Waiakoa Road","zip":null,"city":null,"area":null,"county":"Maui County","state":"Hawaii","country":"us","formatted_address":"Waiakoa Road, Kihei, Maui County, Hawaii, United States of America","place_id":"80771009","datatype":"locationiq"},{"latitude":"45.13189","longitude":"-93.27079","name":"Outback Steakhouse","address":"USA-Coon Rapids","street_number":"8846","street_name":"Springbrook Drive Northwest","zip":"55433","city":null,"area":null,"county":"Anoka County","state":"Minnesota","country":"us","formatted_address":"8846, Springbrook Drive Northwest, Coon Rapids, Anoka County, Minnesota, 55433, United States of America","place_id":"191797222","datatype":"locationiq"},{"latitude":"28.49185","longitude":"-81.45919","name":"Outback Steakhouse","address":"USA-Orlando","street_number":"4916","street_name":"Kirkman Road","zip":"32811","city":"Orlando","area":"Florida Center","county":"Orange County","state":"Florida","country":"us","formatted_address":"4916, Kirkman Road, Florida Center, Orlando, Orange County, Florida, 32811, United States of America","place_id":"182731308","datatype":"locationiq"},{"latitude":"35.33921","longitude":"-82.44122","name":"Outback Steakhouse","address":"USA-Hendersonville","street_number":"228","street_name":"Mitchelle Drive","zip":"28792","city":null,"area":null,"county":"Henderson County","state":"North Carolina","country":"us","formatted_address":"228, Mitchelle Drive, Hendersonville, Henderson County, North Carolina, 28792, United States of America","place_id":"197750760","datatype":"locationiq"},{"latitude":"28.05426","longitude":"-82.50406","name":"Outback Steakhouse","address":"USA-Tampa","street_number":null,"street_name":"Dale Mabry Highway","zip":"33688","city":null,"area":null,"county":"Hillsborough County","state":"Florida","country":"us","formatted_address":"Dale Mabry Highway, Mullis City, Carrollwood, Hillsborough County, Florida, 33688, United States of America","place_id":"102506691","datatype":"locationiq"},{"latitude":"37.52512","longitude":"-121.98553","name":"Outback Steakhouse","address":"USA-Fremont","street_number":null,"street_name":"Stevenson Boulevard","zip":"94538","city":"Fremont","area":null,"county":"Alameda County","state":"California","country":"us","formatted_address":"Outback Steakhouse, Stevenson Boulevard, Irvington District, Fremont, Alameda County, California, 94538, United States of America","place_id":"4841848","datatype":"locationiq"},{"latitude":"39.93894","longitude":"-75.00319","name":"Outback Steakhouse","address":"USA-Cherry Hill","street_number":"212","street_name":"Lake Drive East","zip":"08002","city":"Cherry Hill Township","area":null,"county":"Camden County","state":"New Jersey","country":"us","formatted_address":"212, Lake Drive East, Cherry Hill Township, Camden County, New Jersey, 08002, United States of America","place_id":"195361220","datatype":"locationiq"},{"latitude":"36.11546","longitude":"-115.18895","name":"Outback Steakhouse","address":"USA-Las Vegas","street_number":"3441","street_name":"West Flamingo Road","zip":"89103","city":null,"area":null,"county":"Clark County","state":"Nevada","country":"us","formatted_address":"3441, West Flamingo Road, Flamingo Heights, Spring Valley, Clark County, Nevada, 89103, United States of America","place_id":"194912972","datatype":"locationiq"},{"latitude":"38.86738","longitude":"-77.11688","name":"Outback Steakhouse","address":"USA-Arlington","street_number":"4805","street_name":"1st Road North","zip":"22203","city":null,"area":null,"county":"Arlington County","state":"Virginia","country":"us","formatted_address":"DeVita Dialysis, 4805, 1st Road North, Ballston, Arlington, Arlington County, Virginia, 22203, United States of America","place_id":"60944485","datatype":"locationiq"},{"latitude":"45.55613","longitude":"-94.21659","name":"Outback Steakhouse","address":"USA-Waite Park","street_number":"102","street_name":"2nd Street North","zip":"56387","city":"Waite Park","area":null,"county":"Stearns County","state":"Minnesota","country":"us","formatted_address":"102, 2nd Street North, Waite Park, Stearns County, Minnesota, 56387, United States of America","place_id":"192573263","datatype":"locationiq"},{"latitude":"29.56367","longitude":"-98.33064","name":"Outback Steakhouse","address":"USA-Selma","street_number":null,"street_name":"East Loop 1604 North","zip":"78148","city":null,"area":null,"county":"Bexar County","state":"Texas","country":"us","formatted_address":"East Loop 1604 North, Live Oak, Bexar County, Texas, 78148, United States of America","place_id":"126692712","datatype":"locationiq"},{"latitude":"28.00399","longitude":"-81.72602","name":"Outback Steakhouse","address":"USA-Haven","street_number":null,"street_name":"Cypress Gardens Boulevard","zip":"33880","city":"Winter Haven","area":null,"county":"Polk County","state":"Florida","country":"us","formatted_address":"Amscot, Cypress Gardens Boulevard, Winter Haven, Polk County, Florida, 33880, United States of America","place_id":"153179081","datatype":"locationiq"},{"latitude":"34.05686","longitude":"-84.37920","name":"Outback Steakhouse","address":"USA-Roswell","street_number":"660","street_name":"Elgaen Court","zip":"30075","city":null,"area":"Greenway","county":"Fulton County","state":"Georgia","country":"us","formatted_address":"660, Elgaen Court, Greenway, Roswell, Fulton County, Georgia, 30075, United States of America","place_id":"51525458","datatype":"locationiq"},{"latitude":"33.85263","longitude":"-84.60899","name":"Outback Steakhouse","address":"USA-Austell","street_number":null,"street_name":"East-West Connector","zip":"30127","city":null,"area":"Sherwood Estates","county":"Cobb County","state":"Georgia","country":"us","formatted_address":"East-West Connector, Sherwood Estates, Clarkdale, Cobb County, Georgia, 30127, United States of America","place_id":"134581718","datatype":"locationiq"},{"latitude":"35.35428","longitude":"-119.05730","name":"Outback Steakhouse","address":"USA-Bakersfield","street_number":null,"street_name":"Stockdale Highway","zip":"93309","city":"Bakersfield","area":null,"county":"Kern County","state":"California","country":"us","formatted_address":"Chipotle, Stockdale Highway, Bakersfield, Kern County, California, 93309, United States of America","place_id":"83816353","datatype":"locationiq"},{"latitude":"41.39842","longitude":"-81.64997","name":"Outback Steakhouse","address":"USA-Independence","street_number":"6119","street_name":"Rockside Place","zip":"44131","city":null,"area":null,"county":"Cuyahoga County","state":"Ohio","country":"us","formatted_address":"6119, Rockside Place, Independence, Cuyahoga County, Ohio, 44131, United States of America","place_id":"198989123","datatype":"locationiq"},{"latitude":"38.78777","longitude":"-90.34925","name":"Outback Steakhouse","address":"USA-Hazelwood","street_number":"7898","street_name":"North Lindbergh Boulevard","zip":"63042","city":"Hazelwood","area":null,"county":"St. Louis County","state":"Missouri","country":"us","formatted_address":"7898, North Lindbergh Boulevard, Hazelwood, St. Louis County, Missouri, 63042, United States of America","place_id":"194007561","datatype":"locationiq"},{"latitude":"34.44118","longitude":"-119.82264","name":"Outback Steakhouse","address":"USA-Goleta","street_number":null,"street_name":"Calle Real","zip":"93111","city":null,"area":null,"county":"Santa Barbara County","state":"California","country":"us","formatted_address":"Denny's, Calle Real, Goleta, Santa Barbara County, California, 93111, United States of America","place_id":"15690450","datatype":"locationiq"},{"latitude":"34.46431","longitude":"-93.05846","name":"Outback Steakhouse","address":"USA-Hot Springs","street_number":null,"street_name":"Cornerstone Boulevard","zip":"71913","city":"Hot Springs","area":null,"county":"Garland County","state":"Arkansas","country":"us","formatted_address":"On The Border, Cornerstone Boulevard, Hot Springs, Garland County, Arkansas, 71913, United States of America","place_id":"6603337","datatype":"locationiq"},{"latitude":"32.52310","longitude":"-93.70205","name":"Outback Steakhouse","address":"USA-Bossier","street_number":"2693","street_name":"Village Lane","zip":"71112","city":"Bossier City","area":null,"county":"Bossier Parish","state":"Louisiana","country":"us","formatted_address":"2693, Village Lane, Bossier City, Bossier Parish, Louisiana, 71112, United States of America","place_id":"188888308","datatype":"locationiq"},{"latitude":"42.50927","longitude":"-82.92902","name":"Outback Steakhouse","address":"USA-Roseville","street_number":null,"street_name":"South Gratiot Avenue","zip":"48035","city":"Roseville","area":null,"county":"Macomb County","state":"Michigan","country":"us","formatted_address":"Gratiot & 12 Mile, South Gratiot Avenue, Roseville, Macomb County, Michigan, 48035, United States of America","place_id":"23293869","datatype":"locationiq"},{"latitude":"35.76201","longitude":"-78.78338","name":"Outback Steakhouse","address":"USA-Cary","street_number":"1247","street_name":"Kildaire Farm Road","zip":"27511","city":null,"area":null,"county":"Wake County","state":"North Carolina","country":"us","formatted_address":"1247, Kildaire Farm Road, Salt Box Village, Cary, Wake County, North Carolina, 27511, United States of America","place_id":"198340725","datatype":"locationiq"},{"latitude":"39.64909","longitude":"-79.89994","name":"Outback Steakhouse","address":"USA-Morgantown","street_number":null,"street_name":"Venture Drive","zip":"26508-7307","city":null,"area":null,"county":"Monongalia County","state":"West Virginia","country":"us","formatted_address":"IHOP, Venture Drive, Glenmark Centre, Pierpont, Monongalia County, West Virginia, 26508-7307, United States of America","place_id":"156853016","datatype":"locationiq"},{"latitude":"38.59280","longitude":"-90.56282","name":"Outback Steakhouse","address":"USA-Ellisville","street_number":"15420","street_name":"Manchester Road","zip":"63011","city":"Ballwin","area":null,"county":"St. Louis County","state":"Missouri","country":"us","formatted_address":"15420, Manchester Road, Ballwin, St. Louis County, Missouri, 63011, United States of America","place_id":"167653948","datatype":"locationiq"},{"latitude":"26.14847","longitude":"-80.26756","name":"Outback Steakhouse","address":"USA-Pine Island","street_number":"1968","street_name":"North Pine Island Road","zip":"33322","city":null,"area":null,"county":"Broward County","state":"Florida","country":"us","formatted_address":"1968, North Pine Island Road, Plantation, Broward County, Florida, 33322, United States of America","place_id":"181768397","datatype":"locationiq"},{"latitude":"35.13378","longitude":"-89.98640","name":"Outback Steakhouse","address":"USA-Memphis","street_number":"2255","street_name":"Union Avenue","zip":"38104","city":"Memphis","area":null,"county":"Shelby County","state":"Tennessee","country":"us","formatted_address":"Outback Steakhouse, 2255, Union Avenue, Memphis, Shelby County, Tennessee, 38104, United States of America","place_id":"138933130","datatype":"locationiq"},{"latitude":"42.19889","longitude":"-83.21626","name":"Outback Steakhouse","address":"USA-Southgate","street_number":null,"street_name":"Eureka Road","zip":"48174","city":"Southgate","area":null,"county":"Wayne County","state":"Michigan","country":"us","formatted_address":"Flagstar Bank, Eureka Road, Southgate, Wayne County, Michigan, 48174, United States of America","place_id":"61117381","datatype":"locationiq"},{"latitude":"33.96591","longitude":"-84.25443","name":"Outback Steakhouse","address":"USA-Norcross","street_number":"3899","street_name":"Holcomb Bridge Road","zip":"30092","city":"Sandy Springs","area":"Fouts Corner","county":"Gwinnett County","state":"Georgia","country":"us","formatted_address":"3899, Holcomb Bridge Road, Fouts Corner, Sandy Springs, Gwinnett County, Georgia, 30092, United States of America","place_id":"183887690","datatype":"locationiq"},{"latitude":"32.92387","longitude":"-97.08903","name":"Outback Steakhouse","address":"USA-Grapevine","street_number":null,"street_name":"William D Tate Avenue","zip":"76051","city":"Grapevine","area":null,"county":"Tarrant County","state":"Texas","country":"us","formatted_address":"California Pizza Kitchen, William D Tate Avenue, Grapevine, Tarrant County, Texas, 76051, United States of America","place_id":"115019855","datatype":"locationiq"},{"latitude":"33.69421","longitude":"-117.79810","name":"Outback Steakhouse","address":"USA-Irvine","street_number":"15438","street_name":"Culver Drive","zip":"92604","city":"Irvine","area":null,"county":"Orange County","state":"California","country":"us","formatted_address":"15438, Culver Drive, El Camino Real, Irvine, Orange County, California, 92604, United States of America","place_id":"179146479","datatype":"locationiq"},{"latitude":"40.96469","longitude":"-74.24340","name":"Outback Steakhouse","address":"USA-Wayne","street_number":null,"street_name":"Berdan Avenue","zip":"07470","city":"Wayne","area":null,"county":"Passaic County","state":"New Jersey","country":"us","formatted_address":"Wells Fargo, Berdan Avenue, Wayne, Passaic County, New Jersey, 07470, United States of America","place_id":"132734050","datatype":"locationiq"},{"latitude":"34.06588","longitude":"-117.27140","name":"Outback Steakhouse","address":"USA-San Bernardino","street_number":null,"street_name":"East Hospitality Lane","zip":"92408","city":"San Bernardino","area":null,"county":"San Bernardino County","state":"California","country":"us","formatted_address":"East Hospitality Lane, San Bernardino, San Bernardino County, California, 92408, United States of America","place_id":"160580708","datatype":"locationiq"},{"latitude":"30.50026","longitude":"-84.24614","name":"Outback Steakhouse","address":"USA-United States","street_number":"1820","street_name":"Raymond Diehl Road","zip":"32308","city":"Tallahassee","area":null,"county":"Leon County","state":"Florida","country":"us","formatted_address":"Outback Steakhouse, 1820, Raymond Diehl Road, Tallahassee, Leon County, Florida, 32308, United States of America","place_id":"104402950","datatype":"locationiq"},{"latitude":"39.91249","longitude":"-86.06941","name":"Outback Steakhouse","address":"USA-Indianapolis","street_number":"5800","street_name":"East 86th Street","zip":"46250","city":null,"area":null,"county":"Marion County","state":"Indiana","country":"us","formatted_address":"5800, East 86th Street, Allisonville, Marion County, Indiana, 46250, United States of America","place_id":"186564057","datatype":"locationiq"},{"latitude":"36.58372","longitude":"-87.29616","name":"Outback Steakhouse","address":"USA-Clarksville","street_number":"2746","street_name":"Wilma Rudolph Boulevard","zip":"37040","city":"Clarksville","area":null,"county":"Montgomery County","state":"Tennessee","country":"us","formatted_address":"2746, Wilma Rudolph Boulevard, Clarksville, Montgomery County, Tennessee, 37040, United States of America","place_id":"203970378","datatype":"locationiq"},{"latitude":"29.19643","longitude":"-81.05819","name":"Outback Steakhouse","address":"USA-Daytona Beach","street_number":null,"street_name":"International Speedway Boulevard","zip":"32114","city":"Daytona Beach","area":null,"county":"Volusia County","state":"Florida","country":"us","formatted_address":"Wendy's, International Speedway Boulevard, Daytona Beach, Volusia County, Florida, 32114, United States of America","place_id":"149149433","datatype":"locationiq"},{"latitude":"33.88424","longitude":"-117.51615","name":"Outback Steakhouse","address":"USA-Corona","street_number":null,"street_name":"North McKinley Street","zip":"29879","city":"Corona","area":null,"county":"Riverside County","state":"California","country":"us","formatted_address":"North McKinley Street, Corona Spectrum, Corona, Riverside County, California, 29879, United States of America","place_id":"170579232","datatype":"locationiq"},{"latitude":"42.99712","longitude":"-78.82235","name":"Outback Steakhouse","address":"USA-United States","street_number":"1551","street_name":"Niagara Falls Boulevard","zip":"14228","city":null,"area":null,"county":"Erie County","state":"New York","country":"us","formatted_address":"Moe's Southwest Grill, 1551, Niagara Falls Boulevard, Amherst Town, Erie County, New York, 14228, United States of America","place_id":"107700868","datatype":"locationiq"},{"latitude":"29.62314","longitude":"-82.37663","name":"Outback Steakhouse","address":"USA-Gainesville","street_number":null,"street_name":"Archer Road","zip":"32608","city":"Gainesville","area":"Robinswood","county":"Alachua County","state":"Florida","country":"us","formatted_address":"Kentucky Fried Chicken, Archer Road, Robinswood, Gainesville, Alachua County, Florida, 32608, United States of America","place_id":"55000882","datatype":"locationiq"},{"latitude":"37.25115","longitude":"-77.39358","name":"Outback Steakhouse","address":"USA-Colonial Heights","street_number":null,"street_name":"Southpark Circle","zip":"23834","city":"Colonial Heights","area":null,"county":null,"state":"Virginia","country":"us","formatted_address":"Outback Steakhouse, Southpark Circle, Southpark, Archer Bluff, Colonial Heights, Virginia, 23834, United States of America","place_id":"155130179","datatype":"locationiq"},{"latitude":"37.68565","longitude":"-97.42604","name":"Outback Steakhouse","address":"USA-Wichita","street_number":"230","street_name":"North Ridge Road","zip":"67212","city":"Wichita","area":null,"county":"Sedgwick County","state":"Kansas","country":"us","formatted_address":"230, North Ridge Road, Wichita, Sedgwick County, Kansas, 67212, United States of America","place_id":"188186427","datatype":"locationiq"},{"latitude":"29.48280","longitude":"-98.60035","name":"Outback Steakhouse","address":"USA-San Antonio","street_number":"5900","street_name":"Bandera Road","zip":"78238","city":null,"area":null,"county":"Bexar County","state":"Texas","country":"us","formatted_address":"5900, Bandera Road, Leon Valley, Bexar County, Texas, 78238, United States of America","place_id":"204441921","datatype":"locationiq"},{"latitude":"26.20589","longitude":"-81.80023","name":"Outback Steakhouse","address":"USA-Naples","street_number":null,"street_name":"Tamiami Trail","zip":"34103","city":"Naples","area":null,"county":"Collier County","state":"Florida","country":"us","formatted_address":"Tamiami Trail, Naples, Collier County, Florida, 34103, United States of America","place_id":"105618982","datatype":"locationiq"},{"latitude":"29.73711","longitude":"-95.54835","name":"Outback Steakhouse","address":"USA-Houston","street_number":null,"street_name":"Westheimer Road","zip":"77042","city":null,"area":null,"county":"Harris County","state":"Texas","country":"us","formatted_address":"Outback Steakhouse, Westheimer Road, Jeanetta, Harris County, Texas, 77042, United States of America","place_id":"34043056","datatype":"locationiq"},{"latitude":"38.77041","longitude":"-77.08157","name":"Outback Steakhouse","address":"USA-Alexandria","street_number":null,"street_name":"Memorial Street","zip":"22306","city":null,"area":null,"county":"Fairfax County","state":"Virginia","country":"us","formatted_address":"Mobil, Memorial Street, Groveton, Fairfax County, Virginia, 22306, United States of America","place_id":"54406777","datatype":"locationiq"},{"latitude":"30.23592","longitude":"-97.79280","name":"Outback Steakhouse","address":"USA-Austin","street_number":"4015","street_name":"South Lamar Boulevard","zip":"78704","city":"Austin","area":null,"county":"Travis County","state":"Texas","country":"us","formatted_address":"Austin Emergency Center - South Lamar, 4015, South Lamar Boulevard, Austin, Travis County, Texas, 78704, United States of America","place_id":"154249993","datatype":"locationiq"},{"latitude":"42.78481","longitude":"-78.81119","name":"Outback Steakhouse","address":"USA-Blasdell","street_number":"3664","street_name":"McKinley Parkway","zip":"14219","city":null,"area":null,"county":"Erie County","state":"New York","country":"us","formatted_address":"3664, McKinley Parkway, Big Tree, Erie County, New York, 14219, United States of America","place_id":"196305462","datatype":"locationiq"},{"latitude":"28.03735","longitude":"-80.62176","name":"Outback Steakhouse","address":"USA-Palm Bay","street_number":null,"street_name":"Babcock Street Northeast","zip":"32907","city":"Palm Bay","area":null,"county":"Brevard County","state":"Florida","country":"us","formatted_address":"S Babcock St @ Las Palmas Shopping Center, Babcock Street Northeast, Palm Bay, Brevard County, Florida, 32907, United States of America","place_id":"12078058","datatype":"locationiq"},{"latitude":"40.57622","longitude":"-80.02578","name":"Outback Steakhouse","address":"USA-Pittsburgh","street_number":null,"street_name":"West Arcadia Drive","zip":"15237","city":null,"area":null,"county":"Allegheny County","state":"Pennsylvania","country":"us","formatted_address":"Outback Steakhouse, West Arcadia Drive, Acadia Center, McCandless Township, Allegheny County, Pennsylvania, 15237, United States of America","place_id":"147642536","datatype":"locationiq"},{"latitude":"38.52622","longitude":"-90.36612","name":"Outback Steakhouse","address":"USA-Louis","street_number":"5267","street_name":"South Lindbergh Boulevard","zip":"63126","city":null,"area":null,"county":"St. Louis County","state":"Missouri","country":"us","formatted_address":"5267, South Lindbergh Boulevard, Sappington, St. Louis County, Missouri, 63126, United States of America","place_id":"194061043","datatype":"locationiq"},{"latitude":"35.84605","longitude":"-86.42787","name":"Outback Steakhouse","address":"USA-Murfreesboro","street_number":null,"street_name":"South Frontage Road","zip":"37128","city":"Murfreesboro","area":null,"county":"Rutherford County","state":"Tennessee","country":"us","formatted_address":"Chick-fil-A, South Frontage Road, Murfreesboro, Rutherford County, Tennessee, 37128, United States of America","place_id":"136274794","datatype":"locationiq"},{"latitude":"36.00521","longitude":"-84.25118","name":"Outback Steakhouse","address":"USA-Oak Ridge","street_number":null,"street_name":"South Illinois Avenue","zip":"37830","city":"Oak Ridge","area":null,"county":"Anderson County","state":"Tennessee","country":"us","formatted_address":"McDonald's, South Illinois Avenue, Oak Ridge, Anderson County, Tennessee, 37830, United States of America","place_id":"7344859","datatype":"locationiq"},{"latitude":"41.68677","longitude":"-91.60336","name":"Outback Steakhouse","address":"USA-Coralville","street_number":null,"street_name":null,"zip":"52241","city":null,"area":null,"county":"Johnson County","state":"Iowa","country":"us","formatted_address":"Olive Garden, North Ridge Trail, Coralville, Johnson County, Iowa, 52241, United States of America","place_id":"7750339","datatype":"locationiq"},{"latitude":"39.42501","longitude":"-76.77789","name":"Outback Steakhouse","address":"USA-Owings Mills","street_number":"10925","street_name":"Boulevard Circle","zip":"21117","city":null,"area":null,"county":"Baltimore County","state":"Maryland","country":"us","formatted_address":"10925, Boulevard Circle, Boulevard Corporate Center, Garrison, Baltimore County, Maryland, 21117, United States of America","place_id":"41051161","datatype":"locationiq"},{"latitude":"38.52959","longitude":"-76.98267","name":"Outback Steakhouse","address":"USA-La Plata","street_number":null,"street_name":"Charles Street","zip":"20646","city":null,"area":null,"county":"Charles County","state":"Maryland","country":"us","formatted_address":"Exxon, Charles Street, La Plata, Charles County, Maryland, 20646, United States of America","place_id":"148830961","datatype":"locationiq"},{"latitude":"37.11253","longitude":"-76.49960","name":"Outback Steakhouse","address":"USA-Newport","street_number":"12257","street_name":"Jefferson Avenue","zip":"23602","city":"Newport News City","area":"Warwick Mobile Home Estates","county":null,"state":"Virginia","country":"us","formatted_address":"BP, 12257, Jefferson Avenue, Warwick Mobile Home Estates, Oyster Point, Newport News, Newport News City, Virginia, 23602, United States of America","place_id":"174630412","datatype":"locationiq"},{"latitude":"33.91341","longitude":"-118.07263","name":"Outback Steakhouse","address":"USA-Norwalk","street_number":"12749","street_name":"Marcus Gomez Law Offices","zip":"90650","city":"Norwalk","area":null,"county":"Los Angeles County","state":"California","country":"us","formatted_address":"12749, Marcus Gomez Law Offices, Norwalk, Los Angeles County, California, 90650, United States of America","place_id":"135460925","datatype":"locationiq"},{"latitude":"44.03683","longitude":"-121.30453","name":"Outback Steakhouse","address":"USA-Bend","street_number":"1190","street_name":"Southeast 3rd Street","zip":"97702","city":"Bend","area":null,"county":"Deschutes County","state":"Oregon","country":"us","formatted_address":"Carl's Jr., 1190, Southeast 3rd Street, Bend, Deschutes County, Oregon, 97702, United States of America","place_id":"153453198","datatype":"locationiq"},{"latitude":"27.97043","longitude":"-81.96279","name":"Outback Steakhouse","address":"USA-Lakeland","street_number":"5220","street_name":"South Florida Avenue","zip":"33813","city":"Lakeland","area":null,"county":"Polk County","state":"Florida","country":"us","formatted_address":"5220, South Florida Avenue, Lakeland, Polk County, Florida, 33813, United States of America","place_id":"183025595","datatype":"locationiq"},{"latitude":"33.63636","longitude":"-117.92182","name":"Outback Steakhouse","address":"USA-Costa Mesa","street_number":null,"street_name":"East 17th Street","zip":"92627","city":"Costa Mesa","area":null,"county":"Orange County","state":"California","country":"us","formatted_address":"Outback Steakhouse, East 17th Street, Costa Mesa, Orange County, California, 92627, United States of America","place_id":"86869461","datatype":"locationiq"},{"latitude":"36.07081","longitude":"-115.07707","name":"Outback Steakhouse","address":"USA-Henderson","street_number":"4431","street_name":"Sunset Road","zip":"89014","city":"Henderson","area":null,"county":"Clark County","state":"Nevada","country":"us","formatted_address":"4431, Sunset Road, Green Valley, Henderson, Clark County, Nevada, 89014, United States of America","place_id":"194889880","datatype":"locationiq"},{"latitude":"31.08748","longitude":"-97.71187","name":"Outback Steakhouse","address":"USA-Killeen","street_number":"2742","street_name":"Central Texas Expressway Frontage Road","zip":"76541","city":"Killeen","area":null,"county":"Bell County","state":"Texas","country":"us","formatted_address":"2742, Central Texas Expressway Frontage Road, Killeen, Bell County, Texas, 76541, United States of America","place_id":"204393471","datatype":"locationiq"},{"latitude":"33.63876","longitude":"-112.18003","name":"Outback Steakhouse","address":"USA-Glendale","street_number":"5603","street_name":"West Bell Road","zip":"85308","city":null,"area":null,"county":"Maricopa County","state":"Arizona","country":"us","formatted_address":"5603, West Bell Road, Chaparral, Maricopa County, Arizona, 85308, United States of America","place_id":"176926080","datatype":"locationiq"},{"latitude":"39.63316","longitude":"-106.51847","name":"Outback Steakhouse","address":"USA-Avon","street_number":"232","street_name":"Chapel Place","zip":"81620","city":null,"area":null,"county":"Eagle County","state":"Colorado","country":"us","formatted_address":"232, Chapel Place, Avon, Eagle County, Colorado, 81620, United States of America","place_id":"180777237","datatype":"locationiq"},{"latitude":"41.70205","longitude":"-86.18746","name":"Outback Steakhouse","address":"USA-Mishawaka","street_number":"4696","street_name":"Grape Road","zip":"46545","city":"Mishawaka","area":null,"county":"Saint Joseph County","state":"Indiana","country":"us","formatted_address":"4696, Grape Road, Mishawaka, Saint Joseph County, Indiana, 46545, United States of America","place_id":"186767568","datatype":"locationiq"},{"latitude":"38.29721","longitude":"-77.51153","name":"Outback Steakhouse","address":"USA-Fredericksburg","street_number":null,"street_name":"Carl D Silver Parkway","zip":"22402","city":"Fredericksburg","area":null,"county":"Fredericksburg City","state":"Virginia","country":"us","formatted_address":"Outback Steakhouse, Carl D Silver Parkway, Central Park, Fredericksburg, Fredericksburg City, Virginia, 22402, United States of America","place_id":"58494175","datatype":"locationiq"},{"latitude":"47.70904","longitude":"-117.41136","name":"Outback Steakhouse","address":"USA-Spokane","street_number":"5602","street_name":"North Division Street","zip":"99208-1213","city":"Spokane","area":null,"county":"Spokane County","state":"Washington","country":"us","formatted_address":"Shari's, 5602, North Division Street, Spokane, Spokane County, Washington, 99208-1213, United States of America","place_id":"81709311","datatype":"locationiq"},{"latitude":"40.07602","longitude":"-80.87126","name":"Outback Steakhouse","address":"USA-Clairsville","street_number":null,"street_name":"National Road East","zip":"43950","city":"St. Clairsville","area":null,"county":"Belmont County","state":"Ohio","country":"us","formatted_address":"National Road East, St. Clairsville, Belmont County, Ohio, 43950, United States of America","place_id":"71232547","datatype":"locationiq"},{"latitude":"41.03046","longitude":"-73.76248","name":"Outback Steakhouse","address":"USA-White Plains","street_number":null,"street_name":"South Broadway","zip":"10605","city":"White Plains","area":null,"county":"Westchester County","state":"New York","country":"us","formatted_address":"McDonald's, South Broadway, White Plains, Westchester County, New York, 10605, United States of America","place_id":"40917008","datatype":"locationiq"},{"latitude":"38.90527","longitude":"-77.26056","name":"Outback Steakhouse","address":"USA-Vienna","street_number":null,"street_name":"Maple Avenue East","zip":"22180-5605","city":null,"area":null,"county":"Fairfax County","state":"Virginia","country":"us","formatted_address":"Outback Steakhouse, Maple Avenue East, Vienna, Fairfax County, Virginia, 22180-5605, United States of America","place_id":"6982086","datatype":"locationiq"},{"latitude":"41.55652","longitude":"-90.55679","name":"Outback Steakhouse","address":"USA-Davenport","street_number":"1390","street_name":"East Kimberly Road","zip":"52807","city":"Davenport","area":null,"county":"Scott County","state":"Iowa","country":"us","formatted_address":"1390, East Kimberly Road, Davenport, Scott County, Iowa, 52807, United States of America","place_id":"187545960","datatype":"locationiq"},{"latitude":"38.30940","longitude":"-76.53110","name":"Outback Steakhouse","address":"USA-California","street_number":"23413","street_name":"Three Notch Road","zip":"20619","city":null,"area":null,"county":"Saint Mary's County","state":"Maryland","country":"us","formatted_address":"23413, Three Notch Road, Lexington Park, Saint Mary's County, Maryland, 20619, United States of America","place_id":"189963187","datatype":"locationiq"},{"latitude":"24.89977","longitude":"-80.65633","name":"Outback Steakhouse","address":"USA-Islamorada","street_number":"79877","street_name":"Overseas Highway","zip":"33036","city":null,"area":null,"county":"Monroe County","state":"Florida","country":"us","formatted_address":"79877, Overseas Highway, Islamorada, Monroe County, Florida, 33036, United States of America","place_id":"182628262","datatype":"locationiq"},{"latitude":"33.85372","longitude":"-118.13379","name":"Outback Steakhouse","address":"USA-Lakewood","street_number":null,"street_name":"Candlewood Street","zip":"90714","city":"Lakewood","area":null,"county":"Los Angeles County","state":"California","country":"us","formatted_address":"Outback's Steakhouse, Candlewood Street, Lakewood, Los Angeles County, California, 90714, United States of America","place_id":"136187140","datatype":"locationiq"},{"latitude":"40.75907","longitude":"-73.96837","name":"Outback Steakhouse","address":"USA-New York","street_number":"915","street_name":"3rd Avenue","zip":"10022","city":"New York City","area":"Tudor City","county":"New York County","state":"New York","country":"us","formatted_address":"P.J. Clarke\u2019s, 915, 3rd Avenue, Tudor City, Manhattan, New York County, New York City, New York, 10022, United States of America","place_id":"29522525","datatype":"locationiq"},{"latitude":"33.51117","longitude":"-81.71302","name":"Outback Steakhouse","address":"USA-United States","street_number":"2468","street_name":"Whiskey Road","zip":"29803","city":"Aiken","area":null,"county":"Aiken County","state":"South Carolina","country":"us","formatted_address":"2468, Whiskey Road, Aiken, Aiken County, South Carolina, 29803, United States of America","place_id":"202636446","datatype":"locationiq"},{"latitude":"38.15860","longitude":"-92.60513","name":"Outback Steakhouse","address":"USA-Osage Beach","street_number":null,"street_name":"Osage Beach Parkway","zip":"65047","city":"Osage Beach","area":null,"county":"Camden County","state":"Missouri","country":"us","formatted_address":"Osage Beach Parkway, Osage Beach, Camden County, Missouri, 65047, United States of America","place_id":"97657632","datatype":"locationiq"},{"latitude":"41.60747","longitude":"-87.79416","name":"Outback Steakhouse","address":"USA-Orland Park","street_number":"15607","street_name":"Harlem Avenue","zip":"60462","city":null,"area":null,"county":"Cook County","state":"Illinois","country":"us","formatted_address":"15607, Harlem Avenue, Tinley Park, Cook County, Illinois, 60462, United States of America","place_id":"184935008","datatype":"locationiq"},{"latitude":"25.91406","longitude":"-80.32748","name":"Outback Steakhouse","address":"USA-Lakes","street_number":"15512","street_name":"Northwest 77th Court","zip":"33016","city":null,"area":null,"county":"Miami-Dade County","state":"Florida","country":"us","formatted_address":"15512, Northwest 77th Court, Miami Lakes, Miami-Dade County, Florida, 33016, United States of America","place_id":"163496536","datatype":"locationiq"},{"latitude":"29.80561","longitude":"-94.97826","name":"Outback Steakhouse","address":"USA-Baytown","street_number":null,"street_name":"East Freeway Frontage Road","zip":"77521","city":"Baytown","area":null,"county":"Harris County","state":"Texas","country":"us","formatted_address":"East Freeway Frontage Road, Baytown, Harris County, Texas, 77521, United States of America","place_id":"91741702","datatype":"locationiq"},{"latitude":"41.70127","longitude":"-83.65100","name":"Outback Steakhouse","address":"USA-Toledo","street_number":"5216","street_name":"Monroe Street","zip":"43623","city":"Sylvania","area":"Franklin Park","county":"Lucas County","state":"Ohio","country":"us","formatted_address":"5216, Monroe Street, Franklin Park, Sylvania, Lucas County, Ohio, 43623, United States of America","place_id":"199523123","datatype":"locationiq"},{"latitude":"28.30441","longitude":"-81.43404","name":"Outback Steakhouse","address":"USA-Kissimmee","street_number":null,"street_name":"West Vine Street","zip":"34741","city":"Kissimmee","area":null,"county":"Osceola County","state":"Florida","country":"us","formatted_address":"Chevron, West Vine Street, Kissimmee, Osceola County, Florida, 34741, United States of America","place_id":"139629559","datatype":"locationiq"},{"latitude":"28.68368","longitude":"-81.41878","name":"Outback Steakhouse","address":"USA-Springs","street_number":null,"street_name":null,"zip":"32779","city":null,"area":null,"county":"Seminole County","state":"Florida","country":"us","formatted_address":"Forest City-Palm Springs Road, Altamonte Springs, Seminole County, Florida, 32779, United States of America","place_id":"120326729","datatype":"locationiq"},{"latitude":"38.79173","longitude":"-104.79736","name":"Outback Steakhouse","address":"USA-Colorado Springs","street_number":"2815","street_name":"Geyser Drive","zip":"80906","city":"Colorado Springs","area":null,"county":"El Paso County","state":"Colorado","country":"us","formatted_address":"CARRABBA'S, 2815, Geyser Drive, Colorado Springs, El Paso County, Colorado, 80906, United States of America","place_id":"124769411","datatype":"locationiq"},{"latitude":"42.40791","longitude":"-71.08339","name":"Outback Steakhouse","address":"USA-Medford","street_number":null,"street_name":"Fellsway","zip":"02145","city":null,"area":null,"county":"Middlesex County","state":"Massachusetts","country":"us","formatted_address":"Fellsway @ Bradbury Ave, Fellsway, Medford, Middlesex County, Massachusetts, 02145, United States of America","place_id":"12257521","datatype":"locationiq"},{"latitude":"39.25167","longitude":"-84.59819","name":"Outback Steakhouse","address":"USA-Cincinnati","street_number":null,"street_name":"Colerain Avenue","zip":"45251","city":null,"area":null,"county":"Hamilton County","state":"Ohio","country":"us","formatted_address":"Colerain Ave & Redskin Dr, Colerain Avenue, Northgate Mall, Bevis, Colerain Township, Hamilton County, Ohio, 45251, United States of America","place_id":"48143266","datatype":"locationiq"},{"latitude":"37.73984","longitude":"-84.26669","name":"Outback Steakhouse","address":"USA-Richmond","street_number":null,"street_name":"Highland Lakes Drive","zip":"40475","city":"Richmond","area":null,"county":"Madison County","state":"Kentucky","country":"us","formatted_address":"Outback Steakhouse, Highland Lakes Drive, Richmond, Madison County, Kentucky, 40475, United States of America","place_id":"7880969","datatype":"locationiq"},{"latitude":"39.55979","longitude":"-104.98728","name":"Outback Steakhouse","address":"USA-Ranch","street_number":"15","street_name":"West Springer Drive","zip":"80129","city":null,"area":null,"county":"Douglas County","state":"Colorado","country":"us","formatted_address":"Outback Steakhouse, 15, West Springer Drive, Highlands Ranch, Douglas County, Colorado, 80129, United States of America","place_id":"83143085","datatype":"locationiq"},{"latitude":"43.60499","longitude":"-116.60327","name":"Outback Steakhouse","address":"USA-Nampa","street_number":"1701","street_name":"Caldwell Boulevard","zip":"83651","city":"Nampa","area":null,"county":"Canyon County","state":"Idaho","country":"us","formatted_address":"1701, Caldwell Boulevard, Nampa, Canyon County, Idaho, 83651, United States of America","place_id":"143742349","datatype":"locationiq"},{"latitude":"27.46253","longitude":"-82.60506","name":"Outback Steakhouse","address":"USA-Bradenton","street_number":null,"street_name":"Cortez Road West","zip":"34210-2802","city":"Bradenton","area":null,"county":"Manatee County","state":"Florida","country":"us","formatted_address":"CVS, Cortez Road West, Bradenton, Manatee County, Florida, 34210-2802, United States of America","place_id":"139565276","datatype":"locationiq"},{"latitude":"26.58964","longitude":"-80.14409","name":"Outback Steakhouse","address":"USA-Lake Worth","street_number":"6331","street_name":"Lantana Road","zip":"33463","city":null,"area":null,"county":"Palm Beach County","state":"Florida","country":"us","formatted_address":"6331, Lantana Road, Greenacres, Southwind Manor, Palm Beach County, Florida, 33463, United States of America","place_id":"182835398","datatype":"locationiq"},{"latitude":"30.42349","longitude":"-91.15124","name":"Outback Steakhouse","address":"USA-Baton Rouge","street_number":null,"street_name":"South Acadian Thruway","zip":"70808","city":"Baton Rouge","area":null,"county":"East Baton Rouge Parish","state":"Louisiana","country":"us","formatted_address":"South Acadian Thruway, Baton Rouge, East Baton Rouge Parish, Louisiana, 70808, United States of America","place_id":"131740438","datatype":"locationiq"},{"latitude":"42.69629","longitude":"-71.43822","name":"Outback Steakhouse","address":"USA-Tyngsboro","street_number":"425","street_name":"Middlesex Road","zip":"01879","city":"Tyngsborough","area":null,"county":"Middlesex County","state":"Massachusetts","country":"us","formatted_address":"Simon's Service Center, 425, Middlesex Road, Tyngsborough, Middlesex County, Massachusetts, 01879, United States of America","place_id":"82923676","datatype":"locationiq"},{"latitude":"26.71495","longitude":"-80.10036","name":"Outback Steakhouse","address":"USA-West Palm Beach","street_number":"814","street_name":"Village Boulevard","zip":"33409","city":"West Palm Beach","area":null,"county":"Palm Beach County","state":"Florida","country":"us","formatted_address":"814, Village Boulevard, West Palm Beach, Palm Beach County, Florida, 33409, United States of America","place_id":"182800642","datatype":"locationiq"},{"latitude":"35.43938","longitude":"-80.87077","name":"Outback Steakhouse","address":"USA-Huntersville","street_number":"16344","street_name":"Northcross Drive","zip":"28078","city":null,"area":null,"county":"Mecklenburg County","state":"North Carolina","country":"us","formatted_address":"16344, Northcross Drive, Huntersville, Mecklenburg County, North Carolina, 28078, United States of America","place_id":"197923470","datatype":"locationiq"},{"latitude":"30.41637","longitude":"-97.74593","name":"Outback Steakhouse","address":"USA-Austin","street_number":"11643","street_name":"Research Boulevard","zip":"78759","city":"Austin","area":null,"county":"Travis County","state":"Texas","country":"us","formatted_address":"11643, Research Boulevard, Jollyville, Austin, Travis County, Texas, 78759, United States of America","place_id":"51376606","datatype":"locationiq"},{"latitude":"38.42962","longitude":"-78.84996","name":"Outback Steakhouse","address":"USA-Harrisonburg","street_number":null,"street_name":"University Boulevard","zip":"22801","city":"Harrisonburg","area":"Ridge Area","county":null,"state":"Virginia","country":"us","formatted_address":"Ham's Restaurant, University Boulevard, Ridge Area, Harrisonburg, Virginia, 22801, United States of America","place_id":"59751988","datatype":"locationiq"},{"latitude":"42.11221","longitude":"-71.47291","name":"Outback Steakhouse","address":"USA-Bellingham","street_number":"264","street_name":"North Main Street","zip":"02019","city":null,"area":"North Bellingham","county":"Norfolk County","state":"Massachusetts","country":"us","formatted_address":"264, North Main Street, North Bellingham, Bellingham, Norfolk County, Massachusetts, 02019, United States of America","place_id":"190445534","datatype":"locationiq"},{"latitude":"30.44218","longitude":"-88.89348","name":"Outback Steakhouse","address":"USA-D'Iberville","street_number":"3320","street_name":"Warrior Drive","zip":"39532","city":"D'Iberville","area":null,"county":"Harrison County","state":"Mississippi","country":"us","formatted_address":"3320, Warrior Drive, D'Iberville, Harrison County, Mississippi, 39532, United States of America","place_id":"174395881","datatype":"locationiq"},{"latitude":"32.67845","longitude":"-97.09040","name":"Outback Steakhouse","address":"USA-Arlington","street_number":"1409","street_name":"I-20 East","zip":"76018","city":"Arlington","area":null,"county":"Tarrant County","state":"Texas","country":"us","formatted_address":"1409, I-20 East, Arlington, Tarrant County, Texas, 76018, United States of America","place_id":"206281177","datatype":"locationiq"},{"latitude":"42.71307","longitude":"-83.41011","name":"Outback Steakhouse","address":"USA-Clarkston","street_number":"6430","street_name":"Dixie Highway","zip":"48341","city":null,"area":null,"county":"Oakland County","state":"Michigan","country":"us","formatted_address":"6430, Dixie Highway, Independence Township, Oakland County, Michigan, 48341, United States of America","place_id":"191379631","datatype":"locationiq"},{"latitude":"42.36687","longitude":"-122.85596","name":"Outback Steakhouse","address":"USA-Medford","street_number":"3615","street_name":"Crater Lake Highway","zip":"97504","city":"Medford","area":null,"county":"Jackson County","state":"Oregon","country":"us","formatted_address":"3615, Crater Lake Highway, Medford, Jackson County, Oregon, 97504, United States of America","place_id":"200835512","datatype":"locationiq"},{"latitude":"27.54936","longitude":"-99.50426","name":"Outback Steakhouse","address":"USA-Laredo","street_number":null,"street_name":"I 35;US 83","zip":"78048","city":"Laredo","area":null,"county":"Webb County","state":"Texas","country":"us","formatted_address":"3A, I 35;US 83, Del Mar, Laredo, Webb County, Texas, 78048, United States of America","place_id":"1710270","datatype":"locationiq"},{"latitude":"34.75518","longitude":"-86.73462","name":"Outback Steakhouse","address":"USA-Madison","street_number":"7640","street_name":"US 72","zip":"35758","city":"Madison","area":null,"county":"Madison County","state":"Alabama","country":"us","formatted_address":"Outback Steakhouse, 7640, US 72, Madison, Madison County, Alabama, 35758, United States of America","place_id":"120549784","datatype":"locationiq"},{"latitude":"38.01885","longitude":"-84.41433","name":"Outback Steakhouse","address":"USA-Lexington","street_number":null,"street_name":"Plaudit Place","zip":"40509","city":null,"area":null,"county":"Fayette County","state":"Kentucky","country":"us","formatted_address":"Sleep Inn, Plaudit Place, Brighton, Fayette County, Kentucky, 40509, United States of America","place_id":"85740791","datatype":"locationiq"},{"latitude":"39.96138","longitude":"-105.16420","name":"Outback Steakhouse","address":"USA-Louisville","street_number":"594","street_name":"Dillon Road","zip":"80027","city":"Louisville","area":null,"county":"Boulder County","state":"Colorado","country":"us","formatted_address":"Bao Asian Fusion, 594, Dillon Road, Louisville, Boulder County, Colorado, 80027, United States of America","place_id":"101635215","datatype":"locationiq"},{"latitude":"40.90850","longitude":"-73.06633","name":"Outback Steakhouse","address":"USA-E. Setauket","street_number":null,"street_name":"Nesconset-Port Jeferson Highway","zip":"11776","city":null,"area":null,"county":"Suffolk County","state":"New York","country":"us","formatted_address":"Nesconset-Port Jeferson Highway, Terryville, Suffolk County, New York, 11776, United States of America","place_id":"168385242","datatype":"locationiq"},{"latitude":"29.15864","longitude":"-82.17683","name":"Outback Steakhouse","address":"USA-Ocala","street_number":"2999","street_name":"Southwest 32nd Avenue","zip":"34474","city":"Ocala","area":null,"county":"Marion County","state":"Florida","country":"us","formatted_address":"2999, Southwest 32nd Avenue, Ocala, Marion County, Florida, 34474, United States of America","place_id":"182446749","datatype":"locationiq"},{"latitude":"41.60096","longitude":"-87.57437","name":"Outback Steakhouse","address":"USA-Calumet City","street_number":null,"street_name":"159th Street","zip":"60467","city":"Calumet City","area":"Globe","county":"Cook County","state":"Illinois","country":"us","formatted_address":"159th Street, Globe, Calumet City, Cook County, Illinois, 60467, United States of America","place_id":"163870951","datatype":"locationiq"},{"latitude":"43.20791","longitude":"-77.67954","name":"Outback Steakhouse","address":"USA-Rochester","street_number":null,"street_name":"Ridge Road West","zip":"14626","city":null,"area":null,"county":"Monroe County","state":"New York","country":"us","formatted_address":"Five Guys, Ridge Road West, Greece, Greece Town, Monroe County, New York, 14626, United States of America","place_id":"12088243","datatype":"locationiq"},{"latitude":"37.30546","longitude":"-76.72893","name":"Outback Steakhouse","address":"USA-Williamsburg","street_number":"3026","street_name":"Richmond Road","zip":"23185","city":null,"area":"Chisel Run","county":"James City County","state":"Virginia","country":"us","formatted_address":"Outback Steakhouse Restaurant, 3026, Richmond Road, Chisel Run, Ewell, James City County, Virginia, 23185, United States of America","place_id":"137436077","datatype":"locationiq"},{"latitude":"40.24929","longitude":"-75.24191","name":"Outback Steakhouse","address":"USA-Montgomeryville","street_number":"211","street_name":"Doylestown Road","zip":"19446","city":"Montgomery Township","area":null,"county":"Montgomery County","state":"Pennsylvania","country":"us","formatted_address":"211, Doylestown Road, Montgomery Township, Montgomery County, Pennsylvania, 19446, United States of America","place_id":"202122051","datatype":"locationiq"},{"latitude":"36.09438","longitude":"-95.92227","name":"Outback Steakhouse","address":"USA-Tulsa","street_number":null,"street_name":"South Yale Avenue","zip":"74135","city":"Tulsa","area":"Max Campbell V","county":"Tulsa County","state":"Oklahoma","country":"us","formatted_address":"South Yale Avenue, Max Campbell V, Tulsa, Tulsa County, Oklahoma, 74135, United States of America","place_id":"141318796","datatype":"locationiq"},{"latitude":"43.17364","longitude":"-87.91247","name":"Outback Steakhouse","address":"USA-United States","street_number":"8626","street_name":"North Port Washington Road","zip":"53217","city":null,"area":null,"county":"Milwaukee County","state":"Wisconsin","country":"us","formatted_address":"8626, North Port Washington Road, Bayside, Milwaukee County, Wisconsin, 53217, United States of America","place_id":"209553930","datatype":"locationiq"},{"latitude":"40.16221","longitude":"-105.19999","name":"Outback Steakhouse","address":"USA-Longmont","street_number":null,"street_name":"North 65th Street","zip":"80503","city":null,"area":null,"county":"Boulder County","state":"Colorado","country":"us","formatted_address":"North 65th Street, Hygiene, Boulder County, Colorado, 80503, United States of America","place_id":"69494053","datatype":"locationiq"},{"latitude":"43.02654","longitude":"-85.68947","name":"Outback Steakhouse","address":"USA-Grand Rapids","street_number":null,"street_name":"Alpine Avenue Northwest","zip":"49544","city":null,"area":null,"county":"Kent County","state":"Michigan","country":"us","formatted_address":"Outback Steakhouse, Alpine Avenue Northwest, Comstock Park, Kent County, Michigan, 49544, United States of America","place_id":"124216348","datatype":"locationiq"},{"latitude":"41.44646","longitude":"-74.36483","name":"Outback Steakhouse","address":"USA-Walkill","street_number":null,"street_name":"Crystal Run Crossing","zip":"10941","city":null,"area":null,"county":"Orange County","state":"New York","country":"us","formatted_address":"Microtel Inn, Crystal Run Crossing, Midway Park, Town of Wallkill, Orange County, New York, 10941, United States of America","place_id":"5607821","datatype":"locationiq"},{"latitude":"40.39082","longitude":"-74.11161","name":"Outback Steakhouse","address":"USA-United States","street_number":"19","street_name":"Brandywine Way","zip":"07748","city":"Middletown Township","area":null,"county":"Monmouth County","state":"New Jersey","country":"us","formatted_address":"19, Brandywine Way, Middletown Township, Monmouth County, New Jersey, 07748, United States of America","place_id":"195588102","datatype":"locationiq"},{"latitude":"33.82840","longitude":"-118.35200","name":"Outback Steakhouse","address":"USA-Torrance","street_number":null,"street_name":"del Amo Fashion Square","zip":"90505","city":"Torrance","area":null,"county":"Los Angeles County","state":"California","country":"us","formatted_address":"Hanmi Bank, del Amo Fashion Square, La Fresa, Torrance, Los Angeles County, California, 90505, United States of America","place_id":"104777958","datatype":"locationiq"},{"latitude":"33.57813","longitude":"-79.02342","name":"Outback Steakhouse","address":"USA-Murrells Inlet","street_number":null,"street_name":"Frontage Road","zip":"29576","city":null,"area":null,"county":"Horry County","state":"South Carolina","country":"us","formatted_address":"Outback Steakhouse, Frontage Road, Inlet Square Mall, Garden City, Horry County, South Carolina, 29576, United States of America","place_id":"30026289","datatype":"locationiq"},{"latitude":"42.61295","longitude":"-71.32198","name":"Outback Steakhouse","address":"USA-Lowell","street_number":null,"street_name":"Industrial Avenue","zip":"01851","city":"Lowell","area":null,"county":"Middlesex County","state":"Massachusetts","country":"us","formatted_address":"Showcase Cinemas, Industrial Avenue, Lowell, Middlesex County, Massachusetts, 01851, United States of America","place_id":"16112765","datatype":"locationiq"},{"latitude":"43.50314","longitude":"-112.05150","name":"Outback Steakhouse","address":"USA-Idaho Falls","street_number":"950","street_name":"Lindsay Boulevard","zip":"83401","city":"Idaho Falls","area":null,"county":"Bonneville County","state":"Idaho","country":"us","formatted_address":"Denny's, 950, Lindsay Boulevard, Idaho Falls, Bonneville County, Idaho, 83401, United States of America","place_id":"76984123","datatype":"locationiq"},{"latitude":"38.94301","longitude":"-94.37823","name":"Outback Steakhouse","address":"USA-Summit","street_number":"1763","street_name":"Northeast Douglas Street","zip":"64086","city":"Lee's Summit","area":null,"county":"Jackson County","state":"Missouri","country":"us","formatted_address":"1763, Northeast Douglas Street, Lee's Summit, Jackson County, Missouri, 64086, United States of America","place_id":"193590008","datatype":"locationiq"},{"latitude":"37.05062","longitude":"-94.47827","name":"Outback Steakhouse","address":"USA-Joplin","street_number":null,"street_name":"Hammons Boulevard","zip":"64804","city":"Joplin","area":null,"county":"Newton County","state":"Missouri","country":"us","formatted_address":"Drury Inn & Suites Joplin, Hammons Boulevard, Joplin, Newton County, Missouri, 64804, United States of America","place_id":"117559921","datatype":"locationiq"},{"latitude":"37.66576","longitude":"-122.46878","name":"Outback Steakhouse","address":"USA-Daly City","street_number":null,"street_name":"Gellert Boulevard","zip":"94015","city":"Daly City","area":null,"county":"San Mateo County","state":"California","country":"us","formatted_address":"Sizzler, Gellert Boulevard, Daly City, San Mateo County, California, 94015, United States of America","place_id":"102035374","datatype":"locationiq"},{"latitude":"29.68676","longitude":"-95.45852","name":"Outback Steakhouse","address":"USA-Houston","street_number":null,"street_name":"West Loop South Frontage Road","zip":"77035","city":null,"area":null,"county":"Harris County","state":"Texas","country":"us","formatted_address":"Today's Vision, West Loop South Frontage Road, Westwood Park, Harris County, Texas, 77035, United States of America","place_id":"24392915","datatype":"locationiq"},{"latitude":"32.76773","longitude":"-117.14637","name":"Outback Steakhouse","address":"USA-United States","street_number":"1834","street_name":"Camino del Rio North","zip":"92108","city":"San Diego","area":null,"county":"San Diego County","state":"California","country":"us","formatted_address":"1834, Camino del Rio North, Mission Valley, San Diego, San Diego County, California, 92108, United States of America","place_id":"179837772","datatype":"locationiq"},{"latitude":"39.42251","longitude":"-87.41606","name":"Outback Steakhouse","address":"USA-Terre Haute","street_number":null,"street_name":"South 3rd Street","zip":"47802","city":"Terre Haute","area":null,"county":"Vigo County","state":"Indiana","country":"us","formatted_address":"Arby's, South 3rd Street, Terre Haute, Vigo County, Indiana, 47802, United States of America","place_id":"23063367","datatype":"locationiq"},{"latitude":"35.15558","longitude":"-89.79547","name":"Outback Steakhouse","address":"USA-Cordova","street_number":"1102","street_name":"North Germantown Parkway","zip":"38016","city":"Memphis","area":null,"county":"Shelby County","state":"Tennessee","country":"us","formatted_address":"1102, North Germantown Parkway, Memphis, Shelby County, Tennessee, 38016, United States of America","place_id":"204102370","datatype":"locationiq"},{"latitude":"38.96447","longitude":"-92.35443","name":"Outback Steakhouse","address":"USA-Columbia","street_number":null,"street_name":"I 70;US 40","zip":"65216","city":"Columbia","area":null,"county":"Boone County","state":"Missouri","country":"us","formatted_address":"125, I 70;US 40, Columbia, Boone County, Missouri, 65216, United States of America","place_id":"4171050","datatype":"locationiq"},{"latitude":"42.01194","longitude":"-87.76632","name":"Outback Steakhouse","address":"USA-Skokie","street_number":"5548","street_name":"West Touhy Avenue","zip":"60077","city":null,"area":"Wildwood","county":"Cook County","state":"Illinois","country":"us","formatted_address":"5548, West Touhy Avenue, Wildwood, Niles, Cook County, Illinois, 60077, United States of America","place_id":"176005773","datatype":"locationiq"},{"latitude":"34.37663","longitude":"-118.56519","name":"Outback Steakhouse","address":"USA-Newhall","street_number":null,"street_name":"The Old Road","zip":"91381","city":null,"area":null,"county":"Los Angeles County","state":"California","country":"us","formatted_address":"In-N-Out Burger, The Old Road, Stevenson Ranch, Elayon, Los Angeles County, California, 91381, United States of America","place_id":"172194516","datatype":"locationiq"},{"latitude":"30.05643","longitude":"-94.13920","name":"Outback Steakhouse","address":"USA-Beaumont","street_number":null,"street_name":"Interstate Highway 10 Frontage Road","zip":"77704","city":"Beaumont","area":null,"county":"Jefferson County","state":"Texas","country":"us","formatted_address":"Golden Corral, Interstate Highway 10 Frontage Road, Beaumont, Jefferson County, Texas, 77704, United States of America","place_id":"104391890","datatype":"locationiq"},{"latitude":"40.16297","longitude":"-85.37398","name":"Outback Steakhouse","address":"USA-Muncie","street_number":"3401","street_name":"South Grant Street","zip":"47302","city":"Muncie","area":null,"county":"Delaware County","state":"Indiana","country":"us","formatted_address":"3401, South Grant Street, Muncie, Delaware County, Indiana, 47302, United States of America","place_id":"186149954","datatype":"locationiq"},{"latitude":"43.63539","longitude":"-70.32043","name":"Outback Steakhouse","address":"USA-South Portland","street_number":"112","street_name":"Western Avenue","zip":"04106","city":"South Portland","area":null,"county":"Cumberland County","state":"Maine","country":"us","formatted_address":"112, Western Avenue, South Portland, Cumberland County, Maine, 04106, United States of America","place_id":"189417572","datatype":"locationiq"},{"latitude":"30.67312","longitude":"-88.13476","name":"Outback Steakhouse","address":"USA-Mobile","street_number":"1401","street_name":"Montlimar Drive","zip":"36609","city":"Mobile","area":null,"county":"Mobile County","state":"Alabama","country":"us","formatted_address":"1401, Montlimar Drive, Mobile Festival Center, Mobile, Mobile County, Alabama, 36609, United States of America","place_id":"176543924","datatype":"locationiq"},{"latitude":"35.10746","longitude":"-92.43585","name":"Outback Steakhouse","address":"USA-Conway","street_number":"2385","street_name":"Sanders Street","zip":"72032","city":"Conway","area":null,"county":"Faulkner County","state":"Arkansas","country":"us","formatted_address":"2385, Sanders Street, Conway, Faulkner County, Arkansas, 72032, United States of America","place_id":"177695508","datatype":"locationiq"},{"latitude":"35.20112","longitude":"-80.84354","name":"Outback Steakhouse","address":"USA-Charlotte","street_number":"1401","street_name":"East Boulevard","zip":"28203","city":"Charlotte","area":"Myers Park","county":"Mecklenburg County","state":"North Carolina","country":"us","formatted_address":"1401, East Boulevard, Myers Park, Charlotte, Mecklenburg County, North Carolina, 28203, United States of America","place_id":"197926899","datatype":"locationiq"},{"latitude":"41.03264","longitude":"-85.25962","name":"Outback Steakhouse","address":"USA-Ft. Wayne","street_number":"5726","street_name":"Coventry Lane","zip":"46804","city":"Fort Wayne","area":null,"county":"Allen County","state":"Indiana","country":"us","formatted_address":"5726, Coventry Lane, Fort Wayne, Allen County, Indiana, 46804, United States of America","place_id":"185998347","datatype":"locationiq"},{"latitude":"42.26685","longitude":"-88.99941","name":"Outback Steakhouse","address":"USA-Rockford","street_number":"6000","street_name":"East State Street","zip":"61108","city":"Rockford","area":null,"county":"Winnebago County","state":"Illinois","country":"us","formatted_address":"J. P. Morgan Chase, 6000, East State Street, Rockford, Winnebago County, Illinois, 61108, United States of America","place_id":"51304814","datatype":"locationiq"},{"latitude":"29.56036","longitude":"-98.59073","name":"Outback Steakhouse","address":"USA-San Antonio","street_number":null,"street_name":"Interstate Highway 10 Frontage Road","zip":"78249","city":"San Antonio","area":null,"county":"Bexar County","state":"Texas","country":"us","formatted_address":"Interstate Highway 10 Frontage Road, San Antonio, Bexar County, Texas, 78249, United States of America","place_id":"103204709","datatype":"locationiq"},{"latitude":"30.44039","longitude":"-90.08059","name":"Outback Steakhouse","address":"USA-Covington","street_number":null,"street_name":"Park Place Drive","zip":"70471","city":null,"area":null,"county":"St. Tammany Parish","state":"Louisiana","country":"us","formatted_address":"Park Place Drive, Claiborne Hill, St. Tammany Parish, Louisiana, 70471, United States of America","place_id":"110687727","datatype":"locationiq"},{"latitude":"39.49027","longitude":"-119.79577","name":"Outback Steakhouse","address":"USA-Reno","street_number":"3673","street_name":"South Virginia Street","zip":"89502","city":"Reno","area":null,"county":"Washoe County","state":"Nevada","country":"us","formatted_address":"3673, South Virginia Street, Midtown, Reno, Washoe County, Nevada, 89502, United States of America","place_id":"195022571","datatype":"locationiq"},{"latitude":"42.18268","longitude":"-71.86632","name":"Outback Steakhouse","address":"USA-Auburn","street_number":"761","street_name":"Southbridge Street","zip":"01501","city":null,"area":null,"county":"Worcester County","state":"Massachusetts","country":"us","formatted_address":"761, Southbridge Street, Auburn, Worcester County, Massachusetts, 01501, United States of America","place_id":"190576408","datatype":"locationiq"},{"latitude":"31.16062","longitude":"-81.38817","name":"Outback Steakhouse","address":"USA-Simons Island","street_number":"1099","street_name":"Frederica Road","zip":"31522","city":null,"area":null,"county":"Glynn County","state":"Georgia","country":"us","formatted_address":"1099, Frederica Road, Silver Lake, Glynn County, Georgia, 31522, United States of America","place_id":"183825524","datatype":"locationiq"},