[{"name":"Puma Store","code":null,"latitude":34.1444121,"longitude":-118.256354,"address":"712 Americana Way, Glendale CA","chain_name":null,"distance":0,"street_number":"877","street_name":null,"zip":"91210","city":"Glendale","area":null,"county":"Los Angeles County","state":"California","country":"us","formatted_address":"The Americana at Brand, 877, Caruso Avenue, Glendale, Los Angeles County, California, 91210, United States of America","place_id":"122548683","datatype":"locationiq"},{"name":"Puma Store","code":null,"latitude":42.045377,"longitude":-88.036891,"address":"5 Woodfield, Schaumburg IL","chain_name":null,"distance":0,"street_number":"G126","street_name":"Perimeter Drive","zip":"60173","city":null,"area":null,"county":"Cook County","state":"Illinois","country":"us","formatted_address":"Avis Nails, G126, Perimeter Drive, Schaumburg, Cook County, Illinois, 60173, United States of America","place_id":"56543572","datatype":"locationiq"},{"name":"Puma Store","code":null,"latitude":33.5021458,"longitude":-111.9290563,"address":"7014 East Camelback Road, Scottsdale AZ","chain_name":null,"distance":0,"street_number":null,"street_name":"East Camelback Road","zip":"85251","city":"Scottsdale","area":null,"county":"Maricopa County","state":"Arizona","country":"us","formatted_address":"East Camelback Road, Scottsdale Fashion Square, Scottsdale, Maricopa County, Arizona, 85251, United States of America","place_id":"123844177","datatype":"locationiq"},{"name":"Puma Store","code":null,"latitude":40.9200682,"longitude":-72.7144447,"address":"1218 Tanger Mall Drive, Riverhead NY","chain_name":null,"distance":0,"street_number":"1750","street_name":"West Main Street","zip":"11901","city":null,"area":null,"county":"Suffolk County","state":"New York","country":"us","formatted_address":"1750, West Main Street, Calverton, Suffolk County, New York, 11901, United States of America","place_id":"112916194","datatype":"locationiq"},{"name":"Puma Store","code":null,"latitude":41.0522762,"longitude":-75.3353875,"address":"285 Crossing Factory, Tannersville PA","chain_name":null,"distance":0,"street_number":"151","street_name":"Camelback Road","zip":"18372","city":"Pocono Township","area":null,"county":"Monroe County","state":"Pennsylvania","country":"us","formatted_address":"151, Camelback Road, Pocono Township, Monroe County, Pennsylvania, 18372, United States of America","place_id":"202085312","datatype":"locationiq"},{"name":"Puma Store","code":null,"latitude":38.3432737,"longitude":-121.9532345,"address":"Nut Tree Road, Vacaville CA","chain_name":null,"distance":0,"street_number":"2349","street_name":"Nut Tree Road","zip":"95687","city":"Vacaville","area":null,"county":"Solano County","state":"California","country":"us","formatted_address":"2349, Nut Tree Road, Vacaville, Solano County, California, 95687, United States of America","place_id":"180318442","datatype":"locationiq"},{"name":"Puma Store","code":null,"latitude":41.9022395,"longitude":-87.6279935,"address":"1051 N. Rush Street, Chicago IL","chain_name":null,"distance":0,"street_number":"1051","street_name":"North Rush Street","zip":"60611","city":"Chicago","area":"Gold Coast","county":"Cook County","state":"Illinois","country":"us","formatted_address":"1051, North Rush Street, Gold Coast, Chicago, Cook County, Illinois, 60611, United States of America","place_id":"118306080","datatype":"locationiq"},{"name":"Puma Store","code":null,"latitude":41.3150611,"longitude":-74.1259904,"address":"657 Bluebird Court, Central Valley NY","chain_name":null,"distance":0,"street_number":"652","street_name":"Bluebird Court","zip":"10917","city":null,"area":null,"county":"Orange County","state":"New York","country":"us","formatted_address":"652, Bluebird Court, Woodbury Common Premium Outlets, Woodbury, Town of Woodbury, Orange County, New York, 10917, United States of America","place_id":"196689458","datatype":"locationiq"},{"name":"Puma Store","code":null,"latitude":29.9150805,"longitude":-95.6199444,"address":"29300 Hempstead Road, Houston TX","chain_name":null,"distance":0,"street_number":"20099","street_name":"Hempstead Highway","zip":"77065","city":null,"area":null,"county":"Harris County","state":"Texas","country":"us","formatted_address":"20099, Hempstead Highway, Satsuma, Harris County, Texas, 77065, United States of America","place_id":"205399812","datatype":"locationiq"},{"name":"Puma Store","code":null,"latitude":26.435945,"longitude":-81.775835,"address":"10801 Corkscrew Road, Estero ","chain_name":null,"distance":0,"street_number":null,"street_name":"Miromar Outlet Drive","zip":"33928","city":null,"area":null,"county":"Lee County","state":"Florida","country":"us","formatted_address":"Bldg G Units 302-314 (even), Miromar Outlet Drive, Miromar Outlets, Shadow Wood, Lee County, Florida, 33928, United States of America","place_id":"89865321","datatype":"locationiq"},{"name":"Puma Store","code":null,"latitude":34.357571,"longitude":-84.0474295,"address":"800 Highway 400 South, Dawsonville GA","chain_name":null,"distance":0,"street_number":null,"street_name":null,"zip":"30534","city":null,"area":null,"county":"Dawson County","state":"Georgia","country":"us","formatted_address":"Magnolia Street, North Georgia Premium Outlets, Lumpkin, Dawson County, Georgia, 30534, United States of America","place_id":"133490474","datatype":"locationiq"},{"name":"Puma Store","code":null,"latitude":38.255133,"longitude":-122.651217,"address":"2200 Petaluma Blvd., Petaluma CA","chain_name":null,"distance":0,"street_number":null,"street_name":"Petaluma Boulevard North","zip":"94952","city":"Petaluma","area":"East Petaluma","county":"Sonoma County","state":"California","country":"us","formatted_address":"Petaluma Boulevard North, East Petaluma, Petaluma, Sonoma County, California, 94952, United States of America","place_id":"64518162","datatype":"locationiq"},{"name":"Puma Store","code":null,"latitude":30.4017779,"longitude":-97.7263256,"address":"11401 Century Oaks Terrace, Austin TX","chain_name":null,"distance":0,"street_number":"11410","street_name":"Century Oaks Terrace","zip":"78758","city":"Austin","area":null,"county":"Travis County","state":"Texas","country":"us","formatted_address":"11410, Century Oaks Terrace, Austin, Travis County, Texas, 78758, United States of America","place_id":"92221727","datatype":"locationiq"},{"name":"Puma Store","code":null,"latitude":25.956514,"longitude":-80.142057,"address":"19501 Biscayne, Blvd Miami FL","chain_name":null,"distance":0,"street_number":null,"street_name":"Biscayne Boulevard","zip":"33180","city":null,"area":null,"county":"Miami-Dade County","state":"Florida","country":"us","formatted_address":"Biscayne Boulevard, Aventura, Miami-Dade County, Florida, 33180, United States of America","place_id":"159736123","datatype":"locationiq"},{"name":"Puma Store","code":null,"latitude":26.1461524,"longitude":-80.3260027,"address":"12801 West Sunrise Blvd., Sunrise FL","chain_name":null,"distance":0,"street_number":null,"street_name":"Yellow Toucan Road","zip":"33323","city":null,"area":null,"county":"Broward County","state":"Florida","country":"us","formatted_address":"Arby's, Yellow Toucan Road, Sunrise, Broward County, Florida, 33323, United States of America","place_id":"141879411","datatype":"locationiq"},{"name":"Puma Store","code":null,"latitude":39.949822,"longitude":-75.166196,"address":"1505 Walnut St., Philadelphia PA","chain_name":null,"distance":0,"street_number":"1503","street_name":"Walnut Street","zip":"19102","city":"Philadelphia","area":"Rittenhouse Square","county":"Philadelphia County","state":"Pennsylvania","country":"us","formatted_address":"1503, Walnut Street, Rittenhouse Square, Philadelphia, Philadelphia County, Pennsylvania, 19102, United States of America","place_id":"145435270","datatype":"locationiq"},{"name":"Puma Store","code":null,"latitude":45.245172,"longitude":-93.6631605,"address":"6500 Labeaux Avenue NE, Albertville MN","chain_name":null,"distance":0,"street_number":null,"street_name":"Labeaux Avenue Northeast","zip":"55301","city":null,"area":null,"county":"Wright County","state":"Minnesota","country":"us","formatted_address":"Labeaux Avenue Northeast, Albertville, Wright County, Minnesota, 55301, United States of America","place_id":"110763856","datatype":"locationiq"},{"name":"Puma Store","code":null,"latitude":36.1655695,"longitude":-115.1554518,"address":"605 Grand Central Parkway, Las Vegas NV","chain_name":null,"distance":0,"street_number":"909","street_name":"South Grand Central Parkway","zip":"89106","city":"Las Vegas","area":"18b Arts District","county":"Clark County","state":"Nevada","country":"us","formatted_address":"909, South Grand Central Parkway, 18b Arts District, Vegas Heights, Las Vegas, Clark County, Nevada, 89106, United States of America","place_id":"194875085","datatype":"locationiq"},{"name":"Puma Store","code":null,"latitude":41.7131001,"longitude":-86.9051344,"address":"905 Lighthouse Place, Michigan City IN","chain_name":null,"distance":0,"street_number":null,"street_name":"West 8th Street","zip":"46360","city":"Michigan City","area":null,"county":"LaPorte County","state":"Indiana","country":"us","formatted_address":"Casual Male XL Outlet, West 8th Street, Michigan City, LaPorte County, Indiana, 46360, United States of America","place_id":"173680222","datatype":"locationiq"},{"name":"Puma Store","code":null,"latitude":32.7096424,"longitude":-117.1602512,"address":"402 5th Avenue, San Diego CA","chain_name":null,"distance":0,"street_number":"450","street_name":"J Street","zip":"92101","city":"San Diego","area":null,"county":"San Diego County","state":"California","country":"us","formatted_address":"450, J Street, Uptown, San Diego, San Diego County, California, 92101, United States of America","place_id":"5772727","datatype":"locationiq"},{"name":"Puma Store","code":null,"latitude":32.8698951,"longitude":-96.7741182,"address":"8687 North Central Expressway, Dallas TX","chain_name":null,"distance":0,"street_number":null,"street_name":"North Central Expressway","zip":"75243","city":"Dallas","area":null,"county":"Dallas County","state":"Texas","country":"us","formatted_address":"North Central Expressway, Dallas, Dallas County, Texas, 75243, United States of America","place_id":"160928420","datatype":"locationiq"},{"name":"Puma Store","code":null,"latitude":42.3486255,"longitude":-71.0865233,"address":"333 Newbury Street, Boston MA","chain_name":null,"distance":0,"street_number":"335","street_name":"Newbury Street","zip":"02116","city":"Boston","area":"Chinatown","county":"Suffolk County","state":"Massachusetts","country":"us","formatted_address":"Dunkin' Donuts, 335, Newbury Street, Chinatown, Back Bay, Boston, Suffolk County, Massachusetts, 02116, United States of America","place_id":"52582102","datatype":"locationiq"},{"name":"Puma Store","code":null,"latitude":27.962664,"longitude":-82.520483,"address":"2223 N Westshore, Blvd. Tampa FL","chain_name":null,"distance":0,"street_number":null,"street_name":"International Plaza","zip":"33607","city":"Tampa","area":null,"county":"Hillsborough County","state":"Florida","country":"us","formatted_address":"International Plaza, Tampa, Hillsborough County, Florida, 33607, United States of America","place_id":"103185179","datatype":"locationiq"},{"name":"Puma Store","code":null,"latitude":39.3122559,"longitude":-85.9600199,"address":"11895 N.E. Executive Drive, Edinburgh IN","chain_name":null,"distance":0,"street_number":null,"street_name":"Northeast Executive Drive","zip":"47280","city":null,"area":null,"county":"Bartholomew County","state":"Indiana","country":"us","formatted_address":"Northeast Executive Drive, North Park, Bartholomew County, Indiana, 47280, United States of America","place_id":"69589795","datatype":"locationiq"},{"name":"Puma Store","code":null,"latitude":33.0309514,"longitude":-96.8329963,"address":"6121 W. Park Blvd., Plano TX","chain_name":null,"distance":0,"street_number":null,"street_name":"Willow Bend Mall","zip":"75093","city":"Plano","area":null,"county":"Collin County","state":"Texas","country":"us","formatted_address":"Willow Bend Mall, Plano, Collin County, Texas, 75093, United States of America","place_id":"144157234","datatype":"locationiq"},{"name":"Puma Store","code":null,"latitude":34.2179145,"longitude":-119.0602512,"address":"690 E. Ventura Blvd., Camarillo CA","chain_name":null,"distance":0,"street_number":"800","street_name":"East Ventura Boulevard","zip":"93010","city":"Camarillo","area":null,"county":"Ventura County","state":"California","country":"us","formatted_address":"800, East Ventura Boulevard, Camarillo, Ventura County, California, 93010, United States of America","place_id":"180502175","datatype":"locationiq"},{"name":"Puma Store","code":null,"latitude":37.3184322,"longitude":-76.7349736,"address":"5645 Richmond Road, Williamsburg VA","chain_name":null,"distance":0,"street_number":null,"street_name":"Richmond Road","zip":"23188","city":null,"area":"Chisel Run","county":"James City County","state":"Virginia","country":"us","formatted_address":"China Max, Richmond Road, Chisel Run, Ewell, James City County, Virginia, 23188, United States of America","place_id":"13385098","datatype":"locationiq"},{"name":"Puma Store","code":null,"latitude":40.7367634,"longitude":-73.990672,"address":"33 Union Square West, New York NY","chain_name":null,"distance":0,"street_number":null,"street_name":"Union Square West","zip":"10003","city":"New York City","area":"Flatiron","county":"New York County","state":"New York","country":"us","formatted_address":"blue water grill, Union Square West, Flatiron, Manhattan, New York County, New York City, New York, 10003, United States of America","place_id":"58182823","datatype":"locationiq"},{"name":"Puma Store","code":null,"latitude":33.1273143,"longitude":-117.3233536,"address":"5610 Paseo Del Norte, South Carlsbad CA","chain_name":null,"distance":0,"street_number":"5613","street_name":"Paseo del Norte","zip":"92008","city":"Carlsbad","area":null,"county":"San Diego County","state":"California","country":"us","formatted_address":"BJ's Restaurant & Brewhouse, 5613, Paseo del Norte, Carlsbad, San Diego County, California, 92008, United States of America","place_id":"158150570","datatype":"locationiq"},{"name":"Puma Store","code":null,"latitude":44.8565724,"longitude":-93.2398994,"address":"106 N. Garden, Bloomington MN","chain_name":null,"distance":0,"street_number":null,"street_name":"Lindau Lane","zip":"55425","city":"Bloomington","area":null,"county":"Hennepin County","state":"Minnesota","country":"us","formatted_address":"Sears, Lindau Lane, Mall of America, Bloomington, Hennepin County, Minnesota, 55425, United States of America","place_id":"108133426","datatype":"locationiq"},{"name":"Puma Store","code":null,"latitude":39.7346151,"longitude":-105.1594609,"address":"14500 W. Colfax Avenue, Lakewood CO","chain_name":null,"distance":0,"street_number":null,"street_name":"West Colfax Avenue","zip":"80410","city":"Lakewood","area":null,"county":"Jefferson County","state":"Colorado","country":"us","formatted_address":"1st Bank, West Colfax Avenue, Lakewood, Jefferson County, Colorado, 80410, United States of America","place_id":"82567310","datatype":"locationiq"},{"name":"Puma Store","code":null,"latitude":36.1274245,"longitude":-115.170815,"address":"3200 Las Vegas Blvd South, Las Vegas NV","chain_name":null,"distance":0,"street_number":null,"street_name":"South Las Vegas Boulevard","zip":"89123","city":null,"area":null,"county":"Clark County","state":"Nevada","country":"us","formatted_address":"South Las Vegas Boulevard, Winchester, Clark County, Nevada, 89123, United States of America","place_id":"94982129","datatype":"locationiq"},{"name":"Puma Store","code":null,"latitude":33.6916052,"longitude":-117.8929803,"address":"3333 Bear Street, Costa Mesa CA","chain_name":null,"distance":0,"street_number":null,"street_name":"Bear Street","zip":"92704","city":"Costa Mesa","area":null,"county":"Orange County","state":"California","country":"us","formatted_address":"Apple, Bear Street, Costa Mesa, Orange County, California, 92704, United States of America","place_id":"47205680","datatype":"locationiq"},{"name":"Puma Store","code":null,"latitude":37.021743,"longitude":-121.561108,"address":"8300 Arroyo Circle, Gilroy CA","chain_name":null,"distance":0,"street_number":null,"street_name":"Arroyo Circle","zip":"95020","city":"Gilroy","area":null,"county":"Santa Clara County","state":"California","country":"us","formatted_address":"Building B, Arroyo Circle, Gilroy, Santa Clara County, California, 95020, United States of America","place_id":"74747007","datatype":"locationiq"},{"name":"Puma Store","code":null,"latitude":48.095151,"longitude":-122.195658,"address":"10600 Quil Ceda Blvd., Tulalip WA","chain_name":null,"distance":0,"street_number":null,"street_name":"27th Avenue Northeast","zip":"98271","city":null,"area":null,"county":"Snohomish County","state":"Washington","country":"us","formatted_address":"27th Avenue Northeast, Stimson Crossing, Snohomish County, Washington, 98271, United States of America","place_id":"63001911","datatype":"locationiq"},{"name":"Puma Store","code":null,"latitude":39.620967,"longitude":-83.601058,"address":"8630 Factory Shops Boulevard, Jeffersonville OH","chain_name":null,"distance":0,"street_number":null,"street_name":"I 71","zip":"43128","city":null,"area":null,"county":"Fayette County","state":"Ohio","country":"us","formatted_address":"I 71, Octa, Fayette County, Ohio, 43128, United States of America","place_id":"77305757","datatype":"locationiq"},{"name":"Puma Store","code":null,"latitude":40.0529069,"longitude":-82.9149047,"address":"4005 The Strand West, Columbus OH","chain_name":null,"distance":0,"street_number":"4089","street_name":"The Strand East","zip":"43219","city":"Columbus","area":null,"county":"Franklin County","state":"Ohio","country":"us","formatted_address":"Bon Vie Bistro, 4089, The Strand East, Easton Town Center, Columbus, Franklin County, Ohio, 43219, United States of America","place_id":"84600106","datatype":"locationiq"},{"name":"Puma Store","code":null,"latitude":35.1514877,"longitude":-80.8279881,"address":"4400 Sharon Rd., Charlotte NC","chain_name":null,"distance":0,"street_number":"4497","street_name":"Sharon Road","zip":"28211","city":"Charlotte","area":null,"county":"Mecklenburg County","state":"North Carolina","country":"us","formatted_address":"4497, Sharon Road, Charlotte, Mecklenburg County, North Carolina, 28211, United States of America","place_id":"197909179","datatype":"locationiq"},{"name":"Puma Store","code":null,"latitude":40.7412,"longitude":-74.006717,"address":"421 West 14th Street, Ground Floor NYC NY","chain_name":null,"distance":0,"street_number":"420","street_name":"West 14th Street","zip":"10014","city":"New York City","area":"Chelsea","county":"New York County","state":"New York","country":"us","formatted_address":"420, West 14th Street, Chelsea, Manhattan, New York County, New York City, New York, 10014, United States of America","place_id":"128078902","datatype":"locationiq"},{"name":"Puma Store","code":null,"latitude":40.2369174,"longitude":-75.572269,"address":"18 Lightcap Road, Pottstown PA","chain_name":null,"distance":0,"street_number":null,"street_name":"Lightcap Road","zip":"19457","city":"Limerick Township","area":null,"county":"Montgomery County","state":"Pennsylvania","country":"us","formatted_address":"Lightcap Road, Limerick Township, Montgomery County, Pennsylvania, 19457, United States of America","place_id":"113053001","datatype":"locationiq"},{"name":"Puma Store","code":null,"latitude":42.9565837,"longitude":-76.9214714,"address":"655 Route 318, Waterloo NY","chain_name":null,"distance":0,"street_number":null,"street_name":"New York State Thruway","zip":"14518","city":null,"area":null,"county":"Seneca County","state":"New York","country":"us","formatted_address":"Waterloo Premium Outlets, New York State Thruway, West Junius, Phelps Town, Seneca County, New York, 14518, United States of America","place_id":"114620110","datatype":"locationiq"},{"name":"Puma Store","code":null,"latitude":31.9124715,"longitude":-106.5832857,"address":"7051 S. Desert Boulevard, El Paso US","chain_name":null,"distance":0,"street_number":"7057","street_name":"South Desert Boulevard","zip":"79835","city":"El Paso City","area":null,"county":"El Paso County","state":"Texas","country":"us","formatted_address":"Whataburger, 7057, South Desert Boulevard, El Paso City, El Paso County, Texas, 79835, United States of America","place_id":"101019324","datatype":"locationiq"},{"name":"Puma Store","code":null,"latitude":29.805307,"longitude":-98.0126219,"address":"3939 IH-35 South, San Marcos TX","chain_name":null,"distance":0,"street_number":null,"street_name":"Heldenfels Concrete","zip":null,"city":null,"area":null,"county":"Hays County","state":"Texas","country":"us","formatted_address":"Heldenfels Concrete, San Marcos, Hays County, Texas, United States of America","place_id":"68434872","datatype":"locationiq"},{"name":"Puma Store","code":null,"latitude":26.1744049,"longitude":-97.9080022,"address":"5001 East Expressway, Mercedes ","chain_name":null,"distance":0,"street_number":"3985","street_name":"North Mercedes Drive","zip":"78570","city":"Mercedes","area":null,"county":"Hidalgo County","state":"Texas","country":"us","formatted_address":"3985, North Mercedes Drive, Mercedes, Hidalgo County, Texas, 78570, United States of America","place_id":"205636918","datatype":"locationiq"},{"name":"Puma Store","code":null,"latitude":40.1285139,"longitude":-75.4375346,"address":"160 North Gulf Road, King of Prussia FL","chain_name":null,"distance":0,"street_number":"649","street_name":"Mill Grove Drive","zip":"19403","city":"Lower Providence Township","area":null,"county":"Montgomery County","state":"Pennsylvania","country":"us","formatted_address":"649, Mill Grove Drive, Lower Providence Township, Montgomery County, Pennsylvania, 19403, United States of America","place_id":"202144522","datatype":"locationiq"},{"name":"Puma Store","code":null,"latitude":40.4274493,"longitude":-79.965516,"address":"2738 Sidney Street, Pittsburgh PA","chain_name":null,"distance":0,"street_number":"425","street_name":"Cinema Drive","zip":"15203","city":"Pittsburgh","area":null,"county":"Allegheny County","state":"Pennsylvania","country":"us","formatted_address":"Southside Works Cinema, 425, Cinema Drive, SouthSide Works, South Side Flats, Pittsburgh, Allegheny County, Pennsylvania, 15203, United States of America","place_id":"108194207","datatype":"locationiq"},{"name":"Puma Store","code":null,"latitude":30.2577888,"longitude":-81.5253399,"address":"4663 River City Drive, Jacksonville FL","chain_name":null,"distance":0,"street_number":null,"street_name":"Mid-Town Parkway","zip":"32246","city":"Jacksonville","area":null,"county":"Duval County","state":"Florida","country":"us","formatted_address":"Maggiano's Little Italy, Mid-Town Parkway, St. Johns Town Center, Jacksonville, Duval County, Florida, 32246, United States of America","place_id":"147982518","datatype":"locationiq"},{"name":"Puma Store","code":null,"latitude":39.7155758,"longitude":-104.9513294,"address":"3000 East First Avenue, Denver CO","chain_name":null,"distance":0,"street_number":"15","street_name":"South Steele Street","zip":"80206","city":"Denver","area":null,"county":"Denver County","state":"Colorado","country":"us","formatted_address":"Macy's, 15, South Steele Street, Denver, Denver County, Colorado, 80206, United States of America","place_id":"37171728","datatype":"locationiq"},{"name":"Puma Store","code":null,"latitude":37.7850686,"longitude":-122.4070348,"address":"856 Market Street, San Francisco CA","chain_name":null,"distance":0,"street_number":null,"street_name":"Market Street","zip":"94103-3124","city":"San Francisco","area":"Union Square","county":"San Francisco City and County","state":"California","country":"us","formatted_address":"Flood Building, Market Street, Union Square, San Francisco, San Francisco City and County, California, 94103-3124, United States of America","place_id":"174323111","datatype":"locationiq"},{"name":"Puma Store","code":null,"latitude":42.4933457,"longitude":-83.4761142,"address":"27742a Novi Road, Novi MI","chain_name":null,"distance":0,"street_number":"27702","street_name":"Novi Road","zip":"48377","city":"Novi","area":null,"county":"Oakland County","state":"Michigan","country":"us","formatted_address":"27702, Novi Road, Novi, Oakland County, Michigan, 48377, United States of America","place_id":"191327506","datatype":"locationiq"},{"name":"Puma Store","code":null,"latitude":46.128681,"longitude":-74.586327,"address":"2555 Rue de L'Alunaie Building C, Mont-Tremblant QC","chain_name":null,"distance":0,"street_number":null,"street_name":"Rue Coupal","zip":"J8E2Z9","city":null,"area":"Station Saint-Jovite","county":null,"state":"Quebec","country":"ca","formatted_address":"Rue Coupal, Station Saint-Jovite, Ville de Mont-Tremblant, Quebec, J8E2Z9, Canada","place_id":"73204889","datatype":"locationiq"},{"name":"Puma Store","code":null,"latitude":39.108219,"longitude":-77.536569,"address":"241 Fort Evans Road, Leesburg VA","chain_name":null,"distance":0,"street_number":null,"street_name":"Fort Evans Road NE","zip":"20179","city":null,"area":null,"county":"Loudoun County","state":"Virginia","country":"us","formatted_address":"Eddie Bauer Outlet, Fort Evans Road NE, Leesburg, Loudoun County, Virginia, 20179, United States of America","place_id":"17288547","datatype":"locationiq"},{"name":"Puma Store","code":null,"latitude":34.357571,"longitude":-84.0474295,"address":"800 Highway 400 South, Dawsonville GA","chain_name":null,"distance":0,"street_number":null,"street_name":null,"zip":"30534","city":null,"area":null,"county":"Dawson County","state":"Georgia","country":"us","formatted_address":"Magnolia Street, North Georgia Premium Outlets, Lumpkin, Dawson County, Georgia, 30534, United States of America","place_id":"133490474","datatype":"locationiq"},{"name":"Puma Store","code":null,"latitude":33.776258,"longitude":-117.8908539,"address":"20 City Drive, Orange CA","chain_name":null,"distance":0,"street_number":null,"street_name":"The City Drive South","zip":"92868","city":"Orange","area":null,"county":"Orange County","state":"California","country":"us","formatted_address":"Best Western Meridian, The City Drive South, Orange, Orange County, California, 92868, United States of America","place_id":"174452433","datatype":"locationiq"},{"name":"Puma Store","code":null,"latitude":34.0159298,"longitude":-118.496514,"address":"1350 Third St. Promenade, Santa Monica CA","chain_name":null,"distance":0,"street_number":null,"street_name":null,"zip":"90401","city":"Santa Monica","area":null,"county":"Los Angeles County","state":"California","country":"us","formatted_address":"Lago, Third Street Promenade, Santa Monica, Los Angeles County, California, 90401, United States of America","place_id":"21314986","datatype":"locationiq"},{"name":"Puma Store","code":null,"latitude":38.9564137,"longitude":-94.7176327,"address":"11767 West 95th Street Space, Overland Park KS","chain_name":null,"distance":0,"street_number":null,"street_name":"West 95th Street","zip":"66214","city":"Overland Park","area":null,"county":"Johnson County","state":"Kansas","country":"us","formatted_address":"Houlihan's, West 95th Street, Overland Park, Johnson County, Kansas, 66214, United States of America","place_id":"47248379","datatype":"locationiq"},{"name":"Puma Store","code":null,"latitude":40.722913,"longitude":-73.99932,"address":"521 Broadway, New York NY","chain_name":null,"distance":0,"street_number":"521","street_name":"Broadway","zip":"10012","city":"New York City","area":"SoHo","county":"New York County","state":"New York","country":"us","formatted_address":"521, Broadway, SoHo, Manhattan, New York County, New York City, New York, 10012, United States of America","place_id":"127490135","datatype":"locationiq"},{"name":"Puma Store","code":null,"latitude":36.0683297,"longitude":-115.1722337,"address":"6649 Las Vegas Boulevard South, Las Vegas NV","chain_name":null,"distance":0,"street_number":"6644","street_name":"South Las Vegas Boulevard","zip":"89119","city":null,"area":null,"county":"Clark County","state":"Nevada","country":"us","formatted_address":"6644, South Las Vegas Boulevard, Enterprise, Paradise, Clark County, Nevada, 89119, United States of America","place_id":"194860109","datatype":"locationiq"},{"name":"Puma Store","code":null,"latitude":25.7785759,"longitude":-80.132263,"address":"820 Collins Avenue, Miami Beach FL","chain_name":null,"distance":0,"street_number":"820","street_name":"Collins Avenue","zip":"33139","city":"Miami Beach","area":null,"county":"Miami-Dade County","state":"Florida","country":"us","formatted_address":"Posh South Beach Hostel, 820, Collins Avenue, Miami Beach, Miami-Dade County, Florida, 33139, United States of America","place_id":"153467128","datatype":"locationiq"},{"name":"Puma Store","code":null,"latitude":47.6151362,"longitude":-122.2029707,"address":"245 Bellevue Square, Bellevue WA","chain_name":null,"distance":0,"street_number":null,"street_name":"Bellevue Square","zip":"98004-5002","city":"Bellevue","area":null,"county":"King County","state":"Washington","country":"us","formatted_address":"Macy's, Bellevue Square, Bellevue, King County, Washington, 98004-5002, United States of America","place_id":"174096793","datatype":"locationiq"},{"name":"Puma Store","code":null,"latitude":29.7405552,"longitude":-95.4629509,"address":"5085 Westheimer Rd., Houston TX","chain_name":null,"distance":0,"street_number":null,"street_name":"Westheimer Road","zip":"77056","city":null,"area":"Highland Village","county":"Harris County","state":"Texas","country":"us","formatted_address":"Grand Lux Cafe, Westheimer Road, Highland Village, Lamar Terrace, Harris County, Texas, 77056, United States of America","place_id":"59563683","datatype":"locationiq"},{"name":"Puma Store","code":null,"latitude":44.2659009,"longitude":-76.501452,"address":"97 Dalton Avenue, Kingston ON","chain_name":null,"distance":0,"street_number":"75","street_name":"Dalton Avenue","zip":"K7K 0C3","city":"Kingston","area":"Kingscourt","county":null,"state":"Ontario","country":"ca","formatted_address":"75, Dalton Avenue, Kingscourt, Kingston, Ontario, K7K 0C3, Canada","place_id":"1048041","datatype":"locationiq"}]