[{"name":"Red Lobster Restaurants","code":null,"latitude":43.79128,"longitude":-91.2085,"address":"3333 State Road 16, La Crosse WI","chain_name":null,"distance":0,"street_number":null,"street_name":"State Highway 33","zip":"54601","city":"La Crosse","area":null,"county":"La Crosse County","state":"Wisconsin","country":"us","formatted_address":"State Highway 33, La Crosse, La Crosse County, Wisconsin, 54601, United States of America","place_id":"105572745","datatype":"locationiq"},{"name":"Red Lobster Restaurants","code":null,"latitude":41.16324,"longitude":-81.4761,"address":"1090 Graham Rd, Cuyahoga Falls OH","chain_name":null,"distance":0,"street_number":"1043","street_name":"Graham Road","zip":"44224","city":"Cuyahoga Falls","area":"Camden Knolls","county":"Summit County","state":"Ohio","country":"us","formatted_address":"1043, Graham Road, Camden Knolls, Cuyahoga Falls, Summit County, Ohio, 44224, United States of America","place_id":"199934799","datatype":"locationiq"},{"name":"Red Lobster Restaurants","code":null,"latitude":47.19171,"longitude":-122.4603,"address":"1929 S 72nd St, Tacoma WA","chain_name":null,"distance":0,"street_number":"1772","street_name":"South 72nd Street","zip":"98408","city":"Tacoma","area":null,"county":"Pierce County","state":"Washington","country":"us","formatted_address":"Chevron, 1772, South 72nd Street, J & C Plaza, Tacoma, Pierce County, Washington, 98408, United States of America","place_id":"80186341","datatype":"locationiq"},{"name":"Red Lobster Restaurants","code":null,"latitude":33.38783,"longitude":-111.8571,"address":"1403 South Alma School Road, Mesa AZ","chain_name":null,"distance":0,"street_number":null,"street_name":"West Holmes Avenue","zip":"85202","city":"Mesa","area":null,"county":"Maricopa County","state":"Arizona","country":"us","formatted_address":"Red Lobster, West Holmes Avenue, Fiesta Mall, Mesa, Maricopa County, Arizona, 85202, United States of America","place_id":"100444287","datatype":"locationiq"},{"name":"Red Lobster Restaurants","code":null,"latitude":39.02904,"longitude":-77.4227,"address":"21065 Dulles Town Circle, Dulles VA","chain_name":null,"distance":0,"street_number":null,"street_name":"Dulles Town Circle","zip":"20166","city":null,"area":null,"county":"Loudoun County","state":"Virginia","country":"us","formatted_address":"Vestals Gap Park, Dulles Town Circle, Dulles Town Center, Loudoun County, Virginia, 20166, United States of America","place_id":"81242291","datatype":"locationiq"},{"name":"Red Lobster Restaurants","code":null,"latitude":34.92101,"longitude":-81.9862,"address":"170 E Blackstock Rd, Spartanburg SC","chain_name":null,"distance":0,"street_number":"173","street_name":"East Blackstock Road","zip":"29301","city":"Spartanburg","area":null,"county":"Spartanburg County","state":"South Carolina","country":"us","formatted_address":"173, East Blackstock Road, Spartanburg, Spartanburg County, South Carolina, 29301, United States of America","place_id":"203166487","datatype":"locationiq"},{"name":"Red Lobster Restaurants","code":null,"latitude":26.27668,"longitude":-81.7988,"address":"2355 US 41 North, Naples FL","chain_name":null,"distance":0,"street_number":"11699","street_name":"Useppa Court","zip":"34110","city":null,"area":null,"county":"Collier County","state":"Florida","country":"us","formatted_address":"11699, Useppa Court, Palm River Shores, Collier County, Florida, 34110, United States of America","place_id":"181889465","datatype":"locationiq"},{"name":"Red Lobster Restaurants","code":null,"latitude":44.79306,"longitude":-91.5089,"address":"1019 W Clairemont Ave, Eau Claire WI","chain_name":null,"distance":0,"street_number":null,"street_name":"West Clairemont Avenue","zip":"54703","city":"Eau Claire","area":"Upper Campus","county":"Eau Claire County","state":"Wisconsin","country":"us","formatted_address":"West Clairemont Avenue, Upper Campus, Eau Claire, Eau Claire County, Wisconsin, 54703, United States of America","place_id":"168397925","datatype":"locationiq"},{"name":"Red Lobster Restaurants","code":null,"latitude":42.50457,"longitude":-83.1074,"address":"101 West 12 Mile Road, Madison Heights MI","chain_name":null,"distance":0,"street_number":null,"street_name":"West 12 Mile Road","zip":"48071","city":"Madison Heights","area":null,"county":"Oakland County","state":"Michigan","country":"us","formatted_address":"Red Lobster, West 12 Mile Road, Madison Heights, Oakland County, Michigan, 48071, United States of America","place_id":"149062612","datatype":"locationiq"},{"name":"Red Lobster Restaurants","code":null,"latitude":39.4166,"longitude":-77.4401,"address":"1020 West Patrick Street, Frederick MD","chain_name":null,"distance":0,"street_number":"1002","street_name":"West Patrick Street","zip":"21702","city":"Frederick","area":null,"county":"Frederick County","state":"Maryland","country":"us","formatted_address":"1002, West Patrick Street, Frederick, Frederick County, Maryland, 21702, United States of America","place_id":"189777763","datatype":"locationiq"},{"name":"Red Lobster Restaurants","code":null,"latitude":41.50603,"longitude":-87.7114,"address":"3915 Lincoln Hwy, Matteson IL","chain_name":null,"distance":0,"street_number":null,"street_name":"Lincoln Highway","zip":"60461","city":null,"area":null,"county":"Cook County","state":"Illinois","country":"us","formatted_address":"Bocce's Bar & Grill, Lincoln Highway, Matteson, Cook County, Illinois, 60461, United States of America","place_id":"131100886","datatype":"locationiq"},{"name":"Red Lobster Restaurants","code":null,"latitude":27.81759,"longitude":-82.6774,"address":"6151 34th St N, St Petersburg FL","chain_name":null,"distance":0,"street_number":"3301","street_name":"50th Avenue North","zip":"33714","city":null,"area":"Heritage Oaks","county":"Pinellas County","state":"Florida","country":"us","formatted_address":"3301, 50th Avenue North, Heritage Oaks, Pinellas Park, Lealman, Pinellas County, Florida, 33714, United States of America","place_id":"182908324","datatype":"locationiq"},{"name":"Red Lobster Restaurants","code":null,"latitude":36.12577,"longitude":-94.1453,"address":"3885 North Shiloh Drive, Fayetteville AR","chain_name":null,"distance":0,"street_number":"4143","street_name":"North Shiloh Drive","zip":"72703","city":"Fayetteville","area":null,"county":"Washington County","state":"Arkansas","country":"us","formatted_address":"4143, North Shiloh Drive, Fayetteville, Washington County, Arkansas, 72703, United States of America","place_id":"172676031","datatype":"locationiq"},{"name":"Red Lobster Restaurants","code":null,"latitude":38.00151,"longitude":-84.5201,"address":"2528 Nicholasville Rd, Lexington KY","chain_name":null,"distance":0,"street_number":"2468","street_name":"Nicholasville Road","zip":"40503","city":null,"area":"Deerfield","county":"Fayette County","state":"Kentucky","country":"us","formatted_address":"2468, Nicholasville Road, Deerfield, Brookhaven, Fayette County, Kentucky, 40503, United States of America","place_id":"157416792","datatype":"locationiq"},{"name":"Red Lobster Restaurants","code":null,"latitude":39.39283,"longitude":-75.045,"address":"Millville NJ","chain_name":null,"distance":0,"street_number":"299","street_name":"Cedar Street","zip":"08332","city":"Millville","area":null,"county":"Cumberland County","state":"New Jersey","country":"us","formatted_address":"299, Cedar Street, Millville, Cumberland County, New Jersey, 08332, United States of America","place_id":"195401467","datatype":"locationiq"},{"name":"Red Lobster Restaurants","code":null,"latitude":28.11808,"longitude":-82.3809,"address":"17021 Palm Pointe Drive, Tampa FL","chain_name":null,"distance":0,"street_number":"17050","street_name":"Palm Pointe Drive","zip":"33647","city":"Tampa","area":null,"county":"Hillsborough County","state":"Florida","country":"us","formatted_address":"Stonewood Grill & Tavern, 17050, Palm Pointe Drive, Tampa, Hillsborough County, Florida, 33647, United States of America","place_id":"123175654","datatype":"locationiq"},{"name":"Red Lobster Restaurants","code":null,"latitude":26.62605,"longitude":-81.8733,"address":"3801 Cleveland Ave, Fort Myers FL","chain_name":null,"distance":0,"street_number":null,"street_name":"Congress Street","zip":"33901","city":"Fort Myers","area":null,"county":"Lee County","state":"Florida","country":"us","formatted_address":"Congress Street, Edison Park Historic District, Fort Myers, Lee County, Florida, 33901, United States of America","place_id":"109328385","datatype":"locationiq"},{"name":"Red Lobster Restaurants","code":null,"latitude":39.95196,"longitude":-74.995,"address":"2100 State Highway No 38, Cher Hl NJ","chain_name":null,"distance":0,"street_number":"257","street_name":"Spruce Avenue","zip":"08052","city":"Maple Shade Township","area":null,"county":"Burlington County","state":"New Jersey","country":"us","formatted_address":"257, Spruce Avenue, Maple Shade Township, Burlington County, New Jersey, 08052, United States of America","place_id":"195313008","datatype":"locationiq"},{"name":"Red Lobster Restaurants","code":null,"latitude":39.90517,"longitude":-86.0579,"address":"6410 East 82nd Street, Indianapolis IN","chain_name":null,"distance":0,"street_number":null,"street_name":"Center Run Drive","zip":"46250","city":null,"area":null,"county":"Marion County","state":"Indiana","country":"us","formatted_address":"Arby's, Center Run Drive, Castleton, Marion County, Indiana, 46250, United States of America","place_id":"112412373","datatype":"locationiq"},{"name":"Red Lobster Restaurants","code":null,"latitude":32.54362,"longitude":-82.9605,"address":"2105 Veterans Blvd, Dublin GA","chain_name":null,"distance":0,"street_number":null,"street_name":"Veterans Boulevard","zip":"31021","city":null,"area":null,"county":"Laurens County","state":"Georgia","country":"us","formatted_address":"Veterans Boulevard, Dublin, Laurens County, Georgia, 31021, United States of America","place_id":"112089292","datatype":"locationiq"},{"name":"Red Lobster Restaurants","code":null,"latitude":41.92719,"longitude":-83.357,"address":"1553 N Dixie Hwy, Monroe MI","chain_name":null,"distance":0,"street_number":"1476","street_name":"North Dixie Highway","zip":"48162","city":null,"area":null,"county":"Monroe County","state":"Michigan","country":"us","formatted_address":"1476, North Dixie Highway, Golfcrest, Frenchtown Township, Monroe County, Michigan, 48162, United States of America","place_id":"191263984","datatype":"locationiq"},{"name":"Red Lobster Restaurants","code":null,"latitude":39.24653,"longitude":-94.5857,"address":"450 NW Barry Rd, Kansas City MO","chain_name":null,"distance":0,"street_number":"450","street_name":"Northwest Barry Road","zip":"64155","city":"Kansas City","area":null,"county":"Clay County","state":"Missouri","country":"us","formatted_address":"Red Lobster, 450, Northwest Barry Road, Kansas City, Clay County, Missouri, 64155, United States of America","place_id":"97840343","datatype":"locationiq"},{"name":"Red Lobster Restaurants","code":null,"latitude":35.04964,"longitude":-89.856,"address":"6222 Winchester Rd, Memphis TN","chain_name":null,"distance":0,"street_number":"6219","street_name":"Winchester Road","zip":"38115","city":"Memphis","area":null,"county":"Shelby County","state":"Tennessee","country":"us","formatted_address":"6219, Winchester Road, Memphis, Shelby County, Tennessee, 38115, United States of America","place_id":"204098296","datatype":"locationiq"},{"name":"Red Lobster Restaurants","code":null,"latitude":28.86481,"longitude":-96.9961,"address":"7404 NE Zac Lentz Pkwy, Victoria TX","chain_name":null,"distance":0,"street_number":"7404","street_name":"Zac Lentz Parkway","zip":"77904","city":"Victoria","area":null,"county":"Victoria County","state":"Texas","country":"us","formatted_address":"Red Lobster, 7404, Zac Lentz Parkway, Victoria, Victoria County, Texas, 77904, United States of America","place_id":"109281926","datatype":"locationiq"},{"name":"Red Lobster Restaurants","code":null,"latitude":41.69766,"longitude":-83.6401,"address":"4990 Monroe St, Toledo OH","chain_name":null,"distance":0,"street_number":"4974","street_name":"Monroe Street","zip":"43623","city":"Toledo","area":"Franklin Park","county":"Lucas County","state":"Ohio","country":"us","formatted_address":"4974, Monroe Street, Franklin Park, Toledo, Lucas County, Ohio, 43623, United States of America","place_id":"199511136","datatype":"locationiq"},{"name":"Red Lobster Restaurants","code":null,"latitude":30.47593,"longitude":-84.2966,"address":"2583 North Monroe Street, Tallahassee FL","chain_name":null,"distance":0,"street_number":null,"street_name":"North Monroe Street","zip":"32303","city":"Tallahassee","area":null,"county":"Leon County","state":"Florida","country":"us","formatted_address":"Red Lobster, North Monroe Street, Tallahassee, Leon County, Florida, 32303, United States of America","place_id":"155227583","datatype":"locationiq"},{"name":"Red Lobster Restaurants","code":null,"latitude":33.40073,"longitude":-84.7434,"address":"990 Highway 34 E, Newnan GA","chain_name":null,"distance":0,"street_number":null,"street_name":"I 85","zip":"30277","city":null,"area":null,"county":"Coweta County","state":"Georgia","country":"us","formatted_address":"Academy Sports & Outdoors, I 85, Newnan, Coweta County, Georgia, 30277, United States of America","place_id":"52638629","datatype":"locationiq"},{"name":"Red Lobster Restaurants","code":null,"latitude":47.31533,"longitude":-122.3082,"address":"2006 S 320th St, Federal Way WA","chain_name":null,"distance":0,"street_number":"2002","street_name":"South 320th Street","zip":"98003","city":"Federal Way","area":null,"county":"King County","state":"Washington","country":"us","formatted_address":"Taco Time, 2002, South 320th Street, Federal Way, King County, Washington, 98003, United States of America","place_id":"79386795","datatype":"locationiq"},{"name":"Red Lobster Restaurants","code":null,"latitude":42.84545,"longitude":-106.2681,"address":"531 Southeast Wyoming Boulevard, Casper WY","chain_name":null,"distance":0,"street_number":"579","street_name":"Southeast Wyoming Boulevard","zip":"82601","city":"Casper","area":null,"county":"Natrona County","state":"Wyoming","country":"us","formatted_address":"579, Southeast Wyoming Boulevard, Casper, Natrona County, Wyoming, 82601, United States of America","place_id":"209885035","datatype":"locationiq"},{"name":"Red Lobster Restaurants","code":null,"latitude":32.67738,"longitude":-97.3952,"address":"4805 South Hulen Street, Fort Worth TX","chain_name":null,"distance":0,"street_number":"4801","street_name":"South Hulen Street","zip":"76133","city":"Fort Worth","area":null,"county":"Tarrant County","state":"Texas","country":"us","formatted_address":"4801, South Hulen Street, Fort Worth, Tarrant County, Texas, 76133, United States of America","place_id":"79627094","datatype":"locationiq"},{"name":"Red Lobster Restaurants","code":null,"latitude":33.04177,"longitude":-96.7028,"address":"3501 North Central Expressway, Plano TX","chain_name":null,"distance":0,"street_number":"3413","street_name":"Central Expressway","zip":"75023","city":"Plano","area":null,"county":"Collin County","state":"Texas","country":"us","formatted_address":"3413, Central Expressway, Plano, Collin County, Texas, 75023, United States of America","place_id":"204703773","datatype":"locationiq"},{"name":"Red Lobster Restaurants","code":null,"latitude":41.39835,"longitude":-82.1147,"address":"6935 Midway Mall, Elyria OH","chain_name":null,"distance":0,"street_number":"6450","street_name":"Midway Boulevard","zip":"44035","city":"Elyria","area":null,"county":"Lorain County","state":"Ohio","country":"us","formatted_address":"6450, Midway Boulevard, Elyria, Lorain County, Ohio, 44035, United States of America","place_id":"199485996","datatype":"locationiq"},{"name":"Red Lobster Restaurants","code":null,"latitude":41.58193,"longitude":-83.6646,"address":"1422 Reynolds Rd, Maumee OH","chain_name":null,"distance":0,"street_number":null,"street_name":"Reynolds Road","zip":"43537; 43615; 43537","city":"Maumee","area":null,"county":"Lucas County","state":"Ohio","country":"us","formatted_address":"Reynolds Road, Maumee, Lucas County, Ohio, 43537; 43615; 43537, United States of America","place_id":"110872726","datatype":"locationiq"},{"name":"Red Lobster Restaurants","code":null,"latitude":42.26484,"longitude":-85.1984,"address":"2565 Capital Avenue Southwest, Battle Creek MI","chain_name":null,"distance":0,"street_number":null,"street_name":"Capital Avenue Southwest","zip":"49015","city":"Battle Creek","area":null,"county":"Calhoun County","state":"Michigan","country":"us","formatted_address":"Red Lobster, Capital Avenue Southwest, Battle Creek, Calhoun County, Michigan, 49015, United States of America","place_id":"130465036","datatype":"locationiq"},{"name":"Red Lobster Restaurants","code":null,"latitude":35.1308,"longitude":-85.2615,"address":"8 Northgate Park, Chattanooga TN","chain_name":null,"distance":0,"street_number":"4706","street_name":"Eldridge Road","zip":"37343","city":"Chattanooga","area":null,"county":"Hamilton County","state":"Tennessee","country":"us","formatted_address":"4706, Eldridge Road, Chattanooga, Hamilton County, Tennessee, 37343, United States of America","place_id":"151780665","datatype":"locationiq"},{"name":"Red Lobster Restaurants","code":null,"latitude":35.39136,"longitude":-97.5316,"address":"1000 W. I-240, Oklahoma City OK","chain_name":null,"distance":0,"street_number":"952","street_name":"I 240;US 62;OK 3","zip":"73139","city":"Oklahoma City","area":null,"county":"Oklahoma County","state":"Oklahoma","country":"us","formatted_address":"952, I 240;US 62;OK 3, Oklahoma City, Oklahoma County, Oklahoma, 73139, United States of America","place_id":"200447348","datatype":"locationiq"},{"name":"Red Lobster Restaurants","code":null,"latitude":32.91294,"longitude":-117.1435,"address":"Mira Mesa Boulevard Camin, San Diego CA","chain_name":null,"distance":0,"street_number":"10707","street_name":"Camino Ruiz","zip":"92126","city":"San Diego","area":null,"county":"San Diego County","state":"California","country":"us","formatted_address":"10707, Camino Ruiz, Mira Mesa, San Diego, San Diego County, California, 92126, United States of America","place_id":"6246067","datatype":"locationiq"},{"name":"Red Lobster Restaurants","code":null,"latitude":38.5838,"longitude":-92.2514,"address":"3521 Country Club Drive, Jefferson City MO","chain_name":null,"distance":0,"street_number":"4143","street_name":"Country Club Drive","zip":"65109","city":"Jefferson City","area":null,"county":"Cole County","state":"Missouri","country":"us","formatted_address":"4143, Country Club Drive, Jefferson City, Cole County, Missouri, 65109, United States of America","place_id":"193430284","datatype":"locationiq"},{"name":"Red Lobster Restaurants","code":null,"latitude":41.2294,"longitude":-95.8499,"address":"3040 Dial Drive, Council Bluffs IA","chain_name":null,"distance":0,"street_number":"3134","street_name":"Dial Drive","zip":"51501","city":"Council Bluffs","area":null,"county":"Pottawattamie County","state":"Iowa","country":"us","formatted_address":"Fazoli's, 3134, Dial Drive, Lake Manawa Power Centre, Council Bluffs, Pottawattamie County, Iowa, 51501, United States of America","place_id":"114261091","datatype":"locationiq"},{"name":"Red Lobster Restaurants","code":null,"latitude":40.9316,"longitude":-98.38272,"address":"3430 W 13th St, Grand Island NE","chain_name":null,"distance":0,"street_number":null,"street_name":"West 13th Street","zip":"68803","city":"Grand Island","area":null,"county":"Hall County","state":"Nebraska","country":"us","formatted_address":"Red Lobster, West 13th Street, Grand Island, Hall County, Nebraska, 68803, United States of America","place_id":"26891224","datatype":"locationiq"},{"name":"Red Lobster Restaurants","code":null,"latitude":44.50639,"longitude":-88.0727,"address":"1251 Lombardi Access Rd, Green Bay WI","chain_name":null,"distance":0,"street_number":null,"street_name":"Lombardi Access Road","zip":"54304","city":null,"area":null,"county":"Brown County","state":"Wisconsin","country":"us","formatted_address":"Margarita's, Lombardi Access Road, Ashwaubenon, Brown County, Wisconsin, 54304, United States of America","place_id":"60300449","datatype":"locationiq"},{"name":"Red Lobster Restaurants","code":null,"latitude":39.69329,"longitude":-86.1455,"address":"690 East Thompson Road, Indianapolis IN","chain_name":null,"distance":0,"street_number":"699","street_name":"East Thompson Road","zip":"46227","city":null,"area":null,"county":"Marion County","state":"Indiana","country":"us","formatted_address":"699, East Thompson Road, Rosedale Hills, Marion County, Indiana, 46227, United States of America","place_id":"186550789","datatype":"locationiq"},{"name":"Red Lobster Restaurants","code":null,"latitude":31.87894,"longitude":-102.3314,"address":"4536 East University Boulevard, Odessa TX","chain_name":null,"distance":0,"street_number":null,"street_name":"East University Boulevard","zip":"79762","city":"Odessa","area":"Fellowship Addition","county":"Ector County","state":"Texas","country":"us","formatted_address":"7-Eleven, East University Boulevard, Fellowship Addition, Odessa, Ector County, Texas, 79762, United States of America","place_id":"159714528","datatype":"locationiq"},{"name":"Red Lobster Restaurants","code":null,"latitude":41.6972,"longitude":-86.1823,"address":"3930 North Main Street, Mishawaka IN","chain_name":null,"distance":0,"street_number":"4038","street_name":"North Main Street","zip":"46545","city":"Mishawaka","area":null,"county":"Saint Joseph County","state":"Indiana","country":"us","formatted_address":"4038, North Main Street, Mishawaka, Saint Joseph County, Indiana, 46545, United States of America","place_id":"186766630","datatype":"locationiq"},{"name":"Red Lobster Restaurants","code":null,"latitude":40.68887,"longitude":-73.4093,"address":"801 Sunrise Hwy, Copiague NY","chain_name":null,"distance":0,"street_number":"147","street_name":"Sunrise Highway","zip":"11701","city":null,"area":null,"county":"Nassau","state":"New York","country":"us","formatted_address":"147, Sunrise Highway, East Massapequa, Nassau, New York, 11701, United States of America","place_id":"169395811","datatype":"locationiq"},{"name":"Red Lobster Restaurants","code":null,"latitude":28.03246,"longitude":-82.4301,"address":"2625 E Busch Blvd, Tampa FL","chain_name":null,"distance":0,"street_number":null,"street_name":"East Busch Boulevard","zip":"33617","city":"Tampa","area":null,"county":"Hillsborough County","state":"Florida","country":"us","formatted_address":"Busch Blvd @ 26th St, East Busch Boulevard, Tampa, Hillsborough County, Florida, 33617, United States of America","place_id":"8638322","datatype":"locationiq"},{"name":"Red Lobster Restaurants","code":null,"latitude":38.65241,"longitude":-77.2881,"address":"2544 Prince William Parkway, Woodbridge VA","chain_name":null,"distance":0,"street_number":"2544","street_name":"Prince William Parkway","zip":"22192","city":null,"area":null,"county":"Prince William County","state":"Virginia","country":"us","formatted_address":"Red Lobster, 2544, Prince William Parkway, Dale City, Prince William County, Virginia, 22192, United States of America","place_id":"89074043","datatype":"locationiq"},{"name":"Red Lobster Restaurants","code":null,"latitude":39.84155,"longitude":-84.1914,"address":"6500 Miller Lane, Dayton OH","chain_name":null,"distance":0,"street_number":"3444","street_name":"Benchwood Road","zip":"45414","city":"Vandalia","area":null,"county":"Montgomery County","state":"Ohio","country":"us","formatted_address":"3444, Benchwood Road, Vandalia, Montgomery County, Ohio, 45414, United States of America","place_id":"199671148","datatype":"locationiq"},{"name":"Red Lobster Restaurants","code":null,"latitude":40.55312,"longitude":-74.432,"address":"7000 Hadley Road, South Plainfield NJ","chain_name":null,"distance":0,"street_number":null,"street_name":"Stelton Road","zip":"08854","city":"South Plainfield","area":null,"county":"Middlesex County","state":"New Jersey","country":"us","formatted_address":"Wells Fargo, Stelton Road, South Plainfield, Middlesex County, New Jersey, 08854, United States of America","place_id":"148355812","datatype":"locationiq"},{"name":"Red Lobster Restaurants","code":null,"latitude":29.77894,"longitude":-95.8259,"address":"25408 Bell Patna Drive, Katy TX","chain_name":null,"distance":0,"street_number":"5833","street_name":"Stockdick Road","zip":"77494","city":"Katy","area":null,"county":"Fort Bend County","state":"Texas","country":"us","formatted_address":"5833, Stockdick Road, Katy, Fort Bend County, Texas, 77494, United States of America","place_id":"205154766","datatype":"locationiq"},{"name":"Red Lobster Restaurants","code":null,"latitude":33.43902,"longitude":-86.7891,"address":"1030 Montgomery Hwy, Vestavia Hills AL","chain_name":null,"distance":0,"street_number":null,"street_name":"Old Montgomery Highway","zip":"35216","city":"Vestavia Hills","area":"Vesthaven Estates","county":"Jefferson County","state":"Alabama","country":"us","formatted_address":"SE Corner of Old Montgomery Hwy & US 31, Old Montgomery Highway, Vesthaven Estates, Vestavia Hills, Jefferson County, Alabama, 35216, United States of America","place_id":"26863458","datatype":"locationiq"},{"name":"Red Lobster Restaurants","code":null,"latitude":42.95957,"longitude":-88.0085,"address":"4645 S 76th St, Greenfield WI","chain_name":null,"distance":0,"street_number":"4689","street_name":"South 76th Street","zip":"53220","city":"Greenfield","area":null,"county":"Milwaukee County","state":"Wisconsin","country":"us","formatted_address":"4689, South 76th Street, Greenfield, Milwaukee County, Wisconsin, 53220, United States of America","place_id":"209546687","datatype":"locationiq"},{"name":"Red Lobster Restaurants","code":null,"latitude":38.75161,"longitude":-90.4268,"address":"12235 Saint Charles Rock Rd, Bridgeton MO","chain_name":null,"distance":0,"street_number":"12255","street_name":"Saint Charles Rock Road","zip":"63044","city":"Bridgeton","area":null,"county":"St. Louis County","state":"Missouri","country":"us","formatted_address":"12255, Saint Charles Rock Road, Bridgeton, St. Louis County, Missouri, 63044, United States of America","place_id":"194056095","datatype":"locationiq"},{"name":"Red Lobster Restaurants","code":null,"latitude":41.61316,"longitude":-80.2654,"address":"16736 Conneaut Lake Rd, Meadville PA","chain_name":null,"distance":0,"street_number":"13412","street_name":"Conneaut Lake Road","zip":"16316","city":"Vernon Township","area":null,"county":"Crawford County","state":"Pennsylvania","country":"us","formatted_address":"13412, Conneaut Lake Road, Vernon Township, Crawford County, Pennsylvania, 16316, United States of America","place_id":"201614926","datatype":"locationiq"},{"name":"Red Lobster Restaurants","code":null,"latitude":39.63177,"longitude":-84.2255,"address":"8200 Springboro Pike, Miamisburg OH","chain_name":null,"distance":0,"street_number":"8154","street_name":"Springboro Pike","zip":"45342","city":null,"area":null,"county":"Montgomery County","state":"Ohio","country":"us","formatted_address":"8154, Springboro Pike, Shanersville, Montgomery County, Ohio, 45342, United States of America","place_id":"199670160","datatype":"locationiq"},{"name":"Red Lobster Restaurants","code":null,"latitude":28.30448,"longitude":-81.4432,"address":"4010 West Vine Street, Kissimmee FL","chain_name":null,"distance":0,"street_number":null,"street_name":"West Vine Street","zip":"34741","city":"Kissimmee","area":null,"county":"Osceola County","state":"Florida","country":"us","formatted_address":"Red Lobster, West Vine Street, Kissimmee, Osceola County, Florida, 34741, United States of America","place_id":"28332140","datatype":"locationiq"},{"name":"Red Lobster Restaurants","code":null,"latitude":35.70791,"longitude":-81.3088,"address":"1846 US Highway 70 Southeast, Hickory NC","chain_name":null,"distance":0,"street_number":null,"street_name":"Conover Boulevard West","zip":"28658","city":"Hickory","area":"Fairbrook","county":"Catawba County","state":"North Carolina","country":"us","formatted_address":"Wendy's, Conover Boulevard West, Fairbrook, Hickory, Catawba County, North Carolina, 28658, United States of America","place_id":"26402207","datatype":"locationiq"},{"name":"Red Lobster Restaurants","code":null,"latitude":41.76227,"longitude":-88.2613,"address":"1036 N Route 59, Aurora IL","chain_name":null,"distance":0,"street_number":"556","street_name":"Declaration Lane","zip":"60502","city":"Aurora","area":null,"county":"DuPage County","state":"Illinois","country":"us","formatted_address":"556, Declaration Lane, Aurora, DuPage County, Illinois, 60502, United States of America","place_id":"185093287","datatype":"locationiq"},{"name":"Red Lobster Restaurants","code":null,"latitude":31.51656,"longitude":-97.1845,"address":"5925 W Waco Dr, Waco TX","chain_name":null,"distance":0,"street_number":"5837","street_name":"West Waco Drive","zip":"76710","city":"Waco","area":null,"county":"McLennan County","state":"Texas","country":"us","formatted_address":"5837, West Waco Drive, Waco, McLennan County, Texas, 76710, United States of America","place_id":"205905297","datatype":"locationiq"},{"name":"Red Lobster Restaurants","code":null,"latitude":40.33899,"longitude":-79.955,"address":"259 Clairton Boulevard, Pittsburgh PA","chain_name":null,"distance":0,"street_number":null,"street_name":"Clairton Boulevard","zip":"15025","city":"Pleasant Hills","area":null,"county":"Allegheny County","state":"Pennsylvania","country":"us","formatted_address":"R-A-C Appearance, Clairton Boulevard, Pleasant Hills, Allegheny County, Pennsylvania, 15025, United States of America","place_id":"61231944","datatype":"locationiq"},{"name":"Red Lobster Restaurants","code":null,"latitude":39.35092,"longitude":-87.4148,"address":"3407 South U S Highway 41, Terre Haute IN","chain_name":null,"distance":0,"street_number":null,"street_name":"East Harlan Drive","zip":"47802","city":null,"area":null,"county":"Vigo County","state":"Indiana","country":"us","formatted_address":"East Harlan Drive, Youngstown, Vigo County, Indiana, 47802, United States of America","place_id":"69875953","datatype":"locationiq"},{"name":"Red Lobster Restaurants","code":null,"latitude":32.56906,"longitude":-97.3194,"address":"1175 North Burleson Boulevard, Burleson TX","chain_name":null,"distance":0,"street_number":null,"street_name":"South Freeway Service Road West","zip":"76028","city":"Burleson","area":null,"county":"Tarrant County","state":"Texas","country":"us","formatted_address":"Red Lobster, South Freeway Service Road West, Burleson, Tarrant County, Texas, 76028, United States of America","place_id":"32142749","datatype":"locationiq"},{"name":"Red Lobster Restaurants","code":null,"latitude":42.48405,"longitude":-83.0063,"address":"25901 Hoover Rd, Warren MI","chain_name":null,"distance":0,"street_number":"25907","street_name":"Hoover Road","zip":"48089","city":"Warren","area":null,"county":"Macomb County","state":"Michigan","country":"us","formatted_address":"25907, Hoover Road, Warren, Macomb County, Michigan, 48089, United States of America","place_id":"191141145","datatype":"locationiq"},{"name":"Red Lobster Restaurants","code":null,"latitude":37.4324,"longitude":-121.8988,"address":"503 East Calaveras Boulevard, Milpitas CA","chain_name":null,"distance":0,"street_number":null,"street_name":"East Calaveras Boulevard","zip":"95035","city":"Milpitas","area":null,"county":"Santa Clara County","state":"California","country":"us","formatted_address":"Milpitas City Hall, East Calaveras Boulevard, Milpitas, Santa Clara County, California, 95035, United States of America","place_id":"105286847","datatype":"locationiq"},{"name":"Red Lobster Restaurants","code":null,"latitude":41.54402,"longitude":-87.5088,"address":"9311 Calumet Ave, Munster IN","chain_name":null,"distance":0,"street_number":"9363","street_name":"Calumet Avenue","zip":"46321","city":null,"area":"West Lakes","county":"Lake County","state":"Indiana","country":"us","formatted_address":"9363, Calumet Avenue, West Lakes, Munster, Lake County, Indiana, 46321, United States of America","place_id":"186445213","datatype":"locationiq"},{"name":"Red Lobster Restaurants","code":null,"latitude":38.60103,"longitude":-89.9903,"address":"110 Ludwig Drive, Fairview Heights IL","chain_name":null,"distance":0,"street_number":"51","street_name":"Ludwig Drive","zip":"62208","city":"Fairview Heights","area":null,"county":"Saint Clair County","state":"Illinois","country":"us","formatted_address":"Joe's Crab Shack, 51, Ludwig Drive, Fairview Heights, Saint Clair County, Illinois, 62208, United States of America","place_id":"157645906","datatype":"locationiq"},{"name":"Red Lobster Restaurants","code":null,"latitude":35.19513,"longitude":-102.1133,"address":"3311 West Interstate 40, Amarillo TX","chain_name":null,"distance":0,"street_number":null,"street_name":"Interstate Highway 40 Access Road","zip":"79159","city":null,"area":null,"county":"Potter County","state":"Texas","country":"us","formatted_address":"Interstate Highway 40 Access Road, Bushland, Potter County, Texas, 79159, United States of America","place_id":"72024000","datatype":"locationiq"},{"name":"Red Lobster Restaurants","code":null,"latitude":36.86281,"longitude":-76.1322,"address":"709 Independence Blvd, Virginia Beach VA","chain_name":null,"distance":0,"street_number":"701","street_name":"Independence Boulevard","zip":"23455","city":"Virginia Beach","area":null,"county":null,"state":"Virginia","country":"us","formatted_address":"701, Independence Boulevard, Haygood  Shopping Center, Bayside, Pembroke Manor, Virginia Beach, Virginia, 23455, United States of America","place_id":"158612587","datatype":"locationiq"},{"name":"Red Lobster Restaurants","code":null,"latitude":25.86646,"longitude":-80.3185,"address":"1750 W 49th St, Hialeah FL","chain_name":null,"distance":0,"street_number":null,"street_name":"West 49th Street","zip":"FL 33012","city":null,"area":null,"county":"Miami-Dade County","state":"Florida","country":"us","formatted_address":"W 49 ST@W 17 CT (WESTLAND), West 49th Street, Hialeah, Miami-Dade County, Florida, FL 33012, United States of America","place_id":"12446541","datatype":"locationiq"},{"name":"Red Lobster Restaurants","code":null,"latitude":42.06395,"longitude":-80.0985,"address":"2040 Edinboro Rd, Erie PA","chain_name":null,"distance":0,"street_number":"2052","street_name":"Edinboro Road","zip":"16509","city":"Millcreek Township","area":null,"county":"Erie County","state":"Pennsylvania","country":"us","formatted_address":"Moe's Southwest Grill, 2052, Edinboro Road, Millcreek Township, Erie County, Pennsylvania, 16509, United States of America","place_id":"21373059","datatype":"locationiq"},{"name":"Red Lobster Restaurants","code":null,"latitude":32.52862,"longitude":-93.7035,"address":"2968 E Texas St, Bossier City LA","chain_name":null,"distance":0,"street_number":"2984","street_name":"East Texas Street","zip":"71111","city":"Bossier City","area":null,"county":"Bossier Parish","state":"Louisiana","country":"us","formatted_address":"2984, East Texas Street, Bossier City, Bossier Parish, Louisiana, 71111, United States of America","place_id":"188888663","datatype":"locationiq"},{"name":"Red Lobster Restaurants","code":null,"latitude":32.79262,"longitude":-80.0301,"address":"2080 Sam Rittenberg Blvd, Charleston SC","chain_name":null,"distance":0,"street_number":"2047","street_name":"Sam Rittenberg Boulevard","zip":"29407","city":"Charleston","area":null,"county":"Charleston County","state":"South Carolina","country":"us","formatted_address":"2047, Sam Rittenberg Boulevard, Charleston, Charleston County, South Carolina, 29407, United States of America","place_id":"202743587","datatype":"locationiq"},{"name":"Red Lobster Restaurants","code":null,"latitude":33.5088,"longitude":-81.7136,"address":"950 Aiken Mall Dr, Aiken SC","chain_name":null,"distance":0,"street_number":null,"street_name":"Aiken Mall Drive","zip":"29803","city":"Aiken","area":null,"county":"Aiken County","state":"South Carolina","country":"us","formatted_address":"Aiken Mall Drive, Aiken, Aiken County, South Carolina, 29803, United States of America","place_id":"65980956","datatype":"locationiq"},{"name":"Red Lobster Restaurants","code":null,"latitude":40.74083,"longitude":-73.6287,"address":"211 Old Country Road, Garden City NY","chain_name":null,"distance":0,"street_number":null,"street_name":"Old Country Road","zip":"11801","city":null,"area":null,"county":"Nassau","state":"New York","country":"us","formatted_address":"Old Country Road, Mineola, Nassau, New York, 11801, United States of America","place_id":"160789561","datatype":"locationiq"},{"name":"Red Lobster Restaurants","code":null,"latitude":29.16215,"longitude":-80.9751,"address":"3162 South Atlantic Avenue, Daytona Beach FL","chain_name":null,"distance":0,"street_number":"3158","street_name":"South Atlantic Avenue","zip":"32118","city":null,"area":null,"county":"Volusia County","state":"Florida","country":"us","formatted_address":"3158, South Atlantic Avenue, Daytona Beach Shores, Volusia County, Florida, 32118, United States of America","place_id":"183276003","datatype":"locationiq"},{"name":"Red Lobster Restaurants","code":null,"latitude":37.73372,"longitude":-84.2736,"address":"828 Eastern By-Pass, Richmond KY","chain_name":null,"distance":0,"street_number":"842","street_name":"Eastern Bypass","zip":"40475","city":"Richmond","area":null,"county":"Madison County","state":"Kentucky","country":"us","formatted_address":"842, Eastern Bypass, Richmond, Madison County, Kentucky, 40475, United States of America","place_id":"188666215","datatype":"locationiq"},{"name":"Red Lobster Restaurants","code":null,"latitude":33.88917,"longitude":-84.4747,"address":"2579 Cobb Pkwy SE, Smyrna GA","chain_name":null,"distance":0,"street_number":null,"street_name":"Cobb Parkway South","zip":"30080","city":"Smyrna","area":null,"county":"Cobb County","state":"Georgia","country":"us","formatted_address":"2629 Cobb Parkway South, Cobb Parkway South, Smyrna, Cobb County, Georgia, 30080, United States of America","place_id":"159800204","datatype":"locationiq"},{"name":"Red Lobster Restaurants","code":null,"latitude":34.06445,"longitude":-83.9896,"address":"3230 Buford Drive, Buford GA","chain_name":null,"distance":0,"street_number":"3327","street_name":"Buford Drive","zip":"30519","city":"Buford","area":null,"county":"Gwinnett County","state":"Georgia","country":"us","formatted_address":"3327, Buford Drive, Mall of Georgia, Buford, Gwinnett County, Georgia, 30519, United States of America","place_id":"183865333","datatype":"locationiq"},{"name":"Red Lobster Restaurants","code":null,"latitude":33.90423,"longitude":-117.4712,"address":"3700 Park Sierra Drive, Riverside CA","chain_name":null,"distance":0,"street_number":null,"street_name":"Park Sierra Drive","zip":"92503","city":"Riverside","area":null,"county":"Riverside County","state":"California","country":"us","formatted_address":"Red Lobster, Park Sierra Drive, Riverside, Riverside County, California, 92503, United States of America","place_id":"17132139","datatype":"locationiq"},{"name":"Red Lobster Restaurants","code":null,"latitude":34.60179,"longitude":-87.0312,"address":"2027 Beltline Rd SW, Decatur AL","chain_name":null,"distance":0,"street_number":null,"street_name":"Beltline Road","zip":"35601","city":"Decatur","area":null,"county":"Morgan County","state":"Alabama","country":"us","formatted_address":"Beltline Road, Decatur, Morgan County, Alabama, 35601, United States of America","place_id":"88295279","datatype":"locationiq"},{"name":"Red Lobster Restaurants","code":null,"latitude":30.47381,"longitude":-87.2118,"address":"5110 N 9th Ave, Pensacola FL","chain_name":null,"distance":0,"street_number":"5150","street_name":"North 9th Avenue","zip":"32504","city":"Pensacola","area":null,"county":"Escambia County","state":"Florida","country":"us","formatted_address":"Regions Bank, 5150, North 9th Avenue, Pensacola, Escambia County, Florida, 32504, United States of America","place_id":"148017526","datatype":"locationiq"},{"name":"Red Lobster Restaurants","code":null,"latitude":40.77703,"longitude":-73.5264,"address":"1 Nevada Street, Hicksville NY","chain_name":null,"distance":0,"street_number":"141","street_name":"Bethpage Road","zip":"11801","city":null,"area":null,"county":"Nassau","state":"New York","country":"us","formatted_address":"141, Bethpage Road, Hicksville, Nassau, New York, 11801, United States of America","place_id":"196532340","datatype":"locationiq"},{"name":"Red Lobster Restaurants","code":null,"latitude":43.62372,"longitude":-83.894,"address":"4109 Wilder Rd, Bay City MI","chain_name":null,"distance":0,"street_number":"4084-B","street_name":"State Street Road","zip":"48532","city":null,"area":null,"county":"Bay County","state":"Michigan","country":"us","formatted_address":"A Clean Cigarette, 4084-B, State Street Road, Bangor Township, Bay County, Michigan, 48532, United States of America","place_id":"26019290","datatype":"locationiq"},{"name":"Red Lobster Restaurants","code":null,"latitude":37.42608,"longitude":-77.6769,"address":"13236 Rittenhouse Drive, Midlothian VA","chain_name":null,"distance":0,"street_number":"5449","street_name":"Rock Harbour Road","zip":"23112","city":null,"area":"Woodlake","county":"Chesterfield County","state":"Virginia","country":"us","formatted_address":"5449, Rock Harbour Road, Woodlake, Brandermill, Chesterfield County, Virginia, 23112, United States of America","place_id":"207285820","datatype":"locationiq"},{"name":"Red Lobster Restaurants","code":null,"latitude":32.21195,"longitude":-110.8837,"address":"5870 E Broadway Blvd Ste E-5, Tucson AZ","chain_name":null,"distance":0,"street_number":"801","street_name":"South Janet Avenue","zip":"85711","city":"Tucson","area":null,"county":"Pima County","state":"Arizona","country":"us","formatted_address":"801, South Janet Avenue, Tucson, Pima County, Arizona, 85711, United States of America","place_id":"177375770","datatype":"locationiq"},{"name":"Red Lobster Restaurants","code":null,"latitude":39.03056,"longitude":-95.7622,"address":"2011 SW Wanamaker Rd, Topeka KS","chain_name":null,"distance":0,"street_number":"2011","street_name":"Southwest Wanamaker Road","zip":"66604","city":"Topeka","area":null,"county":"Shawnee County","state":"Kansas","country":"us","formatted_address":"Red Lobster - Topeka, KS, 2011, Southwest Wanamaker Road, Topeka, Shawnee County, Kansas, 66604, United States of America","place_id":"95847688","datatype":"locationiq"},{"name":"Red Lobster Restaurants","code":null,"latitude":27.79689,"longitude":-82.7285,"address":"2773 66th Street North, Saint Petersburg FL","chain_name":null,"distance":0,"street_number":null,"street_name":"66th Street North","zip":"33764","city":"Saint Petersburg","area":"Holiday Park","county":"Pinellas County","state":"Florida","country":"us","formatted_address":"66TH ST N & # 2701, 66th Street North, Holiday Park, Saint Petersburg, Pinellas County, Florida, 33764, United States of America","place_id":"9855164","datatype":"locationiq"},{"name":"Red Lobster Restaurants","code":null,"latitude":28.46615,"longitude":-82.6224,"address":"2328 Commercial Way, Spring Hill FL","chain_name":null,"distance":0,"street_number":null,"street_name":"Commercial Way","zip":"34606","city":null,"area":null,"county":"Hernando County","state":"Florida","country":"us","formatted_address":"Commercial Way, Weeki Wachee, Hernando County, Florida, 34606, United States of America","place_id":"87671517","datatype":"locationiq"},{"name":"Red Lobster Restaurants","code":null,"latitude":33.42538,"longitude":-104.523,"address":"2625 North Main Street, Roswell NM","chain_name":null,"distance":0,"street_number":null,"street_name":"North Main Street","zip":"88201","city":"Roswell","area":"Country Club Mobile Home Manor","county":"Chaves County","state":"New Mexico","country":"us","formatted_address":"Peter Piper Pizza, North Main Street, Country Club Mobile Home Manor, Roswell, Chaves County, New Mexico, 88201, United States of America","place_id":"49462236","datatype":"locationiq"},{"name":"Red Lobster Restaurants","code":null,"latitude":40.15098,"longitude":-84.2173,"address":"991 East Ash Street, Piqua OH","chain_name":null,"distance":0,"street_number":"1072","street_name":"East Ash Street","zip":"45356","city":"Piqua","area":null,"county":"Miami County","state":"Ohio","country":"us","formatted_address":"1072, East Ash Street, Piqua, Miami County, Ohio, 45356, United States of America","place_id":"199604548","datatype":"locationiq"},{"name":"Red Lobster Restaurants","code":null,"latitude":36.34081,"longitude":-82.3751,"address":"1909 N Roan St, Johnson City TN","chain_name":null,"distance":0,"street_number":"2101","street_name":"North Roan Street","zip":"37604","city":"Johnson City","area":null,"county":"Washington County","state":"Tennessee","country":"us","formatted_address":"McDonalds, 2101, North Roan Street, Johnson City, Washington County, Tennessee, 37604, United States of America","place_id":"165747871","datatype":"locationiq"},{"name":"Red Lobster Restaurants","code":null,"latitude":40.46502,"longitude":-86.108,"address":"1900 South U S 31 By-Pass, Kokomo IN","chain_name":null,"distance":0,"street_number":"1830","street_name":"South Reed Road","zip":"46902","city":"Kokomo","area":null,"county":"Howard County","state":"Indiana","country":"us","formatted_address":"1830, South Reed Road, Kokomo, Howard County, Indiana, 46902, United States of America","place_id":"131215423","datatype":"locationiq"},{"name":"Red Lobster Restaurants","code":null,"latitude":31.81674,"longitude":-106.5465,"address":"800 Sunland Park Dr, El Paso TX","chain_name":null,"distance":0,"street_number":null,"street_name":"Sunland Park Drive","zip":"79922","city":"El Paso City","area":null,"county":"El Paso County","state":"Texas","country":"us","formatted_address":"P.F. Changs, Sunland Park Drive, El Paso City, El Paso County, Texas, 79922, United States of America","place_id":"108663010","datatype":"locationiq"},{"name":"Red Lobster Restaurants","code":null,"latitude":34.5491,"longitude":-82.6734,"address":"3426 Clemson Blvd, Anderson SC","chain_name":null,"distance":0,"street_number":null,"street_name":"Clemson Boulevard","zip":"29621","city":"Anderson","area":null,"county":"Anderson County","state":"South Carolina","country":"us","formatted_address":"Cook Out, Clemson Boulevard, Anderson, Anderson County, South Carolina, 29621, United States of America","place_id":"26517735","datatype":"locationiq"},{"name":"Red Lobster Restaurants","code":null,"latitude":42.25252,"longitude":-83.6805,"address":"2420 Carpenter Rd, Ann Arbor MI","chain_name":null,"distance":0,"street_number":"2425","street_name":"Carpenter Road","zip":"48108","city":null,"area":null,"county":"Washtenaw County","state":"Michigan","country":"us","formatted_address":"2425, Carpenter Road, Pittsfield Charter Township, Washtenaw County, Michigan, 48108, United States of America","place_id":"191627087","datatype":"locationiq"},{"name":"Red Lobster Restaurants","code":null,"latitude":40.13771,"longitude":-88.2579,"address":"1901 N Prospect Ave, Champaign IL","chain_name":null,"distance":0,"street_number":"807","street_name":"West Marketview Drive","zip":"61822","city":"Champaign","area":null,"county":"Champaign County","state":"Illinois","country":"us","formatted_address":"Tires Plus, 807, West Marketview Drive, Champaign, Champaign County, Illinois, 61822, United States of America","place_id":"127095276","datatype":"locationiq"},{"name":"Red Lobster Restaurants","code":null,"latitude":28.55337,"longitude":-81.3397,"address":"3552 E Colonial Drive, Orlando FL","chain_name":null,"distance":0,"street_number":"3567","street_name":"East Colonial Drive","zip":"32803","city":"Orlando","area":"Thornton Park","county":"Orange County","state":"Florida","country":"us","formatted_address":"3567, East Colonial Drive, Thornton Park, Orlando, Orange County, Florida, 32803, United States of America","place_id":"182701599","datatype":"locationiq"},{"name":"Red Lobster Restaurants","code":null,"latitude":41.43089,"longitude":-81.886,"address":"24001 Lorain Rd, North Olmsted OH","chain_name":null,"distance":0,"street_number":"23847","street_name":"Lorain Road","zip":"44070","city":null,"area":null,"county":"Cuyahoga County","state":"Ohio","country":"us","formatted_address":"23847, Lorain Road, North Olmsted, Cuyahoga County, Ohio, 44070, United States of America","place_id":"199010952","datatype":"locationiq"},{"name":"Red Lobster Restaurants","code":null,"latitude":30.38794,"longitude":-89.0019,"address":"2400 Beach Drive, Gulfport MS","chain_name":null,"distance":0,"street_number":"2435","street_name":"East Beach Boulevard","zip":"39507","city":"Gulfport","area":null,"county":"Harrison County","state":"Mississippi","country":"us","formatted_address":"2435, East Beach Boulevard, Gulfport, Harrison County, Mississippi, 39507, United States of America","place_id":"192826185","datatype":"locationiq"},{"name":"Red Lobster Restaurants","code":null,"latitude":32.43525,"longitude":-99.7875,"address":"1280 South Clack Street, Abilene TX","chain_name":null,"distance":0,"street_number":"1184","street_name":"South Clack Street","zip":"79605","city":"Abilene","area":null,"county":"Taylor County","state":"Texas","country":"us","formatted_address":"1184, South Clack Street, Abilene, Taylor County, Texas, 79605, United States of America","place_id":"206396054","datatype":"locationiq"},{"name":"Red Lobster Restaurants","code":null,"latitude":40.51822,"longitude":-80.0045,"address":"4766 McKnight Road, Pittsburgh PA","chain_name":null,"distance":0,"street_number":null,"street_name":"McKnight Road","zip":"15214","city":null,"area":"Evergreen","county":"Allegheny County","state":"Pennsylvania","country":"us","formatted_address":"McKnight Road, Evergreen, Ross Township, Allegheny County, Pennsylvania, 15214, United States of America","place_id":"85650673","datatype":"locationiq"},{"name":"Red Lobster Restaurants","code":null,"latitude":39.94188,"longitude":-83.8405,"address":"1898 W 1st St, Springfield OH","chain_name":null,"distance":0,"street_number":"1894","street_name":"West 1st Street","zip":"45504","city":"Springfield","area":null,"county":"Clark County","state":"Ohio","country":"us","formatted_address":"1894, West 1st Street, Springfield, Clark County, Ohio, 45504, United States of America","place_id":"198903199","datatype":"locationiq"},{"name":"Red Lobster Restaurants","code":null,"latitude":41.94501,"longitude":-88.1051,"address":"391 West Army Trail Road, Bloomingdale IL","chain_name":null,"distance":0,"street_number":null,"street_name":"Glengarry Drive","zip":"60108","city":null,"area":null,"county":"DuPage County","state":"Illinois","country":"us","formatted_address":"Glengarry Drive, Bloomingdale, DuPage County, Illinois, 60108, United States of America","place_id":"72678476","datatype":"locationiq"},{"name":"Red Lobster Restaurants","code":null,"latitude":38.80487,"longitude":-77.1338,"address":"555 South Van Dorn Street, Alexandria VA","chain_name":null,"distance":0,"street_number":null,"street_name":"Dow Avenue","zip":"22304","city":"Alexandria","area":null,"county":"Alexandria City","state":"Virginia","country":"us","formatted_address":"Starbucks, Dow Avenue, Modera Tempo Apartments, Alexandria, Alexandria City, Virginia, 22304, United States of America","place_id":"58714089","datatype":"locationiq"},{"name":"Red Lobster Restaurants","code":null,"latitude":34.18705,"longitude":-79.7718,"address":"2540 McLeod Boulevard, Florence SC","chain_name":null,"distance":0,"street_number":"398","street_name":"McLeod Street","zip":"29501","city":"Florence","area":null,"county":"Florence County","state":"South Carolina","country":"us","formatted_address":"398, McLeod Street, Florence, Florence County, South Carolina, 29501, United States of America","place_id":"202844364","datatype":"locationiq"},{"name":"Red Lobster Restaurants","code":null,"latitude":39.16443,"longitude":-86.5008,"address":"2617 E 3rd St, Bloomington IN","chain_name":null,"distance":0,"street_number":"2611","street_name":"East 3rd Street","zip":"47401","city":"Bloomington","area":"Tamarron","county":"Monroe County","state":"Indiana","country":"us","formatted_address":"Sahara Mart, 2611, East 3rd Street, Tamarron, Bloomington, Monroe County, Indiana, 47401, United States of America","place_id":"130323292","datatype":"locationiq"},{"name":"Red Lobster Restaurants","code":null,"latitude":29.26366,"longitude":-81.0265,"address":"2735 N Atlantic Ave, Daytona Beach FL","chain_name":null,"distance":0,"street_number":null,"street_name":"North Atlantic Avenue","zip":"32117","city":"Daytona Beach","area":null,"county":"Volusia County","state":"Florida","country":"us","formatted_address":"Walgreens, North Atlantic Avenue, Daytona Beach, Volusia County, Florida, 32117, United States of America","place_id":"95401760","datatype":"locationiq"},{"name":"Red Lobster Restaurants","code":null,"latitude":28.3114,"longitude":-81.4233,"address":"Kissimmee FL","chain_name":null,"distance":0,"street_number":"1943","street_name":"Reef Club Drive","zip":"34741","city":"Kissimmee","area":null,"county":"Osceola County","state":"Florida","country":"us","formatted_address":"1943, Reef Club Drive, Kissimmee, Osceola County, Florida, 34741, United States of America","place_id":"182766563","datatype":"locationiq"},{"name":"Red Lobster Restaurants","code":null,"latitude":38.98911,"longitude":-84.6417,"address":"7921 Dream St, Florence KY","chain_name":null,"distance":0,"street_number":null,"street_name":"Dream Street","zip":"41042","city":"Florence","area":null,"county":"Boone County","state":"Kentucky","country":"us","formatted_address":"Chipotle Mexican Grill, Dream Street, Florence, Boone County, Kentucky, 41042, United States of America","place_id":"80223882","datatype":"locationiq"},{"name":"Red Lobster Restaurants","code":null,"latitude":35.6097,"longitude":-97.5611,"address":"2625 W Memorial Rd, Oklahoma City OK","chain_name":null,"distance":0,"street_number":"2601","street_name":"West Memorial Road","zip":"73134","city":"Oklahoma City","area":null,"county":"Oklahoma County","state":"Oklahoma","country":"us","formatted_address":"FedEx Office, 2601, West Memorial Road, Oklahoma City, Oklahoma County, Oklahoma, 73134, United States of America","place_id":"54108035","datatype":"locationiq"},{"name":"Red Lobster Restaurants","code":null,"latitude":33.63823,"longitude":-112.2358,"address":"7921 W Bell Rd, Peoria AZ","chain_name":null,"distance":0,"street_number":"8349","street_name":"West Paradise Lane","zip":"85382","city":"Peoria","area":null,"county":"Maricopa County","state":"Arizona","country":"us","formatted_address":"Cucina Tagliani, 8349, West Paradise Lane, Peoria, Maricopa County, Arizona, 85382, United States of America","place_id":"44911063","datatype":"locationiq"},{"name":"Red Lobster Restaurants","code":null,"latitude":28.57804,"longitude":-81.4086,"address":"12557 State Road 535, Orlando FL","chain_name":null,"distance":0,"street_number":"1988","street_name":"Silver Star Road","zip":"32804","city":"Orlando","area":null,"county":"Orange County","state":"Florida","country":"us","formatted_address":"1988, Silver Star Road, Orlando, Orange County, Florida, 32804, United States of America","place_id":"182737378","datatype":"locationiq"},{"name":"Red Lobster Restaurants","code":null,"latitude":30.02229,"longitude":-95.4249,"address":"302 FM 1960 Rd W, Houston TX","chain_name":null,"distance":0,"street_number":"328","street_name":"Cypress Creek Parkway","zip":"77073","city":null,"area":null,"county":"Harris County","state":"Texas","country":"us","formatted_address":"328, Cypress Creek Parkway, Westfield, Harris County, Texas, 77073, United States of America","place_id":"205342142","datatype":"locationiq"},{"name":"Red Lobster Restaurants","code":null,"latitude":37.98585,"longitude":-121.3352,"address":"2283 West March Lane, Stockton CA","chain_name":null,"distance":0,"street_number":"2509","street_name":"West March Lane","zip":"95211","city":"Stockton","area":null,"county":"San Joaquin County","state":"California","country":"us","formatted_address":"2509, West March Lane, Stockton, San Joaquin County, California, 95211, United States of America","place_id":"13900499","datatype":"locationiq"},{"name":"Red Lobster Restaurants","code":null,"latitude":41.38044,"longitude":-81.7363,"address":"7607 Day Drive, Cleveland OH","chain_name":null,"distance":0,"street_number":"7591","street_name":"Day Drive","zip":"44129","city":null,"area":null,"county":"Cuyahoga County","state":"Ohio","country":"us","formatted_address":"7591, Day Drive, Parma, Cuyahoga County, Ohio, 44129, United States of America","place_id":"198988657","datatype":"locationiq"},{"name":"Red Lobster Restaurants","code":null,"latitude":30.47601,"longitude":-84.2965,"address":"2583 N Monroe St, Tallahassee FL","chain_name":null,"distance":0,"street_number":null,"street_name":"North Monroe Street","zip":"32303","city":"Tallahassee","area":null,"county":"Leon County","state":"Florida","country":"us","formatted_address":"Red Lobster, North Monroe Street, Tallahassee, Leon County, Florida, 32303, United States of America","place_id":"155227583","datatype":"locationiq"},{"name":"Red Lobster Restaurants","code":null,"latitude":30.40666,"longitude":-86.6341,"address":"326 Miracle Strip Pkwy SW, Fort Walton Beach FL","chain_name":null,"distance":0,"street_number":null,"street_name":"US 98","zip":"32548","city":null,"area":null,"county":"Okaloosa County","state":"Florida","country":"us","formatted_address":"US 98, Mary Esther, Okaloosa County, Florida, 32548, United States of America","place_id":"128299166","datatype":"locationiq"},{"name":"Red Lobster Restaurants","code":null,"latitude":33.11087,"longitude":-96.8054,"address":"3056 Preston Road, Frisco TX","chain_name":null,"distance":0,"street_number":"3890","street_name":"Preston Road","zip":"75024","city":"Frisco","area":null,"county":"Collin County","state":"Texas","country":"us","formatted_address":"Raising Cane's Chicken Fingers, 3890, Preston Road, Frisco, Collin County, Texas, 75024, United States of America","place_id":"48173890","datatype":"locationiq"},{"name":"Red Lobster Restaurants","code":null,"latitude":42.09863,"longitude":-79.3054,"address":"295 East Fairmount Avenue, Lakewood NY","chain_name":null,"distance":0,"street_number":"303","street_name":"East Fairmount Avenue","zip":"14750","city":null,"area":null,"county":"Chautauqua County","state":"New York","country":"us","formatted_address":"303, East Fairmount Avenue, Lakewood, Chautauqua County, New York, 14750, United States of America","place_id":"196169158","datatype":"locationiq"},{"name":"Red Lobster Restaurants","code":null,"latitude":29.60168,"longitude":-98.471,"address":"17415 San Pedro Avenue, San Antonio TX","chain_name":null,"distance":0,"street_number":"17419","street_name":"US Highway 281 Frontage Road","zip":"78232","city":"San Antonio","area":null,"county":"Bexar County","state":"Texas","country":"us","formatted_address":"17419, US Highway 281 Frontage Road, San Antonio, Bexar County, Texas, 78232, United States of America","place_id":"204456431","datatype":"locationiq"},{"name":"Red Lobster Restaurants","code":null,"latitude":40.13834,"longitude":-88.2581,"address":"1901 North Prospect Avenue, Champaign IL","chain_name":null,"distance":0,"street_number":"1901","street_name":"North Prospect Avenue","zip":"61822","city":"Champaign","area":null,"county":"Champaign County","state":"Illinois","country":"us","formatted_address":"Red Lobster, 1901, North Prospect Avenue, Champaign, Champaign County, Illinois, 61822, United States of America","place_id":"120361780","datatype":"locationiq"},{"name":"Red Lobster Restaurants","code":null,"latitude":39.18356,"longitude":-76.8198,"address":"9011 Snowden Square Dr, Columbia MD","chain_name":null,"distance":0,"street_number":"9011","street_name":"Snowden River Parkway","zip":"21046","city":"Columbia","area":"Sewells Orchard","county":"Howard County","state":"Maryland","country":"us","formatted_address":"Red Lobster, 9011, Snowden River Parkway, Sewells Orchard, Long Reach, Columbia, Howard County, Maryland, 21046, United States of America","place_id":"101830045","datatype":"locationiq"},{"name":"Red Lobster Restaurants","code":null,"latitude":38.3606,"longitude":-81.6866,"address":"101 Crossing Terrace Boulevard, South Charleston WV","chain_name":null,"distance":0,"street_number":"111","street_name":"Forest Avenue","zip":"25303","city":"South Charleston","area":null,"county":"Kanawha County","state":"West Virginia","country":"us","formatted_address":"111, Forest Avenue, South Charleston, Kanawha County, West Virginia, 25303, United States of America","place_id":"209058157","datatype":"locationiq"},{"name":"Red Lobster Restaurants","code":null,"latitude":33.32004,"longitude":-111.9671,"address":"7240 West Ray Road, Chandler AZ","chain_name":null,"distance":0,"street_number":null,"street_name":"West Ray Road","zip":"85044","city":"Chandler","area":null,"county":"Maricopa County","state":"Arizona","country":"us","formatted_address":"West Ray Road, Chandler, Maricopa County, Arizona, 85044, United States of America","place_id":"163616239","datatype":"locationiq"},{"name":"Red Lobster Restaurants","code":null,"latitude":40.39019,"longitude":-104.7157,"address":"2885 S 23rd Ave, Greeley CO","chain_name":null,"distance":0,"street_number":null,"street_name":"23rd Avenue","zip":"80620","city":null,"area":null,"county":"Weld County","state":"Colorado","country":"us","formatted_address":"Olive Garden, 23rd Avenue, Greeley, Weld County, Colorado, 80620, United States of America","place_id":"143343073","datatype":"locationiq"},{"name":"Red Lobster Restaurants","code":null,"latitude":27.54789,"longitude":-99.5027,"address":"5315 San Dario Avenue, Laredo TX","chain_name":null,"distance":0,"street_number":"774","street_name":"West Hillside Road","zip":"78041","city":"Laredo","area":null,"county":"Webb County","state":"Texas","country":"us","formatted_address":"774, West Hillside Road, Del Mar, Laredo, Webb County, Texas, 78041, United States of America","place_id":"206584974","datatype":"locationiq"},{"name":"Red Lobster Restaurants","code":null,"latitude":39.20541,"longitude":-84.3671,"address":"8220 Montgomery Rd, Cincinnati OH","chain_name":null,"distance":0,"street_number":null,"street_name":"East Galbraith Road","zip":"45236","city":"Madeira","area":null,"county":"Hamilton County","state":"Ohio","country":"us","formatted_address":"Outback Steakhouse, East Galbraith Road, Kenwood Commons, Madeira, Sycamore Township, Hamilton County, Ohio, 45236, United States of America","place_id":"79264710","datatype":"locationiq"},{"name":"Red Lobster Restaurants","code":null,"latitude":28.55232,"longitude":-81.4819,"address":"7373 W Colonial Dr, Orlando FL","chain_name":null,"distance":0,"street_number":"7363","street_name":"West Colonial Drive","zip":"32818","city":null,"area":null,"county":"Orange County","state":"Florida","country":"us","formatted_address":"7363, West Colonial Drive, Orlo Vista, Orange County, Florida, 32818, United States of America","place_id":"182685381","datatype":"locationiq"},{"name":"Red Lobster Restaurants","code":null,"latitude":41.96008,"longitude":-87.8366,"address":"4401 North Cumberland Avenue, Norridge IL","chain_name":null,"distance":0,"street_number":"8400","street_name":"West Brodman Avenue","zip":"60656","city":null,"area":null,"county":"Cook County","state":"Illinois","country":"us","formatted_address":"8400, West Brodman Avenue, Norridge, Cook County, Illinois, 60656, United States of America","place_id":"106804234","datatype":"locationiq"},{"name":"Red Lobster Restaurants","code":null,"latitude":33.47914,"longitude":-112.2205,"address":"2810 N 75th Ave, Phoenix AZ","chain_name":null,"distance":0,"street_number":null,"street_name":"West Thomas Road","zip":"85033","city":"Phoenix","area":null,"county":"Maricopa County","state":"Arizona","country":"us","formatted_address":"Skechers Factory Store, West Thomas Road, Maryvale, Phoenix, Maricopa County, Arizona, 85033, United States of America","place_id":"98801478","datatype":"locationiq"},{"name":"Red Lobster Restaurants","code":null,"latitude":31.32497,"longitude":-89.3478,"address":"4670 Hardy St, Hattiesburg MS","chain_name":null,"distance":0,"street_number":"3910","street_name":"Hardy Street","zip":"39402","city":"Hattiesburg","area":"Kensington Woods","county":"Forrest County","state":"Mississippi","country":"us","formatted_address":"CVS, 3910, Hardy Street, Kensington Woods, Bonhomie, Hattiesburg, Forrest County, Mississippi, 39402, United States of America","place_id":"141377712","datatype":"locationiq"},{"name":"Red Lobster Restaurants","code":null,"latitude":39.24944,"longitude":-84.5956,"address":"3564 Springdale Rd, Cincinnati OH","chain_name":null,"distance":0,"street_number":null,"street_name":"Springdale Road","zip":"45247","city":null,"area":null,"county":"Hamilton County","state":"Ohio","country":"us","formatted_address":"Red Lobster, Springdale Road, Northgate Mall, Colerain Township, Hamilton County, Ohio, 45247, United States of America","place_id":"100169951","datatype":"locationiq"},{"name":"Red Lobster Restaurants","code":null,"latitude":41.22071,"longitude":-73.2174,"address":"4485 Main St, Bridgeport CT","chain_name":null,"distance":0,"street_number":null,"street_name":"Main Street","zip":"06606","city":"Bridgeport","area":null,"county":"Fairfield County","state":"Connecticut","country":"us","formatted_address":"Red Lobster, Main Street, Bridgeport, Fairfield County, Connecticut, 06606, United States of America","place_id":"123522354","datatype":"locationiq"},{"name":"Red Lobster Restaurants","code":null,"latitude":36.82627,"longitude":-76.4106,"address":"4115 Chesapeake Square Blvd, Chesapeake VA","chain_name":null,"distance":0,"street_number":"4105","street_name":"Chesapeake Square Boulevard","zip":"23321","city":"Chesapeake City","area":null,"county":null,"state":"Virginia","country":"us","formatted_address":"Chesapeake Square Shoppes, 4105, Chesapeake Square Boulevard, Greenbrier Mall, Chesapeake, Chesapeake City, Virginia, 23321, United States of America","place_id":"140748805","datatype":"locationiq"},{"name":"Red Lobster Restaurants","code":null,"latitude":41.2101,"longitude":-80.7498,"address":"5701 Youngstown Warren Rd, Niles OH","chain_name":null,"distance":0,"street_number":"5792","street_name":"Youngstown Warren Road","zip":"44446","city":"Niles","area":null,"county":"Trumbull County","state":"Ohio","country":"us","formatted_address":"5792, Youngstown Warren Road, Niles, Trumbull County, Ohio, 44446, United States of America","place_id":"199951983","datatype":"locationiq"},{"name":"Red Lobster Restaurants","code":null,"latitude":43.06951,"longitude":-88.0481,"address":"2801 North Mayfair Road, Milwaukee WI","chain_name":null,"distance":0,"street_number":null,"street_name":"North Mayfair Road","zip":"53226","city":"Wauwatosa","area":null,"county":"Milwaukee County","state":"Wisconsin","country":"us","formatted_address":"Red Lobster, North Mayfair Road, Wauwatosa, Milwaukee County, Wisconsin, 53226, United States of America","place_id":"25162709","datatype":"locationiq"},{"name":"Red Lobster Restaurants","code":null,"latitude":28.54225,"longitude":-81.3729,"address":"Orlando FL","chain_name":null,"distance":0,"street_number":null,"street_name":"Central Boulevard","zip":"32801","city":"Orlando","area":"Thornton Park","county":"Orange County","state":"Florida","country":"us","formatted_address":"Publix Super Market, Central Boulevard, Thornton Park, Orlando, Orange County, Florida, 32801, United States of America","place_id":"40856887","datatype":"locationiq"},{"name":"Red Lobster Restaurants","code":null,"latitude":35.0768,"longitude":-78.9546,"address":"533 North McPherson Church Road, Fayetteville NC","chain_name":null,"distance":0,"street_number":null,"street_name":"North McPherson Church Road","zip":"28303","city":"Fayetteville","area":null,"county":"Cumberland County","state":"North Carolina","country":"us","formatted_address":"CarQuest Auto Parts, North McPherson Church Road, Fayetteville, Cumberland County, North Carolina, 28303, United States of America","place_id":"55364881","datatype":"locationiq"},{"name":"Red Lobster Restaurants","code":null,"latitude":40.87686,"longitude":-79.9489,"address":"104 Moraine Pointe Plz, Butler PA","chain_name":null,"distance":0,"street_number":null,"street_name":"New Castle Road","zip":"16001","city":null,"area":null,"county":"Butler County","state":"Pennsylvania","country":"us","formatted_address":"Sheetz, New Castle Road, Homeacre-Lyndora, Butler County, Pennsylvania, 16001, United States of America","place_id":"18955797","datatype":"locationiq"},{"name":"Red Lobster Restaurants","code":null,"latitude":34.75876,"longitude":-85.0037,"address":"901 West Bridge Road, Dalton GA","chain_name":null,"distance":0,"street_number":null,"street_name":"West Bridge Road","zip":"30720","city":null,"area":null,"county":"Whitfield County","state":"Georgia","country":"us","formatted_address":"West Bridge Road, Dalton, Whitfield County, Georgia, 30720, United States of America","place_id":"65065511","datatype":"locationiq"},{"name":"Red Lobster Restaurants","code":null,"latitude":42.63883,"longitude":-83.1316,"address":"2825 S Rochester Rd, Rochester Hills MI","chain_name":null,"distance":0,"street_number":null,"street_name":"South Rochester Road","zip":"48307","city":"Rochester Hills","area":null,"county":"Oakland County","state":"Michigan","country":"us","formatted_address":"Red Lobster, South Rochester Road, Hampton Village Centre, Rochester Hills, Oakland County, Michigan, 48307, United States of America","place_id":"145143821","datatype":"locationiq"},{"name":"Red Lobster Restaurants","code":null,"latitude":40.29712,"longitude":-78.8356,"address":"525 Galleria Dr, Johnstown PA","chain_name":null,"distance":0,"street_number":"457","street_name":"Galleria Drive","zip":"15904","city":null,"area":null,"county":"Cambria County","state":"Pennsylvania","country":"us","formatted_address":"457, Galleria Drive, Richland, Cambria County, Pennsylvania, 15904, United States of America","place_id":"201493175","datatype":"locationiq"},{"name":"Red Lobster Restaurants","code":null,"latitude":33.42543,"longitude":-104.5227,"address":"2625 N Main St, Roswell NM","chain_name":null,"distance":0,"street_number":null,"street_name":"North Main Street","zip":"88201","city":"Roswell","area":"Country Club Mobile Home Manor","county":"Chaves County","state":"New Mexico","country":"us","formatted_address":"Peter Piper Pizza, North Main Street, Country Club Mobile Home Manor, Roswell, Chaves County, New Mexico, 88201, United States of America","place_id":"49462236","datatype":"locationiq"},{"name":"Red Lobster Restaurants","code":null,"latitude":33.71663,"longitude":-84.2741,"address":"2522 Candler Rd, Decatur GA","chain_name":null,"distance":0,"street_number":null,"street_name":"Winston Manor Drive","zip":"30032","city":null,"area":null,"county":"DeKalb County","state":"Georgia","country":"us","formatted_address":"Winston Manor Drive, East Lake, Panthersville, DeKalb County, Georgia, 30032, United States of America","place_id":"64494718","datatype":"locationiq"},{"name":"Red Lobster Restaurants","code":null,"latitude":32.81792,"longitude":-96.6308,"address":"3906 Towne Crossing Blvd, Mesquite TX","chain_name":null,"distance":0,"street_number":"4102","street_name":"Towne Crossing Boulevard","zip":"75150","city":"Mesquite","area":null,"county":"Dallas County","state":"Texas","country":"us","formatted_address":"4102, Towne Crossing Boulevard, Mesquite, Dallas County, Texas, 75150, United States of America","place_id":"204847815","datatype":"locationiq"},{"name":"Red Lobster Restaurants","code":null,"latitude":28.07863,"longitude":-80.6611,"address":"2355 West New Haven Avenue, Melbourne FL","chain_name":null,"distance":0,"street_number":null,"street_name":"New Haven Avenue","zip":"32904","city":null,"area":null,"county":"Brevard County","state":"Florida","country":"us","formatted_address":"Red Lobster, New Haven Avenue, West Melbourne, Brevard County, Florida, 32904, United States of America","place_id":"30242723","datatype":"locationiq"},{"name":"Red Lobster Restaurants","code":null,"latitude":39.14489,"longitude":-84.6234,"address":"6186 Glenway Avenue, Cincinnati OH","chain_name":null,"distance":0,"street_number":null,"street_name":"Glenway Avenue","zip":"45211","city":"Cincinnati","area":null,"county":"Hamilton County","state":"Ohio","country":"us","formatted_address":"Glenway Ave 6200, Glenway Avenue, Westwood, Cincinnati, Hamilton County, Ohio, 45211, United States of America","place_id":"23884015","datatype":"locationiq"},{"name":"Red Lobster Restaurants","code":null,"latitude":32.38569,"longitude":-86.2035,"address":"300 Eastdale Cir, Montgomery AL","chain_name":null,"distance":0,"street_number":"5899","street_name":"Eastdale Drive","zip":"36117","city":"Montgomery","area":null,"county":"Montgomery County","state":"Alabama","country":"us","formatted_address":"5899, Eastdale Drive, Montgomery, Montgomery County, Alabama, 36117, United States of America","place_id":"176605623","datatype":"locationiq"},{"name":"Red Lobster Restaurants","code":null,"latitude":36.06644,"longitude":-95.8863,"address":"6728 S Memorial Dr, Tulsa OK","chain_name":null,"distance":0,"street_number":null,"street_name":"South Memorial Drive","zip":"74133","city":"Tulsa","area":"Burning Tree","county":"Tulsa County","state":"Oklahoma","country":"us","formatted_address":"South Memorial Drive, Burning Tree, Tulsa, Tulsa County, Oklahoma, 74133, United States of America","place_id":"144477950","datatype":"locationiq"},{"name":"Red Lobster Restaurants","code":null,"latitude":26.1106,"longitude":-80.2504,"address":"803 S University Dr, Plantation FL","chain_name":null,"distance":0,"street_number":null,"street_name":"South University Drive","zip":"33328","city":null,"area":null,"county":"Broward County","state":"Florida","country":"us","formatted_address":"South University Drive, Plantation, Broward County, Florida, 33328, United States of America","place_id":"104897592","datatype":"locationiq"},{"name":"Red Lobster Restaurants","code":null,"latitude":35.83493,"longitude":-83.5722,"address":"1600 Parkway, Sevierville TN","chain_name":null,"distance":0,"street_number":"1546","street_name":"Parkway","zip":"37862","city":"Sevierville","area":null,"county":"Sevier County","state":"Tennessee","country":"us","formatted_address":"1546, Parkway, Sevierville, Sevier County, Tennessee, 37862, United States of America","place_id":"204081244","datatype":"locationiq"},{"name":"Red Lobster Restaurants","code":null,"latitude":44.91956,"longitude":-93.0807,"address":"1469 Robert St S, W Saint Paul MN","chain_name":null,"distance":0,"street_number":null,"street_name":"Robert Street South","zip":"55107","city":"Saint Paul","area":null,"county":"Ramsey County","state":"Minnesota","country":"us","formatted_address":"Annapolis St, Robert Street South, Saint Paul, Ramsey County, Minnesota, 55107, United States of America","place_id":"6673059","datatype":"locationiq"},{"name":"Red Lobster Restaurants","code":null,"latitude":36.58783,"longitude":-87.2939,"address":"2838 Wilma Rudolph Blvd, Clarksville TN","chain_name":null,"distance":0,"street_number":"2800","street_name":"Wilma Rudolph Boulevard","zip":"37040","city":"Clarksville","area":null,"county":"Montgomery County","state":"Tennessee","country":"us","formatted_address":"2800, Wilma Rudolph Boulevard, Clarksville, Montgomery County, Tennessee, 37040, United States of America","place_id":"203972663","datatype":"locationiq"},{"name":"Red Lobster Restaurants","code":null,"latitude":36.12687,"longitude":-97.0587,"address":"102 East Hall Of Fame Avenue, Stillwater OK","chain_name":null,"distance":0,"street_number":"102","street_name":"East Hall of Fame Avenue","zip":"74075","city":"Stillwater","area":null,"county":"Payne County","state":"Oklahoma","country":"us","formatted_address":"Red Lobster, 102, East Hall of Fame Avenue, Stillwater, Payne County, Oklahoma, 74075, United States of America","place_id":"118348817","datatype":"locationiq"},{"name":"Red Lobster Restaurants","code":null,"latitude":38.78592,"longitude":-97.6126,"address":"2925 South 9th Street, Salina KS","chain_name":null,"distance":0,"street_number":null,"street_name":"Market Place","zip":"67401","city":null,"area":null,"county":"Saline County","state":"Kansas","country":"us","formatted_address":"Applebee's, Market Place, Salina, Saline County, Kansas, 67401, United States of America","place_id":"120004981","datatype":"locationiq"},{"name":"Red Lobster Restaurants","code":null,"latitude":27.41383,"longitude":-80.3936,"address":"6401 Darter Ct, Fort Pierce FL","chain_name":null,"distance":0,"street_number":null,"street_name":"Crossroads Parkway","zip":"34981","city":null,"area":null,"county":"St. Lucie County","state":"Florida","country":"us","formatted_address":"Steak 'n Shake, Crossroads Parkway, Fort Pierce, St. Lucie County, Florida, 34981, United States of America","place_id":"134038321","datatype":"locationiq"},{"name":"Red Lobster Restaurants","code":null,"latitude":29.65983,"longitude":-82.4146,"address":"6910 West Newberry Road, Gainesville FL","chain_name":null,"distance":0,"street_number":null,"street_name":"West Newberry Road","zip":"32669","city":null,"area":"West Hills","county":"Alachua County","state":"Florida","country":"us","formatted_address":"Wendy's, West Newberry Road, West Hills, Alachua County, Florida, 32669, United States of America","place_id":"31152333","datatype":"locationiq"},{"name":"Red Lobster Restaurants","code":null,"latitude":42.44808,"longitude":-96.3504,"address":"4290 Sergeant Rd, Sioux City IA","chain_name":null,"distance":0,"street_number":null,"street_name":"Sergeant Road","zip":"51106","city":"Sioux City","area":null,"county":"Woodbury County","state":"Iowa","country":"us","formatted_address":"Wells Fargo, Sergeant Road, Sioux City, Woodbury County, Iowa, 51106, United States of America","place_id":"17020015","datatype":"locationiq"},{"name":"Red Lobster Restaurants","code":null,"latitude":33.00316,"longitude":-96.9633,"address":"2497 South Stemmons Frwy, Lewisville TX","chain_name":null,"distance":0,"street_number":null,"street_name":"I 35E","zip":"75057","city":"Lewisville","area":null,"county":"Denton County","state":"Texas","country":"us","formatted_address":"I 35E, Lewisville, Denton County, Texas, 75057, United States of America","place_id":"139133931","datatype":"locationiq"},{"name":"Red Lobster Restaurants","code":null,"latitude":32.83776,"longitude":-97.01,"address":"4205 West Airport Freeway, Irving TX","chain_name":null,"distance":0,"street_number":null,"street_name":"Esters Road","zip":"75062","city":"Irving","area":null,"county":"Dallas County","state":"Texas","country":"us","formatted_address":"Red Lobster, Esters Road, Irving, Dallas County, Texas, 75062, United States of America","place_id":"8113257","datatype":"locationiq"},{"name":"Red Lobster Restaurants","code":null,"latitude":34.62349,"longitude":-98.4317,"address":"3112 Northwest Cache Road, Lawton OK","chain_name":null,"distance":0,"street_number":null,"street_name":"Northwest Cache Road","zip":"73507","city":"Lawton","area":null,"county":"Comanche County","state":"Oklahoma","country":"us","formatted_address":"Red Lobster, Northwest Cache Road, Lawton, Comanche County, Oklahoma, 73507, United States of America","place_id":"29034436","datatype":"locationiq"},{"name":"Red Lobster Restaurants","code":null,"latitude":41.80028,"longitude":-73.121,"address":"1 South Main Street, Torrington CT","chain_name":null,"distance":0,"street_number":null,"street_name":"South Main Street","zip":"06790","city":"Torrington","area":null,"county":"Litchfield County","state":"Connecticut","country":"us","formatted_address":"South Main Street, Torrington, Litchfield County, Connecticut, 06790, United States of America","place_id":"104412659","datatype":"locationiq"},{"name":"Red Lobster Restaurants","code":null,"latitude":26.61764,"longitude":-80.1504,"address":"6638 Lake Worth Rd, Lake Worth FL","chain_name":null,"distance":0,"street_number":"6630","street_name":"Lake Worth Road","zip":"33467","city":null,"area":null,"county":"Palm Beach County","state":"Florida","country":"us","formatted_address":"6630, Lake Worth Road, Greenacres, Palm Beach County, Florida, 33467, United States of America","place_id":"182814056","datatype":"locationiq"},{"name":"Red Lobster Restaurants","code":null,"latitude":38.42994,"longitude":-78.842,"address":"2121 East Market Street, Harrisonburg VA","chain_name":null,"distance":0,"street_number":null,"street_name":"Terri Drive","zip":"22802","city":"Harrisonburg","area":"Skyline Area","county":null,"state":"Virginia","country":"us","formatted_address":"Function 4 Sports, Terri Drive, Skyline Area, Harrisonburg, Virginia, 22802, United States of America","place_id":"59751984","datatype":"locationiq"},{"name":"Red Lobster Restaurants","code":null,"latitude":41.87871,"longitude":-84.0432,"address":"1420 South Main Street, Adrian MI","chain_name":null,"distance":0,"street_number":"1360","street_name":"South Main Street","zip":"49221","city":"Adrian","area":null,"county":"Lenawee County","state":"Michigan","country":"us","formatted_address":"Culver's, 1360, South Main Street, Adrian, Lenawee County, Michigan, 49221, United States of America","place_id":"91546362","datatype":"locationiq"},{"name":"Red Lobster Restaurants","code":null,"latitude":29.59721,"longitude":-95.6185,"address":"2323 Highway 6, Sugar Land TX","chain_name":null,"distance":0,"street_number":null,"street_name":"Town Center Boulevard","zip":"77478","city":"Sugar Land","area":null,"county":"Fort Bend County","state":"Texas","country":"us","formatted_address":"Red Lobster, Town Center Boulevard, Sugar Land, Fort Bend County, Texas, 77478, United States of America","place_id":"46199714","datatype":"locationiq"},{"name":"Red Lobster Restaurants","code":null,"latitude":42.91242,"longitude":-85.5703,"address":"3920 28th Street Southeast, Grand Rapids MI","chain_name":null,"distance":0,"street_number":null,"street_name":"28th Street Southeast","zip":"49546","city":"Kentwood","area":null,"county":"Kent County","state":"Michigan","country":"us","formatted_address":"Red Lobster, 28th Street Southeast, Kentwood, Kent County, Michigan, 49546, United States of America","place_id":"150839963","datatype":"locationiq"},{"name":"Red Lobster Restaurants","code":null,"latitude":30.09659,"longitude":-94.1322,"address":"2820 Interstate 10 E, Beaumont TX","chain_name":null,"distance":0,"street_number":null,"street_name":"13th Street","zip":"77702","city":"Beaumont","area":null,"county":"Jefferson County","state":"Texas","country":"us","formatted_address":"Red Lobster, 13th Street, Beaumont, Jefferson County, Texas, 77702, United States of America","place_id":"54257537","datatype":"locationiq"},{"name":"Red Lobster Restaurants","code":null,"latitude":36.10752,"longitude":-94.1805,"address":"3885 N Shiloh Dr, Fayetteville AR","chain_name":null,"distance":0,"street_number":"3069","street_name":"North Shiloh Drive","zip":"72704","city":"Fayetteville","area":null,"county":"Washington County","state":"Arkansas","country":"us","formatted_address":"3069, North Shiloh Drive, Fayetteville, Washington County, Arkansas, 72704, United States of America","place_id":"173132167","datatype":"locationiq"},{"name":"Red Lobster Restaurants","code":null,"latitude":30.2206,"longitude":-81.5768,"address":"8720 Baymeadows Rd, Jacksonville FL","chain_name":null,"distance":0,"street_number":null,"street_name":"Baymeadows Road","zip":"32256","city":"Jacksonville","area":null,"county":"Duval County","state":"Florida","country":"us","formatted_address":"Baymeadows Road, Jacksonville, Duval County, Florida, 32256, United States of America","place_id":"87731179","datatype":"locationiq"},{"name":"Red Lobster Restaurants","code":null,"latitude":41.72942,"longitude":-85.9728,"address":"3009 Brittany Ct, Elkhart IN","chain_name":null,"distance":0,"street_number":"3009","street_name":"Brittany Court","zip":"46514","city":"Elkhart","area":null,"county":"Elkhart County","state":"Indiana","country":"us","formatted_address":"Red Lobster, 3009, Brittany Court, Elkhart, Elkhart County, Indiana, 46514, United States of America","place_id":"35179294","datatype":"locationiq"},{"name":"Red Lobster Restaurants","code":null,"latitude":35.26404,"longitude":-81.1517,"address":"200 N New Hope Rd, Gastonia NC","chain_name":null,"distance":0,"street_number":"205","street_name":"North New Hope Road","zip":"28054","city":null,"area":null,"county":"Gaston County","state":"North Carolina","country":"us","formatted_address":"205, North New Hope Road, Gastonia, Gaston County, North Carolina, 28054, United States of America","place_id":"197603404","datatype":"locationiq"},{"name":"Red Lobster Restaurants","code":null,"latitude":29.65954,"longitude":-82.419,"address":"6910 W Newberry Rd, Gainesville FL","chain_name":null,"distance":0,"street_number":null,"street_name":"I 75","zip":"32607","city":"Gainesville","area":"Durant Estates","county":"Alachua County","state":"Florida","country":"us","formatted_address":"387, I 75, Durant Estates, Gainesville, Alachua County, Florida, 32607, United States of America","place_id":"284635","datatype":"locationiq"},{"name":"Red Lobster Restaurants","code":null,"latitude":42.96035,"longitude":-88.0083,"address":"4645 South 76th Street, Milwaukee WI","chain_name":null,"distance":0,"street_number":"4642","street_name":"South 76th Street","zip":"53220","city":"Greenfield","area":null,"county":"Milwaukee County","state":"Wisconsin","country":"us","formatted_address":"4642, South 76th Street, Greenfield, Milwaukee County, Wisconsin, 53220, United States of America","place_id":"209546697","datatype":"locationiq"},{"name":"Red Lobster Restaurants","code":null,"latitude":37.11594,"longitude":-113.5514,"address":"263 Red Cliffs Drive, Saint George UT","chain_name":null,"distance":0,"street_number":"283","street_name":"Red Cliffs Drive","zip":"84790","city":"St. George","area":null,"county":"Washington County","state":"Utah","country":"us","formatted_address":"283, Red Cliffs Drive, Middleton, St. George, Washington County, Utah, 84790, United States of America","place_id":"206932956","datatype":"locationiq"},{"name":"Red Lobster Restaurants","code":null,"latitude":39.975,"longitude":-76.676,"address":"2555 East Market Street, York PA","chain_name":null,"distance":0,"street_number":"2555","street_name":"East Market Street","zip":"17402","city":null,"area":null,"county":"York County","state":"Pennsylvania","country":"us","formatted_address":"Red Lobster, 2555, East Market Street, East York, York County, Pennsylvania, 17402, United States of America","place_id":"25727743","datatype":"locationiq"},{"name":"Red Lobster Restaurants","code":null,"latitude":38.25806,"longitude":-122.0547,"address":"1501 Travis Boulevard, Fairfield CA","chain_name":null,"distance":0,"street_number":"1371","street_name":"Travis Boulevard","zip":"94533","city":"Fairfield","area":null,"county":"Solano County","state":"California","country":"us","formatted_address":"1371, Travis Boulevard, Fairfield, Solano County, California, 94533, United States of America","place_id":"180303239","datatype":"locationiq"},{"name":"Red Lobster Restaurants","code":null,"latitude":32.3658,"longitude":-88.6728,"address":"201 South Frontage Road, Meridian MS","chain_name":null,"distance":0,"street_number":"197","street_name":"South Frontage Road","zip":"39301","city":null,"area":null,"county":"Lauderdale County","state":"Mississippi","country":"us","formatted_address":"197, South Frontage Road, Meridian, Lauderdale County, Mississippi, 39301, United States of America","place_id":"192939616","datatype":"locationiq"},{"name":"Red Lobster Restaurants","code":null,"latitude":39.17053,"longitude":-75.5181,"address":"271 N Dupont Hwy, Dover DE","chain_name":null,"distance":0,"street_number":"152","street_name":"North Dupont Highway","zip":"19901","city":"Dover","area":null,"county":"Kent County","state":"Delaware","country":"us","formatted_address":"152, North Dupont Highway, Dover, Kent County, Delaware, 19901, United States of America","place_id":"181475622","datatype":"locationiq"},{"name":"Red Lobster Restaurants","code":null,"latitude":33.63795,"longitude":-112.2294,"address":"7921 West Bell Road, Peoria AZ","chain_name":null,"distance":0,"street_number":null,"street_name":"West Bell Road","zip":"85382","city":"Peoria","area":null,"county":"Maricopa County","state":"Arizona","country":"us","formatted_address":"West Bell Road, Peoria, Maricopa County, Arizona, 85382, United States of America","place_id":"164388835","datatype":"locationiq"},{"name":"Red Lobster Restaurants","code":null,"latitude":40.0951,"longitude":-80.9286,"address":"50740 Valley Centre Blvd, Saint Clairsville OH","chain_name":null,"distance":0,"street_number":null,"street_name":"Vineyard Road","zip":"43950","city":null,"area":null,"county":"Belmont County","state":"Ohio","country":"us","formatted_address":"Vineyard Road, Provident, Belmont County, Ohio, 43950, United States of America","place_id":"70755992","datatype":"locationiq"},{"name":"Red Lobster Restaurants","code":null,"latitude":41.61635,"longitude":-87.8388,"address":"14750 S. Lagrange Road, Orland Park IL","chain_name":null,"distance":0,"street_number":"14798","street_name":"Lake View Drive","zip":"60462","city":null,"area":null,"county":"Cook County","state":"Illinois","country":"us","formatted_address":"14798, Lake View Drive, Orland Park, Cook County, Illinois, 60462, United States of America","place_id":"184842186","datatype":"locationiq"},{"name":"Red Lobster Restaurants","code":null,"latitude":40.87299,"longitude":-74.6469,"address":"303 State Highway 10 North, Succasunna NJ","chain_name":null,"distance":0,"street_number":null,"street_name":"Route 10 East","zip":"07847","city":"Roxbury Township","area":null,"county":"Morris County","state":"New Jersey","country":"us","formatted_address":"Speedway, Route 10 East, Roxbury Township, Morris County, New Jersey, 07847, United States of America","place_id":"140459970","datatype":"locationiq"},{"name":"Red Lobster Restaurants","code":null,"latitude":26.17535,"longitude":-81.7997,"address":"2355 Tamiami Trl N, Naples FL","chain_name":null,"distance":0,"street_number":null,"street_name":"9th Street","zip":"34103","city":"Naples","area":null,"county":"Collier County","state":"Florida","country":"us","formatted_address":"BEST WESTERN Naples Inn & Suites, 9th Street, Naples, Collier County, Florida, 34103, United States of America","place_id":"4921894","datatype":"locationiq"},{"name":"Red Lobster Restaurants","code":null,"latitude":38.40112,"longitude":-75.5701,"address":"2314 North Salisbury Boulevard, Salisbury MD","chain_name":null,"distance":0,"street_number":"2318","street_name":"North Salisbury Boulevard","zip":"21801","city":"Salisbury","area":null,"county":"Wicomico County","state":"Maryland","country":"us","formatted_address":"The Greene Turtle, 2318, North Salisbury Boulevard, Salisbury, Wicomico County, Maryland, 21801, United States of America","place_id":"104414909","datatype":"locationiq"},{"name":"Red Lobster Restaurants","code":null,"latitude":37.17563,"longitude":-93.2623,"address":"2141 South Glenstone Avenue, Springfield MO","chain_name":null,"distance":0,"street_number":null,"street_name":"South Glenstone Avenue","zip":"65804","city":"Springfield","area":null,"county":"Greene County","state":"Missouri","country":"us","formatted_address":"Battlefield Inn Springfield, South Glenstone Avenue, Springfield, Greene County, Missouri, 65804, United States of America","place_id":"30650105","datatype":"locationiq"},{"name":"Red Lobster Restaurants","code":null,"latitude":36.01036,"longitude":-83.9723,"address":"305 Merchants Dr, Knoxville TN","chain_name":null,"distance":0,"street_number":null,"street_name":"I 75","zip":"37912","city":"Knoxville","area":null,"county":"Knox County","state":"Tennessee","country":"us","formatted_address":"I 75, Knoxville, Knox County, Tennessee, 37912, United States of America","place_id":"89624454","datatype":"locationiq"},{"name":"Red Lobster Restaurants","code":null,"latitude":39.04149,"longitude":-94.4155,"address":"4328 S Noland Rd, Independence MO","chain_name":null,"distance":0,"street_number":"4342","street_name":"South Noland Road","zip":"64055","city":"Independence","area":null,"county":"Jackson County","state":"Missouri","country":"us","formatted_address":"4342, South Noland Road, Independence, Jackson County, Missouri, 64055, United States of America","place_id":"193606886","datatype":"locationiq"},{"name":"Red Lobster Restaurants","code":null,"latitude":34.62316,"longitude":-98.4349,"address":"3112 NW Cache Rd, Lawton OK","chain_name":null,"distance":0,"street_number":null,"street_name":"Northwest Cache Road","zip":"73507","city":"Lawton","area":null,"county":"Comanche County","state":"Oklahoma","country":"us","formatted_address":"McDonald's, Northwest Cache Road, Lawton, Comanche County, Oklahoma, 73507, United States of America","place_id":"29165626","datatype":"locationiq"},{"name":"Red Lobster Restaurants","code":null,"latitude":40.27249,"longitude":-74.0431,"address":"2200 State Route 35, Oakhurst NJ","chain_name":null,"distance":0,"street_number":"482","street_name":"Kings Highway","zip":"07724","city":"Ocean Township","area":null,"county":"Monmouth County","state":"New Jersey","country":"us","formatted_address":"482, Kings Highway, Ocean Township, Monmouth County, New Jersey, 07724, United States of America","place_id":"195582147","datatype":"locationiq"},{"name":"Red Lobster Restaurants","code":null,"latitude":37.16409,"longitude":-80.4207,"address":"75 Peppers Ferry Road Northwest, Christiansburg VA","chain_name":null,"distance":0,"street_number":"200","street_name":"Peppers Ferry Road Northeast","zip":"24073","city":null,"area":null,"county":"Montgomery County","state":"Virginia","country":"us","formatted_address":"KFC, 200, Peppers Ferry Road Northeast, Christiansburg, Montgomery County, Virginia, 24073, United States of America","place_id":"38497942","datatype":"locationiq"},{"name":"Red Lobster Restaurants","code":null,"latitude":32.29781,"longitude":-110.9786,"address":"5061 North Oracle Road, Tucson AZ","chain_name":null,"distance":0,"street_number":null,"street_name":"North Oracle Road","zip":"85704","city":"Tucson","area":null,"county":"Pima County","state":"Arizona","country":"us","formatted_address":"North Oracle Road, Catalina Foothills, Tucson, Pima County, Arizona, 85704, United States of America","place_id":"164337308","datatype":"locationiq"},{"name":"Red Lobster Restaurants","code":null,"latitude":44.83558,"longitude":-68.7427,"address":"8 Bangor Mall Boulevard, Bangor ME","chain_name":null,"distance":0,"street_number":"11","street_name":"Bangor Mall Boulevard","zip":"04401","city":"Bangor","area":null,"county":"Penobscot County","state":"Maine","country":"us","formatted_address":"11, Bangor Mall Boulevard, Bangor, Penobscot County, Maine, 04401, United States of America","place_id":"91731205","datatype":"locationiq"},{"name":"Red Lobster Restaurants","code":null,"latitude":39.03036,"longitude":-95.7621,"address":"2011 Southwest Wanamaker Road, Topeka KS","chain_name":null,"distance":0,"street_number":"2011","street_name":"Southwest Wanamaker Road","zip":"66604","city":"Topeka","area":null,"county":"Shawnee County","state":"Kansas","country":"us","formatted_address":"Red Lobster - Topeka, KS, 2011, Southwest Wanamaker Road, Topeka, Shawnee County, Kansas, 66604, United States of America","place_id":"95847688","datatype":"locationiq"},{"name":"Red Lobster Restaurants","code":null,"latitude":38.95724,"longitude":-94.6674,"address":"9475 Metcalf Ave, Overland Park KS","chain_name":null,"distance":0,"street_number":"9475","street_name":"Metcalf Avenue","zip":"66212","city":"Overland Park","area":"Nall Hills","county":"Johnson County","state":"Kansas","country":"us","formatted_address":"9475, Metcalf Avenue, Nall Hills, Overland Park, Johnson County, Kansas, 66212, United States of America","place_id":"187944717","datatype":"locationiq"},{"name":"Red Lobster Restaurants","code":null,"latitude":33.98124,"longitude":-86.0067,"address":"1725 Rainbow Dr, Gadsden AL","chain_name":null,"distance":0,"street_number":null,"street_name":"Rainbow Drive","zip":"35906","city":"Gadsden","area":null,"county":"Etowah County","state":"Alabama","country":"us","formatted_address":"Rainbow Drive, Gadsden, Etowah County, Alabama, 35906, United States of America","place_id":"95842066","datatype":"locationiq"},{"name":"Red Lobster Restaurants","code":null,"latitude":29.15672,"longitude":-82.1783,"address":"3393 Southwest College Road, Ocala FL","chain_name":null,"distance":0,"street_number":null,"street_name":"College Road","zip":"34474","city":"Ocala","area":null,"county":"Marion County","state":"Florida","country":"us","formatted_address":"College Road, Ocala, Marion County, Florida, 34474, United States of America","place_id":"167502908","datatype":"locationiq"},{"name":"Red Lobster Restaurants","code":null,"latitude":36.17151,"longitude":-115.2062,"address":"200 South Decatur Boulevard, Las Vegas NV","chain_name":null,"distance":0,"street_number":"200","street_name":"South Decatur Boulevard","zip":"89107","city":"Las Vegas","area":null,"county":"Clark County","state":"Nevada","country":"us","formatted_address":"Red Lobster, 200, South Decatur Boulevard, Twin Lakes, Las Vegas, Clark County, Nevada, 89107, United States of America","place_id":"53533919","datatype":"locationiq"},{"name":"Red Lobster Restaurants","code":null,"latitude":44.27259,"longitude":-88.4761,"address":"1200 North Casaloma Drive, Appleton WI","chain_name":null,"distance":0,"street_number":null,"street_name":"West Wisconsin Avenue","zip":"54914","city":null,"area":null,"county":"Outagamie County","state":"Wisconsin","country":"us","formatted_address":"Red Lobster, West Wisconsin Avenue, Fox River Mall, Grand Chute, Town of Grand Chute, Outagamie County, Wisconsin, 54914, United States of America","place_id":"101946979","datatype":"locationiq"},{"name":"Red Lobster Restaurants","code":null,"latitude":42.01237,"longitude":-93.6116,"address":"1100 Buckeye Avenue, Ames IA","chain_name":null,"distance":0,"street_number":"105","street_name":"Chestnut Street","zip":"50010","city":"Ames","area":null,"county":"Story County","state":"Iowa","country":"us","formatted_address":"Applebee's, 105, Chestnut Street, Ames, Story County, Iowa, 50010, United States of America","place_id":"114991148","datatype":"locationiq"},{"name":"Red Lobster Restaurants","code":null,"latitude":33.85291,"longitude":-84.6047,"address":"1805 E West Connector, Austell GA","chain_name":null,"distance":0,"street_number":null,"street_name":"Austell Road","zip":"30106","city":"Austell","area":null,"county":"Cobb County","state":"Georgia","country":"us","formatted_address":"Austell Road, Austell, Cobb County, Georgia, 30106, United States of America","place_id":"64045737","datatype":"locationiq"},