[{"latitude":"33.2662","longitude":"-86.81043","name":"Staples - 3552 Pelham Pkwy; Pelham","address":" AL 35124>205-621-0263","street_number":"3530","street_name":"Pelham Pkwy","zip":"35124","city":"Pelham","area":null,"county":"Shelby County","state":"AL","country":"USA","formatted_address":"3530 Pelham Pkwy, Pelham, AL, USA","place_id":"openaddresses:address:us\/al\/shelby:08b0988934da290d","datatype":"openaddresses"},{"latitude":"33.59689","longitude":"-86.64716","name":"Staples - 1905 Edwards Lake Rd; Birmingham","address":" AL 35235>205-661-3214","street_number":"1940","street_name":"Edwards Lake Road","zip":"35235","city":"Trussville","area":null,"county":"Jefferson County","state":"AL","country":"USA","formatted_address":"1940 Edwards Lake Road, Trussville, AL, USA","place_id":"openaddresses:address:us\/al\/jefferson:ee41c5d0b324a0eb","datatype":"openaddresses"},{"latitude":"33.42696","longitude":"-86.71223","name":"Staples - 4614 Hwy 280; Birmingham","address":" AL 35242>205-980-0596","street_number":"2908","street_name":"Riverview Rd","zip":"35242","city":"Birmingham","area":null,"county":"Shelby County","state":"AL","country":"USA","formatted_address":"2908 Riverview Rd, Birmingham, AL, USA","place_id":"openaddresses:address:us\/al\/shelby:c83992f1ae443b4b","datatype":"openaddresses"},{"latitude":"34.55983","longitude":"-87.00027","name":"Staples - 817 Beltline Rd; Decatur","address":" AL 35603>256-353-0373","street_number":null,"street_name":null,"zip":null,"city":null,"area":null,"county":null,"state":null,"country":null,"formatted_address":null,"place_id":null,"datatype":null},{"latitude":"34.78573","longitude":"-86.95437","name":"Staples - 1036 Hwy 72 East; Athens","address":" AL 35611>256-233-1840","street_number":"1033","street_name":"Us Hwy 72 E","zip":"35611","city":"Athens","area":null,"county":"Limestone County","state":"AL","country":"USA","formatted_address":"1033 Us Hwy 72 E, Athens, AL, USA","place_id":"openaddresses:address:us\/al\/limestone:9f25089ab3f1df7c","datatype":"openaddresses"},{"latitude":"34.74195","longitude":"-86.60225","name":"Staples - 1201 N Memorial Pkwy; Huntsville","address":" AL 35801>256-536-0526","street_number":"1035","street_name":"Memorial Parkway","zip":"35801","city":"Huntsville","area":null,"county":"Madison County","state":"AL","country":"USA","formatted_address":"1035 Memorial Parkway, Huntsville, AL, USA","place_id":"openstreetmap:address:way:59538508","datatype":"openstreetmap"},{"latitude":"34.64896","longitude":"-86.5714","name":"Staples - 9032A S Memorial Pkwy; Huntsville","address":" AL 35802>256-883-3366","street_number":"10012","street_name":"Memorial Parkway Southwest","zip":"35803","city":"Huntsville","area":null,"county":"Madison County","state":"AL","country":"USA","formatted_address":"10012 Memorial Parkway Southwest, Huntsville, AL, USA","place_id":"openstreetmap:address:way:470725486","datatype":"openstreetmap"},{"latitude":"34.30243","longitude":"-86.27641","name":"Staples - 11468 Hwy 431 S; Guntersville","address":" AL 35976>256-878-1592","street_number":"11468","street_name":"U S Highway 431 S","zip":null,"city":"Guntersville","area":null,"county":"Marshall County","state":"AL","country":"USA","formatted_address":"11468 U S Highway 431 S, Guntersville, AL, USA","place_id":"openaddresses:address:us\/il\/marshall:1e5225a64f747887","datatype":"openaddresses"},{"latitude":"30.60578","longitude":"-87.89619","name":"Staples - 1802 US Hwy 98; Daphne","address":" AL 36526>251-621-0029","street_number":"1020","street_name":"Randall Ave","zip":null,"city":"Daphne","area":null,"county":"Baldwin County","state":"AL","country":"USA","formatted_address":"1020 Randall Ave, Daphne, AL, USA","place_id":"openaddresses:address:us\/al\/baldwin:cbd057571fe90495","datatype":"openaddresses"},{"latitude":"34.21267","longitude":"-91.97044","name":"Staples - 2910 E Harding Blvd; Pine Bluff","address":" AR 71601>870-534-7600","street_number":"2910","street_name":"Market St","zip":"71601","city":"Pine Bluff","area":null,"county":"Jefferson County","state":"AR","country":"USA","formatted_address":"2910 Market St, Pine Bluff, AR, USA","place_id":"openaddresses:address:us\/ar\/statewide:ad5fb03cdfb0d06a","datatype":"openaddresses"},{"latitude":"35.087189","longitude":"-92.411307","name":"Staples - 640 Elsinger Blvd; Conway","address":" AR 72032>501-513-6954","street_number":"640","street_name":"Elsinger Blvd","zip":"72032","city":"Conway","area":null,"county":"Faulkner County","state":"AR","country":"USA","formatted_address":"640 Elsinger Blvd, Conway, AR, USA","place_id":"openaddresses:address:us\/ar\/statewide:ae7f1726893821e0","datatype":"openaddresses"},{"latitude":"34.75197","longitude":"-92.41042","name":"Staples - 12309 Chenal Pkwy; Little Rock","address":" AR 72211>501-225-2773","street_number":"9","street_name":"Entergy Ct","zip":"72211","city":"Little Rock","area":null,"county":"Pulaski County","state":"AR","country":"USA","formatted_address":"9 Entergy Ct, Little Rock, AR, USA","place_id":"openaddresses:address:us\/ar\/statewide:c97b420a0a6d8643","datatype":"openaddresses"},{"latitude":"36.356","longitude":"-92.33945","name":"Staples - 34 Staples Dr; Mountain Home","address":" AR 72653>870-492-2321","street_number":"40","street_name":"Plaza Way","zip":"72653","city":"Mountain Home","area":null,"county":"Baxter County","state":"AR","country":"USA","formatted_address":"40 Plaza Way, Mountain Home, AR, USA","place_id":"openaddresses:address:us\/ar\/statewide:3fb2ec26235f6118","datatype":"openaddresses"},{"latitude":"36.33538","longitude":"-94.17419","name":"Staples - 4021 W Walnut St; Rogers","address":" AR 72758>479-636-0285","street_number":"3925","street_name":"West Walnut Street","zip":"72756","city":"Rogers","area":null,"county":"Benton County","state":"AR","country":"USA","formatted_address":"3925 West Walnut Street, Rogers, AR, USA","place_id":"openstreetmap:address:node:1127456644","datatype":"openstreetmap"},{"latitude":"35.27883","longitude":"-93.09301","name":"Staples - 89 SR 331 N; Russellville","address":" AR 72802>479-858-6428","street_number":"81","street_name":"Sr 331","zip":"72802","city":"Russellville","area":null,"county":"Pope County","state":"AR","country":"USA","formatted_address":"81 Sr 331, Russellville, AR, USA","place_id":"openaddresses:address:us\/ar\/statewide:a53d5c6cc26255ba","datatype":"openaddresses"},{"latitude":"35.362868","longitude":"-94.369175","name":"Staples - 5711 Rogers Ave; Fort Smith","address":" AR 72903>479-452-3946","street_number":"5711","street_name":"Rogers Ave","zip":"72903","city":"Fort Smith","area":null,"county":"Sebastian County","state":"AR","country":"USA","formatted_address":"5711 Rogers Ave, Fort Smith, AR, USA","place_id":"openaddresses:address:us\/ar\/statewide:937c211837399b0e","datatype":"openaddresses"},{"latitude":"33.4876","longitude":"-112.073","name":"Staples - 106 W Osborn; Phoenix","address":" AZ 85013>602-248-8122","street_number":"3443","street_name":"North Central Avenue","zip":"85012","city":"Phoenix","area":null,"county":"Maricopa County","state":"AZ","country":"USA","formatted_address":"3443 North Central Avenue, Phoenix, AZ, USA","place_id":"openstreetmap:address:node:1887749264","datatype":"openstreetmap"},{"latitude":"33.5088","longitude":"-112.043","name":"Staples - 1801 E Camelback Rd; Phoenix","address":" AZ 85016>602-234-0404","street_number":"1831","street_name":"E Camelback Rd","zip":"85016","city":"Phoenix","area":null,"county":"Maricopa County","state":"AZ","country":"USA","formatted_address":"1831 E Camelback Rd, Phoenix, AZ, USA","place_id":"openaddresses:address:us\/az\/maricopa:1272727","datatype":"openaddresses"},{"latitude":"33.71081","longitude":"-112.11314","name":"Staples - 2501 W Happy Valley Rd; Phoenix","address":" AZ 85027>623-580-1633","street_number":"2501","street_name":"W Happy Valley Rd","zip":"85085","city":"Phoenix","area":null,"county":"Maricopa County","state":"AZ","country":"USA","formatted_address":"2501 W Happy Valley Rd, Phoenix, AZ, USA","place_id":"openaddresses:address:us\/az\/maricopa:1137642","datatype":"openaddresses"},{"latitude":"33.5827","longitude":"-111.977","name":"Staples - N 10815 Tatum Blvd; Paradise Valley","address":" AZ 85028>480-948-0202","street_number":"10555","street_name":"N Tatum Blvd","zip":"85253","city":"Paradise Valley","area":null,"county":"Maricopa County","state":"AZ","country":"USA","formatted_address":"10555 N Tatum Blvd, Paradise Valley, AZ, USA","place_id":"openaddresses:address:us\/az\/maricopa:1390807","datatype":"openaddresses"},{"latitude":"33.582","longitude":"-112.12","name":"Staples - 2760 W Peoria Ave; Phoenix","address":" AZ 85029>602-863-3688","street_number":"2725","street_name":"W Peoria Ave","zip":"85029","city":"Phoenix","area":null,"county":"Maricopa County","state":"AZ","country":"USA","formatted_address":"2725 W Peoria Ave, Phoenix, AZ, USA","place_id":"openaddresses:address:us\/az\/maricopa:868887","datatype":"openaddresses"},{"latitude":"33.250495","longitude":"-111.628509","name":"Staples - 21168 E Ocotillo Rd; Queen Creek","address":" AZ 85142>480-358-4979","street_number":"21168","street_name":"East Ocotillo Road","zip":"85142","city":"Queen Creek","area":null,"county":"Maricopa County","state":"AZ","country":"USA","formatted_address":"21168 East Ocotillo Road, Queen Creek, AZ, USA","place_id":"openstreetmap:address:way:222767309","datatype":"openstreetmap"},{"latitude":"33.45097","longitude":"-111.73411","name":"Staples - 4535 E McKellips Rd; Mesa","address":" AZ 85215>480-641-5302","street_number":"4515","street_name":"E Mckellips Rd","zip":"85205","city":"Mesa","area":null,"county":"Maricopa County","state":"AZ","country":"USA","formatted_address":"4515 E Mckellips Rd, Mesa, AZ, USA","place_id":"openaddresses:address:us\/az\/maricopa:126410","datatype":"openaddresses"},{"latitude":"33.37845","longitude":"-111.81262","name":"Staples - 865 E Baseline Rd; Gilbert","address":" AZ 85233>480-926-1477","street_number":"891","street_name":"E Baseline Rd","zip":"85233","city":"Gilbert","area":null,"county":"Maricopa County","state":"AZ","country":"USA","formatted_address":"891 E Baseline Rd, Gilbert, AZ, USA","place_id":"openaddresses:address:us\/az\/city_of_mesa:27e3e14d859f24b2","datatype":"openaddresses"},{"latitude":"33.24891","longitude":"-111.83826","name":"Staples - 4240 S Arizona Ave; Chandler","address":" AZ 85248>480-883-9893","street_number":"3985","street_name":"S Arizona Ave","zip":"85248","city":"Chandler","area":null,"county":"Maricopa County","state":"AZ","country":"USA","formatted_address":"3985 S Arizona Ave, Chandler, AZ, USA","place_id":"openaddresses:address:us\/az\/maricopa:50428","datatype":"openaddresses"},{"latitude":"33.28291","longitude":"-111.79079","name":"Staples - 2840 E Germann Rd; Chandler","address":" AZ 85249>480-722-0764","street_number":"2900","street_name":"E Germann Rd","zip":"85286","city":"Chandler","area":null,"county":"Maricopa County","state":"AZ","country":"USA","formatted_address":"2900 E Germann Rd, Chandler, AZ, USA","place_id":"openaddresses:address:us\/az\/maricopa:762849","datatype":"openaddresses"},{"latitude":"33.4878","longitude":"-111.926","name":"Staples - 3550 N Goldwater Blvd; Scottsdale","address":" AZ 85251>480-970-1100","street_number":"3420","street_name":"N Scottsdale Rd","zip":"85251","city":"Scottsdale","area":null,"county":"Maricopa County","state":"AZ","country":"USA","formatted_address":"3420 N Scottsdale Rd, Scottsdale, AZ, USA","place_id":"openaddresses:address:us\/az\/maricopa:389470","datatype":"openaddresses"},{"latitude":"33.627551","longitude":"-111.893359","name":"Staples - 15657 N Hayden Rd; Scottsdale","address":" AZ 85260>480-607-5024","street_number":"15657","street_name":"N Hayden Rd","zip":"85260","city":"Scottsdale","area":null,"county":"Maricopa County","state":"AZ","country":"USA","formatted_address":"15657 N Hayden Rd, Scottsdale, AZ, USA","place_id":"openaddresses:address:us\/az\/city_of_scottsdale:d755b44f5d232717","datatype":"openaddresses"},{"latitude":"33.408999","longitude":"-111.925767","name":"Staples - 914 E Broadway Rd; Tempe","address":" AZ 85282>480-824-0818","street_number":"926","street_name":"E Broadway Rd","zip":"85282","city":"Tempe","area":null,"county":"Maricopa County","state":"AZ","country":"USA","formatted_address":"926 E Broadway Rd, Tempe, AZ, USA","place_id":"openaddresses:address:us\/az\/maricopa:1396458","datatype":"openaddresses"},{"latitude":"33.350746","longitude":"-111.956373","name":"Staples - 1110 W Elliot Ave; Tempe","address":" AZ 85284>480-491-5158","street_number":"1050","street_name":"W Elliot Rd","zip":"85284","city":"Tempe","area":null,"county":"Maricopa County","state":"AZ","country":"USA","formatted_address":"1050 W Elliot Rd, Tempe, AZ, USA","place_id":"openaddresses:address:us\/az\/maricopa:934284","datatype":"openaddresses"},{"latitude":"33.28115","longitude":"-111.791821","name":"Staples - 2840 E Germann Rd; Chandler","address":" AZ 85286>480-722-0764","street_number":"2840","street_name":"E Germann Rd","zip":"85286","city":"Chandler","area":null,"county":"Maricopa County","state":"AZ","country":"USA","formatted_address":"2840 E Germann Rd, Chandler, AZ, USA","place_id":"openaddresses:address:us\/az\/maricopa:621035","datatype":"openaddresses"},{"latitude":"33.5099","longitude":"-112.154","name":"Staples - 4350 W Camelback Rd; Glendale","address":" AZ 85301>623-934-0004","street_number":"4450","street_name":"W Camelback Rd","zip":"85301","city":"Glendale","area":null,"county":"Maricopa County","state":"AZ","country":"USA","formatted_address":"4450 W Camelback Rd, Glendale, AZ, USA","place_id":"openaddresses:address:us\/az\/maricopa:1278900","datatype":"openaddresses"},{"latitude":"32.6978","longitude":"-114.62","name":"Staples - 101 W 16th St; Yuma","address":" AZ 85364>928-329-9899","street_number":"1651","street_name":"S 1st Ave","zip":"85364","city":"Yuma","area":null,"county":"Yuma County","state":"AZ","country":"USA","formatted_address":"1651 S 1st Ave, Yuma, AZ, USA","place_id":"openaddresses:address:us\/az\/yuma:292521d88c3e6d43","datatype":"openaddresses"},{"latitude":"33.637194","longitude":"-112.226787","name":"Staples - 7865 W Bell Rd; Peoria","address":" AZ 85382>623-878-4411","street_number":"7873","street_name":"W Bell Rd","zip":"85382","city":"Peoria","area":null,"county":"Maricopa County","state":"AZ","country":"USA","formatted_address":"7873 W Bell Rd, Peoria, AZ, USA","place_id":"openaddresses:address:us\/az\/maricopa:667928","datatype":"openaddresses"},{"latitude":"33.466506","longitude":"-112.387802","name":"Staples - 1755 N Pebblecreek Pkwy; Goodyear","address":" AZ 85395>623-535-0798","street_number":"15210","street_name":"W Mcdowell Rd","zip":"85395","city":"Goodyear","area":null,"county":"Maricopa County","state":"AZ","country":"USA","formatted_address":"15210 W Mcdowell Rd, Goodyear, AZ, USA","place_id":"openaddresses:address:us\/az\/maricopa:1265419","datatype":"openaddresses"},{"latitude":"31.55558","longitude":"-110.2552","name":"Staples - 4299 E Hwy 90; Sierra Vista","address":" AZ 85635>520-452-1000","street_number":"4,151.000000000000000","street_name":"E Highway 90","zip":"85635","city":"Sierra Vista","area":null,"county":"Cochise County","state":"AZ","country":"USA","formatted_address":"4,151.000000000000000 E Highway 90, Sierra Vista, AZ, USA","place_id":"openaddresses:address:us\/az\/cochise:aa8d80b709d9d4e4","datatype":"openaddresses"},{"latitude":"35.1743","longitude":"-111.666","name":"Staples - 2625 N Woodlands Village Blvd; Flagstaff","address":" AZ 86001>928-214-8424","street_number":"2755","street_name":"South Woodlands Village Boulevard","zip":"86001","city":"Flagstaff","area":null,"county":"Coconino County","state":"AZ","country":"USA","formatted_address":"2755 South Woodlands Village Boulevard, Flagstaff, AZ, USA","place_id":"openstreetmap:address:way:323207470","datatype":"openstreetmap"},{"latitude":"34.5452","longitude":"-112.468","name":"Staples - 186 E Sheldon St; Prescott","address":" AZ 86301>928-776-0041","street_number":"236","street_name":"N Marina St","zip":null,"city":"Prescott","area":null,"county":"Yavapai County","state":"AZ","country":"USA","formatted_address":"236 N Marina St, Prescott, AZ, USA","place_id":"openaddresses:address:us\/az\/yavapai:a51cbe2d7c5cdf70","datatype":"openaddresses"},{"latitude":"34.864862","longitude":"-111.801269","name":"Staples - 2350 W Hwy 89A; Sedona","address":" AZ 86336>928-282-2576","street_number":"2356","street_name":"W State Route 89a","zip":null,"city":"Sedona","area":null,"county":"Yavapai County","state":"AZ","country":"USA","formatted_address":"2356 W State Route 89a, Sedona, AZ, USA","place_id":"openaddresses:address:us\/az\/yavapai:24ade70c383201ff","datatype":"openaddresses"},{"latitude":"35.21964","longitude":"-114.03305","name":"Staples - 3320 N Stockton Hill Rd  Bldg C; Kingman","address":" AZ 86401>928-692-2125","street_number":"3320","street_name":"Stockton Hill Rd 000000000","zip":"92618","city":"Kingman","area":null,"county":"Mohave County","state":"AZ","country":"USA","formatted_address":"3320 Stockton Hill Rd 000000000, Kingman, AZ, USA","place_id":"openaddresses:address:us\/az\/mohave:56ee134e940dcbdb","datatype":"openaddresses"},{"latitude":"34.50266","longitude":"-114.3458","name":"Staples - 1851 Kiowa Ave; Lake Havasu","address":" AZ 86404>928-505-1101","street_number":"2","street_name":"2","zip":"91304","city":"Lake Havasu City","area":null,"county":"Mohave County","state":"AZ","country":"USA","formatted_address":"2 2, Lake Havasu City, AZ, USA","place_id":"openaddresses:address:us\/az\/mohave:482d9104979683fc","datatype":"openaddresses"},{"latitude":"34.0076","longitude":"-118.337449","name":"Staples - 3701 W Santa Rosalia Dr; Los Angeles","address":" CA 90008>323-293-2278","street_number":"3701","street_name":"Santa Rosalia Drive","zip":"90008","city":"Los Angeles","area":null,"county":"Los Angeles County","state":"CA","country":"USA","formatted_address":"3701 Santa Rosalia Drive, Los Angeles, CA, USA","place_id":"openstreetmap:address:way:296950267","datatype":"openstreetmap"},{"latitude":"34.03629","longitude":"-118.271","name":"Staples - 1701 S Figueroa; Los Angeles","address":" CA 90015>213-746-6330","street_number":"1707","street_name":"S Figueroa St","zip":"90015","city":"Los Angeles","area":null,"county":"Los Angeles County","state":"CA","country":"USA","formatted_address":"1707 S Figueroa St, Los Angeles, CA, USA","place_id":"openaddresses:address:us\/ca\/los_angeles:3932d8616728e1ac","datatype":"openaddresses"},{"latitude":"34.063824","longitude":"-118.292563","name":"Staples - 3223 W 6th St; Los Angeles","address":" CA 90020>213-738-9837","street_number":"3229","street_name":"W 6th St","zip":"90020","city":"Los Angeles","area":null,"county":"Los Angeles County","state":"CA","country":"USA","formatted_address":"3229 W 6th St, Los Angeles, CA, USA","place_id":"openaddresses:address:us\/ca\/los_angeles:4bb803a2874f875d","datatype":"openaddresses"},{"latitude":"34.04948","longitude":"-118.43491","name":"Staples - 10830 W Santa Monica Blvd; Los Angeles","address":" CA 90025>310-441-1734","street_number":"1818","street_name":"Glendon Ave","zip":"90025","city":"Los Angeles","area":null,"county":"Los Angeles County","state":"CA","country":"USA","formatted_address":"1818 Glendon Ave, Los Angeles, CA, USA","place_id":"openaddresses:address:us\/ca\/los_angeles:5579e41b7e0e7603","datatype":"openaddresses"},{"latitude":"34.0332","longitude":"-118.454","name":"Staples - 2052 Bundy Dr; W Los Angeles","address":" CA 90025>310-826-0442","street_number":"2052","street_name":"S Bundy Dr","zip":"90025","city":"Los Angeles","area":null,"county":"Los Angeles County","state":"CA","country":"USA","formatted_address":"2052 S Bundy Dr, Los Angeles, CA, USA","place_id":"openaddresses:address:us\/ca\/los_angeles:471b67fc02a72711","datatype":"openaddresses"},{"latitude":"34.0976","longitude":"-118.331","name":"Staples - 6450 Sunset Blvd; Hollywood","address":" CA 90028>323-467-2155","street_number":"1450","street_name":"Wilcox Ave","zip":"90028","city":"Los Angeles","area":null,"county":"Los Angeles County","state":"CA","country":"USA","formatted_address":"1450 Wilcox Ave, Los Angeles, CA, USA","place_id":"openaddresses:address:us\/ca\/los_angeles:82f9175488feb5f2","datatype":"openaddresses"},{"latitude":"34.09058","longitude":"-118.28967","name":"Staples - 4641 W Santa Monica Blvd; Los Angeles","address":" CA 90029>323-669-7583","street_number":"4606","street_name":"Santa Monica Blvd","zip":"90029","city":"Los Angeles","area":null,"county":"Los Angeles County","state":"CA","country":"USA","formatted_address":"4606 Santa Monica Blvd, Los Angeles, CA, USA","place_id":"openaddresses:address:us\/ca\/los_angeles:1a21e2fd8218de21","datatype":"openaddresses"},{"latitude":"34.0625","longitude":"-118.347","name":"Staples - 5407 Wilshire Blvd; Los Angeles","address":" CA 90036>323-965-5240","street_number":"5423","street_name":"Wilshire Blvd","zip":"90036","city":"Los Angeles","area":null,"county":"Los Angeles County","state":"CA","country":"USA","formatted_address":"5423 Wilshire Blvd, Los Angeles, CA, USA","place_id":"openaddresses:address:us\/ca\/los_angeles:22f8ecde0fd0c8ef","datatype":"openaddresses"},{"latitude":"33.958","longitude":"-118.39476","name":"Staples - 8704 S Sepulveda Blvd; Westchester","address":" CA 90045>310-342-5113","street_number":"8720","street_name":"Sepulveda Eastway","zip":"90045","city":"Los Angeles","area":null,"county":"Los Angeles County","state":"CA","country":"USA","formatted_address":"8720 Sepulveda Eastway, Los Angeles, CA, USA","place_id":"openaddresses:address:us\/ca\/los_angeles:743984d2fe804ac2","datatype":"openaddresses"},{"latitude":"34.026236","longitude":"-118.432923","name":"Staples - 11341 National Blvd; Los Angeles","address":" CA 90064>310-445-4041","street_number":"11341","street_name":"National Blvd","zip":"90064","city":"Los Angeles","area":null,"county":"Los Angeles County","state":"CA","country":"USA","formatted_address":"11341 National Blvd, Los Angeles, CA, USA","place_id":"openaddresses:address:us\/ca\/los_angeles:0dffcaca28794303","datatype":"openaddresses"},{"latitude":"34.1152","longitude":"-118.247","name":"Staples - 3360 N San Fernando Rd; Glendale","address":" CA 90065>323-256-2409","street_number":"3132","street_name":"N San Fernando Rd","zip":"90065","city":"Los Angeles","area":null,"county":"Los Angeles County","state":"CA","country":"USA","formatted_address":"3132 N San Fernando Rd, Los Angeles, CA, USA","place_id":"openaddresses:address:us\/ca\/los_angeles:8604f9f548634c56","datatype":"openaddresses"},{"latitude":"33.879796","longitude":"-118.220532","name":"Staples - 203 Towne Center Dr; Compton","address":" CA 90220>310.885.0348","street_number":"203","street_name":"Towne Center Dr","zip":"90220","city":"Compton","area":null,"county":"Los Angeles County","state":"CA","country":"USA","formatted_address":"203 Towne Center Dr, Compton, CA, USA","place_id":"openaddresses:address:us\/ca\/los_angeles:26311baf794a843f","datatype":"openaddresses"},{"latitude":"33.92634","longitude":"-118.12764","name":"Staples - 12070 Lakewood Blvd; Downey","address":" CA 90242>562-803-6377","street_number":"12106","street_name":"Lakewood Blvd","zip":"90242","city":"Downey","area":null,"county":"Los Angeles County","state":"CA","country":"USA","formatted_address":"12106 Lakewood Blvd, Downey, CA, USA","place_id":"openaddresses:address:us\/ca\/los_angeles:e4b930ad2b7db05e","datatype":"openaddresses"},{"latitude":"33.893562","longitude":"-118.287191","name":"Staples - 701 West Redondo Beach Blvd; Gardena","address":" CA 90247>310-324-1495","street_number":"657","street_name":"W Redondo Beach Blvd","zip":"90247","city":"Los Angeles","area":null,"county":"Los Angeles County","state":"CA","country":"USA","formatted_address":"657 W Redondo Beach Blvd, Los Angeles, CA, USA","place_id":"openaddresses:address:us\/ca\/los_angeles:6069c6ece4c3e523","datatype":"openaddresses"},{"latitude":"33.98847","longitude":"-118.21336","name":"Staples - 3090 E Slauson Ave; Hungtington","address":" CA 90255>323-277-3706","street_number":"3090","street_name":"E Slauson Ave","zip":"90255","city":"Huntington Park","area":null,"county":"Los Angeles County","state":"CA","country":"USA","formatted_address":"3090 E Slauson Ave, Huntington Park, CA, USA","place_id":"openaddresses:address:us\/ca\/los_angeles:66077c442e21831b","datatype":"openaddresses"},{"latitude":"33.9943","longitude":"-118.454","name":"Staples - 1501 Lincoln Blvd; Venice","address":" CA 90291>310-577-6740","street_number":"2305","street_name":"Route 1","zip":"90291","city":"Los Angeles","area":null,"county":"Los Angeles County","state":"CA","country":"USA","formatted_address":"2305 Route 1, Los Angeles, CA, USA","place_id":"openaddresses:address:us\/ca\/los_angeles:c565961df25441ea","datatype":"openaddresses"},{"latitude":"33.94587","longitude":"-118.33678","name":"Staples - 3451 W Century Blvd; Inglewood","address":" CA 90303>310-673-6800","street_number":"-1","street_name":"W Century Blvd","zip":"90303","city":"Inglewood","area":null,"county":"Los Angeles County","state":"CA","country":"USA","formatted_address":"-1 W Century Blvd, Inglewood, CA, USA","place_id":"openaddresses:address:us\/ca\/los_angeles:750dde2301dae458","datatype":"openaddresses"},{"latitude":"34.02771","longitude":"-118.48611","name":"Staples - 1610 Wilshire Boulevard; Santa Monica","address":" CA 90403>310-828-7779","street_number":"1225","street_name":"16th St","zip":"90404","city":"Santa Monica","area":null,"county":"Los Angeles County","state":"CA","country":"USA","formatted_address":"1225 16th St, Santa Monica, CA, USA","place_id":"openaddresses:address:us\/ca\/los_angeles:aeb87027bf3ecd4d","datatype":"openaddresses"},{"latitude":"33.82743","longitude":"-118.35086","name":"Staples - 22025 Hawthorne Blvd; Torrance","address":" CA 90503>310-540-3093","street_number":"21880","street_name":"Hawthorne Blvd","zip":"90503","city":"Torrance","area":null,"county":"Los Angeles County","state":"CA","country":"USA","formatted_address":"21880 Hawthorne Blvd, Torrance, CA, USA","place_id":"openaddresses:address:us\/ca\/los_angeles:5c78d75f864d5140","datatype":"openaddresses"},{"latitude":"33.792","longitude":"-118.334","name":"Staples - 2748 Pacific Coast Hwy; Torrance","address":" CA 90505>310-784-2410","street_number":"2720","street_name":"Pch","zip":"90505","city":"Torrance","area":null,"county":"Los Angeles County","state":"CA","country":"USA","formatted_address":"2720 Pch, Torrance, CA, USA","place_id":"openaddresses:address:us\/ca\/los_angeles:58ec84684bb90f8c","datatype":"openaddresses"},{"latitude":"33.9627","longitude":"-118.033","name":"Staples - 13550-B Whittier Blvd; Whittier","address":" CA 90605>562-698-2034","street_number":"13400","street_name":"Whittier Blvd","zip":"90605","city":"Whittier","area":null,"county":"Los Angeles County","state":"CA","country":"USA","formatted_address":"13400 Whittier Blvd, Whittier, CA, USA","place_id":"openaddresses:address:us\/ca\/los_angeles:e180e5ca13119565","datatype":"openaddresses"},{"latitude":"33.80298","longitude":"-118.0133","name":"Staples - 6816 E Katella Rd; Cypress","address":" CA 90630>714-891-0288","street_number":"6827","street_name":"Katella Av","zip":"90630","city":"Cypress","area":null,"county":"Orange County","state":"CA","country":"USA","formatted_address":"6827 Katella Av, Cypress, CA, USA","place_id":"openaddresses:address:us\/ca\/orange:1f5570433cb6f30d","datatype":"openaddresses"},{"latitude":"33.893571","longitude":"-118.287148","name":"Staples - 1310 South Beach Blvd; LaHabra","address":" CA 90631>562.691.9641","street_number":"657","street_name":"W Redondo Beach Blvd","zip":"90247","city":"Los Angeles","area":null,"county":"Los Angeles County","state":"CA","country":"USA","formatted_address":"657 W Redondo Beach Blvd, Los Angeles, CA, USA","place_id":"openaddresses:address:us\/ca\/los_angeles:6069c6ece4c3e523","datatype":"openaddresses"},{"latitude":"33.88715","longitude":"-118.10088","name":"Staples - 10820 Alondra Blvd; Cerritos","address":" CA 90703>562-916-7886","street_number":"15925","street_name":"Studebaker Rd","zip":"90703","city":"Cerritos","area":null,"county":"Los Angeles County","state":"CA","country":"USA","formatted_address":"15925 Studebaker Rd, Cerritos, CA, USA","place_id":"openaddresses:address:us\/ca\/los_angeles:f3ab4475455b1bc1","datatype":"openaddresses"},{"latitude":"33.783215","longitude":"-118.073637","name":"Staples - 12337 Seal Beach Blvd; Seal Beach","address":" CA 90740>562-594-3765","street_number":"12320","street_name":"Seal Beach Bl","zip":null,"city":"Seal Beach","area":null,"county":"Orange County","state":"CA","country":"USA","formatted_address":"12320 Seal Beach Bl, Seal Beach, CA, USA","place_id":"openaddresses:address:us\/ca\/orange:673e57fd55b3243b","datatype":"openaddresses"},{"latitude":"33.80814","longitude":"-118.27195","name":"Staples - 250 E Sepulveda Blvd; Carson","address":" CA 90745>310-522-0810","street_number":"302","street_name":"E 238th Pl","zip":"90745","city":"Carson","area":null,"county":"Los Angeles County","state":"CA","country":"USA","formatted_address":"302 E 238th Pl, Carson, CA, USA","place_id":"openaddresses:address:us\/ca\/city_of_carson:c4fabcfa8de958ca","datatype":"openaddresses"},{"latitude":"33.7869","longitude":"-118.139","name":"Staples - 4600 Pacific Coast Hwy; Long Beach","address":" CA 90804>562-597-1922","street_number":"4608","street_name":"E Pacific Coast Hwy","zip":"90804","city":"Long Beach","area":null,"county":"Los Angeles County","state":"CA","country":"USA","formatted_address":"4608 E Pacific Coast Hwy, Long Beach, CA, USA","place_id":"openaddresses:address:us\/ca\/city_of_long_beach:c5ae28eda4caad4a","datatype":"openaddresses"},{"latitude":"33.8198","longitude":"-118.185","name":"Staples - 3515 Atlantic Ave; Long Beach","address":" CA 90807>562-427-6477","street_number":"3490","street_name":"Atlantic Ave","zip":"90807","city":"Long Beach","area":null,"county":"Los Angeles County","state":"CA","country":"USA","formatted_address":"3490 Atlantic Ave, Long Beach, CA, USA","place_id":"openaddresses:address:us\/ca\/city_of_long_beach:0e7055fbb7f02e78","datatype":"openaddresses"},{"latitude":"34.1361","longitude":"-117.986","name":"Staples - 1450 S Mountain Ave; Monrovia","address":" CA 91010>626-305-5686","street_number":"1452","street_name":"Mountain Ave","zip":"91010","city":"Duarte","area":null,"county":"Los Angeles County","state":"CA","country":"USA","formatted_address":"1452 Mountain Ave, Duarte, CA, USA","place_id":"openaddresses:address:us\/ca\/los_angeles:a1470491e797b569","datatype":"openaddresses"},{"latitude":"34.13153","longitude":"-118.1466","name":"Staples - 875 S Arroyo Pkwy; Pasadena","address":" CA 91105>626-578-3490","street_number":"826","street_name":"S Arroyo Pkwy","zip":"91105","city":"Pasadena","area":null,"county":"Los Angeles County","state":"CA","country":"USA","formatted_address":"826 S Arroyo Pkwy, Pasadena, CA, USA","place_id":"openaddresses:address:us\/ca\/los_angeles:778c4472c972d35f","datatype":"openaddresses"},{"latitude":"34.14621","longitude":"-118.0737","name":"Staples - 3660 Colorado Blvd; Pasadena","address":" CA 91107>626-395-0693","street_number":"3696","street_name":"E Colorado Blvd","zip":"91107","city":"East Pasadena","area":null,"county":"Los Angeles County","state":"CA","country":"USA","formatted_address":"3696 E Colorado Blvd, East Pasadena, CA, USA","place_id":"openaddresses:address:us\/ca\/los_angeles:2d484afbd09a198a","datatype":"openaddresses"},{"latitude":"34.14927","longitude":"-118.247","name":"Staples - 213 N Glendale Ave; Glendale","address":" CA 91206>818-240-2133","street_number":"701","street_name":"E California Ave","zip":"91206","city":"Glendale","area":null,"county":"Los Angeles County","state":"CA","country":"USA","formatted_address":"701 E California Ave, Glendale, CA, USA","place_id":"openaddresses:address:us\/ca\/los_angeles:22f05766a5360cc8","datatype":"openaddresses"},{"latitude":"34.19081","longitude":"-118.93328","name":"Staples - 2725 Teller Rd; Newbury Park","address":" CA 91320>805-498-4371","street_number":"2586","street_name":"Calcite Cir","zip":"91320","city":"Thousand Oaks","area":null,"county":"Ventura County","state":"CA","country":"USA","formatted_address":"2586 Calcite Cir, Thousand Oaks, CA, USA","place_id":"openaddresses:address:us\/ca\/ventura:39b5ce2e0221c9ad","datatype":"openaddresses"},{"latitude":"34.26471","longitude":"-118.5012","name":"Staples - 17020 Chatsworth St; Granada Hills","address":" CA 91344>818-831-8095","street_number":"16929","street_name":"Chatsworth St","zip":"91344","city":"Los Angeles","area":null,"county":"Los Angeles County","state":"CA","country":"USA","formatted_address":"16929 Chatsworth St, Los Angeles, CA, USA","place_id":"openaddresses:address:us\/ca\/los_angeles:852523a213657c12","datatype":"openaddresses"},{"latitude":"34.38377","longitude":"-118.5714","name":"Staples - 25570 N Old Rd; Valencia","address":" CA 91355>661-286-2700","street_number":"25520","street_name":"The Old Rd","zip":"91381","city":"Stevenson Ranch","area":null,"county":"Los Angeles County","state":"CA","country":"USA","formatted_address":"25520 The Old Rd, Stevenson Ranch, CA, USA","place_id":"openaddresses:address:us\/ca\/los_angeles:0c60cf8675eb5916","datatype":"openaddresses"},{"latitude":"34.15434","longitude":"-118.7926","name":"Staples - 5760 Lindero Canyon Rd; Westlake Village","address":" CA 91362>818-865-9660","street_number":"30805","street_name":"Genova Ct","zip":"91362","city":"Westlake Village","area":null,"county":"Los Angeles County","state":"CA","country":"USA","formatted_address":"30805 Genova Ct, Westlake Village, CA, USA","place_id":"openaddresses:address:us\/ca\/los_angeles:33d529798a8d7149","datatype":"openaddresses"},{"latitude":"34.183393","longitude":"-118.603856","name":"Staples - 21825 Erwin St; Woodland Hills","address":" CA 91367>818-577-2632","street_number":"21825","street_name":"Erwin St","zip":"91367","city":"Los Angeles","area":null,"county":"Los Angeles County","state":"CA","country":"USA","formatted_address":"21825 Erwin St, Los Angeles, CA, USA","place_id":"openaddresses:address:us\/ca\/los_angeles:4c0be1ab31af5f0f","datatype":"openaddresses"},{"latitude":"34.18007","longitude":"-118.46368","name":"Staples - 6104 Sepulveda Blvd; Van Nuys","address":" CA 91411>818-908-2360","street_number":"15157","street_name":"Oxnard St","zip":"91411","city":"Los Angeles","area":null,"county":"Los Angeles County","state":"CA","country":"USA","formatted_address":"15157 Oxnard St, Los Angeles, CA, USA","place_id":"openaddresses:address:us\/ca\/los_angeles:73bc8d4fd2e45482","datatype":"openaddresses"},{"latitude":"34.19093","longitude":"-118.32899","name":"Staples - 2080 Empire Ave; Burbank","address":" CA 91504>818-238-2928","street_number":"1813","street_name":"N Victory Pl","zip":"91504","city":"Burbank","area":null,"county":"Los Angeles County","state":"CA","country":"USA","formatted_address":"1813 N Victory Pl, Burbank, CA, USA","place_id":"openaddresses:address:us\/ca\/los_angeles:83c787b7a245e9e5","datatype":"openaddresses"},{"latitude":"34.1622","longitude":"-118.315","name":"Staples - 1060 W Almeda Ave; Burbank","address":" CA 91506>818-558-3350","street_number":"1200","street_name":"W Alameda Ave","zip":"91506","city":"Burbank","area":null,"county":"Los Angeles County","state":"CA","country":"USA","formatted_address":"1200 W Alameda Ave, Burbank, CA, USA","place_id":"openaddresses:address:us\/ca\/los_angeles:62eccac3c6b87b0a","datatype":"openaddresses"},{"latitude":"34.1433","longitude":"-118.407","name":"Staples - 12605 Ventura Blvd; Studio City","address":" CA 91604>818-753-6390","street_number":"12555","street_name":"Ventura Blvd","zip":"91604","city":"Los Angeles","area":null,"county":"Los Angeles County","state":"CA","country":"USA","formatted_address":"12555 Ventura Blvd, Los Angeles, CA, USA","place_id":"openaddresses:address:us\/ca\/los_angeles:27dca3fa8af878d0","datatype":"openaddresses"},{"latitude":"34.2017","longitude":"-118.413","name":"Staples - 12807 Sherman Way; N Hollywood","address":" CA 91605>818-503-7960","street_number":"12863","street_name":"Sherman Wy","zip":"91605","city":"Los Angeles","area":null,"county":"Los Angeles County","state":"CA","country":"USA","formatted_address":"12863 Sherman Wy, Los Angeles, CA, USA","place_id":"openaddresses:address:us\/ca\/los_angeles:d9407d9a5cb0a8fa","datatype":"openaddresses"},{"latitude":"34.0007","longitude":"-117.72","name":"Staples - 4016 Grand Ave; Chino","address":" CA 91710>909-613-0322","street_number":"3850","street_name":"Grand Ave","zip":"91710","city":"Chino","area":null,"county":"San Bernardino County","state":"CA","country":"USA","formatted_address":"3850 Grand Ave, Chino, CA, USA","place_id":"openaddresses:address:us\/ca\/san_bernardino:c69806e4c74cc7e0","datatype":"openaddresses"},{"latitude":"34.11419","longitude":"-117.8365","name":"Staples - 1391 E Gladstone St; Glendora","address":" CA 91740>909-599-4361","street_number":"1436","street_name":"W Gladstone St","zip":"91773","city":"San Dimas","area":null,"county":"Los Angeles County","state":"CA","country":"USA","formatted_address":"1436 W Gladstone St, San Dimas, CA, USA","place_id":"openaddresses:address:us\/ca\/los_angeles:bb67db4c7cdf2a28","datatype":"openaddresses"},{"latitude":"33.99263","longitude":"-117.9185","name":"Staples - 17638 E Castleton St; City of Industry","address":" CA 91748>626-839-1739","street_number":"17638","street_name":"Castleton St","zip":"91748","city":"Industry","area":null,"county":"Los Angeles County","state":"CA","country":"USA","formatted_address":"17638 Castleton St, Industry, CA, USA","place_id":"openaddresses:address:us\/ca\/los_angeles:696a98896931bd5e","datatype":"openaddresses"},{"latitude":"34.110462","longitude":"-117.761435","name":"Staples - 2330 Foothill Blvd; LaVerne","address":" CA 91750>909-450-2340","street_number":"2320","street_name":"Foothill Blvd","zip":"91750","city":"La Verne","area":null,"county":"Los Angeles County","state":"CA","country":"USA","formatted_address":"2320 Foothill Blvd, La Verne, CA, USA","place_id":"openaddresses:address:us\/ca\/los_angeles:cd0ec69d55ec00c6","datatype":"openaddresses"},{"latitude":"33.97739","longitude":"-117.55356","name":"Staples - 12495 Limonite Ave; Mira Loma","address":" CA 91752>951-360-3110","street_number":"12423","street_name":"Limonite Ave","zip":"91752","city":"Eastvale","area":null,"county":"Riverside County","state":"CA","country":"USA","formatted_address":"12423 Limonite Ave, Eastvale, CA, USA","place_id":"openaddresses:address:us\/ca\/riverside:323cc2e707e277a0","datatype":"openaddresses"},{"latitude":"34.03717","longitude":"-118.14705","name":"Staples - 2345 Atlantic Blvd; Monterey Park","address":" CA 91754>323-980-9233","street_number":"2314","street_name":"S Atlantic Blvd","zip":"91754","city":"Monterey Park","area":null,"county":"Los Angeles County","state":"CA","country":"USA","formatted_address":"2314 S Atlantic Blvd, Monterey Park, CA, USA","place_id":"openaddresses:address:us\/ca\/los_angeles:96c1caa3351a85a8","datatype":"openaddresses"},{"latitude":"34.06992","longitude":"-117.56018","name":"Staples - 921 N Milliken Ave; Ontario","address":" CA 91761>909-987-9336","street_number":"701","street_name":"Milliken Ave","zip":"91761","city":"Ontario","area":null,"county":"San Bernardino County","state":"CA","country":"USA","formatted_address":"701 Milliken Ave, Ontario, CA, USA","place_id":"openaddresses:address:us\/ca\/san_bernardino:acfe618c715aa14d","datatype":"openaddresses"},{"latitude":"34.08809","longitude":"-117.669","name":"Staples - 300 S Mountain Ave; Upland","address":" CA 91786>909-981-9039","street_number":"420","street_name":"Mountain Ave","zip":"91786","city":"Upland","area":null,"county":"San Bernardino County","state":"CA","country":"USA","formatted_address":"420 Mountain Ave, Upland, CA, USA","place_id":"openaddresses:address:us\/ca\/san_bernardino:502410c0200ae6b0","datatype":"openaddresses"},{"latitude":"34.02651","longitude":"-117.83716","name":"Staples - 21555 Valley Blvd; Walnut","address":" CA 91789>909-594-6379","street_number":"21555","street_name":"Valley Blvd","zip":"91789","city":"Walnut","area":null,"county":"Los Angeles County","state":"CA","country":"USA","formatted_address":"21555 Valley Blvd, Walnut, CA, USA","place_id":"openaddresses:address:us\/ca\/los_angeles:35930046d4cee72f","datatype":"openaddresses"},{"latitude":"32.5947","longitude":"-117.0353","name":"Staples - 1850 Main Court; Chula Vista","address":" CA 91911>619-421-4777","street_number":"1820","street_name":"Main Ct","zip":"91911","city":"Chula Vista","area":null,"county":"San Diego County","state":"CA","country":"USA","formatted_address":"1820 Main Ct, Chula Vista, CA, USA","place_id":"openaddresses:address:us\/ca\/san_diego:07d48b2faa2f9c97","datatype":"openaddresses"},{"latitude":"32.7769","longitude":"-117.006","name":"Staples - 8805 Murray Dr; La Mesa","address":" CA 91941>619-469-0734","street_number":"8805","street_name":"Murray Dr","zip":"91942","city":"La Mesa","area":null,"county":"San Diego County","state":"CA","country":"USA","formatted_address":"8805 Murray Dr, La Mesa, CA, USA","place_id":"openaddresses:address:us\/ca\/san_diego:c02c8e498f858d8a","datatype":"openaddresses"},{"latitude":"33.13281","longitude":"-117.25948","name":"Staples - 2712 Loker Ave W; Carlsbad","address":" CA 92010>760-476-1476","street_number":"2717","street_name":"Loker Ave","zip":"92010","city":"Carlsbad","area":null,"county":"San Diego County","state":"CA","country":"USA","formatted_address":"2717 Loker Ave, Carlsbad, CA, USA","place_id":"openaddresses:address:us\/ca\/san_diego:d89ffe8f8265187e","datatype":"openaddresses"},{"latitude":"32.73899","longitude":"-116.9411","name":"Staples - 2879 Jamacha Rd; El Cajon","address":" CA 92019>619-670-1094","street_number":"2987","street_name":"Jamacha Rd","zip":"92019","city":"Rancho San Diego","area":null,"county":"San Diego County","state":"CA","country":"USA","formatted_address":"2987 Jamacha Rd, Rancho San Diego, CA, USA","place_id":"openaddresses:address:us\/ca\/san_diego:5b4a7ff13156dbf5","datatype":"openaddresses"},{"latitude":"33.11313","longitude":"-117.1017","name":"Staples - 1358 W Valley Pkwy; Escondido","address":" CA 92029>760-781-3930","street_number":"1286","street_name":"Auto Park Way","zip":"92029","city":"Escondido","area":null,"county":"San Diego County","state":"CA","country":"USA","formatted_address":"1286 Auto Park Way, Escondido, CA, USA","place_id":"openaddresses:address:us\/ca\/san_diego:190b3f3fb4025fbd","datatype":"openaddresses"},{"latitude":"33.18336","longitude":"-117.3391","name":"Staples - 2150 Vista Way; Oceanside","address":" CA 92054>760-754-5110","street_number":"2245","street_name":"Ivy Rd","zip":"92054","city":"Oceanside","area":null,"county":"San Diego County","state":"CA","country":"USA","formatted_address":"2245 Ivy Rd, Oceanside, CA, USA","place_id":"openaddresses:address:us\/ca\/san_diego:8e48de898fba120c","datatype":"openaddresses"},{"latitude":"32.93865","longitude":"-117.04608","name":"Staples - 12900 Gregg Blvd; Poway","address":" CA 92064>858-391-1600","street_number":"12890","street_name":"Gregg Court","zip":"92064","city":"Poway","area":null,"county":"San Diego County","state":"CA","country":"USA","formatted_address":"12890 Gregg Court, Poway, CA, USA","place_id":"openstreetmap:address:node:597002230","datatype":"openstreetmap"},{"latitude":"33.13481","longitude":"-117.17705","name":"Staples - 561 Grand Ave; San Marcos","address":" CA 92069>760-471-5770","street_number":"553","street_name":"Grand Avenue","zip":"92078","city":"San Marcos","area":null,"county":"San Diego County","state":"CA","country":"USA","formatted_address":"553 Grand Avenue, San Marcos, CA, USA","place_id":"openstreetmap:address:node:4045677909","datatype":"openstreetmap"},{"latitude":"32.9938","longitude":"-117.259","name":"Staples - 681 San Rodolfo Dr; Solana Beach","address":" CA 92075>858-481-7151","street_number":"667","street_name":"San Rodolfo Dr","zip":"92075","city":"Solana Beach","area":null,"county":"San Diego County","state":"CA","country":"USA","formatted_address":"667 San Rodolfo Dr, Solana Beach, CA, USA","place_id":"openaddresses:address:us\/ca\/san_diego:22def56143d78345","datatype":"openaddresses"},{"latitude":"33.19778","longitude":"-117.24823","name":"Staples - 235 Vista Village Dr; Vista","address":" CA 92083>760-639-1420","street_number":"255","street_name":"Vista Village Dr","zip":"92083","city":"Vista","area":null,"county":"San Diego County","state":"CA","country":"USA","formatted_address":"255 Vista Village Dr, Vista, CA, USA","place_id":"openaddresses:address:us\/ca\/san_diego:3984421405f36d11","datatype":"openaddresses"},{"latitude":"32.77144","longitude":"-117.14243","name":"Staples - 1880 Camino de la Reina Park; San Diego","address":" CA 92108>619-725-0770","street_number":"2240","street_name":"Qualcomm Way","zip":"92108","city":"San Diego","area":null,"county":"San Diego County","state":"CA","country":"USA","formatted_address":"2240 Qualcomm Way, San Diego, CA, USA","place_id":"openaddresses:address:us\/ca\/san_diego:c535961237c8211a","datatype":"openaddresses"},{"latitude":"32.7997","longitude":"-117.24","name":"Staples - 1650 Garnet Ave; San Diego","address":" CA 92109>858-490-1700","street_number":"1645","street_name":"Garnet Avenue","zip":"92109","city":"San Diego","area":null,"county":"San Diego County","state":"CA","country":"USA","formatted_address":"1645 Garnet Avenue, San Diego, CA, USA","place_id":"openstreetmap:address:node:596484106","datatype":"openstreetmap"},{"latitude":"32.75182","longitude":"-117.205","name":"Staples - 3146B Sports Arena Blvd; San Diego","address":" CA 92110>619-523-6005","street_number":"3176","street_name":"Sports Arena Boulevard","zip":"92110","city":"San Diego","area":null,"county":"San Diego County","state":"CA","country":"USA","formatted_address":"3176 Sports Arena Boulevard, San Diego, CA, USA","place_id":"openstreetmap:address:node:365356637","datatype":"openstreetmap"},{"latitude":"32.8191","longitude":"-117.15","name":"Staples - 4240 Kearny Mesa Rd; Kearny Mesa","address":" CA 92111>858-279-0355","street_number":"4200","street_name":"Kearny Mesa Road","zip":"92111","city":"San Diego","area":null,"county":"San Diego County","state":"CA","country":"USA","formatted_address":"4200 Kearny Mesa Road, San Diego, CA, USA","place_id":"openstreetmap:address:node:596154966","datatype":"openstreetmap"},{"latitude":"32.89289","longitude":"-117.203","name":"Staples - 9420 Scranton Rd; Mira Mesa","address":" CA 92121>858-623-0048","street_number":"9440","street_name":"Scranton Rd","zip":"92121","city":"San Diego","area":null,"county":"San Diego County","state":"CA","country":"USA","formatted_address":"9440 Scranton Rd, San Diego, CA, USA","place_id":"openaddresses:address:us\/ca\/san_diego:632293c223986a1b","datatype":"openaddresses"},{"latitude":"32.97934","longitude":"-117.08353","name":"Staples - 11160 Rancho Carmel Dr; Carmel Mtn Ranch","address":" CA 92128>858-675-0426","street_number":"11144","street_name":"Carmel Mountain Rd","zip":"92128","city":"San Diego","area":null,"county":"San Diego County","state":"CA","country":"USA","formatted_address":"11144 Carmel Mountain Rd, San Diego, CA, USA","place_id":"openaddresses:address:us\/ca\/san_diego:892a984349b5a915","datatype":"openaddresses"},{"latitude":"32.769238","longitude":"-115.531518","name":"Staples - 560 E Danenberg Dr; El Centro","address":" CA 92243>760-335-4901","street_number":null,"street_name":null,"zip":null,"city":null,"area":null,"county":null,"state":null,"country":null,"formatted_address":null,"place_id":null,"datatype":null},{"latitude":"33.714847","longitude":"-116.292564","name":"Staples - 78680 Hwy 111; La Quinta","address":" CA 92253>760-564-8957","street_number":"78680","street_name":"Highway 111","zip":"92253","city":"La Quinta","area":null,"county":"Riverside County","state":"CA","country":"USA","formatted_address":"78680 Highway 111, La Quinta, CA, USA","place_id":"openaddresses:address:us\/ca\/riverside:ae3c3a0341e8bb79","datatype":"openaddresses"},{"latitude":"33.7211","longitude":"-116.392","name":"Staples - 72-811 Hwy 111; Palm Desert","address":" CA 92260>760-341-4814","street_number":"72996","street_name":"El Paseo","zip":"92260","city":"Palm Desert","area":null,"county":"Riverside County","state":"CA","country":"USA","formatted_address":"72996 El Paseo, Palm Desert, CA, USA","place_id":"openaddresses:address:us\/ca\/riverside:332c63646422eeae","datatype":"openaddresses"},{"latitude":"33.814324","longitude":"-116.492077","name":"Staples - 5001 Ramon Rd; Palm Springs","address":" CA 92264>760-325-7056","street_number":"5001","street_name":"E Ramon Rd","zip":"92262","city":"Palm Springs","area":null,"county":"Riverside County","state":"CA","country":"USA","formatted_address":"5001 E Ramon Rd, Palm Springs, CA, USA","place_id":"openaddresses:address:us\/ca\/riverside:14059d4646e05a91","datatype":"openaddresses"},{"latitude":"34.468792","longitude":"-117.244453","name":"Staples - 19201 A - Bear Valley Rd; Apple Valley","address":" CA 92308>760-961-6472","street_number":"19201","street_name":"Bear Valley Rd","zip":"92308","city":"Apple Valley","area":null,"county":"San Bernardino County","state":"CA","country":"USA","formatted_address":"19201 Bear Valley Rd, Apple Valley, CA, USA","place_id":"openaddresses:address:us\/ca\/san_bernardino:59f8e536e941c5a0","datatype":"openaddresses"},{"latitude":"34.106674","longitude":"-117.19496","name":"Staples - 27945 Greenspot Rd; Highland","address":" CA 92346>909-863-1274","street_number":"27945","street_name":"Greenspot Rd","zip":"92346","city":"Highland","area":null,"county":"San Bernardino County","state":"CA","country":"USA","formatted_address":"27945 Greenspot Rd, Highland, CA, USA","place_id":"openaddresses:address:us\/ca\/san_bernardino:52b89231919ccd09","datatype":"openaddresses"},{"latitude":"34.467456","longitude":"-117.35071","name":"Staples - 11930 Amargosa Rd; Victorville","address":" CA 92392>760-955-2288","street_number":"11930","street_name":"Amargosa Rd","zip":"92392","city":"Victorville","area":null,"county":"San Bernardino County","state":"CA","country":"USA","formatted_address":"11930 Amargosa Rd, Victorville, CA, USA","place_id":"openaddresses:address:us\/ca\/san_bernardino:782e9a85e6677144","datatype":"openaddresses"},{"latitude":"34.03474","longitude":"-117.07004","name":"Staples - 33730 Yucaipa Blvd; Yucaipa","address":" CA 92399>909-797-7711","street_number":"33644","street_name":"Yucaipa Blvd","zip":"92399","city":"Yucaipa","area":null,"county":"San Bernardino County","state":"CA","country":"USA","formatted_address":"33644 Yucaipa Blvd, Yucaipa, CA, USA","place_id":"openaddresses:address:us\/ca\/san_bernardino:216ba360318fda7a","datatype":"openaddresses"},{"latitude":"34.06861","longitude":"-117.26263","name":"Staples - 945 E Hospitality Ln; San Bernardino","address":" CA 92408>909-478-9884","street_number":"1099","street_name":"E Hospitality Ln","zip":"92408","city":"San Bernardino","area":null,"county":"San Bernardino County","state":"CA","country":"USA","formatted_address":"1099 E Hospitality Ln, San Bernardino, CA, USA","place_id":"openaddresses:address:us\/ca\/san_bernardino:030998a3512970e2","datatype":"openaddresses"},{"latitude":"33.9114","longitude":"-117.461","name":"Staples - 3750 Tyler St; Riverside","address":" CA 92503>951-358-2840","street_number":"3790","street_name":"Tyler St","zip":"92503","city":"Riverside","area":null,"county":"Riverside County","state":"CA","country":"USA","formatted_address":"3790 Tyler St, Riverside, CA, USA","place_id":"openaddresses:address:us\/ca\/city_of_riverside:f961a162920fed57","datatype":"openaddresses"},{"latitude":"33.95729","longitude":"-117.39256","name":"Staples - 6296 Magnolia Ave; Riverside","address":" CA 92506>951-782-2140","street_number":"3673","street_name":"Merrill Ave","zip":"92506","city":"Riverside","area":null,"county":"Riverside County","state":"CA","country":"USA","formatted_address":"3673 Merrill Ave, Riverside, CA, USA","place_id":"openaddresses:address:us\/ca\/riverside:3286ad3f0472d0df","datatype":"openaddresses"},{"latitude":"33.942241","longitude":"-117.288669","name":"Staples - 2550 Canyon Springs Pkwy; Riverside","address":" CA 92507>951-656-6594","street_number":"2550","street_name":"Valley Springs Parkway","zip":"92507","city":"Riverside","area":null,"county":"Riverside County","state":"CA","country":"USA","formatted_address":"2550 Valley Springs Parkway, Riverside, CA, USA","place_id":"openstreetmap:address:way:444490333","datatype":"openstreetmap"},{"latitude":"33.69377","longitude":"-117.33864","name":"Staples - 29225 Central Ave; Lake Elsinore","address":" CA 92530>951-245-9686","street_number":"29335","street_name":"Central Ave","zip":"92532","city":"Lake Elsinore","area":null,"county":"Riverside County","state":"CA","country":"USA","formatted_address":"29335 Central Ave, Lake Elsinore, CA, USA","place_id":"openaddresses:address:us\/ca\/riverside:496a1d90dc0a6543","datatype":"openaddresses"},{"latitude":"33.7474","longitude":"-117.0082","name":"Staples - 3381 W Florida Ave; Hemet","address":" CA 92545>951-658-0224","street_number":"37372","street_name":"Highway 74","zip":"92545","city":"Hemet","area":null,"county":"Riverside County","state":"CA","country":"USA","formatted_address":"37372 Highway 74, Hemet, CA, USA","place_id":"openaddresses:address:us\/ca\/riverside:536ba74c028710f7","datatype":"openaddresses"},{"latitude":"33.55675","longitude":"-117.19926","name":"Staples - 25070 Madison Ave; Murrieta","address":" CA 92562>951-696-9668","street_number":"25090","street_name":"Madison Ave","zip":"92562","city":"Murrieta","area":null,"county":"Riverside County","state":"CA","country":"USA","formatted_address":"25090 Madison Ave, Murrieta, CA, USA","place_id":"openaddresses:address:us\/ca\/riverside:b9f9e76b4d845516","datatype":"openaddresses"},{"latitude":"33.678114","longitude":"-117.174715","name":"Staples - 30450 Haun Rd; Menifee","address":" CA 92584>951-301-1109","street_number":"30450","street_name":"Haun Rd","zip":"92584","city":"Menifee","area":null,"county":"Riverside County","state":"CA","country":"USA","formatted_address":"30450 Haun Rd, Menifee, CA, USA","place_id":"openaddresses:address:us\/ca\/riverside:50740288722ab660","datatype":"openaddresses"},{"latitude":"33.48266","longitude":"-117.09579","name":"Staples - 32120 Hwy 79 S ; Temecula","address":" CA 92592>516-302-6478","street_number":"32180","street_name":"Temecula Pky","zip":"92592","city":"Temecula","area":null,"county":"Riverside County","state":"CA","country":"USA","formatted_address":"32180 Temecula Pky, Temecula, CA, USA","place_id":"openaddresses:address:us\/ca\/city_of_temecula:66cfbe2f5bad61bb","datatype":"openaddresses"},{"latitude":"33.70033","longitude":"-117.83625","name":"Staples - 2160 Barranca Pkwy; Irvine","address":" CA 92606>949-838-0388","street_number":"1962","street_name":"Barranca Pk","zip":null,"city":"Irvine","area":null,"county":"Orange County","state":"CA","country":"USA","formatted_address":"1962 Barranca Pk, Irvine, CA, USA","place_id":"openaddresses:address:us\/ca\/orange:a958148635a13a8f","datatype":"openaddresses"},{"latitude":"33.63479","longitude":"-117.9164","name":"Staples - 241 E 17th St; Costa Mesa","address":" CA 92627>949-548-4955","street_number":"253","street_name":"Cabrillo St","zip":"92627","city":"Costa Mesa","area":null,"county":"Orange County","state":"CA","country":"USA","formatted_address":"253 Cabrillo St, Costa Mesa, CA, USA","place_id":"openaddresses:address:us\/ca\/orange:2877d3995c8b2365","datatype":"openaddresses"},{"latitude":"33.6338","longitude":"-117.71","name":"Staples - 22631 Lake Forest Dr; Lake Forest","address":" CA 92630>949-837-3323","street_number":"22621","street_name":"El Toro Road","zip":"92630","city":"Lake Forest","area":null,"county":"Orange County","state":"CA","country":"USA","formatted_address":"22621 El Toro Road, Lake Forest, CA, USA","place_id":"openstreetmap:address:way:356611013","datatype":"openstreetmap"},{"latitude":"33.7305","longitude":"-117.991","name":"Staples - 7881 Edinger Ave; Huntington Beach","address":" CA 92647>714-379-0044","street_number":"7880","street_name":"Edinger Av","zip":null,"city":"Huntington Beach","area":null,"county":"Orange County","state":"CA","country":"USA","formatted_address":"7880 Edinger Av, Huntington Beach, CA, USA","place_id":"openaddresses:address:us\/ca\/orange:10faf59a2107c330","datatype":"openaddresses"},{"latitude":"33.6804","longitude":"-118.00343","name":"Staples - 7131 Yorktown Ave; Huntington Beach","address":" CA 92648>714-374-6725","street_number":"7151","street_name":"Yorktown Av","zip":null,"city":"Huntington Beach","area":null,"county":"Orange County","state":"CA","country":"USA","formatted_address":"7151 Yorktown Av, Huntington Beach, CA, USA","place_id":"openaddresses:address:us\/ca\/orange:50257b50f85fbd3c","datatype":"openaddresses"},{"latitude":"33.57271","longitude":"-117.72278","name":"Staples - 26791 Aliso Creek Rd; Aliso Viejo","address":" CA 92656>949-448-4120","street_number":"15","street_name":"Front Row","zip":null,"city":"Aliso Viejo","area":null,"county":"Orange County","state":"CA","country":"USA","formatted_address":"15 Front Row, Aliso Viejo, CA, USA","place_id":"openaddresses:address:us\/ca\/orange:64619be72732ce28","datatype":"openaddresses"},{"latitude":"33.66879","longitude":"-117.865","name":"Staples - 4343 MacArthur Blvd; Newport Beach","address":" CA 92660>949-752-9186","street_number":"4545","street_name":"Macarthur Bl","zip":null,"city":"Newport Beach","area":null,"county":"Orange County","state":"CA","country":"USA","formatted_address":"4545 Macarthur Bl, Newport Beach, CA, USA","place_id":"openaddresses:address:us\/ca\/orange:6d5e72fa29dce52f","datatype":"openaddresses"},{"latitude":"33.43756","longitude":"-117.6224","name":"Staples - 93 Via Pico Plaza; San Clemente","address":" CA 92672>949-492-2633","street_number":"100","street_name":"Calle De La Pico","zip":"92674","city":"San Clemente","area":null,"county":"Orange County","state":"CA","country":"USA","formatted_address":"100 Calle De La Pico, San Clemente, CA, USA","place_id":"openaddresses:address:us\/ca\/orange:989b161f8533a835","datatype":"openaddresses"},{"latitude":"33.6486","longitude":"-117.592","name":"Staples - 30511 Avenida de las Flores; Rancho Santa Margarita","address":" CA 92688>949-635-1870","street_number":"6","street_name":"La Cueva Rancho","zip":null,"city":"Rancho Santa Margarita","area":null,"county":"Orange County","state":"CA","country":"USA","formatted_address":"6 La Cueva Rancho, Rancho Santa Margarita, CA, USA","place_id":"openaddresses:address:us\/ca\/orange:75ff4b9cb4d1224f","datatype":"openaddresses"},{"latitude":"33.56702","longitude":"-117.63129","name":"Staples - 27542 Antonio Pkwy; Ladera Ranch","address":" CA 92694>949-365-1321","street_number":"77","street_name":"Kyle Ct","zip":null,"city":"Ladera Ranch","area":null,"county":"Orange County","state":"CA","country":"USA","formatted_address":"77 Kyle Ct, Ladera Ranch, CA, USA","place_id":"openaddresses:address:us\/ca\/orange:15f7fadec167a41a","datatype":"openaddresses"},{"latitude":"33.69869","longitude":"-117.88382","name":"Staples - 3861 S Bristol St; Santa Ana","address":" CA 92704>714-556-3633","street_number":"1010","street_name":"W Macarthur Blvd","zip":null,"city":"Santa Ana","area":null,"county":"Orange County","state":"CA","country":"USA","formatted_address":"1010 W Macarthur Blvd, Santa Ana, CA, USA","place_id":"openaddresses:address:us\/ca\/orange:3dc4a24f066a00d0","datatype":"openaddresses"},{"latitude":"33.7597","longitude":"-117.836","name":"Staples - 2120 E 17th St; Santa Ana","address":" CA 92705>714-550-6767","street_number":"2130","street_name":"E 17th St","zip":null,"city":"Santa Ana","area":null,"county":"Orange County","state":"CA","country":"USA","formatted_address":"2130 E 17th St, Santa Ana, CA, USA","place_id":"openaddresses:address:us\/ca\/orange:8a7dd4c5d9d33997","datatype":"openaddresses"},{"latitude":"33.8423","longitude":"-117.9573","name":"Staples - 790 N Brookhurst St; Anaheim","address":" CA 92801>714-254-7270","street_number":"800","street_name":"N Brookhurst St","zip":"92801","city":"Anaheim","area":null,"county":"Orange County","state":"CA","country":"USA","formatted_address":"800 N Brookhurst St, Anaheim, CA, USA","place_id":"openaddresses:address:us\/ca\/city_of_anaheim:7940524b1c2ffd3d","datatype":"openaddresses"},{"latitude":"33.91205","longitude":"-117.8669","name":"Staples - 2375 E Imperial Hwy; Brea","address":" CA 92821>714-672-9384","street_number":"2515","street_name":"E Imperial Hw","zip":null,"city":"Brea","area":null,"county":"Orange County","state":"CA","country":"USA","formatted_address":"2515 E Imperial Hw, Brea, CA, USA","place_id":"openaddresses:address:us\/ca\/orange:06065feb9cc0dae7","datatype":"openaddresses"},{"latitude":"33.7734","longitude":"-117.921","name":"Staples - 13031 Harbor Blvd; Garden Grove","address":" CA 92843>714-741-8320","street_number":"13125","street_name":"Harbor Bl","zip":null,"city":"Garden Grove","area":null,"county":"Orange County","state":"CA","country":"USA","formatted_address":"13125 Harbor Bl, Garden Grove, CA, USA","place_id":"openaddresses:address:us\/ca\/orange:a49c5294bd9ec02b","datatype":"openaddresses"},{"latitude":"33.8977","longitude":"-117.562","name":"Staples - 1210 Hamner Ave; Norco","address":" CA 92860>951-372-0119","street_number":"150","street_name":"Hidden Valley Parkway","zip":"92860","city":"Norco","area":null,"county":"Riverside County","state":"CA","country":"USA","formatted_address":"150 Hidden Valley Parkway, Norco, CA, USA","place_id":"openstreetmap:address:node:2984085489","datatype":"openstreetmap"},{"latitude":"33.82269","longitude":"-117.8358","name":"Staples - 2050 N Tustin Ave; Orange","address":" CA 92865>714-282-0081","street_number":"2091","street_name":"N Tustin St","zip":null,"city":"Orange","area":null,"county":"Orange County","state":"CA","country":"USA","formatted_address":"2091 N Tustin St, Orange, CA, USA","place_id":"openaddresses:address:us\/ca\/orange:7133cb677a1dc7b1","datatype":"openaddresses"},{"latitude":"33.7815","longitude":"-117.868","name":"Staples - 330 S Main St; Orange","address":" CA 92868>714-939-7606","street_number":"23332","street_name":"Mill Creek Dr","zip":null,"city":"Orange","area":null,"county":"Orange County","state":"CA","country":"USA","formatted_address":"23332 Mill Creek Dr, Orange, CA, USA","place_id":"openaddresses:address:us\/ca\/orange:62b1def8c8b3ae68","datatype":"openaddresses"},{"latitude":"33.82646","longitude":"-117.51327","name":"Staples - 3439 Grand Oaks; Corona","address":" CA 92882>951-817-9090","street_number":"3439","street_name":"Grand Oaks","zip":"92881","city":"Corona","area":null,"county":"Riverside County","state":"CA","country":"USA","formatted_address":"3439 Grand Oaks, Corona, CA, USA","place_id":"openstreetmap:address:node:596244849","datatype":"openstreetmap"},{"latitude":"33.87706","longitude":"-117.7424","name":"Staples - 5511 Mirage St; Yorba Linda","address":" CA 92887>714-283-1412","street_number":"22745","street_name":"Savi Ranch Pk","zip":null,"city":"Yorba Linda","area":null,"county":"Orange County","state":"CA","country":"USA","formatted_address":"22745 Savi Ranch Pk, Yorba Linda, CA, USA","place_id":"openaddresses:address:us\/ca\/orange:fab3a0000b88d454","datatype":"openaddresses"},{"latitude":"34.272127","longitude":"-119.249234","name":"Staples - 3400 Telegraph Rd;  Ventura","address":" CA 93003>805-654-9522","street_number":"3400","street_name":"Telegraph Rd","zip":"93003","city":"San Buenaventura (Ventura)","area":null,"county":"Ventura County","state":"CA","country":"USA","formatted_address":"3400 Telegraph Rd, San Buenaventura (Ventura), CA, USA","place_id":"openaddresses:address:us\/ca\/ventura:d919951ab8502266","datatype":"openaddresses"},{"latitude":"34.218","longitude":"-119.073","name":"Staples - 317 W Ventura Blvd; Camarillo","address":" CA 93010>805-384-1540","street_number":"243","street_name":"W Ventura Blvd","zip":"93010","city":"Camarillo","area":null,"county":"Ventura County","state":"CA","country":"USA","formatted_address":"243 W Ventura Blvd, Camarillo, CA, USA","place_id":"openaddresses:address:us\/ca\/ventura:f276492971f279c1","datatype":"openaddresses"},{"latitude":"34.23428","longitude":"-119.17676","name":"Staples - 411 Esplanade Dr; Oxnard","address":" CA 93036>805-988-1781","street_number":"261","street_name":"W Esplanade Dr","zip":"93036","city":"Oxnard","area":null,"county":"Ventura County","state":"CA","country":"USA","formatted_address":"261 W Esplanade Dr, Oxnard, CA, USA","place_id":"openaddresses:address:us\/ca\/ventura:15f8e9b5e7ff9b3e","datatype":"openaddresses"},{"latitude":"34.2787","longitude":"-118.737","name":"Staples - 2880 Cochran St; Simi Valley","address":" CA 93065>805-579-9700","street_number":"3060","street_name":"E Cochran St","zip":"93065","city":"Simi Valley","area":null,"county":"Ventura County","state":"CA","country":"USA","formatted_address":"3060 E Cochran St, Simi Valley, CA, USA","place_id":"openaddresses:address:us\/ca\/ventura:b38006ea0afdde4e","datatype":"openaddresses"},{"latitude":"34.41579","longitude":"-119.693","name":"Staples - 410 State St; Santa Barbara","address":" CA 93101>805-965-9577","street_number":"314","street_name":"State St","zip":"93101","city":"Santa Barbara","area":null,"county":"Santa Barbara County","state":"CA","country":"USA","formatted_address":"314 State St, Santa Barbara, CA, USA","place_id":"openaddresses:address:us\/ca\/santa_barbara:19909","datatype":"openaddresses"},{"latitude":"34.4303","longitude":"-119.8686","name":"Staples - 7015 Marketplace Dr; Goleta","address":" CA 93117>805-961-8093","street_number":"6875","street_name":"Hollister Ave","zip":"93117","city":"Goleta","area":null,"county":"Santa Barbara County","state":"CA","country":"USA","formatted_address":"6875 Hollister Ave, Goleta, CA, USA","place_id":"openaddresses:address:us\/ca\/santa_barbara:110047","datatype":"openaddresses"},{"latitude":"36.3285","longitude":"-119.657","name":"Staples - 510 N 11th Ave; Hanford","address":" CA 93230>559-585-7270","street_number":"836","street_name":"W Lacey Blvd","zip":"93230","city":"Hanford","area":null,"county":"Kings County","state":"CA","country":"USA","formatted_address":"836 W Lacey Blvd, Hanford, CA, USA","place_id":"openaddresses:address:us\/ca\/kings:7371f9ccdc6181bf","datatype":"openaddresses"},{"latitude":"36.29679","longitude":"-119.313","name":"Staples - 3729 S Mooney Blvd; Visalia","address":" CA 93277>559-635-9394","street_number":"3704","street_name":"S Mooney Blvd","zip":"93277","city":"Visalia","area":null,"county":"Tulare County","state":"CA","country":"USA","formatted_address":"3704 S Mooney Blvd, Visalia, CA, USA","place_id":"openaddresses:address:us\/ca\/tulare:3e8860670fbc1a12","datatype":"openaddresses"},{"latitude":"35.2622","longitude":"-120.649","name":"Staples - 2950 Broad St; San Luis Obispo","address":" CA 93401>805-782-9881","street_number":"3195","street_name":"Mcmillan Ave","zip":"93401","city":"San Luis Obispo","area":null,"county":"San Luis Obispo County","state":"CA","country":"USA","formatted_address":"3195 Mcmillan Ave, San Luis Obispo, CA, USA","place_id":"openaddresses:address:us\/ca\/city_of_san_luis_obispo:7e96799c550850d0","datatype":"openaddresses"},{"latitude":"35.52632","longitude":"-120.70066","name":"Staples - 815 El Camino Real; Atascadero","address":" CA 93422>805-462-9500","street_number":"22","street_name":"Santa Cruz Road","zip":null,"city":"Atascadero","area":null,"county":"San Luis Obispo County","state":"CA","country":"USA","formatted_address":"22 Santa Cruz Road, Atascadero, CA, USA","place_id":"openstreetmap:address:way:165800047","datatype":"openstreetmap"},{"latitude":"34.64869","longitude":"-120.4569","name":"Staples - 615 H St; Lompoc","address":" CA 93436>805-740-0192","street_number":"638","street_name":"N H St","zip":"93436","city":"Lompoc","area":null,"county":"Santa Barbara County","state":"CA","country":"USA","formatted_address":"638 N H St, Lompoc, CA, USA","place_id":"openaddresses:address:us\/ca\/santa_barbara:50949","datatype":"openaddresses"},{"latitude":"35.6148","longitude":"-120.6792","name":"Staples - 160 Niblick Rd; Paso Robles","address":" CA 93446>805-227-1570","street_number":"1400","street_name":"South River Road","zip":"93446","city":"El Paso de Robles (Paso Robles)","area":null,"county":"San Luis Obispo County","state":"CA","country":"USA","formatted_address":"1400 South River Road, El Paso de Robles (Paso Robles), CA, USA","place_id":"openstreetmap:address:way:161927951","datatype":"openstreetmap"},{"latitude":"34.69348","longitude":"-118.1708","name":"Staples - 44620 Valley Central Way; Lancaster","address":" CA 93536>661-723-1277","street_number":"44620","street_name":"Valley Central Way","zip":"93536","city":"Lancaster","area":null,"county":"Los Angeles County","state":"CA","country":"USA","formatted_address":"44620 Valley Central Way, Lancaster, CA, USA","place_id":"openstreetmap:address:node:2021511615","datatype":"openstreetmap"},{"latitude":"34.5957","longitude":"-118.14589","name":"Staples - 39258 10th St W; Palmdale","address":" CA 93551>661-265-7630","street_number":"39180","street_name":"10th St W","zip":"93551","city":"Palmdale","area":null,"county":"Los Angeles County","state":"CA","country":"USA","formatted_address":"39180 10th St W, Palmdale, CA, USA","place_id":"openaddresses:address:us\/ca\/los_angeles:70362cfec4b6f7c6","datatype":"openaddresses"},{"latitude":"36.60875","longitude":"-121.8547","name":"Staples - 1550 Canyon Del Rey Blvd; Seaside","address":" CA 93955>831-393-2102","street_number":"1545","street_name":"Del Monte Boulevard","zip":"93955","city":"Seaside","area":null,"county":"Monterey County","state":"CA","country":"USA","formatted_address":"1545 Del Monte Boulevard, Seaside, CA, USA","place_id":"openaddresses:address:us\/ca\/monterey:e4f3c5307870736a","datatype":"openaddresses"},{"latitude":"37.45215","longitude":"-122.17789","name":"Staples - 700 El Camino Real; Menlo Park","address":" CA 94025>650-329-9440","street_number":"800","street_name":"State Highway 82","zip":null,"city":"Menlo Park","area":null,"county":"San Mateo County","state":"CA","country":"USA","formatted_address":"800 State Highway 82, Menlo Park, CA, USA","place_id":"openaddresses:address:us\/ca\/san_mateo:192595","datatype":"openaddresses"},{"latitude":"37.64127","longitude":"-122.4195","name":"Staples - 470 Noor Ave; South San Francisco","address":" CA 94080>650-869-6882","street_number":"1350","street_name":"Huntington Ave","zip":null,"city":"San Bruno","area":null,"county":"San Mateo County","state":"CA","country":"USA","formatted_address":"1350 Huntington Ave, San Bruno, CA, USA","place_id":"openaddresses:address:us\/ca\/san_mateo:44748","datatype":"openaddresses"},{"latitude":"37.79209","longitude":"-122.4211","name":"Staples - 1700 Van Ness Ave; San Francisco","address":" CA 94109>415-771-7030","street_number":"1639","street_name":"Polk St","zip":"94109","city":"San Francisco","area":null,"county":"San Francisco County","state":"CA","country":"USA","formatted_address":"1639 Polk St, San Francisco, CA, USA","place_id":"openaddresses:address:us\/ca\/san_francisco:2466080cb7103b78","datatype":"openaddresses"},{"latitude":"37.55879","longitude":"-122.2818","name":"Staples - 2230 Bridgepoint Pkwy; San Mateo","address":" CA 94404>650-573-9972","street_number":"2230","street_name":"Bridgepointe Pkwy","zip":null,"city":"San Mateo","area":null,"county":"San Mateo County","state":"CA","country":"USA","formatted_address":"2230 Bridgepointe Pkwy, San Mateo, CA, USA","place_id":"openaddresses:address:us\/ca\/san_mateo:100983","datatype":"openaddresses"},{"latitude":"37.96428","longitude":"-121.99187","name":"Staples - 4498 Treat Blvd; Concord","address":" CA 94521>925-609-1014","street_number":"4301","street_name":"Clayton Rd","zip":"94521","city":"Concord","area":null,"county":"Contra Costa County","state":"CA","country":"USA","formatted_address":"4301 Clayton Rd, Concord, CA, USA","place_id":"openaddresses:address:us\/ca\/contra_costa:634061be81697d56","datatype":"openaddresses"},{"latitude":"37.9456","longitude":"-122.059","name":"Staples - 2120 Contra Costa Blvd; Pleasant Hill","address":" CA 94523>925-691-4060","street_number":"2250","street_name":"Contra Costa Blvd","zip":"94523","city":"Pleasant Hill","area":null,"county":"Contra Costa County","state":"CA","country":"USA","formatted_address":"2250 Contra Costa Blvd, Pleasant Hill, CA, USA","place_id":"openaddresses:address:us\/ca\/contra_costa:0209bbab94427f97","datatype":"openaddresses"},{"latitude":"37.92363","longitude":"-122.3165","name":"Staples - 11545 San Pablo Ave; El Cerrito","address":" CA 94530>510-231-0388","street_number":"11481","street_name":"San Pablo Avenue","zip":"94530","city":"El Cerrito","area":null,"county":"Contra Costa County","state":"CA","country":"USA","formatted_address":"11481 San Pablo Avenue, El Cerrito, CA, USA","place_id":"openstreetmap:address:node:3198850457","datatype":"openstreetmap"},{"latitude":"37.9628","longitude":"-121.76233","name":"Staples - 4863 Lone Tree Way; Antioch","address":" CA 94531>925-706-4038","street_number":"4893","street_name":"Lone Tree Way","zip":"94531","city":"Antioch","area":null,"county":"Contra Costa County","state":"CA","country":"USA","formatted_address":"4893 Lone Tree Way, Antioch, CA, USA","place_id":"openaddresses:address:us\/ca\/contra_costa:ccedcfede25e23a9","datatype":"openaddresses"},{"latitude":"38.255187","longitude":"-122.066447","name":"Staples - 1250 Oliver Rd; Fairfield","address":" CA 94534>707-436-9877","street_number":"1250","street_name":"Oliver Road","zip":"94534","city":"Fairfield","area":null,"county":"Solano County","state":"CA","country":"USA","formatted_address":"1250 Oliver Road, Fairfield, CA, USA","place_id":"openaddresses:address:us\/ca\/solano:4b9612d4f82e4f19","datatype":"openaddresses"},{"latitude":"37.546692","longitude":"-121.986895","name":"Staples - 39116 Fremont Hub; Fremont","address":" CA 94538>510-494-9565","street_number":"39130","street_name":"Fremont Hub","zip":"94538","city":"Fremont","area":null,"county":"Alameda County","state":"CA","country":"USA","formatted_address":"39130 Fremont Hub, Fremont, CA, USA","place_id":"openaddresses:address:us\/ca\/alameda:30e51845f9490a85","datatype":"openaddresses"},{"latitude":"38.32231","longitude":"-122.2985","name":"Staples - 3325 Jefferson St; Napa","address":" CA 94558>707-258-1490","street_number":"3285","street_name":"Main St","zip":null,"city":"Napa","area":null,"county":"Napa County","state":"CA","country":"USA","formatted_address":"3285 Main St, Napa, CA, USA","place_id":"openaddresses:address:us\/ca\/napa:7bad47b161755819","datatype":"openaddresses"},{"latitude":"37.9909","longitude":"-122.305","name":"Staples - 1200 Fitzgerald Dr; Pinole","address":" CA 94564>510-223-0402","street_number":"1501","street_name":"Fitzgerald Dr","zip":"94564","city":"Pinole","area":null,"county":"Contra Costa County","state":"CA","country":"USA","formatted_address":"1501 Fitzgerald Dr, Pinole, CA, USA","place_id":"openaddresses:address:us\/ca\/contra_costa:9a1c2d3a87bdee3e","datatype":"openaddresses"},{"latitude":"37.70321","longitude":"-122.12604","name":"Staples - 15555 E 14th St; San Leandro","address":" CA 94578>510-276-0460","street_number":"15555","street_name":"East 14th Street","zip":"94578","city":"San Leandro","area":null,"county":"Alameda County","state":"CA","country":"USA","formatted_address":"15555 East 14th Street, San Leandro, CA, USA","place_id":"openstreetmap:address:way:119748184","datatype":"openstreetmap"},{"latitude":"37.7744","longitude":"-121.984","name":"Staples - 2710 Crow Canyon Rd; San Ramon","address":" CA 94583>925-552-1960","street_number":"2723","street_name":"Crow Canyon Rd","zip":"94583","city":"San Ramon","area":null,"county":"Contra Costa County","state":"CA","country":"USA","formatted_address":"2723 Crow Canyon Rd, San Ramon, CA, USA","place_id":"openaddresses:address:us\/ca\/contra_costa:05995eae19966bd3","datatype":"openaddresses"},{"latitude":"37.866381","longitude":"-122.268015","name":"Staples - 2352 Shattuck Ave; Berkeley","address":" CA 94704>510-704-0872","street_number":"2364","street_name":"Shattuck Avenue","zip":"94704","city":"Berkeley","area":null,"county":"Alameda County","state":"CA","country":"USA","formatted_address":"2364 Shattuck Avenue, Berkeley, CA, USA","place_id":"openstreetmap:address:node:2343899257","datatype":"openstreetmap"},{"latitude":"37.96759","longitude":"-122.5208","name":"Staples - 655 Irwin St; San Rafael","address":" CA 94901>415-485-0507","street_number":null,"street_name":null,"zip":null,"city":null,"area":null,"county":null,"state":null,"country":null,"formatted_address":null,"place_id":null,"datatype":null},{"latitude":"38.0932","longitude":"-122.559","name":"Staples - 55 Rowland Way; Novato","address":" CA 94945>415-897-0544","street_number":"124","street_name":"Vintage Way","zip":"94945","city":"Novato","area":null,"county":"Marin County","state":"CA","country":"USA","formatted_address":"124 Vintage Way, Novato, CA, USA","place_id":"openstreetmap:address:node:1076443928","datatype":"openstreetmap"},{"latitude":"38.24713","longitude":"-122.61629","name":"Staples - 207 S McDowell Blvd; Petaluma","address":" CA 94952>707-762-3131","street_number":"1510","street_name":"Colwood Dr","zip":"94954","city":"Petaluma","area":null,"county":"Sonoma County","state":"CA","country":"USA","formatted_address":"1510 Colwood Dr, Petaluma, CA, USA","place_id":"openaddresses:address:us\/ca\/sonoma:780e4089c11fbe05","datatype":"openaddresses"},{"latitude":"37.29357","longitude":"-121.93929","name":"Staples - 500 E Hamilton Ave; Campbell","address":" CA 95008>408-374-4206","street_number":"600","street_name":"East Hamilton Avenue","zip":"95008","city":"Campbell","area":null,"county":"Santa Clara County","state":"CA","country":"USA","formatted_address":"600 East Hamilton Avenue, Campbell, CA, USA","place_id":"openstreetmap:address:node:428750047","datatype":"openstreetmap"},{"latitude":"37.322223","longitude":"-122.03818","name":"Staples - 20830 Stevens Creek Blvd; Cupertino","address":" CA 95014>408-252-1019","street_number":"20830","street_name":"Stevens Creek Blvd","zip":"95014-2121","city":"Cupertino","area":null,"county":"Santa Clara County","state":"CA","country":"USA","formatted_address":"20830 Stevens Creek Blvd, Cupertino, CA, USA","place_id":"openaddresses:address:us\/ca\/city_of_cupertino:56137347556907ea","datatype":"openaddresses"},{"latitude":"37.02319","longitude":"-121.5641","name":"Staples - 8840 San Ysidro Ave; Gilroy","address":" CA 95020>408-846-8977","street_number":"8225-44","street_name":"Arroyo Circle","zip":"95020","city":"Gilroy","area":null,"county":"Santa Clara County","state":"CA","country":"USA","formatted_address":"8225-44 Arroyo Circle, Gilroy, CA, USA","place_id":"openstreetmap:address:node:2572329626","datatype":"openstreetmap"},{"latitude":"37.43307","longitude":"-121.8967","name":"Staples - 627 E Calaveras Blvd; Milpitas","address":" CA 95035>408-956-9204","street_number":"503","street_name":"E Calaveras Blvd","zip":"95035","city":"Milpitas","area":null,"county":"Santa Clara County","state":"CA","country":"USA","formatted_address":"503 E Calaveras Blvd, Milpitas, CA, USA","place_id":"openaddresses:address:us\/ca\/santa_clara:0a640d09004b5ee2","datatype":"openaddresses"},{"latitude":"37.155435","longitude":"-121.653015","name":"Staples - 1023 Cochrane Rd; Morgan Hill","address":" CA 95037>408-779-7505","street_number":"1019","street_name":"Cochrane Rd","zip":"95037","city":"Morgan Hill","area":null,"county":"Santa Clara County","state":"CA","country":"USA","formatted_address":"1019 Cochrane Rd, Morgan Hill, CA, USA","place_id":"openaddresses:address:us\/ca\/santa_clara:fa3910aa81ec1207","datatype":"openaddresses"},{"latitude":"36.98528","longitude":"-121.9804","name":"Staples - 2460 17th Ave; Santa Cruz","address":" CA 95062>831-477-9002","street_number":"2450","street_name":"17th Ave","zip":"95062","city":"Live Oak","area":null,"county":"Santa Cruz County","state":"CA","country":"USA","formatted_address":"2450 17th Ave, Live Oak, CA, USA","place_id":"openaddresses:address:us\/ca\/santa_cruz:593aa20401ce9e67","datatype":"openaddresses"},{"latitude":"36.92004","longitude":"-121.78","name":"Staples - 1445 Main St; Watsonville","address":" CA 95076>831-763-1943","street_number":"130","street_name":"Pera Dr","zip":"95076-3021","city":"Watsonville","area":null,"county":"Santa Cruz County","state":"CA","country":"USA","formatted_address":"130 Pera Dr, Watsonville, CA, USA","place_id":"openaddresses:address:us\/ca\/santa_cruz:a25050f52497070f","datatype":"openaddresses"},{"latitude":"37.349874","longitude":"-121.923908","name":"Staples - 760 Newhall Dr; San Jose","address":" CA 95110>408-271-5061","street_number":"1130","street_name":"Newhall Dr","zip":"95110","city":"San Jose","area":null,"county":"Santa Clara County","state":"CA","country":"USA","formatted_address":"1130 Newhall Dr, San Jose, CA, USA","place_id":"openaddresses:address:us\/ca\/santa_clara:15e928470d6fc6dd","datatype":"openaddresses"},{"latitude":"37.23191","longitude":"-121.77178","name":"Staples - 121 Bernal Rd; San Jose","address":" CA 95119>408-361-0208","street_number":"86","street_name":"Bernal Rd","zip":"95119","city":"San Jose","area":null,"county":"Santa Clara County","state":"CA","country":"USA","formatted_address":"86 Bernal Rd, San Jose, CA, USA","place_id":"openaddresses:address:us\/ca\/santa_clara:e187da96da9c8a13","datatype":"openaddresses"},{"latitude":"38.1158","longitude":"-121.344","name":"Staples - 2415 W Kettleman Lane; Lodi","address":" CA 95242>209-367-6850","street_number":"2315","street_name":"W St Rt 12 Hy","zip":null,"city":null,"area":null,"county":"San Joaquin County","state":"CA","country":"USA","formatted_address":"2315 W St Rt 12 Hy, San Joaquin County, CA, USA","place_id":"openaddresses:address:us\/ca\/san_joaquin:be11f473588b5f76","datatype":"openaddresses"},{"latitude":"37.757332","longitude":"-121.466366","name":"Staples - 2471 N Naglee Rd; Tracy","address":" CA 95304>209-832-2391","street_number":"2439","street_name":"N Naglee Rd","zip":"95304","city":"Tracy","area":null,"county":"San Joaquin County","state":"CA","country":"USA","formatted_address":"2439 N Naglee Rd, Tracy, CA, USA","place_id":"openaddresses:address:us\/ca\/san_joaquin:43a759ac67783810","datatype":"openaddresses"},{"latitude":"37.79527","longitude":"-121.19382","name":"Staples - 249 Commerce Ave; Manteca","address":" CA 95337>209-239-4045","street_number":"210","street_name":"Commerce Av","zip":null,"city":"Manteca","area":null,"county":"San Joaquin County","state":"CA","country":"USA","formatted_address":"210 Commerce Av, Manteca, CA, USA","place_id":"openaddresses:address:us\/ca\/san_joaquin:7ad6e5ae05c541a0","datatype":"openaddresses"},{"latitude":"37.318","longitude":"-120.4684","name":"Staples - 20 W Olive Ave; Merced","address":" CA 95348>209-383-0306","street_number":"180","street_name":"E Olive Ave","zip":"95340","city":"Merced","area":null,"county":"Merced County","state":"CA","country":"USA","formatted_address":"180 E Olive Ave, Merced, CA, USA","place_id":"openaddresses:address:us\/ca\/merced:62af79858cfa89a0","datatype":"openaddresses"},{"latitude":"37.71544","longitude":"-120.95767","name":"Staples - 2347 Claribel Rd; Riverbank","address":" CA 95367>209-863-1301","street_number":"2200","street_name":"Ashlar Way","zip":null,"city":"Riverbank","area":null,"county":"Stanislaus County","state":"CA","country":"USA","formatted_address":"2200 Ashlar Way, Riverbank, CA, USA","place_id":"openaddresses:address:us\/ca\/stanislaus:e4941a91169cfcd8","datatype":"openaddresses"},{"latitude":"37.9742","longitude":"-120.358","name":"Staples - 1171 Sanguinetti Rd; Sonora","address":" CA 95370>209-536-2600","street_number":"13051","street_name":"Sanguinetti Road","zip":"95370","city":null,"area":null,"county":"Tuolumne County","state":"CA","country":"USA","formatted_address":"13051 Sanguinetti Road, Tuolumne County, CA, USA","place_id":"openaddresses:address:us\/ca\/tuolumne:cb745537b27d31d4","datatype":"openaddresses"},{"latitude":"37.5099","longitude":"-120.873","name":"Staples - 1850 Countryside Dr; Turlock","address":" CA 95380>209-632-2209","street_number":"2160","street_name":"Lauren Cir","zip":null,"city":"Turlock","area":null,"county":"Stanislaus County","state":"CA","country":"USA","formatted_address":"2160 Lauren Cir, Turlock, CA, USA","place_id":"openaddresses:address:us\/ca\/stanislaus:90cded9df9d075a5","datatype":"openaddresses"},{"latitude":"38.293241","longitude":"-122.475974","name":"Staples - 977 Wt Napa St; Sonoma","address":" CA 95476>707-935-1466","street_number":"977","street_name":"W Napa St","zip":"95476","city":"Sonoma","area":null,"county":"Sonoma County","state":"CA","country":"USA","formatted_address":"977 W Napa St, Sonoma, CA, USA","place_id":"openaddresses:address:us\/ca\/sonoma:1e67d683bdca2fb1","datatype":"openaddresses"},{"latitude":"39.13398","longitude":"-123.19957","name":"Staples - 1225 Airport Park Blvd; Ukiah","address":" CA 95482>707-463-7110","street_number":"1140","street_name":"Airport Park Blvd","zip":null,"city":"Ukiah","area":null,"county":"Mendocino County","state":"CA","country":"USA","formatted_address":"1140 Airport Park Blvd, Ukiah, CA, USA","place_id":"openaddresses:address:us\/ca\/mendocino:3199046de618a12a","datatype":"openaddresses"},{"latitude":"40.777939","longitude":"-124.19131","name":"Staples - 3300 Broadway St, Eureka","address":" CA 95501>707-269-0196","street_number":"3450","street_name":"Broadway","zip":"95503","city":"Eureka","area":null,"county":"Humboldt County","state":"CA","country":"USA","formatted_address":"3450 Broadway, Eureka, CA, USA","place_id":"openaddresses:address:us\/ca\/humboldt:dc86c008aec795c4","datatype":"openaddresses"},{"latitude":"38.9046","longitude":"-121.076","name":"Staples - 411 Grass Valley Hwy; Auburn","address":" CA 95603>530-823-1040","street_number":"414","street_name":"Grass Valley Hwy","zip":"95603","city":"Auburn","area":null,"county":"Placer County","state":"CA","country":"USA","formatted_address":"414 Grass Valley Hwy, Auburn, CA, USA","place_id":"openaddresses:address:us\/ca\/placer:58df41183c80dad7","datatype":"openaddresses"},{"latitude":"38.68117","longitude":"-121.27","name":"Staples - 6330 Sunrise Blvd; Citrus Heights","address":" CA 95610>916-722-1011","street_number":"7925","street_name":"Arcadia Dr","zip":"95610.0","city":"Citrus Heights","area":null,"county":"Sacramento County","state":"CA","country":"USA","formatted_address":"7925 Arcadia Dr, Citrus Heights, CA, USA","place_id":"openaddresses:address:us\/ca\/sacramento:2f992cd126b4ab52","datatype":"openaddresses"},{"latitude":"38.4258","longitude":"-121.39198","name":"Staples - 9146 E Stockton Blvd; Elk Grove","address":" CA 95624>916-686-2450","street_number":"9161","street_name":"E Stockton Blvd","zip":"95624.0","city":"Elk Grove","area":null,"county":"Sacramento County","state":"CA","country":"USA","formatted_address":"9161 E Stockton Blvd, Elk Grove, CA, USA","place_id":"openaddresses:address:us\/ca\/sacramento:c3d4cd39dbb877b0","datatype":"openaddresses"},{"latitude":"38.64641","longitude":"-121.11684","name":"Staples - 2435 Iron Pointe Rd; Folsom","address":" CA 95630>916-983-2861","street_number":"2545","street_name":"Iron Point Rd","zip":"95630.0","city":"Folsom","area":null,"county":"Sacramento County","state":"CA","country":"USA","formatted_address":"2545 Iron Point Rd, Folsom, CA, USA","place_id":"openaddresses:address:us\/ca\/sacramento:bfa90685b3abc093","datatype":"openaddresses"},{"latitude":"38.3467","longitude":"-120.77156","name":"Staples - 12060 Industry Blvd; Jackson","address":" CA 95642>209-257-0430","street_number":"129","street_name":"Broadway","zip":"95642","city":"Jackson","area":null,"county":"Amador County","state":"CA","country":"USA","formatted_address":"129 Broadway, Jackson, CA, USA","place_id":"openaddresses:address:us\/ca\/amador:6cbc7f0877b43baf","datatype":"openaddresses"},{"latitude":"38.7418","longitude":"-121.22776","name":"Staples - 8670 Sierra College Blvd; Roseville","address":" CA 95661>916-781-3517","street_number":"8640","street_name":"Sierra College Boulevard","zip":"95661","city":"Roseville","area":null,"county":"Placer County","state":"CA","country":"USA","formatted_address":"8640 Sierra College Boulevard, Roseville, CA, USA","place_id":"openstreetmap:address:way:240068831","datatype":"openstreetmap"},{"latitude":"38.78219","longitude":"-121.2647","name":"Staples - 6770 Stanford Ranch Rd; Roseville","address":" CA 95678>916-781-9344","street_number":"6691","street_name":"Stanford Ranch Rd","zip":"95677","city":"Rocklin","area":null,"county":"Placer County","state":"CA","country":"USA","formatted_address":"6691 Stanford Ranch Rd, Rocklin, CA, USA","place_id":"openaddresses:address:us\/ca\/placer:8056ff43253f67ba","datatype":"openaddresses"},{"latitude":"38.3656","longitude":"-121.961","name":"Staples - 1010 Helen Power Dr; Vacaville","address":" CA 95688>707-452-8991","street_number":"171","street_name":"Nut Tree Parkway","zip":"95687","city":"Vacaville","area":null,"county":"Solano County","state":"CA","country":"USA","formatted_address":"171 Nut Tree Parkway, Vacaville, CA, USA","place_id":"openaddresses:address:us\/ca\/solano:4ac3589c92f8d57c","datatype":"openaddresses"},{"latitude":"38.60439","longitude":"-121.2679","name":"Staples - 2690 Sunrise Blvd; Rancho Cordova","address":" CA 95742>916-858-1868","street_number":"11164","street_name":"Folsom Blvd","zip":"95742.0","city":"Rancho Cordova","area":null,"county":"Sacramento County","state":"CA","country":"USA","formatted_address":"11164 Folsom Blvd, Rancho Cordova, CA, USA","place_id":"openaddresses:address:us\/ca\/sacramento:a5af1b6269670a93","datatype":"openaddresses"},{"latitude":"38.48214","longitude":"-121.50372","name":"Staples - 7551 Freeport Blvd; Sacramento","address":" CA 95832>916-395-9112","street_number":"1441","street_name":"Meadowview Rd","zip":"95822.0","city":"Sacramento","area":null,"county":"Sacramento County","state":"CA","country":"USA","formatted_address":"1441 Meadowview Rd, Sacramento, CA, USA","place_id":"openaddresses:address:us\/ca\/sacramento:7f8852ad4e5c040a","datatype":"openaddresses"},{"latitude":"38.63852","longitude":"-121.5035","name":"Staples - 3631 Truxel Rd; Natomas","address":" CA 95834>916-928-0890","street_number":"3870","street_name":"Truxel Rd","zip":"95834.0","city":"Sacramento","area":null,"county":"Sacramento County","state":"CA","country":"USA","formatted_address":"3870 Truxel Rd, Sacramento, CA, USA","place_id":"openaddresses:address:us\/ca\/sacramento:87acb52f100e4c82","datatype":"openaddresses"},{"latitude":"39.725693","longitude":"-121.800079","name":"Staples - 2019 Forest Ave; Chico","address":" CA 95928>530-343-8080","street_number":"2019","street_name":"Forest Ave","zip":"95928","city":"Chico","area":null,"county":"Butte County","state":"CA","country":"USA","formatted_address":"2019 Forest Ave, Chico, CA, USA","place_id":"openaddresses:address:us\/ca\/butte:1269ff74f4f2bad9","datatype":"openaddresses"},{"latitude":"39.2346","longitude":"-121.0356","name":"Staples - 646 Sutton Way; Grass Valley","address":" CA 95945>530-477-6700","street_number":"880","street_name":"Sutton Way","zip":"95945","city":"Grass Valley","area":null,"county":"Nevada County","state":"CA","country":"USA","formatted_address":"880 Sutton Way, Grass Valley, CA, USA","place_id":"openaddresses:address:us\/ca\/nevada:c56649956d4bdce3","datatype":"openaddresses"},{"latitude":"39.49823","longitude":"-121.574","name":"Staples - 2150 Feather River Blvd; Oroville","address":" CA 95965>530-533-1718","street_number":"350","street_name":"E Oroville Dam Blvd","zip":"95965","city":"Oroville","area":null,"county":"Butte County","state":"CA","country":"USA","formatted_address":"350 E Oroville Dam Blvd, Oroville, CA, USA","place_id":"openaddresses:address:us\/ca\/butte:f3003044d8248b1a","datatype":"openaddresses"},{"latitude":"39.1417","longitude":"-121.624","name":"Staples - 671 Colusa Ave; Yuba City","address":" CA 95991>530-671-1256","street_number":"674","street_name":"Colusa Ave","zip":"95991","city":"Yuba City","area":null,"county":"Sutter County","state":"CA","country":"USA","formatted_address":"674 Colusa Ave, Yuba City, CA, USA","place_id":"openaddresses:address:us\/ca\/sutter:490f7497d91d72c6","datatype":"openaddresses"},{"latitude":"40.16502","longitude":"-122.2264","name":"Staples - 580 S Main St; Red Bluff","address":" CA 96080>530-527-9232","street_number":"545","street_name":"Walton Dr","zip":null,"city":"Red Bluff","area":null,"county":"Tehama County","state":"CA","country":"USA","formatted_address":"545 Walton Dr, Red Bluff, CA, USA","place_id":"openaddresses:address:us\/ca\/tehama:d352ee779ebb8e33","datatype":"openaddresses"},{"latitude":"38.9138","longitude":"-120.0026","name":"Staples - 2061 Lake Tahoe Blvd; South Lake Tahoe","address":" CA 96150>530-544-9817","street_number":"2042","street_name":"Lake Tahoe Blvd","zip":null,"city":"South Lake Tahoe","area":null,"county":"El Dorado County","state":"CA","country":"USA","formatted_address":"2042 Lake Tahoe Blvd, South Lake Tahoe, CA, USA","place_id":"openaddresses:address:us\/ca\/el_dorado:7bc003ddb31c76e7","datatype":"openaddresses"},{"latitude":"39.912236","longitude":"-105.050369","name":"Staples - 5150 W 120th Ave; Westminster","address":" CO 80020>720-887-2497","street_number":"5150","street_name":"West 120Th Avenue","zip":"80031","city":"Westminster","area":null,"county":"Adams County","state":"CO","country":"USA","formatted_address":"5150 West 120Th Avenue, Westminster, CO, USA","place_id":"openaddresses:address:us\/co\/statewide:a8acadcfae05eaf5","datatype":"openaddresses"},{"latitude":"39.960035","longitude":"-104.989772","name":"Staples - 14458 Delaware St; Westminster","address":" CO 80023>303-920-8004","street_number":"14458","street_name":"Delaware Street","zip":"80020","city":"Westminster","area":null,"county":"Adams County","state":"CO","country":"USA","formatted_address":"14458 Delaware Street, Westminster, CO, USA","place_id":"openaddresses:address:us\/co\/statewide:d9dab94ab9e85aab","datatype":"openaddresses"},{"latitude":"39.593354","longitude":"-104.965058","name":"Staples - 6767 S Vine St; Centennial","address":" CO 80122>303-703-4481","street_number":"6767","street_name":"South Vine Street","zip":"80122","city":"Centennial","area":null,"county":"Arapahoe County","state":"CO","country":"USA","formatted_address":"6767 South Vine Street, Centennial, CO, USA","place_id":"openaddresses:address:us\/co\/statewide:acb7be922614d4ac","datatype":"openaddresses"},{"latitude":"39.544956","longitude":"-104.947283","name":"Staples - 9449 S University Blvd; Highlands Ranch","address":" CO 80126>303-346-8957","street_number":"9449","street_name":"South University Boulevard","zip":"80126","city":"Highlands Ranch","area":null,"county":"Douglas County","state":"CO","country":"USA","formatted_address":"9449 South University Boulevard, Highlands Ranch, CO, USA","place_id":"openaddresses:address:us\/co\/statewide:05bfecfd605ef711","datatype":"openaddresses"},{"latitude":"39.066622","longitude":"-104.850409","name":"Staples - 6096 Jackson Creek Pkwy; Monument","address":" CO 80132>719-487-0568","street_number":"16086","street_name":"Jackson Creek Pkwy","zip":null,"city":"Monument","area":null,"county":"El Paso County","state":"CO","country":"USA","formatted_address":"16086 Jackson Creek Pkwy, Monument, CO, USA","place_id":"openaddresses:address:us\/co\/el_paso:c4b491919d3019df","datatype":"openaddresses"},{"latitude":"39.51459","longitude":"-104.76307","name":"Staples - 11236 S Pikes Peak Dr; Parker","address":" CO 80138>303-841-2651","street_number":"11105","street_name":"South Pikes Peak Drive","zip":"80138","city":"Parker","area":null,"county":"Douglas County","state":"CO","country":"USA","formatted_address":"11105 South Pikes Peak Drive, Parker, CO, USA","place_id":"openstreetmap:address:way:229363450","datatype":"openstreetmap"},{"latitude":"39.65346","longitude":"-104.91454","name":"Staples - 6435 E Hampden Ave; Denver","address":" CO 80222>303-759-3127","street_number":"6405","street_name":"East Hampden Avenue","zip":"80222","city":"Denver","area":null,"county":"Denver County","state":"CO","country":"USA","formatted_address":"6405 East Hampden Avenue, Denver, CO, USA","place_id":"openaddresses:address:us\/co\/statewide:b132ec87c04fb5d3","datatype":"openaddresses"},{"latitude":"39.710632","longitude":"-105.078933","name":"Staples - 7350 W Alameda; Lakewood","address":" CO 80226>303-742-0500","street_number":"7310","street_name":"West Alaska Drive","zip":"80226","city":"Lakewood","area":null,"county":"Jefferson County","state":"CO","country":"USA","formatted_address":"7310 West Alaska Drive, Lakewood, CO, USA","place_id":"openstreetmap:address:way:385065958","datatype":"openstreetmap"},{"latitude":"39.70107","longitude":"-104.94055","name":"Staples - 870 S Colorado Blvd; Glendale","address":" CO 80246>303-758-9900","street_number":"875","street_name":"S Colorado Blvd","zip":"80246","city":"Denver","area":null,"county":"Denver County","state":"CO","country":"USA","formatted_address":"875 S Colorado Blvd, Denver, CO, USA","place_id":"openaddresses:address:us\/co\/arapahoe:7ae2101e3534e5f9","datatype":"openaddresses"},{"latitude":"40.01483","longitude":"-105.25784","name":"Staples - 1601 29th St; Boulder","address":" CO 80301>303-444-0575","street_number":"2825","street_name":"Arapahoe Avenue","zip":"80301","city":"Boulder","area":null,"county":"Boulder County","state":"CO","country":"USA","formatted_address":"2825 Arapahoe Avenue, Boulder, CO, USA","place_id":"openaddresses:address:us\/co\/statewide:c2fa34721a4b39e9","datatype":"openaddresses"},{"latitude":"39.723937","longitude":"-105.186001","name":"Staples - 16630 W Colfax; Golden","address":" CO 80401>303-278-4258","street_number":null,"street_name":null,"zip":null,"city":null,"area":null,"county":null,"state":null,"country":null,"formatted_address":null,"place_id":null,"datatype":null},{"latitude":"39.51835","longitude":"-105.30596","name":"Staples - 10853 US Hwy 285; Conifer","address":" CO 80433>303-816-1125","street_number":"10853","street_name":"Highway 285","zip":"80433","city":null,"area":null,"county":"Jefferson County","state":"CO","country":"USA","formatted_address":"10853 Highway 285, Jefferson County, CO, USA","place_id":"openstreetmap:address:way:130075514","datatype":"openstreetmap"},{"latitude":"40.15283","longitude":"-105.10052","name":"Staples - 210 Ken Pratt Blvd; Longmont","address":" CO 80501>303-776-0747","street_number":"450","street_name":"Ken Pratt Boulevard","zip":"80501","city":"Longmont","area":null,"county":"Boulder County","state":"CO","country":"USA","formatted_address":"450 Ken Pratt Boulevard, Longmont, CO, USA","place_id":"openaddresses:address:us\/co\/statewide:78afff92b9258b5d","datatype":"openaddresses"},