[{"name":"Taco Bell","code":null,"latitude":40.705552,"longitude":-89.44505,"address":"1896 Washington Rd., Washington IL","chain_name":null,"distance":0,"street_number":null,"street_name":null,"zip":"61571","city":"Washington","area":null,"county":"Tazewell County","state":"Illinois","country":"us","formatted_address":"Washington Recreational Trail, Washington, Tazewell County, Illinois, 61571, United States of America","place_id":"107359761","datatype":"locationiq"},{"name":"Taco Bell","code":null,"latitude":33.453696,"longitude":-87.0098461,"address":"3064 Warrior River Road, Hueytown AL","chain_name":null,"distance":0,"street_number":null,"street_name":"Allison-Bonnett Memorial Drive","zip":"35023","city":"Hueytown","area":null,"county":"Jefferson County","state":"Alabama","country":"us","formatted_address":"Allison-Bonnett Memorial Drive, Hueytown, Jefferson County, Alabama, 35023, United States of America","place_id":"63900387","datatype":"locationiq"},{"name":"Taco Bell","code":null,"latitude":40.4421196,"longitude":-86.1261016,"address":"3801 S Reed Rd, Kokomo IN","chain_name":null,"distance":0,"street_number":"3717","street_name":"South Reed Road","zip":"46902","city":"Kokomo","area":null,"county":"Howard County","state":"Indiana","country":"us","formatted_address":"3717, South Reed Road, Kokomo, Howard County, Indiana, 46902, United States of America","place_id":"44704365","datatype":"locationiq"},{"name":"Taco Bell","code":null,"latitude":26.012105,"longitude":-80.2486778,"address":"298 N. University Drive, Pembroke Pines FL","chain_name":null,"distance":0,"street_number":null,"street_name":"North University Drive","zip":"33024:33026:33028","city":null,"area":null,"county":"Broward County","state":"Florida","country":"us","formatted_address":"Pembroke Pines General Hospital, North University Drive, Pembroke Pines, Broward County, Florida, 33024:33026:33028, United States of America","place_id":"3434930","datatype":"locationiq"},{"name":"Taco Bell","code":null,"latitude":34.1722995,"longitude":-118.3346612,"address":"2425 W Magnolia Blvd., Burbank CA","chain_name":null,"distance":0,"street_number":null,"street_name":"West Magnolia Boulevard","zip":"91505","city":"Burbank","area":null,"county":"Los Angeles County","state":"California","country":"us","formatted_address":"Walgreens, West Magnolia Boulevard, Burbank, Los Angeles County, California, 91505, United States of America","place_id":"20079671","datatype":"locationiq"},{"name":"Taco Bell","code":null,"latitude":38.6119147,"longitude":-121.4973216,"address":"1580 W. El Camino Avenue Suite A-1, Sacramento CA","chain_name":null,"distance":0,"street_number":null,"street_name":"Truxel Road","zip":"95833","city":"Sacramento","area":null,"county":"Sacramento County","state":"California","country":"us","formatted_address":"TacoBell, Truxel Road, Sacramento, Sacramento County, California, 95833, United States of America","place_id":"21639992","datatype":"locationiq"},{"name":"Taco Bell","code":null,"latitude":33.699991,"longitude":-116.213755,"address":"83-157 Avenue 48, Coachella CA","chain_name":null,"distance":0,"street_number":"83157","street_name":"Avenue 48","zip":"92236","city":null,"area":null,"county":"Riverside County","state":"California","country":"us","formatted_address":"Taco Bell, 83157, Avenue 48, Coachella, Riverside County, California, 92236, United States of America","place_id":"106400533","datatype":"locationiq"},{"name":"Taco Bell","code":null,"latitude":40.9313669,"longitude":-74.2682127,"address":"1400 Route 23 North, Wayne NJ","chain_name":null,"distance":0,"street_number":null,"street_name":"Sleepy Hollow Drive","zip":"07470","city":"Wayne","area":"Old Wayne","county":"Passaic County","state":"New Jersey","country":"us","formatted_address":"Taco Bell, Sleepy Hollow Drive, Old Wayne, Wayne, Passaic County, New Jersey, 07470, United States of America","place_id":"125444376","datatype":"locationiq"},{"name":"Taco Bell","code":null,"latitude":42.4859396,"longitude":-71.0192176,"address":"421 Broadway, Saugus MA","chain_name":null,"distance":0,"street_number":null,"street_name":"Newburyport Turnpike","zip":"01906","city":null,"area":null,"county":"Essex County","state":"Massachusetts","country":"us","formatted_address":"KFC, Newburyport Turnpike, Saugus, Essex County, Massachusetts, 01906, United States of America","place_id":"75630476","datatype":"locationiq"},{"name":"Taco Bell","code":null,"latitude":37.0567999,"longitude":-100.9228964,"address":"1720 North Kansas Ave, Liberal KS","chain_name":null,"distance":0,"street_number":null,"street_name":"Professional Drive","zip":"67901","city":null,"area":null,"county":"Seward County","state":"Kansas","country":"us","formatted_address":"Taco Bell, Professional Drive, Liberal, Seward County, Kansas, 67901, United States of America","place_id":"15187841","datatype":"locationiq"},{"name":"Taco Bell","code":null,"latitude":44.9722102,"longitude":-93.3644422,"address":"6620 Wayzata Blvd, Golden Valley MN","chain_name":null,"distance":0,"street_number":"6620","street_name":"Wayzata Boulevard","zip":"55426","city":"Golden Valley","area":null,"county":"Hennepin County","state":"Minnesota","country":"us","formatted_address":"Taco Bell, 6620, Wayzata Boulevard, Golden Valley, Hennepin County, Minnesota, 55426, United States of America","place_id":"159378515","datatype":"locationiq"},{"name":"Taco Bell","code":null,"latitude":32.2827091,"longitude":-90.1184033,"address":"3051 Highway 80 East, Pearl MS","chain_name":null,"distance":0,"street_number":"3064","street_name":"US 80","zip":"39208","city":null,"area":null,"county":"Rankin County","state":"Mississippi","country":"us","formatted_address":"3064, US 80, Pearl, Rankin County, Mississippi, 39208, United States of America","place_id":"193097279","datatype":"locationiq"},{"name":"Taco Bell","code":null,"latitude":30.1892391,"longitude":-92.0140711,"address":"1935 West Pinhook Road, Lafayette LA","chain_name":null,"distance":0,"street_number":null,"street_name":"East Kaliste Saloom Road","zip":"70509","city":"Lafayette","area":"Bois de Lafayette","county":"Lafayette Parish","state":"Louisiana","country":"us","formatted_address":"Taco Bell, East Kaliste Saloom Road, Bois de Lafayette, Lafayette, Lafayette Parish, Louisiana, 70509, United States of America","place_id":"142484733","datatype":"locationiq"},{"name":"Taco Bell","code":null,"latitude":38.6172169,"longitude":-121.3633062,"address":"4318 Marconi Ave, Sacramento CA","chain_name":null,"distance":0,"street_number":"4300","street_name":"Marconi Avenue","zip":"95821","city":null,"area":null,"county":"Sacramento County","state":"California","country":"us","formatted_address":"O'reily Auto Parts, 4300, Marconi Avenue, Carmichael, Sacramento County, California, 95821, United States of America","place_id":"157844438","datatype":"locationiq"},{"name":"Taco Bell","code":null,"latitude":42.3937688,"longitude":-88.1839118,"address":"54 S US Highway 12, Fox Lake IL","chain_name":null,"distance":0,"street_number":null,"street_name":"US 12","zip":"60041","city":null,"area":null,"county":"Lake County","state":"Illinois","country":"us","formatted_address":"McDonald's, US 12, Fox Lake, Lake County, Illinois, 60041, United States of America","place_id":"164369825","datatype":"locationiq"},{"name":"Taco Bell","code":null,"latitude":28.5784509,"longitude":-81.4412918,"address":"2600 Orlando West Dr, Orlando FL","chain_name":null,"distance":0,"street_number":"4515","street_name":"Silver Star Road","zip":"32818","city":"Orlando","area":"Pine Hills","county":"Orange County","state":"Florida","country":"us","formatted_address":"4515, Silver Star Road, Pine Hills, Orlando, Orange County, Florida, 32818, United States of America","place_id":"182708703","datatype":"locationiq"},{"name":"Taco Bell","code":null,"latitude":35.2961748,"longitude":-80.7555015,"address":"5540 University Pointe Blvd, Charlotte NC","chain_name":null,"distance":0,"street_number":"7931","street_name":"North Tryon Street","zip":"28262","city":"Charlotte","area":null,"county":"Mecklenburg County","state":"North Carolina","country":"us","formatted_address":"7931, North Tryon Street, Charlotte, Mecklenburg County, North Carolina, 28262, United States of America","place_id":"197914133","datatype":"locationiq"},{"name":"Taco Bell","code":null,"latitude":30.4314269,"longitude":-91.0565827,"address":"2313 Sherwood Forest Blvd., Baton Rouge LA","chain_name":null,"distance":0,"street_number":"2325","street_name":"South Sherwood Forest Boulevard","zip":"70816","city":"Baton Rouge","area":null,"county":"East Baton Rouge Parish","state":"Louisiana","country":"us","formatted_address":"2325, South Sherwood Forest Boulevard, Baton Rouge, East Baton Rouge Parish, Louisiana, 70816, United States of America","place_id":"188956039","datatype":"locationiq"},{"name":"Taco Bell","code":null,"latitude":37.5972001,"longitude":-122.5037463,"address":"5200 Coast Highway, Pacifica CA","chain_name":null,"distance":0,"street_number":null,"street_name":"Cabrillo Highway","zip":"94044","city":"Pacifica","area":"Pedro Valley","county":"San Mateo County","state":"California","country":"us","formatted_address":"Taco Bell, Cabrillo Highway, Pedro Valley, Pacifica, San Mateo County, California, 94044, United States of America","place_id":"3630145","datatype":"locationiq"},{"name":"Taco Bell","code":null,"latitude":41.2771747,"longitude":-72.9896223,"address":"89 Boston Post Rd, Orange CT","chain_name":null,"distance":0,"street_number":"89","street_name":"Boston Post Road","zip":"06477","city":"West Haven","area":null,"county":"New Haven County","state":"Connecticut","country":"us","formatted_address":"Taco Bell, 89, Boston Post Road, West Haven, New Haven County, Connecticut, 06477, United States of America","place_id":"117892517","datatype":"locationiq"},{"name":"Taco Bell","code":null,"latitude":34.2979427,"longitude":-118.4378717,"address":"1968 Glen Oaks Blvd, San Fernando CA","chain_name":null,"distance":0,"street_number":null,"street_name":"Glenoaks Boulevard","zip":"91340","city":null,"area":null,"county":"Los Angeles County","state":"California","country":"us","formatted_address":"Glenoaks Boulevard, San Fernando, Los Angeles County, California, 91340, United States of America","place_id":"157663482","datatype":"locationiq"},{"name":"Taco Bell","code":null,"latitude":32.2066248,"longitude":-110.9084596,"address":"3930 East 22nd Street, Tucson AZ","chain_name":null,"distance":0,"street_number":"3950","street_name":"East 22nd Street","zip":"85711","city":"Tucson","area":"Broadmoor-Broadway","county":"Pima County","state":"Arizona","country":"us","formatted_address":"3950, East 22nd Street, Broadmoor-Broadway, Tucson, Pima County, Arizona, 85711, United States of America","place_id":"177407082","datatype":"locationiq"},{"name":"Taco Bell","code":null,"latitude":33.8490644,"longitude":-87.2811279,"address":"508 Hwy #78 West, Jasper AL","chain_name":null,"distance":0,"street_number":null,"street_name":"AL 5;AL 69","zip":"35502","city":"Jasper","area":null,"county":"Walker County","state":"Alabama","country":"us","formatted_address":"AL 5;AL 69, Jasper, Walker County, Alabama, 35502, United States of America","place_id":"92601138","datatype":"locationiq"},{"name":"Taco Bell","code":null,"latitude":40.113102,"longitude":-88.2791147,"address":"1910 West Springfield, Champaign IL","chain_name":null,"distance":0,"street_number":"1910","street_name":"West Springfield Avenue","zip":"61822","city":"Champaign","area":null,"county":"Champaign County","state":"Illinois","country":"us","formatted_address":"Taco Bell, 1910, West Springfield Avenue, Champaign, Champaign County, Illinois, 61822, United States of America","place_id":"25484814","datatype":"locationiq"},{"name":"Taco Bell","code":null,"latitude":38.6911101,"longitude":-90.3898426,"address":"10426 Page Ave, Olivette MO","chain_name":null,"distance":0,"street_number":"10420","street_name":"Page Avenue","zip":"63132","city":"Overland","area":null,"county":"St. Louis County","state":"Missouri","country":"us","formatted_address":"10420, Page Avenue, Overland, St. Louis County, Missouri, 63132, United States of America","place_id":"194058056","datatype":"locationiq"},{"name":"Taco Bell","code":null,"latitude":41.0270164,"longitude":-85.1680858,"address":"6224 Bluffton Rd, Fort Wayne IN","chain_name":null,"distance":0,"street_number":null,"street_name":"Bluffton Road","zip":"46809","city":"Fort Wayne","area":null,"county":"Allen County","state":"Indiana","country":"us","formatted_address":"long john silvers \/ taco bell, Bluffton Road, Fort Wayne, Allen County, Indiana, 46809, United States of America","place_id":"25692035","datatype":"locationiq"},{"name":"Taco Bell","code":null,"latitude":34.8273216,"longitude":-92.3881324,"address":"11525 Maumelle Blvd, North Little Rock AR","chain_name":null,"distance":0,"street_number":null,"street_name":"Maumelle Boulevard","zip":"72113","city":"North Little Rock","area":null,"county":"Pulaski County","state":"Arkansas","country":"us","formatted_address":"Taco Bell, Maumelle Boulevard, North Little Rock, Pulaski County, Arkansas, 72113, United States of America","place_id":"40496229","datatype":"locationiq"},{"name":"Taco Bell","code":null,"latitude":42.6050511,"longitude":-84.481662,"address":"805 N Cedar St, Mason MI","chain_name":null,"distance":0,"street_number":"803","street_name":"Cedar Road","zip":"48854","city":null,"area":null,"county":"Ingham County","state":"Michigan","country":"us","formatted_address":"803, Cedar Road, Holt, Ingham County, Michigan, 48854, United States of America","place_id":"190932818","datatype":"locationiq"},{"name":"Taco Bell","code":null,"latitude":42.4647809,"longitude":-73.1978815,"address":"555 Hubbard Ave, Pittsfield MA","chain_name":null,"distance":0,"street_number":null,"street_name":"Downing Three","zip":"01235","city":null,"area":null,"county":"Berkshire County","state":"Massachusetts","country":"us","formatted_address":"Walmart, Downing Three, Pittsfield, Berkshire County, Massachusetts, 01235, United States of America","place_id":"119627757","datatype":"locationiq"},{"name":"Taco Bell","code":null,"latitude":32.5992359,"longitude":-93.839204,"address":"4520 Northport Blvd, Shreveport LA","chain_name":null,"distance":0,"street_number":"5735","street_name":"North Market Street","zip":"71107","city":null,"area":null,"county":"Caddo Parish","state":"Louisiana","country":"us","formatted_address":"5735, North Market Street, One North Place, Caddo Parish, Louisiana, 71107, United States of America","place_id":"188908778","datatype":"locationiq"},{"name":"Taco Bell","code":null,"latitude":38.6589666,"longitude":-90.2990277,"address":"851 N Skinker Blvd, Saint Louis MO","chain_name":null,"distance":0,"street_number":"841","street_name":"North Skinker Boulevard","zip":"63130","city":"Wellston","area":null,"county":"St. Louis County","state":"Missouri","country":"us","formatted_address":"841, North Skinker Boulevard, Wellston, St. Louis County, Missouri, 63130, United States of America","place_id":"194190264","datatype":"locationiq"},{"name":"Taco Bell","code":null,"latitude":25.9385926,"longitude":-80.2456187,"address":"17950 NW 27th Ave, Miami Gardens FL","chain_name":null,"distance":0,"street_number":"18000","street_name":"Northwest 27th Avenue","zip":"33056","city":null,"area":null,"county":"Miami-Dade County","state":"Florida","country":"us","formatted_address":"18000, Northwest 27th Avenue, Miami Gardens, Miami-Dade County, Florida, 33056, United States of America","place_id":"163223590","datatype":"locationiq"},{"name":"Taco Bell","code":null,"latitude":42.489451,"longitude":-90.6647545,"address":"240 South Locust Street, Dubuque IA","chain_name":null,"distance":0,"street_number":null,"street_name":"Charter Street","zip":"52003","city":"Dubuque","area":"Port of Dubuque","county":"Dubuque County","state":"Iowa","country":"us","formatted_address":"Taco Bell, Charter Street, Port of Dubuque, Dubuque, Dubuque County, Iowa, 52003, United States of America","place_id":"166703618","datatype":"locationiq"},{"name":"Taco Bell","code":null,"latitude":28.0546454,"longitude":-81.9498816,"address":"727 E. Memorial Boulevard, Lakeland FL","chain_name":null,"distance":0,"street_number":"803","street_name":"Memorial Boulevard","zip":"33801","city":"Lakeland","area":null,"county":"Polk County","state":"Florida","country":"us","formatted_address":"803, Memorial Boulevard, Lakeland, Polk County, Florida, 33801, United States of America","place_id":"183025342","datatype":"locationiq"},{"name":"Taco Bell","code":null,"latitude":35.3937477,"longitude":-119.0928957,"address":"3707 Coffee Rd., Bakersfield CA","chain_name":null,"distance":0,"street_number":"3998","street_name":"Riverlakes Drive","zip":"93312","city":"Bakersfield","area":null,"county":"Kern County","state":"California","country":"us","formatted_address":"3998, Riverlakes Drive, Bakersfield, Kern County, California, 93312, United States of America","place_id":"178464389","datatype":"locationiq"},{"name":"Taco Bell","code":null,"latitude":33.847515,"longitude":-118.0280681,"address":"7878 Valley View St, Buena Park CA","chain_name":null,"distance":0,"street_number":null,"street_name":"Valley View Street","zip":"90623","city":"Buena Park","area":null,"county":"Orange County","state":"California","country":"us","formatted_address":"Taco Bell, Valley View Street, Buena Park, Orange County, California, 90623, United States of America","place_id":"171116386","datatype":"locationiq"},{"name":"Taco Bell","code":null,"latitude":35.81744,"longitude":-78.5979503,"address":"2748 Capital Blvd., Raleigh NC","chain_name":null,"distance":0,"street_number":"2799","street_name":"Capital Boulevard","zip":"27604","city":"Raleigh","area":null,"county":"Wake County","state":"North Carolina","country":"us","formatted_address":"2799, Capital Boulevard, New Hope Church, Raleigh, Wake County, North Carolina, 27604, United States of America","place_id":"198374452","datatype":"locationiq"},{"name":"Taco Bell","code":null,"latitude":39.8331964,"longitude":-89.604173,"address":"2300 N. Dirkson Parkway., Springfield IL","chain_name":null,"distance":0,"street_number":null,"street_name":"North Dirksen Parkway","zip":"62702","city":"Springfield","area":null,"county":"Sangamon County","state":"Illinois","country":"us","formatted_address":"Taco Bell, North Dirksen Parkway, Springfield, Sangamon County, Illinois, 62702, United States of America","place_id":"52827686","datatype":"locationiq"},{"name":"Taco Bell","code":null,"latitude":39.1766758,"longitude":-76.8429576,"address":"7102 Minstrel Way, Columbia MD","chain_name":null,"distance":0,"street_number":"7102","street_name":"Minstrel Way","zip":"21045","city":"Columbia","area":"Hopewell","county":"Howard County","state":"Maryland","country":"us","formatted_address":"Taco Bell, 7102, Minstrel Way, Hopewell, Owen Brown, Columbia, Howard County, Maryland, 21045, United States of America","place_id":"102651373","datatype":"locationiq"},{"name":"Taco Bell","code":null,"latitude":33.9462932,"longitude":-117.424825,"address":"5587 Arlington Avenue, Riverside CA","chain_name":null,"distance":0,"street_number":null,"street_name":"Arlington Avenue","zip":"92504","city":"Riverside","area":null,"county":"Riverside County","state":"California","country":"us","formatted_address":"Taco Bell, Arlington Avenue, Riverside, Riverside County, California, 92504, United States of America","place_id":"24992964","datatype":"locationiq"},{"name":"Taco Bell","code":null,"latitude":38.4182006,"longitude":-122.7131529,"address":"2000 Santa Rosa Ave, Santa Rosa CA","chain_name":null,"distance":0,"street_number":null,"street_name":"Santa Rosa Avenue","zip":"95407","city":"Santa Rosa","area":null,"county":"Sonoma County","state":"California","country":"us","formatted_address":"Taco Bell, Santa Rosa Avenue, Santa Rosa, Sonoma County, California, 95407, United States of America","place_id":"154463404","datatype":"locationiq"},{"name":"Taco Bell","code":null,"latitude":39.531945,"longitude":-107.324882,"address":"2002 Grand Ave, Glenwood Springs CO","chain_name":null,"distance":0,"street_number":null,"street_name":"20th Street","zip":"81601","city":null,"area":null,"county":"Garfield County","state":"Colorado","country":"us","formatted_address":"Taco Bell, 20th Street, Glenwood Springs, Garfield County, Colorado, 81601, United States of America","place_id":"54272381","datatype":"locationiq"},{"name":"Taco Bell","code":null,"latitude":40.8254484,"longitude":-91.1408204,"address":"2761 Mt Pleasant Street, Burlington IA","chain_name":null,"distance":0,"street_number":null,"street_name":"Mount Pleasant Street","zip":"52601","city":"Burlington","area":null,"county":"Des Moines County","state":"Iowa","country":"us","formatted_address":"Taco Bell, Mount Pleasant Street, Burlington, Des Moines County, Iowa, 52601, United States of America","place_id":"53239215","datatype":"locationiq"},{"name":"Taco Bell","code":null,"latitude":39.4615976,"longitude":-76.3183943,"address":"406 Constant Friendship Blvd, Abingdon MD","chain_name":null,"distance":0,"street_number":null,"street_name":"Constant Friendship Boulevard","zip":"21009","city":null,"area":null,"county":"Harford County","state":"Maryland","country":"us","formatted_address":"KFC\/Taco Bell, Constant Friendship Boulevard, Bel Air South, Harford County, Maryland, 21009, United States of America","place_id":"130314803","datatype":"locationiq"},{"name":"Taco Bell","code":null,"latitude":41.7200807,"longitude":-85.9721422,"address":"2508 Cassopolis St, Elkhart IN","chain_name":null,"distance":0,"street_number":null,"street_name":"Cassopolis Street","zip":"46514","city":"Elkhart","area":null,"county":"Elkhart County","state":"Indiana","country":"us","formatted_address":"Taco Bell, Cassopolis Street, Elkhart, Elkhart County, Indiana, 46514, United States of America","place_id":"35534499","datatype":"locationiq"},{"name":"Taco Bell","code":null,"latitude":33.3352316,"longitude":-86.7842938,"address":"101 Cahaba Valley Pkwy, Pelham AL","chain_name":null,"distance":0,"street_number":"101","street_name":"Cahaba Valley Parkway","zip":"35124","city":"Pelham","area":"Indian Hills","county":"Shelby County","state":"Alabama","country":"us","formatted_address":"Taco Bell, 101, Cahaba Valley Parkway, Indian Hills, Pelham, Shelby County, Alabama, 35124, United States of America","place_id":"26443197","datatype":"locationiq"},{"name":"Taco Bell","code":null,"latitude":37.6896456,"longitude":-122.130638,"address":"15501 Hesperian Blvd, San Leandro CA","chain_name":null,"distance":0,"street_number":"15501","street_name":"Hesperian Boulevard","zip":"94579","city":"San Leandro","area":null,"county":"Alameda County","state":"California","country":"us","formatted_address":"15501, Hesperian Boulevard, San Leandro, Alameda County, California, 94579, United States of America","place_id":"178088122","datatype":"locationiq"},{"name":"Taco Bell","code":null,"latitude":43.5928915,"longitude":-83.888287,"address":"260 Washington Avenue, Bay City MI","chain_name":null,"distance":0,"street_number":"314","street_name":"10th Street","zip":"48708","city":"City of Bay City","area":null,"county":"Bay County","state":"Michigan","country":"us","formatted_address":"314, 10th Street, City of Bay City, Bay County, Michigan, 48708, United States of America","place_id":"190677786","datatype":"locationiq"},{"name":"Taco Bell","code":null,"latitude":42.6387038,"longitude":-83.3262762,"address":"119 North Telegraph Road, Waterford MI","chain_name":null,"distance":0,"street_number":"28","street_name":"Hadrill Court","zip":"48328","city":"Pontiac","area":null,"county":"Oakland County","state":"Michigan","country":"us","formatted_address":"28, Hadrill Court, Pontiac, Oakland County, Michigan, 48328, United States of America","place_id":"191330713","datatype":"locationiq"},{"name":"Taco Bell","code":null,"latitude":34.0628765,"longitude":-118.4466819,"address":"10937 Weyburn Ave., Los Angeles CA","chain_name":null,"distance":0,"street_number":"936","street_name":"Broxton Avenue","zip":"90024","city":"Los Angeles","area":"Westwood Village","county":"Los Angeles County","state":"California","country":"us","formatted_address":"Mr. Noodle, 936, Broxton Avenue, Westwood Village, Westwood, Los Angeles, Los Angeles County, California, 90024, United States of America","place_id":"24859337","datatype":"locationiq"},{"name":"Taco Bell","code":null,"latitude":34.0111997,"longitude":-118.3384684,"address":"4050 Marlton Ave, Los Angeles CA","chain_name":null,"distance":0,"street_number":"4046","street_name":"Marlton Avenue","zip":"90008","city":"Los Angeles","area":null,"county":"Los Angeles County","state":"California","country":"us","formatted_address":"4046, Marlton Avenue, Leimert Park, Los Angeles, Los Angeles County, California, 90008, United States of America","place_id":"178939680","datatype":"locationiq"},{"name":"Taco Bell","code":null,"latitude":37.7869359,"longitude":-89.0281561,"address":"1709 S Park Ave, Herrin IL","chain_name":null,"distance":0,"street_number":null,"street_name":"South Park Avenue","zip":"62948","city":"Herrin","area":null,"county":"Williamson County","state":"Illinois","country":"us","formatted_address":"Walmart, South Park Avenue, Herrin, Williamson County, Illinois, 62948, United States of America","place_id":"24514892","datatype":"locationiq"},{"name":"Taco Bell","code":null,"latitude":33.5073104,"longitude":-86.7974014,"address":"2124 7th Ave S, Birmingham AL","chain_name":null,"distance":0,"street_number":null,"street_name":"7th Avenue South","zip":"35233","city":"Birmingham","area":null,"county":"Jefferson County","state":"Alabama","country":"us","formatted_address":"Third Presbyterian Church, 7th Avenue South, Smithfield, Birmingham, Jefferson County, Alabama, 35233, United States of America","place_id":"3503073","datatype":"locationiq"},{"name":"Taco Bell","code":null,"latitude":33.8240332,"longitude":-84.107794,"address":"5160 Hwy 78, Stone Mountain GA","chain_name":null,"distance":0,"street_number":null,"street_name":"Stone Mountain Freeway Southwest","zip":"30087","city":null,"area":"Lake Lucerne Estates","county":"Gwinnett County","state":"Georgia","country":"us","formatted_address":"Taco Bell, Stone Mountain Freeway Southwest, Lake Lucerne Estates, Corinth Hills, Gwinnett County, Georgia, 30087, United States of America","place_id":"6703836","datatype":"locationiq"},{"name":"Taco Bell","code":null,"latitude":38.9648928,"longitude":-76.8455306,"address":"9409 Annapolis Road, Lanham MD","chain_name":null,"distance":0,"street_number":null,"street_name":"Annapolis Road","zip":"20706","city":null,"area":null,"county":"Prince George's County","state":"Maryland","country":"us","formatted_address":"Annapolis Road, Lanham-Seabrook, Prince George's County, Maryland, 20706, United States of America","place_id":"112821323","datatype":"locationiq"},{"name":"Taco Bell","code":null,"latitude":42.0234426,"longitude":-87.8963771,"address":"1175 E. Oakton, Des Plaines IL","chain_name":null,"distance":0,"street_number":null,"street_name":"East Oakton Street","zip":"60018","city":"Des Plaines","area":null,"county":"Cook County","state":"Illinois","country":"us","formatted_address":"Taco Bell \/ Pizza Hut Express, East Oakton Street, Des Plaines, Cook County, Illinois, 60018, United States of America","place_id":"5428707","datatype":"locationiq"},{"name":"Taco Bell","code":null,"latitude":46.793713,"longitude":-100.748172,"address":"2616 Rock Island Place, Bismarck ND","chain_name":null,"distance":0,"street_number":"2678","street_name":"Rock Island Place","zip":"58504","city":"Bismarck","area":null,"county":"Burleigh County","state":"North Dakota","country":"us","formatted_address":"2678, Rock Island Place, Bismarck, Burleigh County, North Dakota, 58504, United States of America","place_id":"198505070","datatype":"locationiq"},{"name":"Taco Bell","code":null,"latitude":33.3333974,"longitude":-86.9958466,"address":"5050 Bond Boulevard, Bessemer AL","chain_name":null,"distance":0,"street_number":null,"street_name":"Meadowlane Drive","zip":"35022","city":"Bessemer","area":null,"county":"Jefferson County","state":"Alabama","country":"us","formatted_address":"Meadowlane Drive, Promenade Tannehill Shopping Center, Bessemer, Jefferson County, Alabama, 35022, United States of America","place_id":"64543432","datatype":"locationiq"},{"name":"Taco Bell","code":null,"latitude":34.1475641,"longitude":-118.6982238,"address":"4955 Las Virgenes Rd, Calabasas CA","chain_name":null,"distance":0,"street_number":null,"street_name":"Ventura Freeway","zip":"91302-1405","city":null,"area":null,"county":"Los Angeles County","state":"California","country":"us","formatted_address":"Ventura Freeway, Calabasas, Los Angeles County, California, 91302-1405, United States of America","place_id":"83303318","datatype":"locationiq"},{"name":"Taco Bell","code":null,"latitude":32.52817,"longitude":-93.700953,"address":"1990 Airline Dr, Bossier City LA","chain_name":null,"distance":0,"street_number":"1974","street_name":"Airline Drive","zip":"71111","city":"Bossier City","area":null,"county":"Bossier Parish","state":"Louisiana","country":"us","formatted_address":"1974, Airline Drive, Bossier City, Bossier Parish, Louisiana, 71111, United States of America","place_id":"188884839","datatype":"locationiq"},{"name":"Taco Bell","code":null,"latitude":41.1786249,"longitude":-85.0945224,"address":"3950 East DuPont Rd, Fort Wayne IN","chain_name":null,"distance":0,"street_number":null,"street_name":"East Dupont Road","zip":"46825","city":"Fort Wayne","area":null,"county":"Allen County","state":"Indiana","country":"us","formatted_address":"Arby's, East Dupont Road, Jacobs Creek, Fort Wayne, Allen County, Indiana, 46825, United States of America","place_id":"87180140","datatype":"locationiq"},{"name":"Taco Bell","code":null,"latitude":42.1798436,"longitude":-71.8705139,"address":"820 Southbridge St., Auburn MA","chain_name":null,"distance":0,"street_number":"45","street_name":"Maple Street","zip":"01501","city":null,"area":null,"county":"Worcester County","state":"Massachusetts","country":"us","formatted_address":"45, Maple Street, Auburn, Worcester County, Massachusetts, 01501, United States of America","place_id":"190605012","datatype":"locationiq"},{"name":"Taco Bell","code":null,"latitude":39.9903193,"longitude":-75.0260017,"address":"1061 Rt 73, Pennsauken NJ","chain_name":null,"distance":0,"street_number":"1210","street_name":"Palmyra Bridge Boulevard","zip":"08110","city":"Pennsauken Township","area":null,"county":"Camden County","state":"New Jersey","country":"us","formatted_address":"1210, Palmyra Bridge Boulevard, Pennsauken Township, Camden County, New Jersey, 08110, United States of America","place_id":"195354089","datatype":"locationiq"},{"name":"Taco Bell","code":null,"latitude":33.8279124,"longitude":-117.9585669,"address":"324 S Brookhurst, Anaheim CA","chain_name":null,"distance":0,"street_number":null,"street_name":"South Brookhurst Street","zip":"92804","city":"Anaheim","area":null,"county":"Orange County","state":"California","country":"us","formatted_address":"South Brookhurst Street, West Anaheim, Anaheim, Orange County, California, 92804, United States of America","place_id":"157369260","datatype":"locationiq"},{"name":"Taco Bell","code":null,"latitude":38.7600673,"longitude":-121.3105302,"address":"5002 Foothills Blvd, Roseville CA","chain_name":null,"distance":0,"street_number":"5002","street_name":"Foothills Boulevard","zip":"95747","city":"Roseville","area":null,"county":"Placer County","state":"California","country":"us","formatted_address":"Taco Bell, 5002, Foothills Boulevard, Roseville, Placer County, California, 95747, United States of America","place_id":"87398085","datatype":"locationiq"},{"name":"Taco Bell","code":null,"latitude":39.8867567,"longitude":-104.8825888,"address":"10402 S Belle Creek Drive, Henderson CO","chain_name":null,"distance":0,"street_number":null,"street_name":"Belle Creek Boulevard","zip":"80640","city":"Commerce City","area":null,"county":"Adams County","state":"Colorado","country":"us","formatted_address":"McDonald's, Belle Creek Boulevard, Belle Creek, Commerce City, Adams County, Colorado, 80640, United States of America","place_id":"115675397","datatype":"locationiq"},{"name":"Taco Bell","code":null,"latitude":29.0848651,"longitude":-82.2512971,"address":"7919 SW Highway 200, Ocala FL","chain_name":null,"distance":0,"street_number":null,"street_name":"FL 200","zip":"34421","city":"Ocala","area":null,"county":"Marion County","state":"Florida","country":"us","formatted_address":"FL 200, Ocala, Marion County, Florida, 34421, United States of America","place_id":"117015898","datatype":"locationiq"},{"name":"Taco Bell","code":null,"latitude":39.8298024,"longitude":-86.0417346,"address":"7230 Pendleton Pike, Lawrence IN","chain_name":null,"distance":0,"street_number":"4103","street_name":"Kingman Drive","zip":"46226","city":"Lawrence","area":null,"county":"Marion County","state":"Indiana","country":"us","formatted_address":"4103, Kingman Drive, Lawrence, Marion County, Indiana, 46226, United States of America","place_id":"186587445","datatype":"locationiq"},{"name":"Taco Bell","code":null,"latitude":38.9279554,"longitude":-94.7288133,"address":"12208 College Blvd, Overland Park KS","chain_name":null,"distance":0,"street_number":null,"street_name":"College Boulevard","zip":"66210","city":"Overland Park","area":null,"county":"Johnson County","state":"Kansas","country":"us","formatted_address":"Taco Bell, College Boulevard, Overland Park, Johnson County, Kansas, 66210, United States of America","place_id":"114933448","datatype":"locationiq"},{"name":"Taco Bell","code":null,"latitude":33.5063147,"longitude":-112.2731391,"address":"4850 N. 99th Ave, Phoenix AZ","chain_name":null,"distance":0,"street_number":null,"street_name":"North 99th Avenue","zip":"85037","city":"Phoenix","area":null,"county":"Maricopa County","state":"Arizona","country":"us","formatted_address":"Taco Bell, North 99th Avenue, Phoenix, Maricopa County, Arizona, 85037, United States of America","place_id":"165487750","datatype":"locationiq"},{"name":"Taco Bell","code":null,"latitude":40.498691,"longitude":-74.855664,"address":"280A Route 202 31, Flemington NJ","chain_name":null,"distance":0,"street_number":null,"street_name":"US 202;NJ 31","zip":"08822","city":"Flemington","area":null,"county":"Hunterdon County","state":"New Jersey","country":"us","formatted_address":"US 202;NJ 31, Flemington, Hunterdon County, New Jersey, 08822, United States of America","place_id":"84093544","datatype":"locationiq"},{"name":"Taco Bell","code":null,"latitude":32.46206,"longitude":-86.450241,"address":"411 S Memorial Dr, Prattville AL","chain_name":null,"distance":0,"street_number":"988","street_name":"Newton Street","zip":"36066","city":"Prattville","area":null,"county":"Autauga County","state":"Alabama","country":"us","formatted_address":"988, Newton Street, Prattville, Autauga County, Alabama, 36066, United States of America","place_id":"176046501","datatype":"locationiq"},{"name":"Taco Bell","code":null,"latitude":39.5991349,"longitude":-75.8258946,"address":"110 E Pulaski Hwy, Elkton MD","chain_name":null,"distance":0,"street_number":null,"street_name":"East Pulaski Highway","zip":"21921","city":null,"area":null,"county":"Cecil","state":"Maryland","country":"us","formatted_address":"Taco Bell, East Pulaski Highway, Elkton, Cecil, Maryland, 21921, United States of America","place_id":"7946176","datatype":"locationiq"},{"name":"Taco Bell","code":null,"latitude":30.5050305,"longitude":-84.2487019,"address":"3839 Capital Circle NE, Tallahassee FL","chain_name":null,"distance":0,"street_number":"3839","street_name":"Capital Circle Northeast","zip":"32308","city":"Tallahassee","area":null,"county":"Leon County","state":"Florida","country":"us","formatted_address":"Taco Bell, 3839, Capital Circle Northeast, Tallahassee, Leon County, Florida, 32308, United States of America","place_id":"165405864","datatype":"locationiq"},{"name":"Taco Bell","code":null,"latitude":35.4762481,"longitude":-107.0760898,"address":"10300 Alondra Blvd, Bellflower CA","chain_name":null,"distance":0,"street_number":null,"street_name":"NM 279","zip":null,"city":null,"area":null,"county":"Sandoval County","state":"New Mexico","country":"us","formatted_address":"NM 279, Casa Salazar, Sandoval County, New Mexico, United States of America","place_id":"80495080","datatype":"locationiq"},{"name":"Taco Bell","code":null,"latitude":33.8433271,"longitude":-84.3275942,"address":"3385 Buford Hwy, Atlanta GA","chain_name":null,"distance":0,"street_number":null,"street_name":"Buford Highway","zip":"30329;30324","city":null,"area":"Plymouth Colony","county":"DeKalb County","state":"Georgia","country":"us","formatted_address":"Taco Bell, Buford Highway, Plymouth Colony, Brookhaven, DeKalb County, Georgia, 30329;30324, United States of America","place_id":"123569422","datatype":"locationiq"},{"name":"Taco Bell","code":null,"latitude":41.846098,"longitude":-87.80951,"address":"7501 W Cermak Road, North Riverside IL","chain_name":null,"distance":0,"street_number":null,"street_name":"West Cermak Road","zip":"60155","city":null,"area":null,"county":"Cook County","state":"Illinois","country":"us","formatted_address":"West Cermak Road, North Riverside, Cook County, Illinois, 60155, United States of America","place_id":"128426841","datatype":"locationiq"},{"name":"Taco Bell","code":null,"latitude":34.7421342,"longitude":-92.2760934,"address":"719 South Broadway, Little Rock AR","chain_name":null,"distance":0,"street_number":null,"street_name":"Broadway Street","zip":"72206","city":"Little Rock","area":null,"county":"Pulaski County","state":"Arkansas","country":"us","formatted_address":"Taco Bell, Broadway Street, Little Rock, Pulaski County, Arkansas, 72206, United States of America","place_id":"164523460","datatype":"locationiq"},{"name":"Taco Bell","code":null,"latitude":34.4295349,"longitude":-119.6900686,"address":"821 N Milpas Street, Santa Barbara CA","chain_name":null,"distance":0,"street_number":null,"street_name":"North Milpas Street","zip":"93103","city":"Santa Barbara","area":"East Side","county":"Santa Barbara County","state":"California","country":"us","formatted_address":"Milpas & Canon Perdido, North Milpas Street, East Side, Santa Barbara, Santa Barbara County, California, 93103, United States of America","place_id":"9735493","datatype":"locationiq"},{"name":"Taco Bell","code":null,"latitude":36.0549484,"longitude":-79.9020773,"address":"1301 Bridford Pkwy, Greensboro NC","chain_name":null,"distance":0,"street_number":"1301","street_name":"Bridford Parkway","zip":"27407","city":"Greensboro","area":null,"county":"Guilford County","state":"North Carolina","country":"us","formatted_address":"Taco Bell, 1301, Bridford Parkway, Greensboro, Guilford County, North Carolina, 27407, United States of America","place_id":"37135784","datatype":"locationiq"},{"name":"Taco Bell","code":null,"latitude":31.3588111,"longitude":-92.4133115,"address":"3200 Monroe Hwy, Pineville LA","chain_name":null,"distance":0,"street_number":"3140","street_name":"Military Highway","zip":"71360","city":"Pineville","area":null,"county":"Rapides Parish","state":"Louisiana","country":"us","formatted_address":"3140, Military Highway, Pineville, Rapides Parish, Louisiana, 71360, United States of America","place_id":"189198742","datatype":"locationiq"},{"name":"Taco Bell","code":null,"latitude":39.1419153,"longitude":-121.622351,"address":"619 Colusa Ave, Yuba City CA","chain_name":null,"distance":0,"street_number":"967","street_name":"Orange Street","zip":"95991","city":"Yuba City","area":null,"county":"Sutter County","state":"California","country":"us","formatted_address":"967, Orange Street, Yuba City, Sutter County, California, 95991, United States of America","place_id":"180414855","datatype":"locationiq"},{"name":"Taco Bell","code":null,"latitude":46.843514,"longitude":-96.8840698,"address":"815 23rd Ave East, West Fargo ND","chain_name":null,"distance":0,"street_number":"709","street_name":"23rd Avenue South","zip":"58078","city":"West Fargo","area":null,"county":"Cass County","state":"North Dakota","country":"us","formatted_address":"709, 23rd Avenue South, West Fargo, Cass County, North Dakota, 58078, United States of America","place_id":"198513167","datatype":"locationiq"},{"name":"Taco Bell","code":null,"latitude":33.8120633,"longitude":-117.9927547,"address":"10360 Beach Blvd, Stanton CA","chain_name":null,"distance":0,"street_number":"10440","street_name":"South Beach Boulevard","zip":"CA 90680","city":"Stanton","area":null,"county":"Orange County","state":"California","country":"us","formatted_address":"I Support Computer, 10440, South Beach Boulevard, Stanton, Orange County, California, CA 90680, United States of America","place_id":"26814869","datatype":"locationiq"},{"name":"Taco Bell","code":null,"latitude":39.9348675,"longitude":-91.353885,"address":"3828 Broadway, Quincy IL","chain_name":null,"distance":0,"street_number":null,"street_name":"Broadway Street","zip":"62305","city":"Quincy","area":null,"county":"Adams County","state":"Illinois","country":"us","formatted_address":"Taco Bell, Broadway Street, Quincy Commons, Quincy, Adams County, Illinois, 62305, United States of America","place_id":"132891330","datatype":"locationiq"},{"name":"Taco Bell","code":null,"latitude":37.7140307,"longitude":-85.8324818,"address":"105 Buffalo Creek Drive, Elizabethtown KY","chain_name":null,"distance":0,"street_number":null,"street_name":"Buffalo Creek Drive","zip":"42701","city":null,"area":null,"county":"Hardin County","state":"Kentucky","country":"us","formatted_address":"Buffalo Creek Drive, Elizabethtown, Hardin County, Kentucky, 42701, United States of America","place_id":"68927360","datatype":"locationiq"},{"name":"Taco Bell","code":null,"latitude":32.9272427,"longitude":-83.7326808,"address":"1604 Bass Road, Macon GA","chain_name":null,"distance":0,"street_number":null,"street_name":"Bass Road","zip":"31210","city":"Macon","area":"Woodcrest","county":"Bibb County","state":"Georgia","country":"us","formatted_address":"Flash Foods, Bass Road, Woodcrest, Macon, Bibb County, Georgia, 31210, United States of America","place_id":"55604328","datatype":"locationiq"},{"name":"Taco Bell","code":null,"latitude":42.5959622,"longitude":-114.4546761,"address":"1920 Blue Lakes Blvd North, Twin Falls ID","chain_name":null,"distance":0,"street_number":"1973","street_name":"Bridgeview Boulevard","zip":"83301","city":"Twin Falls","area":null,"county":"Twin Falls County","state":"Idaho","country":"us","formatted_address":"1973, Bridgeview Boulevard, Twin Falls, Twin Falls County, Idaho, 83301, United States of America","place_id":"184620360","datatype":"locationiq"},{"name":"Taco Bell","code":null,"latitude":38.9943431,"longitude":-76.9329032,"address":"8428 Baltimore Ave., College Park MD","chain_name":null,"distance":0,"street_number":null,"street_name":"Baltimore Avenue","zip":"20740","city":null,"area":null,"county":"Prince George's County","state":"Maryland","country":"us","formatted_address":"Taco Bell, Baltimore Avenue, Lakeland, College Park, Prince George's County, Maryland, 20740, United States of America","place_id":"146267043","datatype":"locationiq"},{"name":"Taco Bell","code":null,"latitude":38.5563694,"longitude":-121.4100118,"address":"7590 La Riviera Drive, Sacramento CA","chain_name":null,"distance":0,"street_number":null,"street_name":"Howe Avenue","zip":"95819","city":"Sacramento","area":null,"county":"Sacramento County","state":"California","country":"us","formatted_address":"Howe Avenue, Sacramento, Sacramento County, California, 95819, United States of America","place_id":"87383108","datatype":"locationiq"},{"name":"Taco Bell","code":null,"latitude":27.7208796,"longitude":-82.6788041,"address":"5210 34th Street South, Saint Petersburg FL","chain_name":null,"distance":0,"street_number":null,"street_name":"34th Street South","zip":"33711-3832","city":"Saint Petersburg","area":"Highland Oaks","county":"Pinellas County","state":"Florida","country":"us","formatted_address":"Sunoco, 34th Street South, Highland Oaks, Saint Petersburg, Pinellas County, Florida, 33711-3832, United States of America","place_id":"37679455","datatype":"locationiq"},{"name":"Taco Bell","code":null,"latitude":30.1736984,"longitude":-92.0697885,"address":"3630 Ambassador Caffery Pkwy, Lafayette LA","chain_name":null,"distance":0,"street_number":"3650","street_name":"Ambassador Caffery Parkway","zip":"70503","city":"Lafayette","area":"Beaulieu Place","county":"Lafayette Parish","state":"Louisiana","country":"us","formatted_address":"3650, Ambassador Caffery Parkway, Beaulieu Place, Lafayette, Lafayette Parish, Louisiana, 70503, United States of America","place_id":"189068858","datatype":"locationiq"},{"name":"Taco Bell","code":null,"latitude":33.469176,"longitude":-112.221169,"address":"1860 N 75th Ave, Phoenix AZ","chain_name":null,"distance":0,"street_number":null,"street_name":"North 75th Avenue","zip":"85303","city":"Phoenix","area":null,"county":"Maricopa County","state":"Arizona","country":"us","formatted_address":"Taco Bell, North 75th Avenue, Maryvale, Phoenix, Maricopa County, Arizona, 85303, United States of America","place_id":"85887252","datatype":"locationiq"},{"name":"Taco Bell","code":null,"latitude":36.1818662,"longitude":-94.139183,"address":"406 S. Thompson, Springdale AR","chain_name":null,"distance":0,"street_number":"406","street_name":"South Thompson Street","zip":"72764","city":"Springdale","area":null,"county":"Washington County","state":"Arkansas","country":"us","formatted_address":"406, South Thompson Street, Springdale, Washington County, Arkansas, 72764, United States of America","place_id":"12944906","datatype":"locationiq"},{"name":"Taco Bell","code":null,"latitude":42.733488,"longitude":-84.4761429,"address":"601 E Grand River Ave, East Lansing MI","chain_name":null,"distance":0,"street_number":"603","street_name":"East Grand River Avenue","zip":"48823","city":"East Lansing","area":null,"county":"Ingham County","state":"Michigan","country":"us","formatted_address":"Insomnia Cookies, 603, East Grand River Avenue, East Lansing, Ingham County, Michigan, 48823, United States of America","place_id":"24166376","datatype":"locationiq"},{"name":"Taco Bell","code":null,"latitude":41.2285041,"longitude":-95.8502769,"address":"3150 Dial Drive, Council Bluffs IA","chain_name":null,"distance":0,"street_number":"3130","street_name":"Dial Drive","zip":"51501","city":"Council Bluffs","area":null,"county":"Pottawattamie County","state":"Iowa","country":"us","formatted_address":"Taco Bell, 3130, Dial Drive, Lake Manawa Power Centre, Council Bluffs, Pottawattamie County, Iowa, 51501, United States of America","place_id":"114004970","datatype":"locationiq"},{"name":"Taco Bell","code":null,"latitude":30.1798086,"longitude":-81.5540353,"address":"10400 Phillips Hwy, Jacksonville FL","chain_name":null,"distance":0,"street_number":null,"street_name":"Mall Road","zip":"32256","city":"Jacksonville","area":null,"county":"Duval County","state":"Florida","country":"us","formatted_address":"Taco Bell, Mall Road, Jacksonville, Duval County, Florida, 32256, United States of America","place_id":"149375257","datatype":"locationiq"},{"name":"Taco Bell","code":null,"latitude":39.125371,"longitude":-76.5311598,"address":"8099 Edwin Raynor Blvd, Pasadena MD","chain_name":null,"distance":0,"street_number":"3424","street_name":"Mountain Road","zip":"21122","city":null,"area":"Turf Valley","county":"Anne Arundel County","state":"Maryland","country":"us","formatted_address":"3424, Mountain Road, Turf Valley, Green Haven, Anne Arundel County, Maryland, 21122, United States of America","place_id":"189605954","datatype":"locationiq"},{"name":"Taco Bell","code":null,"latitude":42.1977998,"longitude":-72.5732772,"address":"1471 Memorial Drive, Chicopee MA","chain_name":null,"distance":0,"street_number":null,"street_name":"Memorial Drive","zip":"01020","city":null,"area":null,"county":"Hampden County","state":"Massachusetts","country":"us","formatted_address":"MEMORIAL \/ PARKING LOT, Memorial Drive, Chicopee, Hampden County, Massachusetts, 01020, United States of America","place_id":"16342342","datatype":"locationiq"},{"name":"Taco Bell","code":null,"latitude":27.2993712,"longitude":-82.4531026,"address":"5811 Bee Ridge Road, Sarasota FL","chain_name":null,"distance":0,"street_number":null,"street_name":"Bee Ridge Road","zip":"34231","city":null,"area":null,"county":"Sarasota County","state":"Florida","country":"us","formatted_address":"Taco Bell, Bee Ridge Road, SRQ Window Blinds & Drapes Sarasota, Sarasota County, Florida, 34231, United States of America","place_id":"173032721","datatype":"locationiq"},{"name":"Taco Bell","code":null,"latitude":37.3378661,"longitude":-122.0418485,"address":"1695 Hollenbeck Road, Sunnyvale CA","chain_name":null,"distance":0,"street_number":null,"street_name":"West Homestead Road","zip":"95014-0240","city":"Cupertino","area":null,"county":"Santa Clara County","state":"California","country":"us","formatted_address":"Tacobell-KFC, West Homestead Road, Cupertino, Santa Clara County, California, 95014-0240, United States of America","place_id":"84218056","datatype":"locationiq"},{"name":"Taco Bell","code":null,"latitude":42.7624451,"longitude":-84.5432034,"address":"2809 N East St, Lansing MI","chain_name":null,"distance":0,"street_number":null,"street_name":"Chilson Avenue","zip":"48906","city":"Lansing","area":"Old Town","county":"Ingham County","state":"Michigan","country":"us","formatted_address":"Taco Bell, Chilson Avenue, Old Town, Lansing, Ingham County, Michigan, 48906, United States of America","place_id":"15082345","datatype":"locationiq"},{"name":"Taco Bell","code":null,"latitude":33.5346971,"longitude":-82.1269638,"address":"4292 Washington Rd, Evans GA","chain_name":null,"distance":0,"street_number":null,"street_name":"Washington Road","zip":"30802","city":null,"area":null,"county":"Columbia County","state":"Georgia","country":"us","formatted_address":"Taco Bell, Washington Road, Evans, Country Place, Columbia County, Georgia, 30802, United States of America","place_id":"86448729","datatype":"locationiq"},{"name":"Taco Bell","code":null,"latitude":32.532985,"longitude":-93.6709083,"address":"4100 Industrial Dr, Bossier City LA","chain_name":null,"distance":0,"street_number":null,"street_name":"Brandon Spur","zip":"71112","city":"Bossier City","area":null,"county":"Bossier Parish","state":"Louisiana","country":"us","formatted_address":"Brandon Spur, Bossier City, Bossier Parish, Louisiana, 71112, United States of America","place_id":"67403375","datatype":"locationiq"},{"name":"Taco Bell","code":null,"latitude":27.7775819,"longitude":-82.6798764,"address":"3401 5th Avenue N, Saint Petersburg FL","chain_name":null,"distance":0,"street_number":null,"street_name":"5th Avenue North","zip":"33710","city":"Saint Petersburg","area":"Central Oak Park","county":"Pinellas County","state":"Florida","country":"us","formatted_address":"Taco Bell, 5th Avenue North, Central Oak Park, Saint Petersburg, Pinellas County, Florida, 33710, United States of America","place_id":"114073618","datatype":"locationiq"},{"name":"Taco Bell","code":null,"latitude":34.321927,"longitude":-83.8328775,"address":"1452 Thompson Bridge Rd, Gainesville GA","chain_name":null,"distance":0,"street_number":"1416","street_name":"Thompson Bridge Road","zip":"30501","city":null,"area":"Spring View Acres","county":"Hall County","state":"Georgia","country":"us","formatted_address":"1416, Thompson Bridge Road, Spring View Acres, Gainesville, Hall County, Georgia, 30501, United States of America","place_id":"183915444","datatype":"locationiq"},{"name":"Taco Bell","code":null,"latitude":39.0383755,"longitude":-95.7612884,"address":"1560 S.w. Wanamaker Rd, Topeka KS","chain_name":null,"distance":0,"street_number":"1560","street_name":"Southwest Wanamaker Road","zip":"66604","city":"Topeka","area":null,"county":"Shawnee County","state":"Kansas","country":"us","formatted_address":"1560, Southwest Wanamaker Road, Topeka, Shawnee County, Kansas, 66604, United States of America","place_id":"96292841","datatype":"locationiq"},{"name":"Taco Bell","code":null,"latitude":34.0445899,"longitude":-118.3289023,"address":"1601 Crenshaw Blvd., Los Angeles CA","chain_name":null,"distance":0,"street_number":null,"street_name":"Venice Boulevard","zip":"90019","city":"Los Angeles","area":"Country Club Park","county":"Los Angeles County","state":"California","country":"us","formatted_address":"KFC, Venice Boulevard, Country Club Park, Cienega, Los Angeles, Los Angeles County, California, 90019, United States of America","place_id":"28746156","datatype":"locationiq"},{"name":"Taco Bell","code":null,"latitude":30.6706675,"longitude":-87.85163,"address":"30500-F State Hwy 181, Spanish Fort AL","chain_name":null,"distance":0,"street_number":null,"street_name":"AL 181","zip":"36527","city":"Daphne","area":null,"county":"Baldwin County","state":"Alabama","country":"us","formatted_address":"AL 181, Daphne, Baldwin County, Alabama, 36527, United States of America","place_id":"86097981","datatype":"locationiq"},{"name":"Taco Bell","code":null,"latitude":35.2196265,"longitude":-114.0353925,"address":"3220 Stockton Hill Rd, Kingman AZ","chain_name":null,"distance":0,"street_number":null,"street_name":"Stockton Hill Road","zip":"86409","city":"Kingman","area":null,"county":"Mohave County","state":"Arizona","country":"us","formatted_address":"Taco Bell, Stockton Hill Road, Kingman, Mohave County, Arizona, 86409, United States of America","place_id":"4971092","datatype":"locationiq"},{"name":"Taco Bell","code":null,"latitude":30.6755047,"longitude":-88.1425037,"address":"3843 Airport Blvd, Mobile AL","chain_name":null,"distance":0,"street_number":null,"street_name":"Airport Boulevard Service Road","zip":"36609","city":"Mobile","area":null,"county":"Mobile County","state":"Alabama","country":"us","formatted_address":"Airport Boulevard Service Road, Mobile, Mobile County, Alabama, 36609, United States of America","place_id":"165360828","datatype":"locationiq"},{"name":"Taco Bell","code":null,"latitude":39.0935887,"longitude":-120.9513725,"address":"555 South Auburn Street, Colfax CA","chain_name":null,"distance":0,"street_number":null,"street_name":"Whitcomb Avenue","zip":"95713","city":"Colfax","area":null,"county":"Placer County","state":"California","country":"us","formatted_address":"Beach Hut Deli, Whitcomb Avenue, Colfax, Placer County, California, 95713, United States of America","place_id":"59862504","datatype":"locationiq"},{"name":"Taco Bell","code":null,"latitude":33.9088071,"longitude":-84.2069001,"address":"5518 Jimmy Carter Blvd, Norcross GA","chain_name":null,"distance":0,"street_number":null,"street_name":"Jimmy Carter Boulevard","zip":"30093","city":null,"area":"Danbury Village","county":"Gwinnett County","state":"Georgia","country":"us","formatted_address":"Taco Bell, Jimmy Carter Boulevard, Danbury Village, Smoketree, Gwinnett County, Georgia, 30093, United States of America","place_id":"52208546","datatype":"locationiq"},{"name":"Taco Bell","code":null,"latitude":40.1448292,"longitude":-105.1266825,"address":"2010 Ken Pratt Blvd., Longmont CO","chain_name":null,"distance":0,"street_number":null,"street_name":"Twin Peaks Mall","zip":"80501","city":null,"area":null,"county":"Boulder County","state":"Colorado","country":"us","formatted_address":"Taco Bell, Twin Peaks Mall, Longmont, Boulder County, Colorado, 80501, United States of America","place_id":"130997777","datatype":"locationiq"},{"name":"Taco Bell","code":null,"latitude":39.0758289,"longitude":-84.8920297,"address":"1020 Green Blvd, Aurora IN","chain_name":null,"distance":0,"street_number":"1098","street_name":"West Eads Parkway","zip":"47001","city":"Aurora","area":null,"county":"Dearborn County","state":"Indiana","country":"us","formatted_address":"1098, West Eads Parkway, Aurora, Center Township, Dearborn County, Indiana, 47001, United States of America","place_id":"186127852","datatype":"locationiq"},{"name":"Taco Bell","code":null,"latitude":34.1225889,"longitude":-77.9006037,"address":"5972 Carolina Beach Rd, Wilmington NC","chain_name":null,"distance":0,"street_number":"5959","street_name":"Carolina Beach Road","zip":"28412","city":null,"area":null,"county":"New Hanover County","state":"North Carolina","country":"us","formatted_address":"5959, Carolina Beach Road, Sea Breeze, New Hanover County, North Carolina, 28412, United States of America","place_id":"198031883","datatype":"locationiq"},{"name":"Taco Bell","code":null,"latitude":29.6600789,"longitude":-82.4212106,"address":"7410 W Newberry Rd, Gainesville FL","chain_name":null,"distance":0,"street_number":null,"street_name":"West Newberry Road","zip":"32669","city":null,"area":"Buckingham West","county":"Alachua County","state":"Florida","country":"us","formatted_address":"Taco Bell, West Newberry Road, Buckingham West, Alachua County, Florida, 32669, United States of America","place_id":"53422782","datatype":"locationiq"},{"name":"Taco Bell","code":null,"latitude":34.3625654,"longitude":-89.5114748,"address":"1726 University Ave, Oxford MS","chain_name":null,"distance":0,"street_number":null,"street_name":"University Avenue","zip":"38655","city":"Oxford","area":null,"county":"Lafayette County","state":"Mississippi","country":"us","formatted_address":"Burger King, University Avenue, Oxford, Lafayette County, Mississippi, 38655, United States of America","place_id":"141137527","datatype":"locationiq"},{"name":"Taco Bell","code":null,"latitude":38.4228636,"longitude":-96.2174904,"address":"2807 Eaglecrest Drive, Emporia KS","chain_name":null,"distance":0,"street_number":null,"street_name":"Industrial Road","zip":"66801","city":null,"area":null,"county":"Lyon County","state":"Kansas","country":"us","formatted_address":"Taco Bell, Industrial Road, Emporia, Lyon County, Kansas, 66801, United States of America","place_id":"26985442","datatype":"locationiq"},{"name":"Taco Bell","code":null,"latitude":30.4779088,"longitude":-81.6354998,"address":"600 Airport Center Dr., Jacksonville FL","chain_name":null,"distance":0,"street_number":null,"street_name":"Airport Center Drive","zip":"32218","city":"Jacksonville","area":null,"county":"Duval County","state":"Florida","country":"us","formatted_address":"Airport Center Drive, Jacksonville, Duval County, Florida, 32218, United States of America","place_id":"100044925","datatype":"locationiq"},{"name":"Taco Bell","code":null,"latitude":42.4932175,"longitude":-83.1832008,"address":"2260 Colidge Hwy., Berkley MI","chain_name":null,"distance":0,"street_number":null,"street_name":"Oxford Road","zip":"48072","city":"Berkley","area":null,"county":"Oakland County","state":"Michigan","country":"us","formatted_address":"Taco Bell, Oxford Road, Berkley, Oakland County, Michigan, 48072, United States of America","place_id":"122460507","datatype":"locationiq"},{"name":"Taco Bell","code":null,"latitude":34.1882168,"longitude":-118.3191433,"address":"1115 N San Fernando Blvd, Burbank CA","chain_name":null,"distance":0,"street_number":null,"street_name":"San Fernando Boulevard","zip":"91501","city":"Burbank","area":null,"county":"Los Angeles County","state":"California","country":"us","formatted_address":"Taco Bell, San Fernando Boulevard, Burbank, Los Angeles County, California, 91501, United States of America","place_id":"2704700","datatype":"locationiq"},{"name":"Taco Bell","code":null,"latitude":38.6558667,"longitude":-90.5546259,"address":"15548 Olive Blvd, Chesterfield MO","chain_name":null,"distance":0,"street_number":null,"street_name":"Olive Boulevard","zip":"63017","city":"Chesterfield","area":null,"county":"St. Louis County","state":"Missouri","country":"us","formatted_address":"Taco Bell, Olive Boulevard, Chesterfield, St. Louis County, Missouri, 63017, United States of America","place_id":"158475842","datatype":"locationiq"},{"name":"Taco Bell","code":null,"latitude":35.7984856,"longitude":-78.4938301,"address":"7036 Highway 64 East, Knightdale NC","chain_name":null,"distance":0,"street_number":null,"street_name":"Village Park Drive","zip":"27545","city":null,"area":null,"county":"Wake County","state":"North Carolina","country":"us","formatted_address":"Taco Bell, Village Park Drive, Knightdale, Wake County, North Carolina, 27545, United States of America","place_id":"81432302","datatype":"locationiq"},{"name":"Taco Bell","code":null,"latitude":39.7819822,"longitude":-86.0458585,"address":"6990 E 10th St, Indianapolis IN","chain_name":null,"distance":0,"street_number":null,"street_name":"East 10th Street","zip":"46219","city":null,"area":null,"county":"Marion County","state":"Indiana","country":"us","formatted_address":"Gethsemane Lutheran Church, East 10th Street, Warren Park, Marion County, Indiana, 46219, United States of America","place_id":"3384445","datatype":"locationiq"},{"name":"Taco Bell","code":null,"latitude":42.0345348,"longitude":-87.9405737,"address":"945 Elmhurst Rd, Des Plaines IL","chain_name":null,"distance":0,"street_number":null,"street_name":"Murray Lane","zip":"60016","city":"Des Plaines","area":null,"county":"Cook County","state":"Illinois","country":"us","formatted_address":"Taco Bell, Murray Lane, Des Plaines, Cook County, Illinois, 60016, United States of America","place_id":"83719780","datatype":"locationiq"},{"name":"Taco Bell","code":null,"latitude":34.2572478,"longitude":-118.5940022,"address":"21120 Devonshire Street, Chatsworth CA","chain_name":null,"distance":0,"street_number":null,"street_name":"Devonshire Street","zip":"91311","city":"Los Angeles","area":null,"county":"Los Angeles County","state":"California","country":"us","formatted_address":"Taco Bell, Devonshire Street, Chatsworth, Los Angeles, Los Angeles County, California, 91311, United States of America","place_id":"52854625","datatype":"locationiq"},{"name":"Taco Bell","code":null,"latitude":35.0267702,"longitude":-79.0518686,"address":"7647 S Raeford Rd, Fayetteville NC","chain_name":null,"distance":0,"street_number":null,"street_name":"South Raeford Road","zip":"28314","city":"Fayetteville","area":null,"county":"Cumberland County","state":"North Carolina","country":"us","formatted_address":"Taco Bell, South Raeford Road, Fayetteville, Cumberland County, North Carolina, 28314, United States of America","place_id":"32300037","datatype":"locationiq"},{"name":"Taco Bell","code":null,"latitude":33.8107542,"longitude":-118.2908193,"address":"921 West Sepulveda Blvd, Torrance CA","chain_name":null,"distance":0,"street_number":null,"street_name":"West Sepulveda Boulevard","zip":"90710","city":null,"area":"Ironsides","county":"Los Angeles County","state":"California","country":"us","formatted_address":"McDonald's, West Sepulveda Boulevard, Ironsides, West Carson, Avalon Village, Los Angeles County, California, 90710, United States of America","place_id":"6773483","datatype":"locationiq"},{"name":"Taco Bell","code":null,"latitude":33.3354502,"longitude":-111.8599203,"address":"2030 North Alma School Rd, Chandler AZ","chain_name":null,"distance":0,"street_number":null,"street_name":"West Warner Road","zip":"85224","city":"Chandler","area":null,"county":"Maricopa County","state":"Arizona","country":"us","formatted_address":"Taco Bell, West Warner Road, Yeager Chiropractic, Chandler, Maricopa County, Arizona, 85224, United States of America","place_id":"16443569","datatype":"locationiq"},{"name":"Taco Bell","code":null,"latitude":33.7750916,"longitude":-118.1903046,"address":"228 E Seventh, Long Beach CA","chain_name":null,"distance":0,"street_number":null,"street_name":"E 7th Street","zip":"90813","city":"Long Beach","area":null,"county":"Los Angeles County","state":"California","country":"us","formatted_address":"Ward's Pharmacy, E 7th Street, Willowville, Long Beach, Los Angeles County, California, 90813, United States of America","place_id":"148632824","datatype":"locationiq"},{"name":"Taco Bell","code":null,"latitude":41.2593224,"longitude":-95.9707453,"address":"3855 Dodge Street, Omaha NE","chain_name":null,"distance":0,"street_number":"124","street_name":"South 38th Avenue","zip":"68131","city":"Omaha","area":null,"county":"Douglas County","state":"Nebraska","country":"us","formatted_address":"124, South 38th Avenue, South Omaha, Omaha, Douglas County, Nebraska, 68131, United States of America","place_id":"194546403","datatype":"locationiq"},{"name":"Taco Bell","code":null,"latitude":37.724062,"longitude":-97.2440769,"address":"2230 North Rock Rd, Wichita KS","chain_name":null,"distance":0,"street_number":null,"street_name":"North Rock Road","zip":"67220","city":"Wichita","area":null,"county":"Sedgwick County","state":"Kansas","country":"us","formatted_address":"Taco Bell, North Rock Road, Wichita, Sedgwick County, Kansas, 67220, United States of America","place_id":"5686689","datatype":"locationiq"},{"name":"Taco Bell","code":null,"latitude":44.882706,"longitude":-93.319715,"address":"3210 Southdale Circle, Edina MN","chain_name":null,"distance":0,"street_number":"3210","street_name":"Southdale Circle","zip":"55435","city":null,"area":null,"county":"Hennepin County","state":"Minnesota","country":"us","formatted_address":"Taco Bell, 3210, Southdale Circle, Southdale, Edina, Hennepin County, Minnesota, 55435, United States of America","place_id":"82628746","datatype":"locationiq"},{"name":"Taco Bell","code":null,"latitude":29.6268254,"longitude":-82.3736087,"address":"3408 SW Archer Rd, Gainesville FL","chain_name":null,"distance":0,"street_number":null,"street_name":"Archer Road","zip":"32608","city":"City of Gainesville Municipal Boundaries","area":"Daysville","county":"Alachua County","state":"Florida","country":"us","formatted_address":"Taco Bell, Archer Road, Daysville, City of Gainesville Municipal Boundaries, Alachua County, Florida, 32608, United States of America","place_id":"130380964","datatype":"locationiq"},{"name":"Taco Bell","code":null,"latitude":29.6327975,"longitude":-90.7589981,"address":"5974 W Main St, Houma LA","chain_name":null,"distance":0,"street_number":null,"street_name":"West Main Street","zip":"70364","city":null,"area":null,"county":"Terrebonne Parish","state":"Louisiana","country":"us","formatted_address":"Taco Bell, West Main Street, Bayou Cane, Terrebonne Parish, Louisiana, 70364, United States of America","place_id":"51616740","datatype":"locationiq"},{"name":"Taco Bell","code":null,"latitude":44.9987834,"longitude":-93.2852232,"address":"425 W Broadway, Minneapolis MN","chain_name":null,"distance":0,"street_number":null,"street_name":"West Broadway Avenue","zip":"55411","city":"Minneapolis","area":"Hawthorne","county":"Hennepin County","state":"Minnesota","country":"us","formatted_address":"5 St \/ 4 St N, West Broadway Avenue, Hawthorne, Near North, Minneapolis, Hennepin County, Minnesota, 55411, United States of America","place_id":"6577009","datatype":"locationiq"},{"name":"Taco Bell","code":null,"latitude":38.9642233,"longitude":-92.2889333,"address":"3301 Clark Lane, Columbia MO","chain_name":null,"distance":0,"street_number":null,"street_name":"Clark Lane","zip":"65202","city":"Columbia","area":null,"county":"Boone County","state":"Missouri","country":"us","formatted_address":"Taco Bell, Clark Lane, Columbia, Boone County, Missouri, 65202, United States of America","place_id":"133596024","datatype":"locationiq"},{"name":"Taco Bell","code":null,"latitude":33.6303688,"longitude":-88.445413,"address":"Bidg. 160 Simler Blvd., Columbus MS","chain_name":null,"distance":0,"street_number":null,"street_name":"Simler Boulevard","zip":"39710","city":null,"area":null,"county":"Lowndes County","state":"Mississippi","country":"us","formatted_address":"Simler Boulevard, Oakdale Park, Lowndes County, Mississippi, 39710, United States of America","place_id":"67508082","datatype":"locationiq"},{"name":"Taco Bell","code":null,"latitude":27.9227465,"longitude":-82.3216338,"address":"11315 Causeway Blvd, Brandon FL","chain_name":null,"distance":0,"street_number":null,"street_name":"Causeway Boulevard","zip":"33511","city":"Brandon","area":"Sterling Ranch","county":"Hillsborough County","state":"Florida","country":"us","formatted_address":"Chick-fil-A, Causeway Boulevard, Sterling Ranch, Brandon, Hillsborough County, Florida, 33511, United States of America","place_id":"56384600","datatype":"locationiq"},{"name":"Taco Bell","code":null,"latitude":38.6771164,"longitude":-90.2528977,"address":"5031 Natural Bridge, Saint Louis MO","chain_name":null,"distance":0,"street_number":"5033","street_name":"Natural Bridge Avenue","zip":"63115","city":"St. Louis","area":null,"county":"City of St. Louis","state":"Missouri","country":"us","formatted_address":"5033, Natural Bridge Avenue, St. Louis, City of St. Louis, Missouri, 63115, United States of America","place_id":"194195100","datatype":"locationiq"},{"name":"Taco Bell","code":null,"latitude":40.2487523,"longitude":-74.7704418,"address":"1760 North Olden Avenue, Ewing NJ","chain_name":null,"distance":0,"street_number":"1780","street_name":"North Olden Avenue","zip":"08638","city":"Ewing Township","area":null,"county":"Mercer County","state":"New Jersey","country":"us","formatted_address":"1780, North Olden Avenue, Ewing Township, Mercer County, New Jersey, 08638, United States of America","place_id":"195501592","datatype":"locationiq"},{"name":"Taco Bell","code":null,"latitude":32.1913057,"longitude":-110.7918303,"address":"9410 E. Golf Links Rd., Tucson AZ","chain_name":null,"distance":0,"street_number":"9386","street_name":"East Golf Links Road","zip":"85730","city":"Tucson","area":null,"county":"Pima County","state":"Arizona","country":"us","formatted_address":"9386, East Golf Links Road, Tucson, Pima County, Arizona, 85730, United States of America","place_id":"177406468","datatype":"locationiq"},{"name":"Taco Bell","code":null,"latitude":42.9241242,"longitude":-72.2941089,"address":"85 Key Rd, Keene NH","chain_name":null,"distance":0,"street_number":"27","street_name":"Key Road","zip":"03431","city":null,"area":null,"county":"Cheshire County","state":"New Hampshire","country":"us","formatted_address":"27, Key Road, Keene, Cheshire County, New Hampshire, 03431, United States of America","place_id":"195095174","datatype":"locationiq"},{"name":"Taco Bell","code":null,"latitude":42.9123931,"longitude":-85.6527501,"address":"560 28th St SE, Wyoming MI","chain_name":null,"distance":0,"street_number":null,"street_name":"28th Street Southeast","zip":"49546","city":"Wyoming","area":"Godwin Heights","county":"Kent County","state":"Michigan","country":"us","formatted_address":"Taco Bell, 28th Street Southeast, Godwin Heights, Wyoming, Kent County, Michigan, 49546, United States of America","place_id":"25019432","datatype":"locationiq"},{"name":"Taco Bell","code":null,"latitude":28.0491985,"longitude":-82.5037168,"address":"11007 North Dale Mabry, Tampa FL","chain_name":null,"distance":0,"street_number":null,"street_name":"Dale Mabry Highway","zip":"33618","city":null,"area":null,"county":"Hillsborough County","state":"Florida","country":"us","formatted_address":"Dale Mabry Hwy @ 11007, Dale Mabry Highway, Mullis City, Carrollwood, Hillsborough County, Florida, 33618, United States of America","place_id":"8328044","datatype":"locationiq"},{"name":"Taco Bell","code":null,"latitude":38.595524,"longitude":-89.9856864,"address":"6599 N Illinois St., Fairview Heights IL","chain_name":null,"distance":0,"street_number":null,"street_name":"Market Place","zip":"62208","city":"Fairview Heights","area":null,"county":"Saint Clair County","state":"Illinois","country":"us","formatted_address":"Taco Bell, Market Place, Fairview Heights, Saint Clair County, Illinois, 62208, United States of America","place_id":"157231144","datatype":"locationiq"},{"name":"Taco Bell","code":null,"latitude":39.7135113,"longitude":-105.0537046,"address":"165 S Sheridan Blvd, Lakewood CO","chain_name":null,"distance":0,"street_number":null,"street_name":"West Cedar Avenue","zip":"80219","city":"Lakewood","area":null,"county":"Jefferson County","state":"Colorado","country":"us","formatted_address":"Taco Bell, West Cedar Avenue, Lakewood, Jefferson County, Colorado, 80219, United States of America","place_id":"46579824","datatype":"locationiq"},{"name":"Taco Bell","code":null,"latitude":32.3344032,"longitude":-106.7811888,"address":"2583 N. Main St., Las Cruces NM","chain_name":null,"distance":0,"street_number":null,"street_name":"North Main Street","zip":"88000","city":"Las Cruces","area":null,"county":"Do\u00f1a Ana County","state":"New Mexico","country":"us","formatted_address":"Taco Bell, North Main Street, Las Cruces, Do\u00f1a Ana County, New Mexico, 88000, United States of America","place_id":"88644574","datatype":"locationiq"},{"name":"Taco Bell","code":null,"latitude":43.6151265,"longitude":-83.9140952,"address":"1004 North Euclid Avenue, Bay City MI","chain_name":null,"distance":0,"street_number":"1068","street_name":"North Euclid Avenue","zip":"48706","city":"City of Bay City","area":null,"county":"Bay County","state":"Michigan","country":"us","formatted_address":"1068, North Euclid Avenue, City of Bay City, Bay County, Michigan, 48706, United States of America","place_id":"190668810","datatype":"locationiq"},{"name":"Taco Bell","code":null,"latitude":41.6618397,"longitude":-70.2858537,"address":"314 Barnstable Road, Hyannis MA","chain_name":null,"distance":0,"street_number":null,"street_name":"Barnstable Road","zip":"02601-5542","city":null,"area":null,"county":"Barnstable County","state":"Massachusetts","country":"us","formatted_address":"Taco Bell, Barnstable Road, Barnstable, Barnstable County, Massachusetts, 02601-5542, United States of America","place_id":"118611531","datatype":"locationiq"},{"name":"Taco Bell","code":null,"latitude":34.0472713,"longitude":-118.2071495,"address":"320 North Soto, Los Angeles CA","chain_name":null,"distance":0,"street_number":null,"street_name":"Cincinnati Street","zip":"90033","city":"Los Angeles","area":"Brooklyn Heights","county":"Los Angeles County","state":"California","country":"us","formatted_address":"90033, Los Angeles, CA United States, Cincinnati Street, Brooklyn Heights, Boyle Heights, Los Angeles, Los Angeles County, California, 90033, United States of America","place_id":"25402990","datatype":"locationiq"},{"name":"Taco Bell","code":null,"latitude":41.6358655,"longitude":-72.8733422,"address":"709 Queen St, Southington CT","chain_name":null,"distance":0,"street_number":null,"street_name":"Queen Street","zip":"06489","city":null,"area":null,"county":"Hartford County","state":"Connecticut","country":"us","formatted_address":"Taco Bell, Queen Street, North End, Town of Southington, Hartford County, Connecticut, 06489, United States of America","place_id":"167759845","datatype":"locationiq"},{"name":"Taco Bell","code":null,"latitude":32.4252757,"longitude":-84.9487371,"address":"3456 Victory Drive, Columbus GA","chain_name":null,"distance":0,"street_number":null,"street_name":"Victory Drive","zip":"31901","city":"Columbus","area":null,"county":"Muscogee County","state":"Georgia","country":"us","formatted_address":"Taco Bell, Victory Drive, Columbus, Muscogee County, Georgia, 31901, United States of America","place_id":"172818364","datatype":"locationiq"},{"name":"Taco Bell","code":null,"latitude":34.2939149,"longitude":-118.4161445,"address":"12910 Foothill Blvd, Sylmar CA","chain_name":null,"distance":0,"street_number":null,"street_name":"Foothill Boulevard","zip":"91342","city":null,"area":null,"county":"Los Angeles County","state":"California","country":"us","formatted_address":"Taco Bell, Foothill Boulevard, San Fernando, Los Angeles County, California, 91342, United States of America","place_id":"152782601","datatype":"locationiq"},{"name":"Taco Bell","code":null,"latitude":41.259295,"longitude":-96.0219479,"address":"7051 Dodge Street, Omaha NE","chain_name":null,"distance":0,"street_number":"7051","street_name":"Dodge Street","zip":"68132","city":"Omaha","area":null,"county":"Douglas County","state":"Nebraska","country":"us","formatted_address":"Taco Bell, 7051, Dodge Street, Omaha, Douglas County, Nebraska, 68132, United States of America","place_id":"112293956","datatype":"locationiq"},{"name":"Taco Bell","code":null,"latitude":33.5673478,"longitude":-84.4135255,"address":"6865 Hwy 85, Riverdale GA","chain_name":null,"distance":0,"street_number":"6868","street_name":"Powers Street","zip":"30274","city":null,"area":"Cedar Hill Estates","county":"Clayton County","state":"Georgia","country":"us","formatted_address":"6868, Powers Street, Cedar Hill Estates, Riverdale, Clayton County, Georgia, 30274, United States of America","place_id":"183495133","datatype":"locationiq"},{"name":"Taco Bell","code":null,"latitude":33.1332288,"longitude":-117.1214135,"address":"704 Center Dr, San Marcos CA","chain_name":null,"distance":0,"street_number":"704","street_name":"Center Drive","zip":"92069","city":"San Marcos","area":null,"county":"San Diego County","state":"California","country":"us","formatted_address":"704, Center Drive, Nordahl Marketplace, San Marcos, San Diego County, California, 92069, United States of America","place_id":"52779317","datatype":"locationiq"},{"name":"Taco Bell","code":null,"latitude":32.7428865,"longitude":-117.0419762,"address":"7232 Broadway, Lemon Grove CA","chain_name":null,"distance":0,"street_number":"7232","street_name":"Broadway","zip":"91945","city":"Lemon Grove","area":null,"county":"San Diego County","state":"California","country":"us","formatted_address":"Taco Bell, 7232, Broadway, Lemon Grove, San Diego County, California, 91945, United States of America","place_id":"6003934","datatype":"locationiq"},{"name":"Taco Bell","code":null,"latitude":26.6677029,"longitude":-81.8909041,"address":"14041 N Cleveland Ave, North Fort Myers FL","chain_name":null,"distance":0,"street_number":null,"street_name":"Pondella Road","zip":"33903","city":null,"area":null,"county":"Lee County","state":"Florida","country":"us","formatted_address":"Taco Bell, Pondella Road, North Fort Myers, Palm Frond Condominiums, Lee County, Florida, 33903, United States of America","place_id":"136052125","datatype":"locationiq"},{"name":"Taco Bell","code":null,"latitude":33.1758092,"longitude":-87.4466533,"address":"3501 Buttermilk Road, Cottondale AL","chain_name":null,"distance":0,"street_number":null,"street_name":"Buttermilk Road","zip":"35453","city":"Tuscaloosa","area":null,"county":"Tuscaloosa County","state":"Alabama","country":"us","formatted_address":"BP, Buttermilk Road, Cottondale, Tuscaloosa, Tuscaloosa County, Alabama, 35453, United States of America","place_id":"13772995","datatype":"locationiq"},{"name":"Taco Bell","code":null,"latitude":38.9238935,"longitude":-121.0595375,"address":"1895 Auburn Ravine Road, Auburn CA","chain_name":null,"distance":0,"street_number":null,"street_name":"Auburn Ravine Road","zip":"95604","city":"Auburn","area":null,"county":"Placer County","state":"California","country":"us","formatted_address":"Red Lion Inn and Suites Auburn, Auburn Ravine Road, Auburn, Placer County, California, 95604, United States of America","place_id":"54766709","datatype":"locationiq"},{"name":"Taco Bell","code":null,"latitude":46.8618166,"longitude":-96.8504834,"address":"4135 13th Ave, South, Fargo ND","chain_name":null,"distance":0,"street_number":"4138","street_name":"13th Avenue South","zip":"58103","city":"Fargo","area":null,"county":"Cass County","state":"North Dakota","country":"us","formatted_address":"4138, 13th Avenue South, Fargo, Cass County, North Dakota, 58103, United States of America","place_id":"198531852","datatype":"locationiq"},{"name":"Taco Bell","code":null,"latitude":38.8576892,"longitude":-104.7207938,"address":"1750 N Powers Blvd, Colorado Springs CO","chain_name":null,"distance":0,"street_number":"1750","street_name":"North Powers Boulevard","zip":"80915","city":"Colorado Springs","area":null,"county":"El Paso County","state":"Colorado","country":"us","formatted_address":"Taco Bell, 1750, North Powers Boulevard, Colorado Springs, El Paso County, Colorado, 80915, United States of America","place_id":"114419310","datatype":"locationiq"},{"name":"Taco Bell","code":null,"latitude":40.1512588,"longitude":-85.673149,"address":"2618 N Broadway Ave, Anderson IN","chain_name":null,"distance":0,"street_number":"3067","street_name":"North Broadway Street","zip":"46012","city":"Anderson","area":null,"county":"Madison County","state":"Indiana","country":"us","formatted_address":"3067, North Broadway Street, Anderson, Madison County, Indiana, 46012, United States of America","place_id":"186507885","datatype":"locationiq"},{"name":"Taco Bell","code":null,"latitude":37.5230267,"longitude":-122.0048727,"address":"39199 Cedar Blvd., Newark CA","chain_name":null,"distance":0,"street_number":null,"street_name":"Rubicon Avenue","zip":"94560","city":"Newark","area":null,"county":"Alameda County","state":"California","country":"us","formatted_address":"Woodlands, Rubicon Avenue, Newark, Alameda County, California, 94560, United States of America","place_id":"17546045","datatype":"locationiq"},{"name":"Taco Bell","code":null,"latitude":35.8448621,"longitude":-78.579358,"address":"4506 Capital Blvd, Raleigh NC","chain_name":null,"distance":0,"street_number":null,"street_name":"Calvary Drive","zip":"27616","city":"Raleigh","area":null,"county":"Wake County","state":"North Carolina","country":"us","formatted_address":"T, Calvary Drive, New Hope Church, Raleigh, Wake County, North Carolina, 27616, United States of America","place_id":"8381666","datatype":"locationiq"},{"name":"Taco Bell","code":null,"latitude":33.989859,"longitude":-118.0644561,"address":"10722 E Whittier Blvd, Whittier CA","chain_name":null,"distance":0,"street_number":null,"street_name":"Pleasant Way","zip":"90606","city":"Whittier","area":null,"county":"Los Angeles County","state":"California","country":"us","formatted_address":"Taco Bell, Pleasant Way, Whittier, Los Angeles County, California, 90606, United States of America","place_id":"5319329","datatype":"locationiq"},{"name":"Taco Bell","code":null,"latitude":42.4539741,"longitude":-83.129533,"address":"21900 Woodward Avenue, Ferndale MI","chain_name":null,"distance":0,"street_number":null,"street_name":"North Woodward Avenue","zip":"48220","city":"Ferndale","area":null,"county":"Oakland County","state":"Michigan","country":"us","formatted_address":"Taco Bell, North Woodward Avenue, Ferndale, Oakland County, Michigan, 48220, United States of America","place_id":"168584242","datatype":"locationiq"},{"name":"Taco Bell","code":null,"latitude":39.9865387,"longitude":-105.0949558,"address":"450 W South Boulder Rd, Lafayette CO","chain_name":null,"distance":0,"street_number":null,"street_name":"West South Boulder Road","zip":"80026","city":"Lafayette","area":null,"county":"Boulder County","state":"Colorado","country":"us","formatted_address":"Taco Bell, West South Boulder Road, Lafayette, Boulder County, Colorado, 80026, United States of America","place_id":"77927792","datatype":"locationiq"},{"name":"Taco Bell","code":null,"latitude":37.5966465,"longitude":-93.4034498,"address":"1875 S Springfield Ave, Bolivar MO","chain_name":null,"distance":0,"street_number":"2463","street_name":"South Springfield Avenue","zip":"65613","city":"Bolivar","area":null,"county":"Polk County","state":"Missouri","country":"us","formatted_address":"2463, South Springfield Avenue, Bolivar, Polk County, Missouri, 65613, United States of America","place_id":"193905840","datatype":"locationiq"},{"name":"Taco Bell","code":null,"latitude":36.7039952,"longitude":-121.6533592,"address":"1345 N. Main Street, Salinas CA","chain_name":null,"distance":0,"street_number":"1301","street_name":"North Main Street","zip":"93906","city":"Salinas","area":null,"county":"Monterey County","state":"California","country":"us","formatted_address":"1301, North Main Street, Santa Rita Plaza, Salinas, Monterey County, California, 93906, United States of America","place_id":"179081233","datatype":"locationiq"},{"name":"Taco Bell","code":null,"latitude":37.5619816,"longitude":-122.3247415,"address":"465 El Camino Real, South San Francisco CA","chain_name":null,"distance":0,"street_number":"4","street_name":"East 4th Avenue","zip":"94401","city":"San Mateo","area":null,"county":"San Mateo County","state":"California","country":"us","formatted_address":"Equinox Fitness, 4, East 4th Avenue, San Mateo, San Mateo County, California, 94401, United States of America","place_id":"25828412","datatype":"locationiq"},{"name":"Taco Bell","code":null,"latitude":33.8914988,"longitude":-84.7531967,"address":"4495 Jimmy Lee Smith Parkway, Hiram GA","chain_name":null,"distance":0,"street_number":null,"street_name":"Jimmy Lee Smith Parkway","zip":"30141","city":"Hiram","area":"Echo Ridge","county":"Paulding County","state":"Georgia","country":"us","formatted_address":"Taco Bell, Jimmy Lee Smith Parkway, Echo Ridge, Hiram, Paulding County, Georgia, 30141, United States of America","place_id":"159128871","datatype":"locationiq"},{"name":"Taco Bell","code":null,"latitude":43.5078193,"longitude":-70.4356331,"address":"491 Main St., Saco ME","chain_name":null,"distance":0,"street_number":null,"street_name":"Shannon Lane","zip":"04072","city":null,"area":null,"county":"York County","state":"Maine","country":"us","formatted_address":"KFC, Shannon Lane, Saco, York County, Maine, 04072, United States of America","place_id":"50567654","datatype":"locationiq"},{"name":"Taco Bell","code":null,"latitude":26.0477213,"longitude":-80.1590405,"address":"2700 Stirling Road, Hollywood FL","chain_name":null,"distance":0,"street_number":null,"street_name":"Stirling Road","zip":"33004","city":null,"area":null,"county":"Broward County","state":"Florida","country":"us","formatted_address":"Taco Bell, Stirling Road, Dania Beach, Broward County, Florida, 33004, United States of America","place_id":"137041588","datatype":"locationiq"},{"name":"Taco Bell","code":null,"latitude":38.5380046,"longitude":-90.4933701,"address":"2115 Smizer Station Road, Valley Park MO","chain_name":null,"distance":0,"street_number":"2115","street_name":"Smizer Station Road","zip":"63088","city":null,"area":null,"county":"St. Louis County","state":"Missouri","country":"us","formatted_address":"Taco Bell, 2115, Smizer Station Road, Peerless Park, St. Louis County, Missouri, 63088, United States of America","place_id":"79261177","datatype":"locationiq"},{"name":"Taco Bell","code":null,"latitude":40.4530423,"longitude":-122.2913393,"address":"2770 Mcmurry, Anderson CA","chain_name":null,"distance":0,"street_number":"2766","street_name":"McMurray Drive","zip":"96007","city":"Anderson","area":null,"county":"Shasta County","state":"California","country":"us","formatted_address":"2766, McMurray Drive, Anderson, Shasta County, California, 96007, United States of America","place_id":"180266406","datatype":"locationiq"},{"name":"Taco Bell","code":null,"latitude":36.0995914,"longitude":-115.1149698,"address":"2565 E Tropicana Ave, Las Vegas NV","chain_name":null,"distance":0,"street_number":null,"street_name":"East Tropicana Avenue","zip":"89122","city":null,"area":null,"county":"Clark County","state":"Nevada","country":"us","formatted_address":"Taco Bell, East Tropicana Avenue, Renaissance Center, Midtown UNLV, Paradise, Clark County, Nevada, 89122, United States of America","place_id":"44553303","datatype":"locationiq"},{"name":"Taco Bell","code":null,"latitude":33.5945761,"longitude":-86.6944114,"address":"9509 Parkway East, Birmingham AL","chain_name":null,"distance":0,"street_number":null,"street_name":"Access Road","zip":"35215","city":"Birmingham","area":null,"county":"Jefferson County","state":"Alabama","country":"us","formatted_address":"Huffman Middle School, Access Road, Huffman, Birmingham, Jefferson County, Alabama, 35215, United States of America","place_id":"3485476","datatype":"locationiq"},{"name":"Taco Bell","code":null,"latitude":38.8181422,"longitude":-121.1898907,"address":"6079 Horseshoe Bar Road, Loomis CA","chain_name":null,"distance":0,"street_number":null,"street_name":"Horseshoe Bar Road","zip":"95650","city":null,"area":null,"county":"Placer County","state":"California","country":"us","formatted_address":"Burger King, Horseshoe Bar Road, Loomis, Placer County, California, 95650, United States of America","place_id":"49557990","datatype":"locationiq"},{"name":"Taco Bell","code":null,"latitude":31.5786005,"longitude":-90.4677794,"address":"977 Brookway Blvd, Brookhaven MS","chain_name":null,"distance":0,"street_number":"973","street_name":"Brookway Boulevard","zip":"39601","city":null,"area":null,"county":"Lincoln County","state":"Mississippi","country":"us","formatted_address":"Gene's Tires, 973, Brookway Boulevard, Brookhaven, Lincoln County, Mississippi, 39601, United States of America","place_id":"58397604","datatype":"locationiq"},{"name":"Taco Bell","code":null,"latitude":42.2505969,"longitude":-83.1953306,"address":"2306 Dix Hwy, Lincoln Park MI","chain_name":null,"distance":0,"street_number":"2014","street_name":"Mill Street","zip":"48146","city":"Lincoln Park","area":null,"county":"Wayne County","state":"Michigan","country":"us","formatted_address":"2014, Mill Street, Lincoln Park, Wayne County, Michigan, 48146, United States of America","place_id":"191679275","datatype":"locationiq"},{"name":"Taco Bell","code":null,"latitude":38.9888361,"longitude":-76.5481638,"address":"1050 Annapolis Mall, Annapolis MD","chain_name":null,"distance":0,"street_number":null,"street_name":"Generals Highway","zip":"21401","city":null,"area":"Threemile Oak Corner","county":"Anne Arundel County","state":"Maryland","country":"us","formatted_address":"Orange Garage, Generals Highway, Threemile Oak Corner, Parole, Anne Arundel County, Maryland, 21401, United States of America","place_id":"123467661","datatype":"locationiq"},{"name":"Taco Bell","code":null,"latitude":43.4290228,"longitude":-83.9506333,"address":"1472 N Michigan Ave, Saginaw MI","chain_name":null,"distance":0,"street_number":"1500","street_name":"North Michigan Avenue","zip":"48602","city":"City of Saginaw","area":null,"county":"Saginaw County","state":"Michigan","country":"us","formatted_address":"1500, North Michigan Avenue, City of Saginaw, Saginaw County, Michigan, 48602, United States of America","place_id":"191511673","datatype":"locationiq"},{"name":"Taco Bell","code":null,"latitude":37.0263004,"longitude":-93.2274939,"address":"880 North 18th Street, Ozark MO","chain_name":null,"distance":0,"street_number":"732","street_name":"North 18th Street","zip":"65721","city":"Ozark","area":null,"county":"Christian County","state":"Missouri","country":"us","formatted_address":"732, North 18th Street, Ozark, Christian County, Missouri, 65721, United States of America","place_id":"193386285","datatype":"locationiq"},{"name":"Taco Bell","code":null,"latitude":33.4685752,"longitude":-86.8185763,"address":"381 Palisades Blvd, Birmingham AL","chain_name":null,"distance":0,"street_number":"381","street_name":"Palisades Boulevard","zip":"35209","city":"Homewood","area":null,"county":"Jefferson County","state":"Alabama","country":"us","formatted_address":"Taco Bell, 381, Palisades Boulevard, Homewood, Jefferson County, Alabama, 35209, United States of America","place_id":"26248604","datatype":"locationiq"},{"name":"Taco Bell","code":null,"latitude":36.0421725,"longitude":-79.7726711,"address":"2239 Martin Luther King Jr Blvd, Greensboro NC","chain_name":null,"distance":0,"street_number":null,"street_name":"Martin Luther King Jr Drive","zip":"27406","city":"Greensboro","area":null,"county":"Guilford County","state":"North Carolina","country":"us","formatted_address":"Wendy's, Martin Luther King Jr Drive, Greensboro, Guilford County, North Carolina, 27406, United States of America","place_id":"23796086","datatype":"locationiq"},{"name":"Taco Bell","code":null,"latitude":39.0418534,"longitude":-94.569871,"address":"1310 E 47th St, Kansas City MO","chain_name":null,"distance":0,"street_number":null,"street_name":"Emanuel Cleaver II Boulevard","zip":"64110","city":"Kansas City","area":null,"county":"Jackson County","state":"Missouri","country":"us","formatted_address":"Taco Bell, Emanuel Cleaver II Boulevard, Westport, Kansas City, Jackson County, Missouri, 64110, United States of America","place_id":"144591564","datatype":"locationiq"},{"name":"Taco Bell","code":null,"latitude":33.9265433,"longitude":-118.2391649,"address":"11758 S Wilmington, Los Angeles CA","chain_name":null,"distance":0,"street_number":null,"street_name":"Wilmington Avenue","zip":"90059","city":null,"area":null,"county":"Los Angeles County","state":"California","country":"us","formatted_address":"Wilmington Avenue, Watts, Firestone Park, Los Angeles County, California, 90059, United States of America","place_id":"157002198","datatype":"locationiq"},{"name":"Taco Bell","code":null,"latitude":36.7799008,"longitude":-119.7730438,"address":"3095 E Shields Ave, Fresno CA","chain_name":null,"distance":0,"street_number":"3079","street_name":"East Shields Avenue","zip":"93726","city":"Fresno","area":null,"county":"Fresno County","state":"California","country":"us","formatted_address":"3079, East Shields Avenue, Fresno, Fresno County, California, 93726, United States of America","place_id":"178365568","datatype":"locationiq"},{"name":"Taco Bell","code":null,"latitude":37.6940222,"longitude":-122.0741828,"address":"20925 Redwood Rd, Castro Valley CA","chain_name":null,"distance":0,"street_number":"3492","street_name":"Redwood Court","zip":"94546","city":null,"area":null,"county":"Alameda County","state":"California","country":"us","formatted_address":"3492, Redwood Court, Castro Valley, Alameda County, California, 94546, United States of America","place_id":"178148543","datatype":"locationiq"},{"name":"Taco Bell","code":null,"latitude":37.4750185,"longitude":-105.8932085,"address":"2435 Main Street (Lot 4B-2), Alamosa CO","chain_name":null,"distance":0,"street_number":null,"street_name":"Main Street","zip":"81101","city":null,"area":null,"county":"Alamosa County","state":"Colorado","country":"us","formatted_address":"Long John Silver's, Main Street, Alamosa County, Colorado, 81101, United States of America","place_id":"51895104","datatype":"locationiq"},{"name":"Taco Bell","code":null,"latitude":35.1331129,"longitude":-120.6062047,"address":"867 Oak Park Blvd, Pismo Beach CA","chain_name":null,"distance":0,"street_number":"867","street_name":"Oak Park Boulevard","zip":"93449","city":"Arroyo Grande","area":null,"county":"San Luis Obispo County","state":"California","country":"us","formatted_address":"Taco Bell, 867, Oak Park Boulevard, Arroyo Grande, San Luis Obispo County, California, 93449, United States of America","place_id":"106073624","datatype":"locationiq"},{"name":"Taco Bell","code":null,"latitude":44.9915231,"longitude":-93.1053525,"address":"1672 Rice St, Saint Paul MN","chain_name":null,"distance":0,"street_number":null,"street_name":"Larpenteur Avenue West","zip":"55113","city":"Saint Paul","area":null,"county":"Ramsey County","state":"Minnesota","country":"us","formatted_address":"Taco Bell, Larpenteur Avenue West, Saint Paul, Ramsey County, Minnesota, 55113, United States of America","place_id":"12950175","datatype":"locationiq"},{"name":"Taco Bell","code":null,"latitude":43.0025921,"longitude":-83.7337716,"address":"3606 Corunna Rd., Flint MI","chain_name":null,"distance":0,"street_number":"3629","street_name":"Corunna Road","zip":"48532","city":null,"area":null,"county":"Genesee County","state":"Michigan","country":"us","formatted_address":"Mattress Palace, 3629, Corunna Road, Flint Township, Genesee County, Michigan, 48532, United States of America","place_id":"58794400","datatype":"locationiq"},{"name":"Taco Bell","code":null,"latitude":37.3682989,"longitude":-89.6427708,"address":"2271 East Jackson Blvd, Jackson MO","chain_name":null,"distance":0,"street_number":"2415","street_name":"East Jackson Boulevard","zip":"63755","city":"Jackson","area":null,"county":"Cape Girardeau County","state":"Missouri","country":"us","formatted_address":"2415, East Jackson Boulevard, Jackson, Cape Girardeau County, Missouri, 63755, United States of America","place_id":"193336365","datatype":"locationiq"},{"name":"Taco Bell","code":null,"latitude":38.3647174,"longitude":-122.7136278,"address":"5000 Redwood Dr, Rohnert Park CA","chain_name":null,"distance":0,"street_number":null,"street_name":"Redwood Drive","zip":"94928","city":"Rohnert Park","area":null,"county":"Sonoma County","state":"California","country":"us","formatted_address":"Good Nite Inn Rohnert Park, Redwood Drive, Rohnert Park, Sonoma County, California, 94928, United States of America","place_id":"52721461","datatype":"locationiq"},{"name":"Taco Bell","code":null,"latitude":38.2371336,"longitude":-104.6628754,"address":"1717 South Pueblo Blvd, Pueblo CO","chain_name":null,"distance":0,"street_number":null,"street_name":"South Pueblo Boulevard","zip":"81004","city":"Pueblo","area":null,"county":"Pueblo County","state":"Colorado","country":"us","formatted_address":"Taco Bell, South Pueblo Boulevard, Pueblo, Pueblo County, Colorado, 81004, United States of America","place_id":"52562601","datatype":"locationiq"},{"name":"Taco Bell","code":null,"latitude":40.1551033,"longitude":-74.2297146,"address":"3810 Rt 9 S, Howell NJ","chain_name":null,"distance":0,"street_number":"3930","street_name":"US 9","zip":"07731","city":"Howell Township","area":null,"county":"Monmouth County","state":"New Jersey","country":"us","formatted_address":"Juanito's II, 3930, US 9, Howell Township, Monmouth County, New Jersey, 07731, United States of America","place_id":"16816363","datatype":"locationiq"},{"name":"Taco Bell","code":null,"latitude":42.3417565,"longitude":-88.032718,"address":"115 S. State Route 83, Grayslake IL","chain_name":null,"distance":0,"street_number":"253","street_name":"South Barron Boulevard","zip":"60030","city":null,"area":null,"county":"Lake County","state":"Illinois","country":"us","formatted_address":"253, South Barron Boulevard, Grayslake, Lake County, Illinois, 60030, United States of America","place_id":"185341491","datatype":"locationiq"},{"name":"Taco Bell","code":null,"latitude":25.7657362,"longitude":-80.2102576,"address":"966 SW 8th St, Miami FL","chain_name":null,"distance":0,"street_number":"966","street_name":"Southwest 8th Street","zip":"33130","city":"Miami","area":"Little Havana","county":"Miami-Dade County","state":"Florida","country":"us","formatted_address":"966, Southwest 8th Street, Little Havana, Miami, Miami-Dade County, Florida, 33130, United States of America","place_id":"163597180","datatype":"locationiq"},{"name":"Taco Bell","code":null,"latitude":34.111727,"longitude":-118.1878252,"address":"6060 North Figueroa Street, Highland Park CA","chain_name":null,"distance":0,"street_number":"6100","street_name":"N Figueroa Street","zip":"90042","city":"Los Angeles","area":null,"county":"Los Angeles County","state":"California","country":"us","formatted_address":"6100, N Figueroa Street, Highland Park, Los Angeles, Los Angeles County, California, 90042, United States of America","place_id":"178867678","datatype":"locationiq"},