[{"latitude":"29.54949","longitude":"-98.66320","name":"TJ Maxx","address":"USA-United States","street_number":null,"street_name":"Stonecroft","zip":"78254","city":"San Antonio","area":null,"county":"Bexar County","state":"Texas","country":"us","formatted_address":"Frost Bank, Stonecroft, Bandera Pointe, San Antonio, Bexar County, Texas, 78254, United States of America","place_id":"98955092","datatype":"locationiq"},{"latitude":"30.43634","longitude":"-89.09100","name":"TJ Maxx","address":"USA-United States","street_number":"15120","street_name":"Crossroads Parkway","zip":"39503","city":"Gulfport","area":null,"county":"Harrison County","state":"Mississippi","country":"us","formatted_address":"15120, Crossroads Parkway, Crossroads Shopping Center, Gulfport, Harrison County, Mississippi, 39503, United States of America","place_id":"192840778","datatype":"locationiq"},{"latitude":"35.19663","longitude":"-89.79680","name":"TJ Maxx","address":"USA-United States","street_number":null,"street_name":"Horizon Lake Drive","zip":"38133","city":"Memphis","area":null,"county":"Shelby County","state":"Tennessee","country":"us","formatted_address":"Hyatt Place Memphis\/Wolfchase Galleria, Horizon Lake Drive, Marketplace at Wolfcreek, Memphis, Shelby County, Tennessee, 38133, United States of America","place_id":"122153747","datatype":"locationiq"},{"latitude":"30.62378","longitude":"-96.30890","name":"TJ Maxx","address":"USA-United States","street_number":"1068","street_name":"Harvey Road","zip":"77840","city":null,"area":null,"county":"Brazos County","state":"Texas","country":"us","formatted_address":"1068, Harvey Road, College Station, Brazos County, Texas, 77840, United States of America","place_id":"204579336","datatype":"locationiq"},{"latitude":"33.94128","longitude":"-83.46459","name":"TJ Maxx","address":"USA-United States","street_number":null,"street_name":"Huntington Court","zip":"30606","city":"Athens-Clarke County","area":null,"county":"Athens - Clarke County","state":"Georgia","country":"us","formatted_address":"Comfort Inn & Suites, Huntington Court, Athens-Clarke County, Athens - Clarke County, Georgia, 30606, United States of America","place_id":"173507441","datatype":"locationiq"},{"latitude":"35.70412","longitude":"-81.29939","name":"TJ Maxx","address":"USA-United States","street_number":null,"street_name":"Conover Boulevard West","zip":"28658","city":"Hickory","area":"Fairbrook","county":"Catawba County","state":"North Carolina","country":"us","formatted_address":"Applebee's, Conover Boulevard West, Fairbrook, Hickory, Catawba County, North Carolina, 28658, United States of America","place_id":"26211145","datatype":"locationiq"},{"latitude":"33.86849","longitude":"-117.74871","name":"TJ Maxx","address":"USA-United States","street_number":null,"street_name":"Santa Ana Canyon Road","zip":"92808","city":"Anaheim","area":null,"county":"Orange County","state":"California","country":"us","formatted_address":"Tilly's, Santa Ana Canyon Road, Anaheim Hills, Anaheim, Orange County, California, 92808, United States of America","place_id":"42568635","datatype":"locationiq"},{"latitude":"39.24635","longitude":"-94.45951","name":"TJ Maxx","address":"USA-United States","street_number":null,"street_name":"North Church Road","zip":"64068","city":"Liberty","area":null,"county":"Clay County","state":"Missouri","country":"us","formatted_address":"Panera Bread, North Church Road, Liberty, Clay County, Missouri, 64068, United States of America","place_id":"53607574","datatype":"locationiq"},{"latitude":"32.54092","longitude":"-94.75510","name":"TJ Maxx","address":"USA-United States","street_number":"3515","street_name":"McCann Road","zip":"75605","city":"Longview","area":null,"county":"Gregg County","state":"Texas","country":"us","formatted_address":"Red Lobster, 3515, McCann Road, Longview, Gregg County, Texas, 75605, United States of America","place_id":"154427947","datatype":"locationiq"},{"latitude":"33.91076","longitude":"-117.86572","name":"TJ Maxx","address":"USA-United States","street_number":"2525","street_name":"Imperial Highway","zip":"92886","city":"Brea","area":"Country Hills","county":"Orange County","state":"California","country":"us","formatted_address":"Arby's, 2525, Imperial Highway, Country Hills, Downtown Brea, Brea, Orange County, California, 92886, United States of America","place_id":"95108445","datatype":"locationiq"},{"latitude":"38.92623","longitude":"-94.40568","name":"TJ Maxx","address":"USA-United States","street_number":null,"street_name":"Northwest Chipman Road","zip":"64081","city":"Lee's Summit","area":null,"county":"Jackson County","state":"Missouri","country":"us","formatted_address":"Bob Evans, Northwest Chipman Road, Lee's Summit, Jackson County, Missouri, 64081, United States of America","place_id":"118767802","datatype":"locationiq"},{"latitude":"36.07526","longitude":"-95.88430","name":"TJ Maxx","address":"USA-United States","street_number":null,"street_name":"East 61st Street South","zip":"74133","city":"Tulsa","area":"Woodland View II","county":"Tulsa County","state":"Oklahoma","country":"us","formatted_address":"Subway, East 61st Street South, Woodland View II, Tulsa, Tulsa County, Oklahoma, 74133, United States of America","place_id":"11302676","datatype":"locationiq"},{"latitude":"34.85669","longitude":"-82.33300","name":"TJ Maxx","address":"USA-United States","street_number":null,"street_name":"Orchard Park Drive","zip":"29615","city":"Greenville","area":null,"county":"Greenville County","state":"South Carolina","country":"us","formatted_address":"Orchard Park Dr @ Haywood Plaza, Orchard Park Drive, Orchard Village, Greenville, Greenville County, South Carolina, 29615, United States of America","place_id":"41262425","datatype":"locationiq"},{"latitude":"38.79081","longitude":"-90.56364","name":"TJ Maxx","address":"USA-United States","street_number":"3796","street_name":"Mexico Road","zip":"63376","city":"St. Peters","area":null,"county":"St. Charles County","state":"Missouri","country":"us","formatted_address":"3796, Mexico Road, St. Peters, St. Charles County, Missouri, 63376, United States of America","place_id":"193939902","datatype":"locationiq"},{"latitude":"28.66172","longitude":"-81.38665","name":"TJ Maxx","address":"USA-United States","street_number":"74","street_name":"East Altamonte Drive","zip":"32701","city":null,"area":null,"county":"Seminole County","state":"Florida","country":"us","formatted_address":"74, East Altamonte Drive, Altamonte Springs, Seminole County, Florida, 32701, United States of America","place_id":"183184646","datatype":"locationiq"},{"latitude":"26.14473","longitude":"-80.32215","name":"TJ Maxx","address":"USA-United States","street_number":"13269","street_name":"West Sunrise Boulevard","zip":"33323","city":null,"area":null,"county":"Broward County","state":"Florida","country":"us","formatted_address":"13269, West Sunrise Boulevard, Sunrise, Broward County, Florida, 33323, United States of America","place_id":"181770239","datatype":"locationiq"},{"latitude":"34.78936","longitude":"-92.22380","name":"TJ Maxx","address":"USA-United States","street_number":null,"street_name":"Landers Road","zip":"72117","city":"North Little Rock","area":null,"county":"Pulaski County","state":"Arkansas","country":"us","formatted_address":"Hooters, Landers Road, North Little Rock, Pulaski County, Arkansas, 72117, United States of America","place_id":"25949707","datatype":"locationiq"},{"latitude":"30.67623","longitude":"-88.14796","name":"TJ Maxx","address":"USA-United States","street_number":null,"street_name":"Airport Boulevard","zip":"36609","city":"Mobile","area":null,"county":"Mobile County","state":"Alabama","country":"us","formatted_address":"Walgreens, Airport Boulevard, Yester Oaks Shopping Center, Mobile, Mobile County, Alabama, 36609, United States of America","place_id":"145005229","datatype":"locationiq"},{"latitude":"34.06689","longitude":"-84.16889","name":"TJ Maxx","address":"USA-United States","street_number":null,"street_name":"McGinnis Ferry Road","zip":"30024","city":"Johns Creek","area":null,"county":"Fulton County","state":"Georgia","country":"us","formatted_address":"Chipotle, McGinnis Ferry Road, Johns Creek, Fulton County, Georgia, 30024, United States of America","place_id":"32238943","datatype":"locationiq"},{"latitude":"38.13851","longitude":"-85.68388","name":"TJ Maxx","address":"USA-United States","street_number":"4207","street_name":"Outer Loop","zip":"40219","city":"Louisville","area":null,"county":"Jefferson County","state":"Kentucky","country":"us","formatted_address":"4207, Outer Loop, Tymberwood Shopping Center, Louisville, Jefferson County, Kentucky, 40219, United States of America","place_id":"146033466","datatype":"locationiq"},{"latitude":"28.35543","longitude":"-80.70014","name":"TJ Maxx","address":"USA-United States","street_number":null,"street_name":"South Courtenay Parkway","zip":"32952","city":null,"area":null,"county":"Brevard County","state":"Florida","country":"us","formatted_address":"TJ Maxx, South Courtenay Parkway, Rockledge, Footman, Brevard County, Florida, 32952, United States of America","place_id":"45066289","datatype":"locationiq"},{"latitude":"27.10568","longitude":"-82.43517","name":"TJ Maxx","address":"USA-United States","street_number":null,"street_name":"US 41 By-Pass","zip":"34285","city":"Venice","area":null,"county":"Sarasota County","state":"Florida","country":"us","formatted_address":"US 41 By-Pass, Venice, Sarasota County, Florida, 34285, United States of America","place_id":"98386033","datatype":"locationiq"},{"latitude":"36.54621","longitude":"-82.51757","name":"TJ Maxx","address":"USA-United States","street_number":null,"street_name":"North Eastman Road","zip":"37660-4610","city":"Kingsport","area":null,"county":"Sullivan County","state":"Tennessee","country":"us","formatted_address":"Fazoli's, North Eastman Road, Kingsport, Sullivan County, Tennessee, 37660-4610, United States of America","place_id":"54255107","datatype":"locationiq"},{"latitude":"27.99683","longitude":"-82.56499","name":"TJ Maxx","address":"USA-United States","street_number":null,"street_name":"Hillsborough Avenue","zip":"33615","city":null,"area":null,"county":"Hillsborough County","state":"Florida","country":"us","formatted_address":"Hillsborough Av @ Ambassador Dr, Hillsborough Avenue, Rocky Creek, Hillsborough County, Florida, 33615, United States of America","place_id":"8460888","datatype":"locationiq"},{"latitude":"35.57969","longitude":"-77.38126","name":"TJ Maxx","address":"USA-United States","street_number":"3020","street_name":"South Evans Street","zip":"27858","city":null,"area":null,"county":"Pitt County","state":"North Carolina","country":"us","formatted_address":"3020, South Evans Street, University Commons, Greenville, Pitt County, North Carolina, 27858, United States of America","place_id":"31127817","datatype":"locationiq"},{"latitude":"34.20123","longitude":"-118.57180","name":"TJ Maxx","address":"USA-United States","street_number":null,"street_name":"Sherman Way","zip":"91306","city":"Los Angeles","area":null,"county":"Los Angeles County","state":"California","country":"us","formatted_address":"Poncho's Restaraunt, Sherman Way, Winnetka, Los Angeles, Los Angeles County, California, 91306, United States of America","place_id":"17149096","datatype":"locationiq"},{"latitude":"33.39477","longitude":"-86.80657","name":"TJ Maxx","address":"USA-United States","street_number":"1646","street_name":"Montgomery Highway","zip":"35216","city":"Vestavia Hills","area":"Montreat","county":"Jefferson County","state":"Alabama","country":"us","formatted_address":"1646, Montgomery Highway, Montreat, Vestavia Hills, Jefferson County, Alabama, 35216, United States of America","place_id":"176336547","datatype":"locationiq"},{"latitude":"26.27707","longitude":"-80.09695","name":"TJ Maxx","address":"USA-United States","street_number":null,"street_name":"Federal Highway","zip":"33443","city":null,"area":null,"county":"Broward County","state":"Florida","country":"us","formatted_address":"Arby's, Federal Highway, Lighthouse Point, Broward County, Florida, 33443, United States of America","place_id":"141638139","datatype":"locationiq"},{"latitude":"26.31759","longitude":"-80.15725","name":"TJ Maxx","address":"USA-United States","street_number":null,"street_name":"West Hillsboro Boulevard","zip":"33073","city":"Deerfield Beach","area":null,"county":"Broward County","state":"Florida","country":"us","formatted_address":"Citibank, West Hillsboro Boulevard, Deerfield Beach, Broward County, Florida, 33073, United States of America","place_id":"59963122","datatype":"locationiq"},{"latitude":"32.92345","longitude":"-97.01817","name":"TJ Maxx","address":"USA-United States","street_number":"8594","street_name":"Freeport Parkway","zip":"75063","city":"Irving","area":null,"county":"Dallas County","state":"Texas","country":"us","formatted_address":"8594, Freeport Parkway, Irving, Dallas County, Texas, 75063, United States of America","place_id":"204821470","datatype":"locationiq"},{"latitude":"28.01470","longitude":"-82.73525","name":"TJ Maxx","address":"USA-United States","street_number":"26627","street_name":"Countryside Boulevard","zip":"33761:34677","city":"Clearwater","area":null,"county":"Pinellas County","state":"Florida","country":"us","formatted_address":"SunTrust Bank, 26627, Countryside Boulevard, Clearwater, Pinellas County, Florida, 33761:34677, United States of America","place_id":"122674493","datatype":"locationiq"},{"latitude":"38.56547","longitude":"-90.40664","name":"TJ Maxx","address":"USA-United States","street_number":null,"street_name":"South Kirkwood Road","zip":"63122","city":"Kirkwood","area":null,"county":"St. Louis County","state":"Missouri","country":"us","formatted_address":"Sonic Drive-in, South Kirkwood Road, Kirkwood, St. Louis County, Missouri, 63122, United States of America","place_id":"155084206","datatype":"locationiq"},{"latitude":"32.61843","longitude":"-83.67209","name":"TJ Maxx","address":"USA-United States","street_number":null,"street_name":"Watson Boulevard","zip":"31028:31088","city":"Warner Robins","area":null,"county":"Houston County","state":"Georgia","country":"us","formatted_address":"IHOP, Watson Boulevard, Warner Robins, Houston County, Georgia, 31028:31088, United States of America","place_id":"38929499","datatype":"locationiq"},{"latitude":"37.15813","longitude":"-80.42118","name":"TJ Maxx","address":"USA-United States","street_number":null,"street_name":"Cedarwood Drive","zip":"24073","city":null,"area":null,"county":"Montgomery County","state":"Virginia","country":"us","formatted_address":"New River Nissan, Cedarwood Drive, Christiansburg, Montgomery County, Virginia, 24073, United States of America","place_id":"101187921","datatype":"locationiq"},{"latitude":"32.31967","longitude":"-110.97468","name":"TJ Maxx","address":"USA-United States","street_number":"6270","street_name":"North Oracle Road","zip":"85704","city":"Tucson","area":"Valley View","county":"Pima County","state":"Arizona","country":"us","formatted_address":"6270, North Oracle Road, Valley View, Casas Adobes, Tucson, Pima County, Arizona, 85704, United States of America","place_id":"177345023","datatype":"locationiq"},{"latitude":"26.52960","longitude":"-80.09032","name":"TJ Maxx","address":"USA-United States","street_number":"446","street_name":"North Congress Avenue","zip":"33426","city":"Boynton Beach","area":null,"county":"Palm Beach County","state":"Florida","country":"us","formatted_address":"446, North Congress Avenue, Boynton Beach, Palm Beach County, Florida, 33426, United States of America","place_id":"182789260","datatype":"locationiq"},{"latitude":"30.49356","longitude":"-87.22296","name":"TJ Maxx","address":"USA-United States","street_number":"6677","street_name":"North Davis Highway","zip":"32504","city":"Pensacola","area":null,"county":"Escambia County","state":"Florida","country":"us","formatted_address":"Regions Bank, 6677, North Davis Highway, Ferry Pass, Pensacola, Escambia County, Florida, 32504, United States of America","place_id":"148215530","datatype":"locationiq"},{"latitude":"34.23285","longitude":"-119.17663","name":"TJ Maxx","address":"USA-United States","street_number":"265","street_name":"West Esplanade Drive","zip":"93036","city":"Oxnard","area":null,"county":"Ventura County","state":"California","country":"us","formatted_address":"265, West Esplanade Drive, Oxnard, Ventura County, California, 93036, United States of America","place_id":"180525665","datatype":"locationiq"},{"latitude":"33.95941","longitude":"-118.39646","name":"TJ Maxx","address":"USA-United States","street_number":null,"street_name":"South Sepulveda Boulevard","zip":"90045","city":"Los Angeles","area":"Westchester","county":"Los Angeles County","state":"California","country":"us","formatted_address":"Homegoods, South Sepulveda Boulevard, Westchester, Playa Vista, Los Angeles, Los Angeles County, California, 90045, United States of America","place_id":"161221267","datatype":"locationiq"},{"latitude":"39.02391","longitude":"-77.42248","name":"TJ Maxx","address":"USA-United States","street_number":"45575","street_name":"Dulles Eastern Plaza","zip":"20165","city":null,"area":null,"county":"Loudoun County","state":"Virginia","country":"us","formatted_address":"Best Buy, 45575, Dulles Eastern Plaza, Dulles Town Center, Loudoun County, Virginia, 20165, United States of America","place_id":"81510815","datatype":"locationiq"},{"latitude":"39.10006","longitude":"-84.51294","name":"TJ Maxx","address":"USA-United States","street_number":null,"street_name":"West 4th Street","zip":"45202","city":"Cincinnati","area":"Lytle Park Historic District","county":"Hamilton County","state":"Ohio","country":"us","formatted_address":"Starbucks, West 4th Street, Lytle Park Historic District, Over-The-Rhine, Cincinnati, Hamilton County, Ohio, 45202, United States of America","place_id":"5420201","datatype":"locationiq"},{"latitude":"36.11216","longitude":"-86.76634","name":"TJ Maxx","address":"USA-United States","street_number":"727","street_name":"Thompson Lane","zip":"37204","city":"Nashville-Davidson","area":null,"county":"Davidson County","state":"Tennessee","country":"us","formatted_address":"Logan's Roadhouse, 727, Thompson Lane, Nashville-Davidson, Davidson County, Tennessee, 37204, United States of America","place_id":"21009342","datatype":"locationiq"},{"latitude":"38.59303","longitude":"-90.55781","name":"TJ Maxx","address":"USA-United States","street_number":"15302","street_name":"Manchester Road","zip":"63011","city":"Ballwin","area":null,"county":"St. Louis County","state":"Missouri","country":"us","formatted_address":"Midwest Petroleum, 15302, Manchester Road, Ballwin, St. Louis County, Missouri, 63011, United States of America","place_id":"167275930","datatype":"locationiq"},{"latitude":"38.00286","longitude":"-87.52603","name":"TJ Maxx","address":"USA-United States","street_number":null,"street_name":"Maxx Road","zip":"47711","city":"Evansville","area":null,"county":"Vanderburgh County","state":"Indiana","country":"us","formatted_address":"Maxx Road, Evansville, Vanderburgh County, Indiana, 47711, United States of America","place_id":"69806146","datatype":"locationiq"},{"latitude":"32.85188","longitude":"-96.99244","name":"TJ Maxx","address":"USA-United States","street_number":null,"street_name":"Finley Road","zip":"75062","city":"Irving","area":null,"county":"Dallas County","state":"Texas","country":"us","formatted_address":"Burger Street, Finley Road, Irving, Dallas County, Texas, 75062, United States of America","place_id":"8118102","datatype":"locationiq"},{"latitude":"32.00852","longitude":"-81.11479","name":"TJ Maxx","address":"USA-United States","street_number":null,"street_name":"Posey Street","zip":"31406","city":"Savannah","area":"Habersham Woods","county":"Chatham County","state":"Georgia","country":"us","formatted_address":"Posey Street, Habersham Woods, Savannah, Chatham County, Georgia, 31406, United States of America","place_id":"82300948","datatype":"locationiq"},{"latitude":"33.62532","longitude":"-111.87884","name":"TJ Maxx","address":"USA-United States","street_number":"15450","street_name":"North Frank Lloyd Wright Blvd; E Frank Lloyd Wright Boulevard","zip":"85260","city":"Scottsdale","area":null,"county":"Maricopa County","state":"Arizona","country":"us","formatted_address":"15450, North Frank Lloyd Wright Blvd; E Frank Lloyd Wright Boulevard, Scottsdale, Maricopa County, Arizona, 85260, United States of America","place_id":"177039950","datatype":"locationiq"},{"latitude":"38.43076","longitude":"-78.84217","name":"TJ Maxx","address":"USA-United States","street_number":null,"street_name":"Terri Drive","zip":"22802","city":"Harrisonburg","area":"Skyline Area","county":null,"state":"Virginia","country":"us","formatted_address":"MedExpress, Terri Drive, Skyline Area, Harrisonburg, Virginia, 22802, United States of America","place_id":"60077448","datatype":"locationiq"},{"latitude":"29.87919","longitude":"-90.03311","name":"TJ Maxx","address":"USA-United States","street_number":null,"street_name":"Lapalco Boulevard","zip":"70059","city":null,"area":null,"county":"Jefferson Parish","state":"Louisiana","country":"us","formatted_address":"Piccadilly, Lapalco Boulevard, Timberlane, Jefferson Parish, Louisiana, 70059, United States of America","place_id":"42162608","datatype":"locationiq"},{"latitude":"32.49060","longitude":"-84.91922","name":"TJ Maxx","address":"USA-United States","street_number":"4215","street_name":"Macon Road","zip":"31907","city":"Columbus","area":"Georgian Hills","county":"Muscogee County","state":"Georgia","country":"us","formatted_address":"4215, Macon Road, Georgian Hills, Columbus, Muscogee County, Georgia, 31907, United States of America","place_id":"184098395","datatype":"locationiq"},{"latitude":"38.84828","longitude":"-77.37320","name":"TJ Maxx","address":"USA-United States","street_number":"4783","street_name":"West Ox Road","zip":"22030","city":null,"area":"Penderlan","county":"Fairfax County","state":"Virginia","country":"us","formatted_address":"4783, West Ox Road, Penderlan, Legato, Fairfax County, Virginia, 22030, United States of America","place_id":"207377682","datatype":"locationiq"},{"latitude":"38.60253","longitude":"-90.43783","name":"TJ Maxx","address":"USA-United States","street_number":"12101","street_name":"Manchester Road","zip":"63131","city":"Des Peres","area":null,"county":"St. Louis County","state":"Missouri","country":"us","formatted_address":"McAlister's Deli, 12101, Manchester Road, Des Peres, St. Louis County, Missouri, 63131, United States of America","place_id":"51831413","datatype":"locationiq"},{"latitude":"34.06234","longitude":"-84.39720","name":"TJ Maxx","address":"USA-United States","street_number":"1148","street_name":"Woodstock Road","zip":"30075","city":null,"area":"Greenway","county":"Fulton County","state":"Georgia","country":"us","formatted_address":"1148, Woodstock Road, Greenway, Roswell, Fulton County, Georgia, 30075, United States of America","place_id":"183798664","datatype":"locationiq"},{"latitude":"35.10276","longitude":"-80.95259","name":"TJ Maxx","address":"USA-United States","street_number":"14470","street_name":"Carowinds Boulevard","zip":"28273","city":"Charlotte","area":null,"county":"Mecklenburg County","state":"North Carolina","country":"us","formatted_address":"14470, Carowinds Boulevard, Charlotte, Mecklenburg County, North Carolina, 28273, United States of America","place_id":"197940237","datatype":"locationiq"},{"latitude":"33.81773","longitude":"-118.07071","name":"TJ Maxx","address":"USA-United States","street_number":"8145","street_name":"East Wardlow Road","zip":"90808","city":"Long Beach","area":null,"county":"Los Angeles County","state":"California","country":"us","formatted_address":"8145, East Wardlow Road, Long Beach, Los Angeles County, California, 90808, United States of America","place_id":"178924222","datatype":"locationiq"},{"latitude":"38.86616","longitude":"-77.36848","name":"TJ Maxx","address":"USA-United States","street_number":"12200","street_name":"Fairfax Towne Center","zip":"22033","city":null,"area":"Penderlan","county":"Fairfax County","state":"Virginia","country":"us","formatted_address":"Safeway 1431, 12200, Fairfax Towne Center, Penderlan, Chantilly, Fairfax County, Virginia, 22033, United States of America","place_id":"99423585","datatype":"locationiq"},{"latitude":"30.18956","longitude":"-85.66734","name":"TJ Maxx","address":"USA-United States","street_number":"441","street_name":"West 23rd Street","zip":"32405","city":"Panama City","area":null,"county":"Bay County","state":"Florida","country":"us","formatted_address":"441, West 23rd Street, Panama City, Bay County, Florida, 32405, United States of America","place_id":"181623022","datatype":"locationiq"},{"latitude":"32.22143","longitude":"-110.85717","name":"TJ Maxx","address":"USA-United States","street_number":null,"street_name":"East Broadway Boulevard","zip":"85710","city":"Tucson","area":"El Gheko","county":"Pima County","state":"Arizona","country":"us","formatted_address":"Good Ole Tom's, East Broadway Boulevard, El Gheko, Tucson, Pima County, Arizona, 85710, United States of America","place_id":"141684839","datatype":"locationiq"},{"latitude":"35.17573","longitude":"-80.87609","name":"TJ Maxx","address":"USA-United States","street_number":null,"street_name":"South Boulevard","zip":"28273","city":"Charlotte","area":null,"county":"Mecklenburg County","state":"North Carolina","country":"us","formatted_address":"Arby's, South Boulevard, Charlotte, Mecklenburg County, North Carolina, 28273, United States of America","place_id":"28391531","datatype":"locationiq"},{"latitude":"32.18640","longitude":"-80.71882","name":"TJ Maxx","address":"USA-United States","street_number":"64","street_name":"Shelter Cove Lane","zip":"29928","city":null,"area":"Shelter Cove","county":"Beaufort County","state":"South Carolina","country":"us","formatted_address":"64, Shelter Cove Lane, Shelter Cove, Hilton Head Island, Beaufort County, South Carolina, 29928, United States of America","place_id":"202683038","datatype":"locationiq"},{"latitude":"29.75330","longitude":"-95.39939","name":"TJ Maxx","address":"USA-United States","street_number":null,"street_name":"West Gray Street","zip":"77019","city":"Houston","area":null,"county":"Harris County","state":"Texas","country":"us","formatted_address":"Cafe Express, West Gray Street, Houston, Harris County, Texas, 77019, United States of America","place_id":"12428027","datatype":"locationiq"},{"latitude":"39.29927","longitude":"-81.54754","name":"TJ Maxx","address":"USA-United States","street_number":null,"street_name":"Poplar Street","zip":"26101","city":null,"area":null,"county":"Wood County","state":"West Virginia","country":"us","formatted_address":"Burger King, Poplar Street, Vienna, Wood County, West Virginia, 26101, United States of America","place_id":"156846279","datatype":"locationiq"},{"latitude":"33.85843","longitude":"-118.10728","name":"TJ Maxx","address":"USA-United States","street_number":null,"street_name":"South Street","zip":"90713","city":"Lakewood","area":null,"county":"Los Angeles County","state":"California","country":"us","formatted_address":"VCA, South Street, Lakewood, Los Angeles County, California, 90713, United States of America","place_id":"167077379","datatype":"locationiq"},{"latitude":"35.87389","longitude":"-78.62283","name":"TJ Maxx","address":"USA-United States","street_number":null,"street_name":"Falls of Neuse Road","zip":"27615","city":"Raleigh","area":null,"county":"Wake County","state":"North Carolina","country":"us","formatted_address":"Moe's, Falls of Neuse Road, Millbrook, Raleigh, Wake County, North Carolina, 27615, United States of America","place_id":"9640295","datatype":"locationiq"},{"latitude":"27.84334","longitude":"-82.64674","name":"TJ Maxx","address":"USA-United States","street_number":"7705","street_name":"Doctor Martin Luther King Junior Street North","zip":"33702","city":"Saint Petersburg","area":"Sunlit Cove","county":"Pinellas County","state":"Florida","country":"us","formatted_address":"Burger King, 7705, Doctor Martin Luther King Junior Street North, Sunlit Cove, Saint Petersburg, Pinellas County, Florida, 33702, United States of America","place_id":"103258965","datatype":"locationiq"},{"latitude":"33.05716","longitude":"-96.68661","name":"TJ Maxx","address":"USA-United States","street_number":"1914","street_name":"East Spring Creek Parkway","zip":"75074","city":"Plano","area":null,"county":"Collin County","state":"Texas","country":"us","formatted_address":"1914, East Spring Creek Parkway, Plano, Collin County, Texas, 75074, United States of America","place_id":"204724713","datatype":"locationiq"},{"latitude":"33.96159","longitude":"-118.03051","name":"TJ Maxx","address":"USA-United States","street_number":"13526","street_name":"Whittier Boulevard","zip":"90605","city":"Whittier","area":null,"county":"Los Angeles County","state":"California","country":"us","formatted_address":"13526, Whittier Boulevard, East Whittier, Whittier, Los Angeles County, California, 90605, United States of America","place_id":"178530331","datatype":"locationiq"},{"latitude":"36.03960","longitude":"-79.85006","name":"TJ Maxx","address":"USA-United States","street_number":null,"street_name":"West Gate City Boulevard","zip":"27407","city":"Greensboro","area":null,"county":"Guilford County","state":"North Carolina","country":"us","formatted_address":"Walgreens, West Gate City Boulevard, Greensboro, Guilford County, North Carolina, 27407, United States of America","place_id":"52752625","datatype":"locationiq"},{"latitude":"34.15508","longitude":"-118.79156","name":"TJ Maxx","address":"USA-United States","street_number":null,"street_name":"Thousand Oaks Boulevard","zip":"91301","city":"Agoura Hills","area":null,"county":"Los Angeles County","state":"California","country":"us","formatted_address":"Thousand Oaks Boulevard, Agoura Hills, Los Angeles County, California, 91301, United States of America","place_id":"108997032","datatype":"locationiq"},{"latitude":"34.82073","longitude":"-87.62633","name":"TJ Maxx","address":"USA-United States","street_number":"322","street_name":"South Cox Creek Parkway","zip":"35630","city":"Florence","area":null,"county":"Lauderdale County","state":"Alabama","country":"us","formatted_address":"322, South Cox Creek Parkway, Florence, Lauderdale County, Alabama, 35630, United States of America","place_id":"176411835","datatype":"locationiq"},{"latitude":"33.10561","longitude":"-96.80596","name":"TJ Maxx","address":"USA-United States","street_number":null,"street_name":"Preston Road","zip":"75034","city":"Frisco","area":null,"county":"Collin County","state":"Texas","country":"us","formatted_address":"Texas Land and Cattle, Preston Road, The Centre at Preston Ridge, Frisco, Collin County, Texas, 75034, United States of America","place_id":"137283936","datatype":"locationiq"},{"latitude":"25.64483","longitude":"-80.33563","name":"TJ Maxx","address":"USA-United States","street_number":"8820","street_name":"Southwest 136th Street","zip":"33176","city":"Kendall","area":null,"county":"Miami-Dade County","state":"Florida","country":"us","formatted_address":"8820, Southwest 136th Street, Kendall, Miami-Dade County, Florida, 33176, United States of America","place_id":"164151340","datatype":"locationiq"},{"latitude":"39.16225","longitude":"-76.72563","name":"TJ Maxx","address":"USA-United States","street_number":"7013","street_name":"Arundel Mills Circle","zip":"21076","city":null,"area":"Dorsey Ridge","county":"Anne Arundel County","state":"Maryland","country":"us","formatted_address":"7013, Arundel Mills Circle, Dorsey Ridge, Silva-De-Amor, Anne Arundel County, Maryland, 21076, United States of America","place_id":"189607689","datatype":"locationiq"},{"latitude":"27.83761","longitude":"-82.78684","name":"TJ Maxx","address":"USA-United States","street_number":null,"street_name":"Seminole Boulevard","zip":"33778","city":null,"area":null,"county":"Pinellas County","state":"Florida","country":"us","formatted_address":"SEMINOLE BLVD & 72ND AVE, Seminole Boulevard, Seminole, Pinellas County, Florida, 33778, United States of America","place_id":"9583981","datatype":"locationiq"},{"latitude":"32.82633","longitude":"-97.20166","name":"TJ Maxx","address":"USA-United States","street_number":"881","street_name":"Arcadia Street","zip":"76053","city":"Hurst","area":null,"county":"Tarrant County","state":"Texas","country":"us","formatted_address":"881, Arcadia Street, North East Mall, Hurst, Tarrant County, Texas, 76053, United States of America","place_id":"206287665","datatype":"locationiq"},{"latitude":"33.94938","longitude":"-84.23247","name":"TJ Maxx","address":"USA-United States","street_number":"2300","street_name":"Holcomb Bridge Road","zip":"30092","city":null,"area":"The Corners","county":"Gwinnett County","state":"Georgia","country":"us","formatted_address":"SunTrust, 2300, Holcomb Bridge Road, The Corners, Glen Leaf, Gwinnett County, Georgia, 30092, United States of America","place_id":"155253409","datatype":"locationiq"},{"latitude":"39.14518","longitude":"-84.44360","name":"TJ Maxx","address":"USA-United States","street_number":null,"street_name":"Madison Road","zip":"45208","city":"Norwood","area":null,"county":"Hamilton County","state":"Ohio","country":"us","formatted_address":"BP, Madison Road, Hyde Park Center, Norwood, Hamilton County, Ohio, 45208, United States of America","place_id":"80286312","datatype":"locationiq"},{"latitude":"30.39227","longitude":"-90.08479","name":"TJ Maxx","address":"USA-United States","street_number":null,"street_name":"Emerald Road","zip":"70471","city":"Mandeville","area":null,"county":"St. Tammany Parish","state":"Louisiana","country":"us","formatted_address":"Emerald Road, Mandeville, St. Tammany Parish, Louisiana, 70471, United States of America","place_id":"73364561","datatype":"locationiq"},{"latitude":"29.66115","longitude":"-82.42384","name":"TJ Maxx","address":"USA-United States","street_number":null,"street_name":"Northwest 76th Boulevard","zip":"32606","city":null,"area":"Buckingham West","county":"Alachua County","state":"Florida","country":"us","formatted_address":"Northwest 76th Boulevard, Buckingham West, Alachua County, Florida, 32606, United States of America","place_id":"157843452","datatype":"locationiq"},{"latitude":"39.25939","longitude":"-84.60216","name":"TJ Maxx","address":"USA-United States","street_number":null,"street_name":"Colerain Avenue","zip":"45251","city":null,"area":null,"county":"Hamilton County","state":"Ohio","country":"us","formatted_address":"Burger King, Colerain Avenue, Colerain Towne Center, Bevis, Colerain Township, Hamilton County, Ohio, 45251, United States of America","place_id":"139004707","datatype":"locationiq"},{"latitude":"38.95833","longitude":"-77.08465","name":"TJ Maxx","address":"USA-United States","street_number":"5225","street_name":"Wisconsin Avenue Northwest","zip":"20007","city":"Washington","area":null,"county":null,"state":"District of Columbia","country":"us","formatted_address":"Rosa Mexicano, 5225, Wisconsin Avenue Northwest, Western Division Metrobus Depot, Friendship Heights, Washington, District of Columbia, 20007, United States of America","place_id":"45262061","datatype":"locationiq"},{"latitude":"25.94566","longitude":"-80.16807","name":"TJ Maxx","address":"USA-United States","street_number":null,"street_name":"Miami Gardens Drive","zip":"33179","city":null,"area":"Skylake","county":"Miami-Dade County","state":"Florida","country":"us","formatted_address":"Chevron, Miami Gardens Drive, Skylake, Aventura, Ojus, Miami-Dade County, Florida, 33179, United States of America","place_id":"135989690","datatype":"locationiq"},{"latitude":"34.46198","longitude":"-93.05773","name":"TJ Maxx","address":"USA-United States","street_number":"432","street_name":"Cornerstone Boulevard","zip":"71913","city":"Hot Springs","area":null,"county":"Garland County","state":"Arkansas","country":"us","formatted_address":"432, Cornerstone Boulevard, Hot Springs, Garland County, Arkansas, 71913, United States of America","place_id":"177717845","datatype":"locationiq"},{"latitude":"36.07413","longitude":"-86.92351","name":"TJ Maxx","address":"USA-United States","street_number":"7130","street_name":"Memphis-Bristol Highway","zip":"37221","city":"Nashville-Davidson","area":null,"county":"Davidson County","state":"Tennessee","country":"us","formatted_address":"7130, Memphis-Bristol Highway, Nashville-Davidson, Davidson County, Tennessee, 37221, United States of America","place_id":"203592592","datatype":"locationiq"},{"latitude":"30.84173","longitude":"-83.32481","name":"TJ Maxx","address":"USA-United States","street_number":"1201","street_name":"Saint Augustine Road","zip":"31601","city":"Valdosta","area":"The Grove Apartments Valdosta","county":"Lowndes County","state":"Georgia","country":"us","formatted_address":"Flash Foods, 1201, Saint Augustine Road, The Grove Apartments Valdosta, Valdosta, Lowndes County, Georgia, 31601, United States of America","place_id":"50376611","datatype":"locationiq"},{"latitude":"30.37348","longitude":"-91.06415","name":"TJ Maxx","address":"USA-United States","street_number":null,"street_name":"South Mall Drive","zip":"70809","city":null,"area":null,"county":"East Baton Rouge Parish","state":"Louisiana","country":"us","formatted_address":"South Mall Drive, Siegen, East Baton Rouge Parish, Louisiana, 70809, United States of America","place_id":"66814827","datatype":"locationiq"},{"latitude":"26.00770","longitude":"-80.28949","name":"TJ Maxx","address":"USA-United States","street_number":null,"street_name":"Pines Boulevard","zip":"33027","city":null,"area":null,"county":"Broward County","state":"Florida","country":"us","formatted_address":"Pines Boulevard, Pembroke Pines, Broward County, Florida, 33027, United States of America","place_id":"100529280","datatype":"locationiq"},{"latitude":"33.46798","longitude":"-82.07628","name":"TJ Maxx","address":"USA-United States","street_number":null,"street_name":"Wrightsboro Road","zip":"30909","city":null,"area":"Highland Park","county":"Richmond County","state":"Georgia","country":"us","formatted_address":"Wrightsboro Road, Highland Park, Ridgewood, Richmond County, Georgia, 30909, United States of America","place_id":"120259228","datatype":"locationiq"},{"latitude":"33.39646","longitude":"-84.75715","name":"TJ Maxx","address":"USA-United States","street_number":"621","street_name":"Bullsboro Drive","zip":"30265","city":null,"area":null,"county":"Coweta County","state":"Georgia","country":"us","formatted_address":"621, Bullsboro Drive, Newnan, Coweta County, Georgia, 30265, United States of America","place_id":"183592774","datatype":"locationiq"},{"latitude":"26.93436","longitude":"-80.09217","name":"TJ Maxx","address":"USA-United States","street_number":"209","street_name":"East Indiantown Road","zip":"33477","city":null,"area":null,"county":"Palm Beach County","state":"Florida","country":"us","formatted_address":"209, East Indiantown Road, Jupiter, Palm Beach County, Florida, 33477, United States of America","place_id":"182854734","datatype":"locationiq"},{"latitude":"36.22265","longitude":"-83.28660","name":"TJ Maxx","address":"USA-United States","street_number":"842","street_name":"Terrace View Drive","zip":"37814","city":"Morristown","area":null,"county":"Hamblen County","state":"Tennessee","country":"us","formatted_address":"842, Terrace View Drive, Morristown, Hamblen County, Tennessee, 37814, United States of America","place_id":"203704865","datatype":"locationiq"},{"latitude":"34.10432","longitude":"-118.07376","name":"TJ Maxx","address":"USA-United States","street_number":null,"street_name":"Las Tunas Drive","zip":"91778","city":"Temple City","area":null,"county":"Los Angeles County","state":"California","country":"us","formatted_address":"Applebee's, Las Tunas Drive, Temple City, Los Angeles County, California, 91778, United States of America","place_id":"7737900","datatype":"locationiq"},{"latitude":"37.27039","longitude":"-76.75796","name":"TJ Maxx","address":"USA-United States","street_number":"4620","street_name":"Monticello Avenue","zip":"23185","city":null,"area":"Indigo Terrace","county":"James City County","state":"Virginia","country":"us","formatted_address":"4620, Monticello Avenue, Indigo Terrace, Steeple Chase, James City County, Virginia, 23185, United States of America","place_id":"151774581","datatype":"locationiq"},{"latitude":"26.20810","longitude":"-81.76809","name":"TJ Maxx","address":"USA-United States","street_number":"5057","street_name":"Airport Pulling Road","zip":"34104","city":null,"area":null,"county":"Collier County","state":"Florida","country":"us","formatted_address":"5057, Airport Pulling Road, North Naples, Collier County, Florida, 34104, United States of America","place_id":"181891711","datatype":"locationiq"},{"latitude":"34.54888","longitude":"-82.67371","name":"TJ Maxx","address":"USA-United States","street_number":null,"street_name":"West Beltline Boulevard","zip":"19621","city":"Anderson","area":null,"county":"Anderson County","state":"South Carolina","country":"us","formatted_address":"Applebee's, West Beltline Boulevard, Anderson, Anderson County, South Carolina, 19621, United States of America","place_id":"9307303","datatype":"locationiq"},{"latitude":"33.99738","longitude":"-118.39530","name":"TJ Maxx","address":"USA-United States","street_number":"11100","street_name":"Jefferson Boulevard","zip":"90230","city":null,"area":"Fox Hills","county":"Los Angeles County","state":"California","country":"us","formatted_address":"11100, Jefferson Boulevard, Fox Hills, Culver City, Los Angeles County, California, 90230, United States of America","place_id":"178793887","datatype":"locationiq"},{"latitude":"35.74357","longitude":"-83.99540","name":"TJ Maxx","address":"USA-United States","street_number":null,"street_name":"Mall Road","zip":"37803","city":null,"area":null,"county":"Blount County","state":"Tennessee","country":"us","formatted_address":"Mall Road, Maryville, Blount County, Tennessee, 37803, United States of America","place_id":"70976120","datatype":"locationiq"},{"latitude":"33.11214","longitude":"-117.09982","name":"TJ Maxx","address":"USA-United States","street_number":"1270","street_name":"Auto Park Way","zip":"92029","city":"Escondido","area":null,"county":"San Diego County","state":"California","country":"us","formatted_address":"1270, Auto Park Way, Escondido, San Diego County, California, 92029, United States of America","place_id":"6452721","datatype":"locationiq"},{"latitude":"38.96535","longitude":"-94.66797","name":"TJ Maxx","address":"USA-United States","street_number":"9040","street_name":"Metcalf Avenue","zip":"66212","city":"Overland Park","area":"Nall Hills","county":"Johnson County","state":"Kansas","country":"us","formatted_address":"9040, Metcalf Avenue, Nall Hills, Overland Park, Johnson County, Kansas, 66212, United States of America","place_id":"187928122","datatype":"locationiq"},{"latitude":"35.58102","longitude":"-82.52320","name":"TJ Maxx","address":"USA-United States","street_number":null,"street_name":"South Tunnel Road","zip":"28802","city":"Asheville","area":null,"county":"Buncombe County","state":"North Carolina","country":"us","formatted_address":"Chick-fil-A, South Tunnel Road, Asheville, Buncombe County, North Carolina, 28802, United States of America","place_id":"133098366","datatype":"locationiq"},{"latitude":"33.80927","longitude":"-117.83880","name":"TJ Maxx","address":"USA-United States","street_number":"1437","street_name":"East Katella Avenue","zip":"92867","city":"Orange","area":null,"county":"Orange County","state":"California","country":"us","formatted_address":"1437, East Katella Avenue, Orange, Orange County, California, 92867, United States of America","place_id":"179207585","datatype":"locationiq"},{"latitude":"35.83090","longitude":"-90.67783","name":"TJ Maxx","address":"USA-United States","street_number":"1137","street_name":"South Caraway Road","zip":"72401","city":"Jonesboro","area":null,"county":"Craighead County","state":"Arkansas","country":"us","formatted_address":"1137, South Caraway Road, Jonesboro, Craighead County, Arkansas, 72401, United States of America","place_id":"177652535","datatype":"locationiq"},{"latitude":"36.76163","longitude":"-76.00765","name":"TJ Maxx","address":"USA-United States","street_number":"1137","street_name":"Nimmo Parkway","zip":"23454","city":"Virginia Beach","area":null,"county":null,"state":"Virginia","country":"us","formatted_address":"Sonic, 1137, Nimmo Parkway, Nimmo, Woodhouse Corner, Virginia Beach, Virginia, 23454, United States of America","place_id":"157339817","datatype":"locationiq"},{"latitude":"33.71381","longitude":"-78.89501","name":"TJ Maxx","address":"USA-United States","street_number":null,"street_name":"Seaboard Street","zip":"29577","city":"Myrtle Beach","area":null,"county":"Horry County","state":"South Carolina","country":"us","formatted_address":"Planet Fitness, Seaboard Street, Broadway at the Beach, Myrtle Beach, Horry County, South Carolina, 29577, United States of America","place_id":"29887675","datatype":"locationiq"},{"latitude":"33.03270","longitude":"-80.16310","name":"TJ Maxx","address":"USA-United States","street_number":"1103","street_name":"North Main Street","zip":"29483","city":null,"area":null,"county":"Dorchester County","state":"South Carolina","country":"us","formatted_address":"1103, North Main Street, Weatherstone, Summerville, Dorchester County, South Carolina, 29483, United States of America","place_id":"202708090","datatype":"locationiq"},{"latitude":"26.68536","longitude":"-80.20240","name":"TJ Maxx","address":"USA-United States","street_number":null,"street_name":"FL 7","zip":"33411","city":null,"area":null,"county":"Palm Beach County","state":"Florida","country":"us","formatted_address":"FL 7, Royal Palm Beach, Palm Beach County, Florida, 33411, United States of America","place_id":"97921532","datatype":"locationiq"},{"latitude":"38.21945","longitude":"-85.62139","name":"TJ Maxx","address":"USA-United States","street_number":"4082","street_name":"Taylorsville Road","zip":"40220","city":"Louisville","area":null,"county":"Jefferson County","state":"Kentucky","country":"us","formatted_address":"4082, Taylorsville Road, Louisville, Jefferson County, Kentucky, 40220, United States of America","place_id":"146448159","datatype":"locationiq"},{"latitude":"39.42860","longitude":"-74.59984","name":"TJ Maxx","address":"USA-United States","street_number":"6224","street_name":"Black Horse Pike","zip":"08234","city":"Egg Harbor Township","area":null,"county":"Atlantic County","state":"New Jersey","country":"us","formatted_address":"6224, Black Horse Pike, Risley Commons, Egg Harbor Township, Atlantic County, New Jersey, 08234, United States of America","place_id":"195220799","datatype":"locationiq"},{"latitude":"35.34915","longitude":"-94.34206","name":"TJ Maxx","address":"USA-United States","street_number":"8177","street_name":"Rogers Avenue","zip":"72903","city":"Fort Smith","area":null,"county":"Sebastian County","state":"Arkansas","country":"us","formatted_address":"8177, Rogers Avenue, Fort Smith, Sebastian County, Arkansas, 72903, United States of America","place_id":"177999260","datatype":"locationiq"},{"latitude":"32.23851","longitude":"-80.81213","name":"TJ Maxx","address":"USA-United States","street_number":null,"street_name":"Fording Island Road","zip":"29910","city":null,"area":null,"county":"Beaufort County","state":"South Carolina","country":"us","formatted_address":"Fording Island Road, Buckingham Landing, Beaufort County, South Carolina, 29910, United States of America","place_id":"167438022","datatype":"locationiq"},{"latitude":"33.03109","longitude":"-96.79455","name":"TJ Maxx","address":"USA-United States","street_number":"2444","street_name":"Preston Road","zip":"75093","city":"Plano","area":null,"county":"Collin County","state":"Texas","country":"us","formatted_address":"TGI Fridays, 2444, Preston Road, Plano, Collin County, Texas, 75093, United States of America","place_id":"121635209","datatype":"locationiq"},{"latitude":"38.58199","longitude":"-92.22112","name":"TJ Maxx","address":"USA-United States","street_number":"2703","street_name":"Missouri Boulevard","zip":"65109","city":"Jefferson City","area":null,"county":"Cole County","state":"Missouri","country":"us","formatted_address":"Mattress Firm, 2703, Missouri Boulevard, Jefferson City, Cole County, Missouri, 65109, United States of America","place_id":"8018613","datatype":"locationiq"},{"latitude":"38.83617","longitude":"-77.05157","name":"TJ Maxx","address":"USA-United States","street_number":null,"street_name":"Jefferson Davis Highway","zip":"23305","city":"Alexandria","area":"Cora Kelly","county":"Alexandria City","state":"Virginia","country":"us","formatted_address":"Ruby Tucker Park, Jefferson Davis Highway, Cora Kelly, Alexandria, Alexandria City, Virginia, 23305, United States of America","place_id":"95955244","datatype":"locationiq"},{"latitude":"35.38290","longitude":"-77.92935","name":"TJ Maxx","address":"USA-United States","street_number":"1302","street_name":"North Berkeley Boulevard","zip":"27534","city":null,"area":null,"county":"Wayne County","state":"North Carolina","country":"us","formatted_address":"Adamsville Church, 1302, North Berkeley Boulevard, Goldsboro, Wayne County, North Carolina, 27534, United States of America","place_id":"3159011","datatype":"locationiq"},{"latitude":"36.02711","longitude":"-86.79201","name":"TJ Maxx","address":"USA-United States","street_number":"398","street_name":"Franklin Road","zip":"37027","city":"Brentwood","area":null,"county":"Williamson County","state":"Tennessee","country":"us","formatted_address":"398, Franklin Road, Brentwood, Williamson County, Tennessee, 37027, United States of America","place_id":"204280007","datatype":"locationiq"},{"latitude":"38.95655","longitude":"-77.38867","name":"TJ Maxx","address":"USA-United States","street_number":"241","street_name":"Van Buren Street","zip":"20170","city":null,"area":null,"county":"Fairfax County","state":"Virginia","country":"us","formatted_address":"241, Van Buren Street, Herndon, Fairfax County, Virginia, 20170, United States of America","place_id":"207397886","datatype":"locationiq"},{"latitude":"36.58124","longitude":"-87.29821","name":"TJ Maxx","address":"USA-United States","street_number":"2664","street_name":"Wilma Rudolph Boulevard","zip":"37040","city":"Clarksville","area":null,"county":"Montgomery County","state":"Tennessee","country":"us","formatted_address":"2664, Wilma Rudolph Boulevard, Clarksville, Montgomery County, Tennessee, 37040, United States of America","place_id":"203963084","datatype":"locationiq"},{"latitude":"32.97240","longitude":"-96.73980","name":"TJ Maxx","address":"USA-United States","street_number":"1656","street_name":"Nantucket Drive","zip":"75080","city":null,"area":null,"county":"Dallas County","state":"Texas","country":"us","formatted_address":"1656, Nantucket Drive, Richardson, Dallas County, Texas, 75080, United States of America","place_id":"204847283","datatype":"locationiq"},{"latitude":"35.59631","longitude":"-87.05725","name":"TJ Maxx","address":"USA-United States","street_number":"829","street_name":"James M Campbell Boulevard South","zip":"38401","city":null,"area":null,"county":"Maury County","state":"Tennessee","country":"us","formatted_address":"829, James M Campbell Boulevard South, Columbia, Maury County, Tennessee, 38401, United States of America","place_id":"203940399","datatype":"locationiq"},{"latitude":"30.50440","longitude":"-84.25076","name":"TJ Maxx","address":"USA-United States","street_number":"3431","street_name":"Thomasville Road","zip":"32309","city":"Tallahassee","area":null,"county":"Leon County","state":"Florida","country":"us","formatted_address":"3431, Thomasville Road, Tallahassee, Leon County, Florida, 32309, United States of America","place_id":"182347387","datatype":"locationiq"},{"latitude":"38.12401","longitude":"-79.06685","name":"TJ Maxx","address":"USA-United States","street_number":"35","street_name":"Payne Lane","zip":"24401","city":null,"area":null,"county":"Augusta County","state":"Virginia","country":"us","formatted_address":"35, Payne Lane, Jolivue, Augusta County, Virginia, 24401, United States of America","place_id":"207171860","datatype":"locationiq"},{"latitude":"36.04850","longitude":"-86.64827","name":"TJ Maxx","address":"USA-United States","street_number":"5374","street_name":"Mount View Road","zip":"37013","city":"Nashville-Davidson","area":null,"county":"Davidson County","state":"Tennessee","country":"us","formatted_address":"5374, Mount View Road, Nashville-Davidson, Davidson County, Tennessee, 37013, United States of America","place_id":"203625564","datatype":"locationiq"},{"latitude":"33.47957","longitude":"-84.44153","name":"TJ Maxx","address":"USA-United States","street_number":"117","street_name":"Pavilion Parkway","zip":"30214","city":null,"area":null,"county":"Fayette County","state":"Georgia","country":"us","formatted_address":"117, Pavilion Parkway, Fayetteville, Fayette County, Georgia, 30214, United States of America","place_id":"183717813","datatype":"locationiq"},{"latitude":"29.19940","longitude":"-81.04370","name":"TJ Maxx","address":"USA-United States","street_number":"253","street_name":"Lanvale Avenue","zip":"32114","city":"Daytona Beach","area":null,"county":"Volusia County","state":"Florida","country":"us","formatted_address":"253, Lanvale Avenue, Daytona Beach, Volusia County, Florida, 32114, United States of America","place_id":"183284825","datatype":"locationiq"},{"latitude":"35.69263","longitude":"-78.58127","name":"TJ Maxx","address":"USA-United States","street_number":null,"street_name":"Shenstone Boulevard","zip":"27529","city":null,"area":null,"county":"Wake County","state":"North Carolina","country":"us","formatted_address":"Shenstone Boulevard, Garner, Wake County, North Carolina, 27529, United States of America","place_id":"131651961","datatype":"locationiq"},{"latitude":"38.76025","longitude":"-77.16452","name":"TJ Maxx","address":"USA-United States","street_number":"7291","street_name":"Larrup Court","zip":"22315","city":null,"area":null,"county":"Fairfax County","state":"Virginia","country":"us","formatted_address":"7291, Larrup Court, Franconia, Fairfax County, Virginia, 22315, United States of America","place_id":"207370755","datatype":"locationiq"},{"latitude":"35.13046","longitude":"-106.56573","name":"TJ Maxx","address":"USA-United States","street_number":"7142","street_name":"Montgomery Boulevard Northeast","zip":"87109","city":"Albuquerque","area":null,"county":"Bernalillo County","state":"New Mexico","country":"us","formatted_address":"7142, Montgomery Boulevard Northeast, Vista Encantada, Albuquerque, Bernalillo County, New Mexico, 87109, United States of America","place_id":"195840954","datatype":"locationiq"},{"latitude":"36.34133","longitude":"-82.37518","name":"TJ Maxx","address":"USA-United States","street_number":"2128","street_name":"North Roan Street","zip":"37601","city":"Johnson City","area":null,"county":"Washington County","state":"Tennessee","country":"us","formatted_address":"2128, North Roan Street, Johnson City, Washington County, Tennessee, 37601, United States of America","place_id":"204242776","datatype":"locationiq"},{"latitude":"25.86683","longitude":"-80.29298","name":"TJ Maxx","address":"USA-United States","street_number":null,"street_name":"West 49th Street","zip":"33012","city":null,"area":null,"county":"Miami-Dade County","state":"Florida","country":"us","formatted_address":"W 49 ST@W 6 AV, West 49th Street, Hialeah, Miami-Dade County, Florida, 33012, United States of America","place_id":"12449233","datatype":"locationiq"},{"latitude":"34.31424","longitude":"-88.70253","name":"TJ Maxx","address":"USA-United States","street_number":"4384","street_name":"Mall Drive","zip":"38804","city":"Tupelo","area":null,"county":"Lee County","state":"Mississippi","country":"us","formatted_address":"4384, Mall Drive, Tupelo, Lee County, Mississippi, 38804, United States of America","place_id":"192964041","datatype":"locationiq"},{"latitude":"34.06755","longitude":"-81.16655","name":"TJ Maxx","address":"USA-United States","street_number":"128","street_name":"Harbison Boulevard","zip":"29212","city":null,"area":null,"county":"Lexington County","state":"South Carolina","country":"us","formatted_address":"Sprint Store, 128, Harbison Boulevard, Seven Oaks, Lexington County, South Carolina, 29212, United States of America","place_id":"151233222","datatype":"locationiq"},{"latitude":"39.28983","longitude":"-84.46683","name":"TJ Maxx","address":"USA-United States","street_number":"11663","street_name":"Princeton Pike","zip":"45246","city":"Springdale","area":null,"county":"Hamilton County","state":"Ohio","country":"us","formatted_address":"11663, Princeton Pike, Tri-County Marketplace, Springdale, West Chester Township, Hamilton County, Ohio, 45246, United States of America","place_id":"199281951","datatype":"locationiq"},{"latitude":"33.91716","longitude":"-117.95980","name":"TJ Maxx","address":"USA-United States","street_number":null,"street_name":"East Imperial Highway","zip":"90631","city":"La Habra","area":null,"county":"Orange County","state":"California","country":"us","formatted_address":"East Imperial Highway, La Habra, Orange County, California, 90631, United States of America","place_id":"157235724","datatype":"locationiq"},{"latitude":"26.62448","longitude":"-81.94111","name":"TJ Maxx","address":"USA-United States","street_number":null,"street_name":"Southeast 15th Terrace","zip":"33990","city":"Cape Coral","area":null,"county":"Lee County","state":"Florida","country":"us","formatted_address":"Enterprise Rent-a-Car, Southeast 15th Terrace, Cape Coral, Lee County, Florida, 33990, United States of America","place_id":"134991828","datatype":"locationiq"},{"latitude":"32.63980","longitude":"-85.40850","name":"TJ Maxx","address":"USA-United States","street_number":"516","street_name":"West Thomason Circle","zip":"36801","city":"Opelika","area":null,"county":"Lee County","state":"Alabama","country":"us","formatted_address":"516, West Thomason Circle, Opelika, Lee County, Alabama, 36801, United States of America","place_id":"176436847","datatype":"locationiq"},{"latitude":"36.11097","longitude":"-79.83108","name":"TJ Maxx","address":"USA-United States","street_number":null,"street_name":"Battleground Avenue","zip":"27410","city":"Greensboro","area":null,"county":"Guilford County","state":"North Carolina","country":"us","formatted_address":"Men's Wearhouse, Battleground Avenue, Greensboro, Guilford County, North Carolina, 27410, United States of America","place_id":"143332186","datatype":"locationiq"},{"latitude":"32.98145","longitude":"-96.90966","name":"TJ Maxx","address":"USA-United States","street_number":"2518","street_name":"Old Denton Road","zip":"75006","city":null,"area":null,"county":"Dallas County","state":"Texas","country":"us","formatted_address":"2518, Old Denton Road, Carrollton, Dallas County, Texas, 75006, United States of America","place_id":"204899533","datatype":"locationiq"},{"latitude":"35.09195","longitude":"-89.80677","name":"TJ Maxx","address":"USA-United States","street_number":"7688","street_name":"Poplar Avenue","zip":"38138","city":"Germantown","area":null,"county":"Shelby County","state":"Tennessee","country":"us","formatted_address":"7688, Poplar Avenue, Germantown, Shelby County, Tennessee, 38138, United States of America","place_id":"204112255","datatype":"locationiq"},{"latitude":"38.67618","longitude":"-90.46387","name":"TJ Maxx","address":"USA-United States","street_number":"12528","street_name":"Olive Boulevard","zip":"63141","city":"Creve Coeur","area":null,"county":"St. Louis County","state":"Missouri","country":"us","formatted_address":"Gulf Shores Restaurant and Grill, 12528, Olive Boulevard, Creve Coeur, St. Louis County, Missouri, 63141, United States of America","place_id":"60226840","datatype":"locationiq"},{"latitude":"30.32204","longitude":"-81.54499","name":"TJ Maxx","address":"USA-United States","street_number":"9776","street_name":"Atlantic Boulevard","zip":"32207","city":"Jacksonville","area":null,"county":"Duval County","state":"Florida","country":"us","formatted_address":"9776, Atlantic Boulevard, Jacksonville, Duval County, Florida, 32207, United States of America","place_id":"181940744","datatype":"locationiq"},{"latitude":"35.09188","longitude":"-80.87656","name":"TJ Maxx","address":"USA-United States","street_number":"10394","street_name":"Centrum Parkway","zip":"28134","city":null,"area":null,"county":"Mecklenburg County","state":"North Carolina","country":"us","formatted_address":"10394, Centrum Parkway, Pineville, Mecklenburg County, North Carolina, 28134, United States of America","place_id":"197920590","datatype":"locationiq"},{"latitude":"33.67578","longitude":"-117.85796","name":"TJ Maxx","address":"USA-United States","street_number":"2152","street_name":"Dupont Drive","zip":"92612","city":"Irvine","area":null,"county":"Orange County","state":"California","country":"us","formatted_address":"2152, Dupont Drive, Irvine, Orange County, California, 92612, United States of America","place_id":"156185643","datatype":"locationiq"},{"latitude":"35.07106","longitude":"-78.96613","name":"TJ Maxx","address":"USA-United States","street_number":null,"street_name":"Skibo Road","zip":"28314","city":"Fayetteville","area":null,"county":"Cumberland County","state":"North Carolina","country":"us","formatted_address":"McDonald's, Skibo Road, Fayetteville, Cumberland County, North Carolina, 28314, United States of America","place_id":"108201232","datatype":"locationiq"},{"latitude":"39.14239","longitude":"-84.61920","name":"TJ Maxx","address":"USA-United States","street_number":null,"street_name":"Glenway Avenue","zip":"45211","city":"Cincinnati","area":null,"county":"Hamilton County","state":"Ohio","country":"us","formatted_address":"Glenway Ave & Federal Dr, Glenway Avenue, Westwood, Cincinnati, Hamilton County, Ohio, 45211, United States of America","place_id":"24119392","datatype":"locationiq"},{"latitude":"38.45513","longitude":"-77.44619","name":"TJ Maxx","address":"USA-United States","street_number":"5","street_name":"Cottonwood Court","zip":"22554","city":null,"area":null,"county":"Stafford County","state":"Virginia","country":"us","formatted_address":"5, Cottonwood Court, Garrisonville Estates, Stafford County, Virginia, 22554, United States of America","place_id":"207892213","datatype":"locationiq"},{"latitude":"37.73700","longitude":"-85.88813","name":"TJ Maxx","address":"USA-United States","street_number":null,"street_name":"Dixie Highway South","zip":"42702","city":"Radcliff","area":null,"county":"Hardin County","state":"Kentucky","country":"us","formatted_address":"Dixie Highway South, Radcliff, Hardin County, Kentucky, 42702, United States of America","place_id":"94866842","datatype":"locationiq"},{"latitude":"27.17629","longitude":"-80.23477","name":"TJ Maxx","address":"USA-United States","street_number":"2400","street_name":"Southeast Federal Highway","zip":"34994","city":null,"area":null,"county":"Martin County","state":"Florida","country":"us","formatted_address":"SunTrust, 2400, Southeast Federal Highway, Stuart, Martin County, Florida, 34994, United States of America","place_id":"94118750","datatype":"locationiq"},{"latitude":"36.08086","longitude":"-79.48541","name":"TJ Maxx","address":"USA-United States","street_number":"2671","street_name":"South Church Street","zip":"27215","city":"Burlington","area":null,"county":"Alamance County","state":"North Carolina","country":"us","formatted_address":"2671, South Church Street, Burlington, Alamance County, North Carolina, 27215, United States of America","place_id":"197143819","datatype":"locationiq"},{"latitude":"29.73874","longitude":"-95.64425","name":"TJ Maxx","address":"USA-United States","street_number":"2360","street_name":"TX 6","zip":"77077","city":null,"area":null,"county":"Harris County","state":"Texas","country":"us","formatted_address":"2360, TX 6, Addicks, Harris County, Texas, 77077, United States of America","place_id":"205363547","datatype":"locationiq"},{"latitude":"33.34247","longitude":"-86.43515","name":"TJ Maxx","address":"USA-United States","street_number":"39946","street_name":"US 231;US 280","zip":"35078","city":null,"area":null,"county":"Shelby County","state":"Alabama","country":"us","formatted_address":"39946, US 231;US 280, Harpersville, Shelby County, Alabama, 35078, United States of America","place_id":"176692158","datatype":"locationiq"},{"latitude":"39.52419","longitude":"-76.35871","name":"TJ Maxx","address":"USA-United States","street_number":"69","street_name":"North Tollgate Road","zip":"21014","city":null,"area":null,"county":"Harford County","state":"Maryland","country":"us","formatted_address":"69, North Tollgate Road, Bel Air, Harford County, Maryland, 21014, United States of America","place_id":"189798473","datatype":"locationiq"},{"latitude":"33.95786","longitude":"-84.13702","name":"TJ Maxx","address":"USA-United States","street_number":null,"street_name":"Satellite Boulevard","zip":"30096","city":null,"area":null,"county":"Gwinnett County","state":"Georgia","country":"us","formatted_address":"Satellite Boulevard, Adams Crossroads, Gwinnett County, Georgia, 30096, United States of America","place_id":"135496987","datatype":"locationiq"},{"latitude":"38.75836","longitude":"-77.15424","name":"TJ Maxx","address":"USA-United States","street_number":null,"street_name":"Kingstowne Commons Drive","zip":"22315","city":null,"area":null,"county":"Fairfax County","state":"Virginia","country":"us","formatted_address":"Kingstowne Commons Drive, Franconia, Fairfax County, Virginia, 22315, United States of America","place_id":"64508595","datatype":"locationiq"},{"latitude":"34.75706","longitude":"-92.37312","name":"TJ Maxx","address":"USA-United States","street_number":"500","street_name":"Brookside Drive","zip":"72205","city":"Little Rock","area":null,"county":"Pulaski County","state":"Arkansas","country":"us","formatted_address":"500, Brookside Drive, Little Rock, Pulaski County, Arkansas, 72205, United States of America","place_id":"177931139","datatype":"locationiq"},{"latitude":"34.06879","longitude":"-83.98132","name":"TJ Maxx","address":"USA-United States","street_number":null,"street_name":"Woodward Crossing Boulevard","zip":"30519","city":null,"area":null,"county":"Gwinnett County","state":"Georgia","country":"us","formatted_address":"Woodward Crossing Boulevard, Mall of Georgia, Gravel Springs, Gwinnett County, Georgia, 30519, United States of America","place_id":"130525310","datatype":"locationiq"},{"latitude":"35.33973","longitude":"-119.04172","name":"TJ Maxx","address":"USA-United States","street_number":"3498","street_name":"Ming Avenue","zip":"93309","city":"Bakersfield","area":null,"county":"Kern County","state":"California","country":"us","formatted_address":"3498, Ming Avenue, Bakersfield, Kern County, California, 93309, United States of America","place_id":"178483482","datatype":"locationiq"},{"latitude":"39.08884","longitude":"-74.81941","name":"TJ Maxx","address":"USA-United States","street_number":null,"street_name":"Court House South Dennis Road","zip":"08210","city":"Middle Township","area":null,"county":"Cape May County","state":"New Jersey","country":"us","formatted_address":"Court House South Dennis Road, Middle Township, Cape May County, New Jersey, 08210, United States of America","place_id":"66036343","datatype":"locationiq"},{"latitude":"32.94444","longitude":"-80.04064","name":"TJ Maxx","address":"USA-United States","street_number":null,"street_name":"Eagle Landing Boulevard","zip":"29406","city":"North Charleston","area":null,"county":"Charleston County","state":"South Carolina","country":"us","formatted_address":"Wells Fargo, Eagle Landing Boulevard, North Charleston, Charleston County, South Carolina, 29406, United States of America","place_id":"41758325","datatype":"locationiq"},{"latitude":"38.59266","longitude":"-89.99047","name":"TJ Maxx","address":"USA-United States","street_number":null,"street_name":"Lincoln Trail","zip":"62208","city":"Fairview Heights","area":null,"county":"Saint Clair County","state":"Illinois","country":"us","formatted_address":"Imo's, Lincoln Trail, Fairview Heights, Saint Clair County, Illinois, 62208, United States of America","place_id":"61396895","datatype":"locationiq"},{"latitude":"33.82291","longitude":"-84.11319","name":"TJ Maxx","address":"USA-United States","street_number":null,"street_name":"Stone Mountain Freeway Southwest","zip":"30087","city":null,"area":"Lake Lucerne Estates","county":"Gwinnett County","state":"Georgia","country":"us","formatted_address":"Kentucky Fried Chicken, Stone Mountain Freeway Southwest, Lake Lucerne Estates, Corinth Hills, Gwinnett County, Georgia, 30087, United States of America","place_id":"6717878","datatype":"locationiq"},{"latitude":"35.13145","longitude":"-85.24180","name":"TJ Maxx","address":"USA-United States","street_number":null,"street_name":"Northgate Park","zip":"37415","city":"Chattanooga","area":null,"county":"Hamilton County","state":"Tennessee","country":"us","formatted_address":"TJ Maxx, Northgate Park, Northgate Mall, Chattanooga, Hamilton County, Tennessee, 37415, United States of America","place_id":"117810947","datatype":"locationiq"},{"latitude":"38.98618","longitude":"-84.40333","name":"TJ Maxx","address":"USA-United States","street_number":null,"street_name":"Alexandria Pike","zip":"41076","city":"Alexandria","area":null,"county":"Campbell County","state":"Kentucky","country":"us","formatted_address":"McDonald's, Alexandria Pike, Village Green Shopping Center, Alexandria, Campbell County, Kentucky, 41076, United States of America","place_id":"5050600","datatype":"locationiq"},{"latitude":"39.39327","longitude":"-76.58205","name":"TJ Maxx","address":"USA-United States","street_number":"1238","street_name":"Putty Hill Avenue","zip":"21286","city":"Towson","area":"Fellowship Forest","county":"Baltimore County","state":"Maryland","country":"us","formatted_address":"Avenue, 1238, Putty Hill Avenue, Fellowship Forest, Towson, Baltimore County, Maryland, 21286, United States of America","place_id":"60725278","datatype":"locationiq"},{"latitude":"28.65536","longitude":"-81.23798","name":"TJ Maxx","address":"USA-United States","street_number":null,"street_name":"Vidina Place","zip":"32765","city":null,"area":null,"county":"Seminole County","state":"Florida","country":"us","formatted_address":"Vidina Place, Oviedo, Slavia, Seminole County, Florida, 32765, United States of America","place_id":"66569747","datatype":"locationiq"},{"latitude":"32.35875","longitude":"-88.66913","name":"TJ Maxx","address":"USA-United States","street_number":null,"street_name":"Bonita Lakes Circle","zip":"39301","city":null,"area":null,"county":"Lauderdale County","state":"Mississippi","country":"us","formatted_address":"Bonita Lakes Circle, Meridian, Lauderdale County, Mississippi, 39301, United States of America","place_id":"95902356","datatype":"locationiq"},{"latitude":"29.73187","longitude":"-95.46503","name":"TJ Maxx","address":"USA-United States","street_number":null,"street_name":"Richmond Avenue","zip":"77056","city":null,"area":null,"county":"Harris County","state":"Texas","country":"us","formatted_address":"Texas Dow Employees Credit Union, Richmond Avenue, Lamar Terrace, Harris County, Texas, 77056, United States of America","place_id":"147951592","datatype":"locationiq"},{"latitude":"29.77273","longitude":"-95.57260","name":"TJ Maxx","address":"USA-United States","street_number":"13188","street_name":"Memorial Drive","zip":"77079","city":null,"area":null,"county":"Harris County","state":"Texas","country":"us","formatted_address":"The Refuge, 13188, Memorial Drive, Wilchester, Spring Branch West, Harris County, Texas, 77079, United States of America","place_id":"57477087","datatype":"locationiq"},{"latitude":"30.39442","longitude":"-97.74918","name":"TJ Maxx","address":"USA-United States","street_number":null,"street_name":"Great Hills Trail","zip":"78759","city":"Austin","area":null,"county":"Travis County","state":"Texas","country":"us","formatted_address":"Pier One Imports, Great Hills Trail, Austin, Travis County, Texas, 78759, United States of America","place_id":"85693503","datatype":"locationiq"},{"latitude":"29.59022","longitude":"-95.59901","name":"TJ Maxx","address":"USA-United States","street_number":"3619","street_name":"Alvin Sugarland Road","zip":"77479","city":"Sugar Land","area":null,"county":"Fort Bend County","state":"Texas","country":"us","formatted_address":"3619, Alvin Sugarland Road, Sugar Land, Fort Bend County, Texas, 77479, United States of America","place_id":"205157156","datatype":"locationiq"},{"latitude":"38.29709","longitude":"-85.55531","name":"TJ Maxx","address":"USA-United States","street_number":"4002","street_name":"Towne Center Drive","zip":"40241","city":"Louisville","area":null,"county":"Jefferson County","state":"Kentucky","country":"us","formatted_address":"4002, Towne Center Drive, Louisville, Jefferson County, Kentucky, 40241, United States of America","place_id":"47194558","datatype":"locationiq"},{"latitude":"34.01151","longitude":"-118.33653","name":"TJ Maxx","address":"USA-United States","street_number":"3652","street_name":"West Martin Luther King Jr Boulevard","zip":"90008","city":"Los Angeles","area":null,"county":"Los Angeles County","state":"California","country":"us","formatted_address":"3652, West Martin Luther King Jr Boulevard, Baldwin Hills Mall, Leimert Park, Los Angeles, Los Angeles County, California, 90008, United States of America","place_id":"178902959","datatype":"locationiq"},{"latitude":"35.20410","longitude":"-84.84931","name":"TJ Maxx","address":"USA-United States","street_number":"241","street_name":"Sgt Paul B Huff Parkway","zip":"37312","city":"Cleveland","area":null,"county":"Bradley County","state":"Tennessee","country":"us","formatted_address":"241, Sgt Paul B Huff Parkway, Cleveland, Bradley County, Tennessee, 37312, United States of America","place_id":"203497196","datatype":"locationiq"},{"latitude":"35.98343","longitude":"-80.01778","name":"TJ Maxx","address":"USA-United States","street_number":"271","street_name":"Eastchester Drive","zip":"27262","city":"High Point","area":null,"county":"Guilford County","state":"North Carolina","country":"us","formatted_address":"Verizon Wireless, 271, Eastchester Drive, High Point, Guilford County, North Carolina, 27262, United States of America","place_id":"46685991","datatype":"locationiq"},{"latitude":"37.07358","longitude":"-88.68362","name":"TJ Maxx","address":"USA-United States","street_number":null,"street_name":"James Sanders Boulevard","zip":"42001","city":"Paducah","area":null,"county":"McCracken County","state":"Kentucky","country":"us","formatted_address":"IHOP, James Sanders Boulevard, Paducah, McCracken County, Kentucky, 42001, United States of America","place_id":"40940356","datatype":"locationiq"},{"latitude":"35.37159","longitude":"-80.71938","name":"TJ Maxx","address":"USA-United States","street_number":"8267","street_name":"Concord Mills Boulevard","zip":"28027","city":"Concord","area":null,"county":"Cabarrus County","state":"North Carolina","country":"us","formatted_address":"8267, Concord Mills Boulevard, Concord Mills, Concord, Cabarrus County, North Carolina, 28027, United States of America","place_id":"197284314","datatype":"locationiq"},{"latitude":"30.00503","longitude":"-90.21266","name":"TJ Maxx","address":"USA-United States","street_number":null,"street_name":"Downs Boulevard","zip":"70003","city":null,"area":null,"county":"Jefferson Parish","state":"Louisiana","country":"us","formatted_address":"Evergreen Plaza Inn, Downs Boulevard, Metairie, Jefferson Parish, Louisiana, 70003, United States of America","place_id":"53659262","datatype":"locationiq"},{"latitude":"30.17286","longitude":"-81.62844","name":"TJ Maxx","address":"USA-United States","street_number":"11181","street_name":"San Jose Boulevard","zip":"32223","city":"Jacksonville","area":null,"county":"Duval County","state":"Florida","country":"us","formatted_address":"11181, San Jose Boulevard, Jacksonville, Duval County, Florida, 32223, United States of America","place_id":"181931130","datatype":"locationiq"},{"latitude":"39.12548","longitude":"-94.82895","name":"TJ Maxx","address":"USA-United States","street_number":null,"street_name":"North Village West Parkway","zip":"66111-1953","city":"Kansas City","area":null,"county":"Wyandotte County","state":"Kansas","country":"us","formatted_address":"North Village West Parkway, Kansas City, Wyandotte County, Kansas, 66111-1953, United States of America","place_id":"172882103","datatype":"locationiq"},{"latitude":"39.22040","longitude":"-85.88620","name":"TJ Maxx","address":"USA-United States","street_number":"3232","street_name":"Columbus Center","zip":"47203","city":"Columbus","area":null,"county":"Bartholomew County","state":"Indiana","country":"us","formatted_address":"3232, Columbus Center, Columbus, Bartholomew County, Indiana, 47203, United States of America","place_id":"186031362","datatype":"locationiq"},{"latitude":"37.63661","longitude":"-77.55054","name":"TJ Maxx","address":"USA-United States","street_number":null,"street_name":"West Broad Street","zip":"23294","city":null,"area":null,"county":"Henrico County","state":"Virginia","country":"us","formatted_address":"Chick-fil-A, West Broad Street, Tuckernuck Square, Laurel, Henrico County, Virginia, 23294, United States of America","place_id":"42047624","datatype":"locationiq"},{"latitude":"35.65132","longitude":"-88.83080","name":"TJ Maxx","address":"USA-United States","street_number":"857","street_name":"North Parkway","zip":"38305","city":"Jackson","area":null,"county":"Madison County","state":"Tennessee","country":"us","formatted_address":"857, North Parkway, Jackson, Madison County, Tennessee, 38305, United States of America","place_id":"203915894","datatype":"locationiq"},{"latitude":"32.80115","longitude":"-80.01864","name":"TJ Maxx","address":"USA-United States","street_number":null,"street_name":"Sam Rittenberg Boulevard","zip":"29407","city":"Charleston","area":null,"county":"Charleston County","state":"South Carolina","country":"us","formatted_address":"Bank of America, Sam Rittenberg Boulevard, Charleston, Charleston County, South Carolina, 29407, United States of America","place_id":"16733758","datatype":"locationiq"},{"latitude":"33.19252","longitude":"-97.09743","name":"TJ Maxx","address":"USA-United States","street_number":null,"street_name":"S Loop 288","zip":"76205","city":"Denton","area":null,"county":"Denton County","state":"Texas","country":"us","formatted_address":"Popeye's, S Loop 288, Denton, Denton County, Texas, 76205, United States of America","place_id":"45338757","datatype":"locationiq"},{"latitude":"32.83308","longitude":"-117.20279","name":"TJ Maxx","address":"USA-United States","street_number":"4973","street_name":"Clairemont Drive","zip":"92117","city":"San Diego","area":null,"county":"San Diego County","state":"California","country":"us","formatted_address":"4973, Clairemont Drive, Clairemont, San Diego, San Diego County, California, 92117, United States of America","place_id":"6151140","datatype":"locationiq"},{"latitude":"33.87537","longitude":"-84.01365","name":"TJ Maxx","address":"USA-United States","street_number":"1869","street_name":"Scenic Highway","zip":"30078","city":null,"area":null,"county":"Gwinnett County","state":"Georgia","country":"us","formatted_address":"1869, Scenic Highway, Snellville, Gwinnett County, Georgia, 30078, United States of America","place_id":"183897224","datatype":"locationiq"},{"latitude":"36.29369","longitude":"-86.70202","name":"TJ Maxx","address":"USA-United States","street_number":null,"street_name":"Gallatin Pike North","zip":"37115","city":"Nashville-Davidson","area":null,"county":"Davidson County","state":"Tennessee","country":"us","formatted_address":"Alta Loma Church, Gallatin Pike North, Nashville-Davidson, Davidson County, Tennessee, 37115, United States of America","place_id":"3059971","datatype":"locationiq"},{"latitude":"30.17518","longitude":"-92.07792","name":"TJ Maxx","address":"USA-United States","street_number":"5734","street_name":"Johnston Street","zip":"70503","city":"Lafayette","area":null,"county":"Lafayette Parish","state":"Louisiana","country":"us","formatted_address":"5734, Johnston Street, Lafayette, Lafayette Parish, Louisiana, 70503, United States of America","place_id":"189070597","datatype":"locationiq"},{"latitude":"32.68140","longitude":"-97.39975","name":"TJ Maxx","address":"USA-United States","street_number":"4685","street_name":"Southwest Loop 820","zip":"76132","city":"Fort Worth","area":null,"county":"Tarrant County","state":"Texas","country":"us","formatted_address":"4685, Southwest Loop 820, Fort Worth, Tarrant County, Texas, 76132, United States of America","place_id":"206285349","datatype":"locationiq"},{"latitude":"38.47174","longitude":"-77.41085","name":"TJ Maxx","address":"USA-United States","street_number":null,"street_name":"Prosperity Lane","zip":"22556","city":null,"area":null,"county":"Stafford County","state":"Virginia","country":"us","formatted_address":"First American Carpet, Prosperity Lane, Garrisonville, Stafford County, Virginia, 22556, United States of America","place_id":"24575509","datatype":"locationiq"},{"latitude":"27.93942","longitude":"-82.32312","name":"TJ Maxx","address":"USA-United States","street_number":"2350","street_name":"West Brandon Boulevard","zip":"33511","city":"Brandon","area":null,"county":"Hillsborough County","state":"Florida","country":"us","formatted_address":"Starbucks, 2350, West Brandon Boulevard, Brandon, Hillsborough County, Florida, 33511, United States of America","place_id":"167902957","datatype":"locationiq"},{"latitude":"30.19179","longitude":"-81.74153","name":"TJ Maxx","address":"USA-United States","street_number":null,"street_name":"Argyle Forest Boulevard","zip":"32244","city":"Jacksonville","area":null,"county":"Duval County","state":"Florida","country":"us","formatted_address":"Wendy's, Argyle Forest Boulevard, Jacksonville, Duval County, Florida, 32244, United States of America","place_id":"58821795","datatype":"locationiq"},{"latitude":"39.20875","longitude":"-84.40090","name":"TJ Maxx","address":"USA-United States","street_number":"4038","street_name":"East Galbraith Road","zip":"45236","city":"Deer Park","area":null,"county":"Hamilton County","state":"Ohio","country":"us","formatted_address":"4038, East Galbraith Road, Deer Park, Sycamore Township, Hamilton County, Ohio, 45236, United States of America","place_id":"199274721","datatype":"locationiq"},{"latitude":"31.32225","longitude":"-89.37105","name":"TJ Maxx","address":"USA-United States","street_number":null,"street_name":"Hardy Street","zip":"39402","city":"Hattiesburg","area":null,"county":"Lamar County","state":"Mississippi","country":"us","formatted_address":"Popeyes Chicken, Hardy Street, Hattiesburg, Lamar County, Mississippi, 39402, United States of America","place_id":"23693346","datatype":"locationiq"},{"latitude":"37.15397","longitude":"-93.26232","name":"TJ Maxx","address":"USA-United States","street_number":null,"street_name":"South Stewart Avenue","zip":"65804","city":"Springfield","area":null,"county":"Greene County","state":"Missouri","country":"us","formatted_address":"TGI Friday's, South Stewart Avenue, Springfield, Greene County, Missouri, 65804, United States of America","place_id":"29196951","datatype":"locationiq"},{"latitude":"33.88860","longitude":"-84.47477","name":"TJ Maxx","address":"USA-United States","street_number":"2624","street_name":"Cumberland Boulevard Southeast","zip":"30339","city":"Smyrna","area":null,"county":"Cobb County","state":"Georgia","country":"us","formatted_address":"Taco Bell, 2624, Cumberland Boulevard Southeast, Smyrna, Cobb County, Georgia, 30339, United States of America","place_id":"131491800","datatype":"locationiq"},{"latitude":"35.14940","longitude":"-90.04880","name":"TJ Maxx","address":"USA-United States","street_number":null,"street_name":"Poplar Avenue","zip":"38103","city":"Memphis","area":null,"county":"Shelby County","state":"Tennessee","country":"us","formatted_address":"Shelby County Office Building, Poplar Avenue, Memphis, Shelby County, Tennessee, 38103, United States of America","place_id":"95505854","datatype":"locationiq"},{"latitude":"39.32030","longitude":"-84.36810","name":"TJ Maxx","address":"USA-United States","street_number":"9125","street_name":"Cox Road","zip":"45069","city":null,"area":null,"county":"Butler County","state":"Ohio","country":"us","formatted_address":"9125, Cox Road, Wetherington, West Chester Township, Butler County, Ohio, 45069, United States of America","place_id":"198857393","datatype":"locationiq"},{"latitude":"36.62263","longitude":"-93.21705","name":"TJ Maxx","address":"USA-United States","street_number":"108","street_name":"2nd Street","zip":"65672","city":"Hollister","area":null,"county":"Taney County","state":"Missouri","country":"us","formatted_address":"108, 2nd Street, Hollister, Taney County, Missouri, 65672, United States of America","place_id":"194124211","datatype":"locationiq"},{"latitude":"35.18277","longitude":"-80.75595","name":"TJ Maxx","address":"USA-United States","street_number":"5660","street_name":"East Independence Boulevard","zip":"28212","city":"Charlotte","area":null,"county":"Mecklenburg County","state":"North Carolina","country":"us","formatted_address":"5660, East Independence Boulevard, Triangle Shopping Center, Charlotte, Mecklenburg County, North Carolina, 28212, United States of America","place_id":"197936290","datatype":"locationiq"},{"latitude":"36.85563","longitude":"-76.20334","name":"TJ Maxx","address":"USA-United States","street_number":"5920","street_name":"East Virginia Beach Boulevard","zip":"23502","city":"Norfolk","area":"Glen Rock","county":null,"state":"Virginia","country":"us","formatted_address":"Olive Garden, 5920, East Virginia Beach Boulevard, Glen Rock, Janaf, Fairlawn Estates, Norfolk, Virginia, 23502, United States of America","place_id":"158848583","datatype":"locationiq"},{"latitude":"37.97636","longitude":"-87.47382","name":"TJ Maxx","address":"USA-United States","street_number":null,"street_name":"South Burkhardt Road","zip":"47715","city":"Evansville","area":null,"county":"Vanderburgh County","state":"Indiana","country":"us","formatted_address":"South Burkhardt Road, Evansville, Vanderburgh County, Indiana, 47715, United States of America","place_id":"125142667","datatype":"locationiq"},{"latitude":"29.70473","longitude":"-95.64384","name":"TJ Maxx","address":"USA-United States","street_number":null,"street_name":"TX 6","zip":"77083","city":null,"area":null,"county":"Harris County","state":"Texas","country":"us","formatted_address":"H-E-B Gas, TX 6, Harris County, Texas, 77083, United States of America","place_id":"129790411","datatype":"locationiq"},{"latitude":"33.57353","longitude":"-84.33922","name":"TJ Maxx","address":"USA-United States","street_number":"1591","street_name":"Southlake Parkway","zip":"30260","city":"Morrow","area":"Woodstone","county":"Clayton County","state":"Georgia","country":"us","formatted_address":"1591, Southlake Parkway, Woodstone, Morrow, Clayton County, Georgia, 30260, United States of America","place_id":"183487019","datatype":"locationiq"},{"latitude":"38.78416","longitude":"-77.12101","name":"TJ Maxx","address":"USA-United States","street_number":"6172","street_name":"Rose Hill Drive","zip":"22310","city":null,"area":null,"county":"Fairfax County","state":"Virginia","country":"us","formatted_address":"6172, Rose Hill Drive, Rose Hill, Fairfax County, Virginia, 22310, United States of America","place_id":"207407765","datatype":"locationiq"},{"latitude":"33.72566","longitude":"-116.40110","name":"TJ Maxx","address":"USA-United States","street_number":"72394","street_name":"Highway 111","zip":"92260","city":"Palm Desert","area":null,"county":"Riverside County","state":"California","country":"us","formatted_address":"72394, Highway 111, Palm Desert, Riverside County, California, 92260, United States of America","place_id":"179451325","datatype":"locationiq"},{"latitude":"26.24523","longitude":"-80.25345","name":"TJ Maxx","address":"USA-United States","street_number":null,"street_name":"Ramblewood Drive","zip":"33071","city":null,"area":null,"county":"Broward County","state":"Florida","country":"us","formatted_address":"Burger King, Ramblewood Drive, Coral Springs, Broward County, Florida, 33071, United States of America","place_id":"60694720","datatype":"locationiq"},{"latitude":"37.36125","longitude":"-79.17141","name":"TJ Maxx","address":"USA-United States","street_number":null,"street_name":"Candlers Mountain Road","zip":"24502","city":"Lynchburg","area":null,"county":null,"state":"Virginia","country":"us","formatted_address":"PTR3, Candlers Mountain Road, Lynchburg City, Lynchburg, Virginia, 24502, United States of America","place_id":"95254606","datatype":"locationiq"},{"latitude":"39.15471","longitude":"-77.06339","name":"TJ Maxx","address":"USA-United States","street_number":null,"street_name":"Village Mart Dr","zip":"20830","city":null,"area":null,"county":"Montgomery County","state":"Maryland","country":"us","formatted_address":"GMC, Village Mart Dr, Olney Village Mart, Olney, Montgomery County, Maryland, 20830, United States of America","place_id":"6652260","datatype":"locationiq"},{"latitude":"34.10684","longitude":"-117.82491","name":"TJ Maxx","address":"USA-United States","street_number":null,"street_name":"West Arrow Highway","zip":"91773","city":null,"area":null,"county":"Los Angeles County","state":"California","country":"us","formatted_address":"Denny's, West Arrow Highway, Charter Oak Mobile Estates, Los Angeles County, California, 91773, United States of America","place_id":"17576974","datatype":"locationiq"},{"latitude":"34.23477","longitude":"-77.87369","name":"TJ Maxx","address":"USA-United States","street_number":null,"street_name":"South College Road","zip":"28403","city":"Wilmington","area":null,"county":"New Hanover County","state":"North Carolina","country":"us","formatted_address":"South College Road, Wilmington, New Hanover County, North Carolina, 28403, United States of America","place_id":"81757289","datatype":"locationiq"},{"latitude":"33.85271","longitude":"-84.60423","name":"TJ Maxx","address":"USA-United States","street_number":null,"street_name":"Austell Road","zip":"30106","city":"Austell","area":null,"county":"Cobb County","state":"Georgia","country":"us","formatted_address":"Austell Road, Austell, Cobb County, Georgia, 30106, United States of America","place_id":"98100617","datatype":"locationiq"},{"latitude":"28.55152","longitude":"-81.20408","name":"TJ Maxx","address":"USA-United States","street_number":null,"street_name":"Alafaya Trail","zip":"32828","city":null,"area":null,"county":"Orange County","state":"Florida","country":"us","formatted_address":"Longhorn Steakhouse, Alafaya Trail, Waterford Lakes, Alafaya, Orange County, Florida, 32828, United States of America","place_id":"118616324","datatype":"locationiq"},{"latitude":"35.84643","longitude":"-86.42925","name":"TJ Maxx","address":"USA-United States","street_number":"871","street_name":"Old Fort Parkway","zip":"37129","city":"Murfreesboro","area":null,"county":"Rutherford County","state":"Tennessee","country":"us","formatted_address":"871, Old Fort Parkway, Murfreesboro, Rutherford County, Tennessee, 37129, United States of America","place_id":"204053913","datatype":"locationiq"},{"latitude":"34.59771","longitude":"-118.14776","name":"TJ Maxx","address":"USA-United States","street_number":"39327","street_name":"10th Street West","zip":"93551","city":"Palmdale","area":null,"county":"Los Angeles County","state":"California","country":"us","formatted_address":"39327, 10th Street West, Palmdale, Los Angeles County, California, 93551, United States of America","place_id":"178841841","datatype":"locationiq"},{"latitude":"35.26020","longitude":"-81.15163","name":"TJ Maxx","address":"USA-United States","street_number":"215","street_name":"South New Hope Road","zip":"28054","city":null,"area":null,"county":"Gaston County","state":"North Carolina","country":"us","formatted_address":"215, South New Hope Road, Gastonia, Gaston County, North Carolina, 28054, United States of America","place_id":"174068200","datatype":"locationiq"},{"latitude":"38.08710","longitude":"-78.47454","name":"TJ Maxx","address":"USA-United States","street_number":null,"street_name":"Myers Drive","zip":"22901","city":null,"area":null,"county":"Albemarle County","state":"Virginia","country":"us","formatted_address":"TJ Maxx, Myers Drive, Woodbrook, Albemarle County, Virginia, 22901, United States of America","place_id":"42260693","datatype":"locationiq"},{"latitude":"33.59954","longitude":"-111.98604","name":"TJ Maxx","address":"USA-United States","street_number":null,"street_name":"East Cactus Road","zip":"85032-7701","city":"Phoenix","area":null,"county":"Maricopa County","state":"Arizona","country":"us","formatted_address":"Culver's, East Cactus Road, Phoenix, Maricopa County, Arizona, 85032-7701, United States of America","place_id":"52444304","datatype":"locationiq"},{"latitude":"39.18619","longitude":"-75.53588","name":"TJ Maxx","address":"USA-United States","street_number":null,"street_name":"North Dupont Highway","zip":"19901","city":"Dover","area":null,"county":"Kent County","state":"Delaware","country":"us","formatted_address":"North Dupont Highway, Dover, Kent County, Delaware, 19901, United States of America","place_id":"129925058","datatype":"locationiq"},{"latitude":"35.77574","longitude":"-78.76600","name":"TJ Maxx","address":"USA-United States","street_number":"685","street_name":"Cary Towne Boulevard","zip":"27511","city":null,"area":null,"county":"Wake County","state":"North Carolina","country":"us","formatted_address":"685, Cary Towne Boulevard, Magnolia Marketplace, Cary, Wake County, North Carolina, 27511, United States of America","place_id":"124488227","datatype":"locationiq"},{"latitude":"27.93250","longitude":"-82.73950","name":"TJ Maxx","address":"USA-United States","street_number":"1754","street_name":"Doncaster Road","zip":"33764","city":"Largo","area":"Woodside Village","county":"Pinellas County","state":"Florida","country":"us","formatted_address":"1754, Doncaster Road, Woodside Village, Largo, Pinellas County, Florida, 33764, United States of America","place_id":"182909456","datatype":"locationiq"},{"latitude":"33.61066","longitude":"-112.13110","name":"TJ Maxx","address":"USA-United States","street_number":null,"street_name":"West Thunderbird Road","zip":"85053","city":"Phoenix","area":null,"county":"Maricopa County","state":"Arizona","country":"us","formatted_address":"West Thunderbird Road, North Mountain, Phoenix, Maricopa County, Arizona, 85053, United States of America","place_id":"164231020","datatype":"locationiq"},{"latitude":"33.52971","longitude":"-86.72635","name":"TJ Maxx","address":"USA-United States","street_number":null,"street_name":"Crestwood Boulevard","zip":"35212","city":"Birmingham","area":"Crestline Gardens","county":"Jefferson County","state":"Alabama","country":"us","formatted_address":"SE Corner of Crestwood Blvd & Cresthill Rd, Crestwood Boulevard, Crestline Gardens, Woodlawn, Birmingham, Jefferson County, Alabama, 35212, United States of America","place_id":"26850029","datatype":"locationiq"},{"latitude":"34.26497","longitude":"-118.52527","name":"TJ Maxx","address":"USA-United States","street_number":"18017","street_name":"Chatsworth Street","zip":"CA 91344","city":"Los Angeles","area":"Granada Hills","county":"Los Angeles County","state":"California","country":"us","formatted_address":"BaseLiquid Inc., 18017, Chatsworth Street, Granada Hills, Northridge, Los Angeles, Los Angeles County, California, CA 91344, United States of America","place_id":"28387196","datatype":"locationiq"},{"latitude":"37.02946","longitude":"-76.42367","name":"TJ Maxx","address":"USA-United States","street_number":"4013","street_name":"West Mercury Boulevard","zip":"23666","city":"Hampton City","area":null,"county":null,"state":"Virginia","country":"us","formatted_address":"4013, West Mercury Boulevard, Northampton, Hampton, Hampton City, Virginia, 23666, United States of America","place_id":"155427266","datatype":"locationiq"},{"latitude":"36.81420","longitude":"-76.16874","name":"TJ Maxx","address":"USA-United States","street_number":"5256","street_name":"Providence Road","zip":"23464","city":"Virginia Beach","area":"Barret's Corner","county":null,"state":"Virginia","country":"us","formatted_address":"5256, Providence Road, Barret's Corner, Kempsville, Avalon Terrace, Virginia Beach, Virginia, 23464, United States of America","place_id":"157929053","datatype":"locationiq"},{"latitude":"30.47072","longitude":"-97.80179","name":"TJ Maxx","address":"USA-United States","street_number":"11066","street_name":"Pecan Park Boulevard","zip":"78613","city":"Austin","area":null,"county":"Williamson County","state":"Texas","country":"us","formatted_address":"11066, Pecan Park Boulevard, Jollyville, Austin, Williamson County, Texas, 78613, United States of America","place_id":"51014354","datatype":"locationiq"},{"latitude":"32.94911","longitude":"-96.80333","name":"TJ Maxx","address":"USA-United States","street_number":"14770","street_name":"Preston Road","zip":"75254","city":"Dallas","area":null,"county":"Dallas County","state":"Texas","country":"us","formatted_address":"McDonald's, 14770, Preston Road, Dallas, Dallas County, Texas, 75254, United States of America","place_id":"166722011","datatype":"locationiq"},{"latitude":"29.66220","longitude":"-82.42384","name":"TJ Maxx","address":"USA-United States","street_number":null,"street_name":"Northwest 76th Boulevard","zip":"32606","city":null,"area":"Buckingham West","county":"Alachua County","state":"Florida","country":"us","formatted_address":"Northwest 76th Boulevard, Buckingham West, Alachua County, Florida, 32606, United States of America","place_id":"158500202","datatype":"locationiq"},{"latitude":"26.09564","longitude":"-80.25104","name":"TJ Maxx","address":"USA-United States","street_number":null,"street_name":"South University Drive","zip":"33324","city":null,"area":null,"county":"Broward County","state":"Florida","country":"us","formatted_address":"University D\/SR 84 - (K-Mart), South University Drive, Davie, Broward County, Florida, 33324, United States of America","place_id":"45298460","datatype":"locationiq"},{"latitude":"35.59594","longitude":"-80.87479","name":"TJ Maxx","address":"USA-United States","street_number":"634","street_name":"River Highway","zip":"28117","city":null,"area":null,"county":"Iredell County","state":"North Carolina","country":"us","formatted_address":"634, River Highway, Mooresville, Iredell County, North Carolina, 28117, United States of America","place_id":"53073692","datatype":"locationiq"},