[{"latitude":"42.14614","longitude":"-70.84498","name":"Trader Joe's","address":"USA-Hanover","street_number":"1668","street_name":"Washington Street","zip":"02339","city":null,"area":null,"county":"Plymouth County","state":"Massachusetts","country":"us","formatted_address":"1668, Washington Street, Hanover, Plymouth County, Massachusetts, 02339, United States of America","place_id":"190484515","datatype":"locationiq"},{"latitude":"33.71164","longitude":"-116.29473","name":"Trader Joe's","address":"USA-La Quinta","street_number":"46-400","street_name":"Washington Street","zip":"92253","city":"La Quinta","area":null,"county":"Riverside County","state":"California","country":"us","formatted_address":"Trader Joe's, 46-400, Washington Street, La Quinta, Riverside County, California, 92253, United States of America","place_id":"17966437","datatype":"locationiq"},{"latitude":"42.34818","longitude":"-71.08471","name":"Trader Joe's","address":"USA-Back Bay","street_number":"911","street_name":"Boylston Street","zip":"02115","city":"Boston","area":"Chinatown","county":"Suffolk County","state":"Massachusetts","country":"us","formatted_address":"McGreevy's Boston, 911, Boylston Street, Chinatown, Back Bay, Boston, Suffolk County, Massachusetts, 02115, United States of America","place_id":"59318013","datatype":"locationiq"},{"latitude":"34.25799","longitude":"-118.57969","name":"Trader Joe's","address":"USA-Chatsworth","street_number":"10334","street_name":"Mason Avenue","zip":"91311","city":"Los Angeles","area":null,"county":"Los Angeles County","state":"California","country":"us","formatted_address":"10334, Mason Avenue, Chatsworth, Los Angeles, Los Angeles County, California, 91311, United States of America","place_id":"178835519","datatype":"locationiq"},{"latitude":"34.02656","longitude":"-118.45593","name":"Trader Joe's","address":"USA-Santa Monica","street_number":"3212","street_name":"Pico Boulevard","zip":"90405","city":"Santa Monica","area":null,"county":"Los Angeles County","state":"California","country":"us","formatted_address":"Trader Joe's, 3212, Pico Boulevard, Santa Monica, Los Angeles County, California, 90405, United States of America","place_id":"5591510","datatype":"locationiq"},{"latitude":"37.69922","longitude":"-122.46784","name":"Trader Joe's","address":"USA-Daly City","street_number":"309","street_name":"Willits Street","zip":"94014","city":"Daly City","area":"Westlake","county":"San Mateo County","state":"California","country":"us","formatted_address":"309, Willits Street, Westlake, Daly City, San Mateo County, California, 94014, United States of America","place_id":"180092731","datatype":"locationiq"},{"latitude":"47.71301","longitude":"-122.17997","name":"Trader Joe's","address":"USA-Kirkland","street_number":null,"street_name":"120th Avenue Northeast","zip":"98034","city":"Kirkland","area":null,"county":"King County","state":"Washington","country":"us","formatted_address":"120th Ave NE & Totem Lake Way, 120th Avenue Northeast, Juanita, Kirkland, King County, Washington, 98034, United States of America","place_id":"52720049","datatype":"locationiq"},{"latitude":"38.11181","longitude":"-122.56855","name":"Trader Joe's","address":"USA-Novato","street_number":"7540","street_name":"Redwood Boulevard","zip":"94945","city":"Novato","area":"Old Town","county":"Marin County","state":"California","country":"us","formatted_address":"7540, Redwood Boulevard, Old Town, Novato, Marin County, California, 94945, United States of America","place_id":"178998428","datatype":"locationiq"},{"latitude":"34.35224","longitude":"-116.39025","name":"Trader Joe's","address":"USA-Palm Desert","street_number":null,"street_name":"Giant Rock Road","zip":null,"city":null,"area":null,"county":"San Bernardino County","state":"California","country":"us","formatted_address":"Giant Rock Road, San Bernardino County, California, United States of America","place_id":"103004649","datatype":"locationiq"},{"latitude":"42.35956","longitude":"-72.54752","name":"Trader Joe's","address":"USA-Hadley","street_number":"388","street_name":"Russell Street","zip":"01035","city":null,"area":null,"county":"Hampshire County","state":"Massachusetts","country":"us","formatted_address":"388, Russell Street, Hadley, Hampshire County, Massachusetts, 01035, United States of America","place_id":"190297922","datatype":"locationiq"},{"latitude":"33.78962","longitude":"-118.32895","name":"Trader Joe's","address":"USA-Torrance","street_number":null,"street_name":"Pacific Coast Highway","zip":"90717","city":"Torrance","area":null,"county":"Los Angeles County","state":"California","country":"us","formatted_address":"Pacific Coast Highway, Torrance, Los Angeles County, California, 90717, United States of America","place_id":"153641401","datatype":"locationiq"},{"latitude":"37.36739","longitude":"-122.03226","name":"Trader Joe's","address":"USA-Sunnyvale","street_number":null,"street_name":"Sunnyvale-Saratoga Road","zip":"94086","city":"Sunnyvale","area":null,"county":"Santa Clara County","state":"California","country":"us","formatted_address":"Boudin SF, Sunnyvale-Saratoga Road, Sunnyvale, Santa Clara County, California, 94086, United States of America","place_id":"90940633","datatype":"locationiq"},{"latitude":"37.24362","longitude":"-121.95903","name":"Trader Joe's","address":"USA-Los Gatos","street_number":null,"street_name":"Los Gatos Boulevard","zip":"95032-2502","city":null,"area":null,"county":"Santa Clara County","state":"California","country":"us","formatted_address":"Jenerations Salon, Los Gatos Boulevard, Los Gatos, Santa Clara County, California, 95032-2502, United States of America","place_id":"49506816","datatype":"locationiq"},{"latitude":"40.78151","longitude":"-73.50265","name":"Trader Joe's","address":"USA-Plainview","street_number":"406","street_name":"South Oyster Bay Road","zip":"11801","city":null,"area":null,"county":"Nassau","state":"New York","country":"us","formatted_address":"Walgreens, 406, South Oyster Bay Road, Syosset, Nassau, New York, 11801, United States of America","place_id":"25328204","datatype":"locationiq"},{"latitude":"32.28316","longitude":"-110.94367","name":"Trader Joe's","address":"USA-Tucson","street_number":"4200","street_name":"North Campbell Avenue","zip":"85719","city":"Tucson","area":null,"county":"Pima County","state":"Arizona","country":"us","formatted_address":"4200, North Campbell Avenue, Campus Farm, Tucson, Pima County, Arizona, 85719, United States of America","place_id":"177361502","datatype":"locationiq"},{"latitude":"42.35764","longitude":"-71.11534","name":"Trader Joe's","address":"USA-Cambridge","street_number":"750","street_name":"Memorial Drive","zip":"02215","city":null,"area":"Cambridgeport","county":"Middlesex County","state":"Massachusetts","country":"us","formatted_address":"Starbucks, 750, Memorial Drive, Cambridgeport, Cambridge, Middlesex County, Massachusetts, 02215, United States of America","place_id":"75964716","datatype":"locationiq"},{"latitude":"33.91690","longitude":"-117.92427","name":"Trader Joe's","address":"USA-Brea","street_number":"439","street_name":"Ximeno Drive","zip":"92835","city":"Fullerton","area":null,"county":"Orange County","state":"California","country":"us","formatted_address":"439, Ximeno Drive, Fullerton, Orange County, California, 92835, United States of America","place_id":"179251539","datatype":"locationiq"},{"latitude":"34.08945","longitude":"-117.67059","name":"Trader Joe's","address":"USA-Upland","street_number":null,"street_name":"South Mountain Avenue","zip":"91786","city":"Upland","area":null,"county":"San Bernardino County","state":"California","country":"us","formatted_address":"South Mountain Avenue, Upland, San Bernardino County, California, 91786, United States of America","place_id":"170572720","datatype":"locationiq"},{"latitude":"36.97531","longitude":"-122.02564","name":"Trader Joe's","address":"USA-Santa Cruz","street_number":null,"street_name":"Front Street","zip":"1982","city":"Santa Cruz","area":null,"county":"Santa Cruz County","state":"California","country":"us","formatted_address":"Thrifty Cuts Barber Shop, Front Street, Downtown District (Commercial), Downtown, Santa Cruz, Santa Cruz County, California, 1982, United States of America","place_id":"23780716","datatype":"locationiq"},{"latitude":"39.95400","longitude":"-75.17550","name":"Trader Joe's","address":"USA-Philadelphia","street_number":"2101","street_name":"Market Street","zip":"19103","city":"Philadelphia","area":"Rittenhouse Square","county":"Philadelphia County","state":"Pennsylvania","country":"us","formatted_address":"The Murano, 2101, Market Street, Rittenhouse Square, Philadelphia, Philadelphia County, Pennsylvania, 19103, United States of America","place_id":"131413437","datatype":"locationiq"},{"latitude":"38.90396","longitude":"-77.05197","name":"Trader Joe's","address":"USA-West End","street_number":"1104","street_name":"24th Street Northwest","zip":"20037","city":"Washington","area":"West End","county":null,"state":"District of Columbia","country":"us","formatted_address":"1104, 24th Street Northwest, West End, Foggy Bottom, Washington, District of Columbia, 20037, United States of America","place_id":"8399178","datatype":"locationiq"},{"latitude":"33.63626","longitude":"-117.92508","name":"Trader Joe's","address":"USA-Costa Mesa","street_number":null,"street_name":"West 17th Street","zip":"92627","city":"Costa Mesa","area":null,"county":"Orange County","state":"California","country":"us","formatted_address":"Trader Joe's, West 17th Street, Costa Mesa, Orange County, California, 92627, United States of America","place_id":"85287723","datatype":"locationiq"},{"latitude":"34.17217","longitude":"-118.51727","name":"Trader Joe's","address":"USA-Encino","street_number":null,"street_name":"Ventura Freeway","zip":"91316","city":"Los Angeles","area":null,"county":"Los Angeles County","state":"California","country":"us","formatted_address":"Trader Joe's, Ventura Freeway, Encino, Los Angeles, Los Angeles County, California, 91316, United States of America","place_id":"41506252","datatype":"locationiq"},{"latitude":"38.26323","longitude":"-122.05247","name":"Trader Joe's","address":"USA-Fairfield","street_number":"1406","street_name":"Gateway Boulevard","zip":"94533","city":"Fairfield","area":null,"county":"Solano County","state":"California","country":"us","formatted_address":"1406, Gateway Boulevard, Fairfield, Solano County, California, 94533, United States of America","place_id":"180312318","datatype":"locationiq"},{"latitude":"39.88824","longitude":"-74.92356","name":"Trader Joe's","address":"USA-Marlton","street_number":"360","street_name":"State Route 73","zip":"08053","city":"Evesham Township","area":null,"county":"Burlington County","state":"New Jersey","country":"us","formatted_address":"CVS Pharmacy, 360, State Route 73, Marlton Square, Evesham Township, Burlington County, New Jersey, 08053, United States of America","place_id":"162566840","datatype":"locationiq"},{"latitude":"33.18325","longitude":"-117.33172","name":"Trader Joe's","address":"USA-Oceanside","street_number":null,"street_name":"Vista Way","zip":"92008","city":"Oceanside","area":null,"county":"San Diego County","state":"California","country":"us","formatted_address":"Chase, Vista Way, El Camino North Center, Oceanside, San Diego County, California, 92008, United States of America","place_id":"56458914","datatype":"locationiq"},{"latitude":"34.60035","longitude":"-118.11204","name":"Trader Joe's","address":"USA-Palmdale","street_number":"39444","street_name":"10th Street East","zip":"93550","city":"Palmdale","area":null,"county":"Los Angeles County","state":"California","country":"us","formatted_address":"39444, 10th Street East, Palmdale, Los Angeles County, California, 93550, United States of America","place_id":"178701186","datatype":"locationiq"},{"latitude":"42.48409","longitude":"-71.41623","name":"Trader Joe's","address":"USA-Acton","street_number":null,"street_name":"Great Road","zip":"01720","city":null,"area":"North Acton","county":"Middlesex County","state":"Massachusetts","country":"us","formatted_address":"Great Road, North Acton, Acton, Middlesex County, Massachusetts, 01720, United States of America","place_id":"172096711","datatype":"locationiq"},{"latitude":"33.75424","longitude":"-118.30931","name":"Trader Joe's","address":"USA-Rancho Palos Verdes","street_number":"29065","street_name":"South Western Avenue","zip":"90275","city":"Ranchos Palos Verdes","area":null,"county":"Los Angeles County","state":"California","country":"us","formatted_address":"29065, South Western Avenue, Ranchos Palos Verdes, Los Angeles County, California, 90275, United States of America","place_id":"178943485","datatype":"locationiq"},{"latitude":"33.52822","longitude":"-111.92589","name":"Trader Joe's","address":"USA-Scottsdale","street_number":"6166","street_name":"North Scottsdale Road","zip":"85250","city":"Scottsdale","area":null,"county":"Maricopa County","state":"Arizona","country":"us","formatted_address":"Blanco Tacos + Tequilla, 6166, North Scottsdale Road, Scottsdale, Maricopa County, Arizona, 85250, United States of America","place_id":"53187120","datatype":"locationiq"},{"latitude":"39.47702","longitude":"-119.78371","name":"Trader Joe's","address":"USA-Reno","street_number":"5017","street_name":"South McCarran Boulevard","zip":"89502","city":"Reno","area":null,"county":"Washoe County","state":"Nevada","country":"us","formatted_address":"Big Lots, 5017, South McCarran Boulevard, Midtown, Reno, Washoe County, Nevada, 89502, United States of America","place_id":"21047783","datatype":"locationiq"},{"latitude":"34.10650","longitude":"-117.82281","name":"Trader Joe's","address":"USA-San Dimas","street_number":"836","street_name":"West Arrow Highway","zip":"91773","city":null,"area":null,"county":"Los Angeles County","state":"California","country":"us","formatted_address":"836, West Arrow Highway, Charter Oak Mobile Estates, Los Angeles County, California, 91773, United States of America","place_id":"178645279","datatype":"locationiq"},{"latitude":"41.72333","longitude":"-72.76010","name":"Trader Joe's","address":"USA-West Hartford","street_number":null,"street_name":"New Britain Avenue","zip":"06110","city":null,"area":null,"county":"Hartford County","state":"Connecticut","country":"us","formatted_address":"Red Robin, New Britain Avenue, Town of West Hartford, Hartford County, Connecticut, 06110, United States of America","place_id":"83679755","datatype":"locationiq"},{"latitude":"34.14276","longitude":"-118.23011","name":"Trader Joe's","address":"USA-Eagle Rock","street_number":"1564","street_name":"Colorado Street","zip":"91205","city":"Glendale","area":null,"county":"Los Angeles County","state":"California","country":"us","formatted_address":"1564, Colorado Street, Glendale, Los Angeles County, California, 91205, United States of America","place_id":"178691547","datatype":"locationiq"},{"latitude":"33.90160","longitude":"-118.38321","name":"Trader Joe's","address":"USA-Manhattan Beach","street_number":null,"street_name":"West Rosecrans Avenue","zip":"90266","city":"Manhattan Beach","area":null,"county":"Los Angeles County","state":"California","country":"us","formatted_address":"Office 7, West Rosecrans Avenue, Manhattan Beach, Los Angeles County, California, 90266, United States of America","place_id":"113881287","datatype":"locationiq"},{"latitude":"38.42066","longitude":"-122.71338","name":"Trader Joe's","address":"USA-Santa Rosa","street_number":null,"street_name":"Santa Rosa Avenue","zip":"95402","city":"Santa Rosa","area":null,"county":"Sonoma County","state":"California","country":"us","formatted_address":"Wendy's, Santa Rosa Avenue, Santa Rosa, Sonoma County, California, 95402, United States of America","place_id":"153952677","datatype":"locationiq"},{"latitude":"34.13841","longitude":"-118.07332","name":"Trader Joe's","address":"USA-Pasadena","street_number":"467","street_name":"Rosemead Boulevard","zip":"91107","city":"Rosemead","area":"Chapman Woods","county":"Los Angeles County","state":"California","country":"us","formatted_address":"467, Rosemead Boulevard, Chapman Woods, Rosemead, Los Angeles County, California, 91107, United States of America","place_id":"178737950","datatype":"locationiq"},{"latitude":"39.05731","longitude":"-77.12046","name":"Trader Joe's","address":"USA-Rockville","street_number":null,"street_name":"Rockville Pike","zip":"20852","city":null,"area":"Mid-Pike District","county":"Montgomery County","state":"Maryland","country":"us","formatted_address":"TGI Friday's, Rockville Pike, Mid-Pike District, North Bethesda, Montgomery County, Maryland, 20852, United States of America","place_id":"5508147","datatype":"locationiq"},{"latitude":"37.40064","longitude":"-122.10877","name":"Trader Joe's","address":"USA-Mountain View","street_number":"601","street_name":"Showers Drive","zip":"94040","city":"Mountain View","area":"Castro City","county":"Santa Clara County","state":"California","country":"us","formatted_address":"601, Showers Drive, Castro City, Mountain View, Santa Clara County, California, 94040, United States of America","place_id":"156021522","datatype":"locationiq"},{"latitude":"38.00957","longitude":"-121.31979","name":"Trader Joe's","address":"USA-Stockton","street_number":"6502","street_name":"Pacific Avenue","zip":"95211","city":"Stockton","area":null,"county":"San Joaquin County","state":"California","country":"us","formatted_address":"6502, Pacific Avenue, Stockton, San Joaquin County, California, 95211, United States of America","place_id":"135606793","datatype":"locationiq"},{"latitude":"34.19935","longitude":"-118.18855","name":"Trader Joe's","address":"USA-La Ca\u00f1ada Flintridge","street_number":"475","street_name":"Foothill Boulevard","zip":"91011","city":null,"area":null,"county":"Los Angeles County","state":"California","country":"us","formatted_address":"Trader Joe's, 475, Foothill Boulevard, La Ca\u00f1ada Flintridge, Los Angeles County, California, 91011, United States of America","place_id":"122866673","datatype":"locationiq"},{"latitude":"41.86386","longitude":"-88.33207","name":"Trader Joe's","address":"USA-Batavia","street_number":null,"street_name":"West Fabyan Parkway","zip":"60134","city":"Batavia","area":null,"county":"Kane County","state":"Illinois","country":"us","formatted_address":"West Fabyan Parkway, Batavia, Kane County, Illinois, 60134, United States of America","place_id":"92963712","datatype":"locationiq"},{"latitude":"38.85188","longitude":"-77.13255","name":"Trader Joe's","address":"USA-Bailey's Crossroads","street_number":null,"street_name":"Leesburg Pike","zip":"22041","city":null,"area":null,"county":"Fairfax County","state":"Virginia","country":"us","formatted_address":"BP, Leesburg Pike, Bailey s Crossroads, Fairfax County, Virginia, 22041, United States of America","place_id":"47589515","datatype":"locationiq"},{"latitude":"33.50702","longitude":"-112.03875","name":"Trader Joe's","address":"USA-Phoenix","street_number":null,"street_name":"North 20th Street","zip":"85016","city":"Phoenix","area":null,"county":"Maricopa County","state":"Arizona","country":"us","formatted_address":"North 20th Street, Town and Country Shopping Center, Camelback East, Phoenix, Maricopa County, Arizona, 85016, United States of America","place_id":"164490283","datatype":"locationiq"},{"latitude":"37.54331","longitude":"-121.98681","name":"Trader Joe's","address":"USA-Fremont","street_number":"39236","street_name":"Argonaut Way","zip":"94536","city":"Fremont","area":null,"county":"Alameda County","state":"California","country":"us","formatted_address":"Brookvale Family Dentistry, 39236, Argonaut Way, Centerville District, Fremont, Alameda County, California, 94536, United States of America","place_id":"48507674","datatype":"locationiq"},{"latitude":"37.75652","longitude":"-122.25223","name":"Trader Joe's","address":"USA-Alameda","street_number":null,"street_name":"Shore Line Drive","zip":"94501","city":"Alameda","area":"South Shore","county":"Alameda County","state":"California","country":"us","formatted_address":"Dress Barn, Shore Line Drive, South Shore, Alameda, Alameda County, California, 94501, United States of America","place_id":"15497529","datatype":"locationiq"},{"latitude":"39.15525","longitude":"-77.19729","name":"Trader Joe's","address":"USA-Gaithersburg","street_number":"18201","street_name":"Contour Road","zip":"20877","city":"Gaithersburg","area":null,"county":"Montgomery County","state":"Maryland","country":"us","formatted_address":"18201, Contour Road, Gaithersburg, Montgomery County, Maryland, 20877, United States of America","place_id":"102782004","datatype":"locationiq"},{"latitude":"47.62805","longitude":"-122.13478","name":"Trader Joe's","address":"USA-Bellevue","street_number":null,"street_name":"Northeast 20th Street","zip":"98007","city":"Bellevue","area":"Sherwood Forest","county":"King County","state":"Washington","country":"us","formatted_address":"Bel-Red Barbers, Northeast 20th Street, Sherwood Forest, Bellevue, King County, Washington, 98007, United States of America","place_id":"77294619","datatype":"locationiq"},{"latitude":"33.70369","longitude":"-117.88570","name":"Trader Joe's","address":"USA-Santa Ana","street_number":null,"street_name":"West Alton Avenue","zip":"92704","city":"Santa Ana","area":null,"county":"Orange County","state":"California","country":"us","formatted_address":"Spicy Noodle House, West Alton Avenue, Santa Ana, Orange County, California, 92704, United States of America","place_id":"61738139","datatype":"locationiq"},{"latitude":"35.17555","longitude":"-106.54369","name":"Trader Joe's","address":"USA-Albuquerque","street_number":"8936","street_name":"Holly Avenue Northeast","zip":"87122","city":"Albuquerque","area":null,"county":"Bernalillo County","state":"New Mexico","country":"us","formatted_address":"8936, Holly Avenue Northeast, Albuquerque, Bernalillo County, New Mexico, 87122, United States of America","place_id":"195866059","datatype":"locationiq"},{"latitude":"33.59204","longitude":"-117.66069","name":"Trader Joe's","address":"USA-Mission Viejo","street_number":null,"street_name":"Estanciero","zip":"92691","city":"Mission Viejo","area":null,"county":"Orange County","state":"California","country":"us","formatted_address":"Walgreens, Estanciero, Mission Viejo, Orange County, California, 92691, United States of America","place_id":"8824131","datatype":"locationiq"},{"latitude":"33.56863","longitude":"-117.83267","name":"Trader Joe's","address":"USA-Newport Beach","street_number":"7753","street_name":"East Coast Highway","zip":"92651","city":"Newport Beach","area":null,"county":"Orange County","state":"California","country":"us","formatted_address":"7753, East Coast Highway, Newport Beach, Orange County, California, 92651, United States of America","place_id":"179172486","datatype":"locationiq"},{"latitude":"37.49675","longitude":"-122.24799","name":"Trader Joe's","address":"USA-San Carlos","street_number":null,"street_name":"Laurel Street","zip":"94070","city":"San Carlos","area":null,"county":"San Mateo County","state":"California","country":"us","formatted_address":"Trader Joe's, Laurel Street, San Carlos, San Mateo County, California, 94070, United States of America","place_id":"8019505","datatype":"locationiq"},{"latitude":"34.15208","longitude":"-118.35191","name":"Trader Joe's","address":"USA-Toluca Lake","street_number":"10130","street_name":"Riverside Drive","zip":"91602-2532","city":"Los Angeles","area":"Universal City","county":"Los Angeles County","state":"California","country":"us","formatted_address":"Trader Joe's, 10130, Riverside Drive, Universal City, Hollywood Hills, Los Angeles, Los Angeles County, California, 91602-2532, United States of America","place_id":"101566748","datatype":"locationiq"},{"latitude":"33.75012","longitude":"-117.81065","name":"Trader Joe's","address":"USA-Tustin","street_number":null,"street_name":"Newport Avenue","zip":"92780","city":"Tustin","area":null,"county":"Orange County","state":"California","country":"us","formatted_address":"The Lost Bean, Newport Avenue, Browning, Tustin, Orange County, California, 92780, United States of America","place_id":"23302048","datatype":"locationiq"},{"latitude":"37.83674","longitude":"-122.29356","name":"Trader Joe's","address":"USA-Emeryville","street_number":null,"street_name":"Christie Avenue","zip":"94608","city":null,"area":null,"county":"Alameda County","state":"California","country":"us","formatted_address":"Burger King, Christie Avenue, Emeryville, Alameda County, California, 94608, United States of America","place_id":"88196355","datatype":"locationiq"},{"latitude":"34.12930","longitude":"-118.07329","name":"Trader Joe's","address":"USA-San Gabriel","street_number":null,"street_name":"Rosemead Boulevard","zip":"91775","city":"Rosemead","area":"Chapman Woods","county":"Los Angeles County","state":"California","country":"us","formatted_address":"Clearman's North Woods Inn, Rosemead Boulevard, Chapman Woods, Rosemead, Los Angeles County, California, 91775, United States of America","place_id":"169819285","datatype":"locationiq"},{"latitude":"32.86559","longitude":"-117.23386","name":"Trader Joe's","address":"USA-La Jolla","street_number":"8654","street_name":"Villa La Jolla Drive","zip":"92037","city":"San Diego","area":"La Jolla Colony","county":"San Diego County","state":"California","country":"us","formatted_address":"8654, Villa La Jolla Drive, La Jolla Colony, University City, San Diego, San Diego County, California, 92037, United States of America","place_id":"6021446","datatype":"locationiq"},{"latitude":"34.42124","longitude":"-119.67843","name":"Trader Joe's","address":"USA-Santa Barbara","street_number":null,"street_name":"South Milpas Street","zip":"93103","city":"Santa Barbara","area":"East Side","county":"Santa Barbara County","state":"California","country":"us","formatted_address":"Milpas & Carpinteria, South Milpas Street, East Side, Santa Barbara, Santa Barbara County, California, 93103, United States of America","place_id":"9403952","datatype":"locationiq"},{"latitude":"34.43972","longitude":"-119.72921","name":"Trader Joe's","address":"USA-Santa Barbara","street_number":"3078","street_name":"De la Vina Street","zip":"93105","city":"Santa Barbara","area":"Upper State","county":"Santa Barbara County","state":"California","country":"us","formatted_address":"3078, De la Vina Street, Upper State, Santa Barbara, Santa Barbara County, California, 93105, United States of America","place_id":"180111744","datatype":"locationiq"},{"latitude":"40.07300","longitude":"-75.43168","name":"Trader Joe's","address":"USA-Wayne","street_number":"312","street_name":"East Swedesford Road","zip":"19087","city":"Tredyffrin Township","area":null,"county":"Chester County","state":"Pennsylvania","country":"us","formatted_address":"312, East Swedesford Road, Tredyffrin Township, Chester County, Pennsylvania, 19087, United States of America","place_id":"201549619","datatype":"locationiq"},{"latitude":"41.14010","longitude":"-73.35195","name":"Trader Joe's","address":"USA-Westport","street_number":"384","street_name":"Post Road East","zip":"06880","city":null,"area":null,"county":"Fairfield County","state":"Connecticut","country":"us","formatted_address":"Winged Monkey, 384, Post Road East, Westport, Fairfield County, Connecticut, 06880, United States of America","place_id":"57717115","datatype":"locationiq"},{"latitude":"39.68926","longitude":"-84.16532","name":"Trader Joe's","address":"USA-Kettering","street_number":"440","street_name":"East Stroop Road","zip":"45429","city":"Kettering","area":null,"county":"Montgomery County","state":"Ohio","country":"us","formatted_address":"440, East Stroop Road, Kettering, Montgomery County, Ohio, 45429, United States of America","place_id":"199648487","datatype":"locationiq"},{"latitude":"37.93814","longitude":"-122.02463","name":"Trader Joe's","address":"USA-Concord","street_number":null,"street_name":"Treat Boulevard","zip":"94519","city":null,"area":null,"county":"Contra Costa County","state":"California","country":"us","formatted_address":"Chevron, Treat Boulevard, Walnut Creek, Contra Costa County, California, 94519, United States of America","place_id":"8091599","datatype":"locationiq"},{"latitude":"44.93453","longitude":"-93.33715","name":"Trader Joe's","address":"USA-St. Louis Park","street_number":"4525","street_name":"Park Commons Drive","zip":"55416","city":"St. Louis Park","area":"Minikahda Vista","county":"Hennepin County","state":"Minnesota","country":"us","formatted_address":"4525, Park Commons Drive, Minikahda Vista, St. Louis Park, Hennepin County, Minnesota, 55416, United States of America","place_id":"81280008","datatype":"locationiq"},{"latitude":"33.64803","longitude":"-117.59540","name":"Trader Joe's","address":"USA-Rancho Santa Margarita","street_number":"10","street_name":"Nutmeg Street","zip":"92688","city":"Rancho Santa Margarita","area":null,"county":"Orange County","state":"California","country":"us","formatted_address":"10, Nutmeg Street, Robinson Ranch, Rancho Santa Margarita, Orange County, California, 92688, United States of America","place_id":"179169250","datatype":"locationiq"},{"latitude":"33.69184","longitude":"-117.99116","name":"Trader Joe's","address":"USA-Huntington Beach","street_number":"18672","street_name":"Florida Street","zip":"92648","city":"Huntington Beach","area":null,"county":"Orange County","state":"California","country":"us","formatted_address":"Dns Colon Therapy, 18672, Florida Street, Huntington Beach, Orange County, California, 92648, United States of America","place_id":"57393295","datatype":"locationiq"},{"latitude":"47.31450","longitude":"-122.31358","name":"Trader Joe's","address":"USA-Federal Way","street_number":null,"street_name":"South 320th Street","zip":"98003","city":"Federal Way","area":null,"county":"King County","state":"Washington","country":"us","formatted_address":"Bank of America, South 320th Street, Federal Way, King County, Washington, 98003, United States of America","place_id":"84992597","datatype":"locationiq"},{"latitude":"32.74891","longitude":"-117.17341","name":"Trader Joe's","address":"USA-Hillcrest","street_number":"3914","street_name":"Ibis Street","zip":"92103","city":"San Diego","area":null,"county":"San Diego County","state":"California","country":"us","formatted_address":"3914, Ibis Street, Uptown, San Diego, San Diego County, California, 92103, United States of America","place_id":"6387555","datatype":"locationiq"},{"latitude":"37.45127","longitude":"-122.18341","name":"Trader Joe's","address":"USA-Menlo Park","street_number":null,"street_name":"Chestnut Street","zip":"94025","city":null,"area":null,"county":"San Mateo County","state":"California","country":"us","formatted_address":"Trader Joe's, Chestnut Street, Menlo Park, San Mateo County, California, 94025, United States of America","place_id":"73377972","datatype":"locationiq"},{"latitude":"33.95901","longitude":"-118.39635","name":"Trader Joe's","address":"USA-Westchester","street_number":null,"street_name":"South Sepulveda Boulevard","zip":"90045","city":"Los Angeles","area":"Westchester","county":"Los Angeles County","state":"California","country":"us","formatted_address":"Homegoods, South Sepulveda Boulevard, Westchester, Playa Vista, Los Angeles, Los Angeles County, California, 90045, United States of America","place_id":"161221267","datatype":"locationiq"},{"latitude":"33.52703","longitude":"-117.15678","name":"Trader Joe's","address":"USA-Temecula","street_number":null,"street_name":"Winchester Road","zip":"92390","city":"Temecula","area":"Walden","county":"Riverside County","state":"California","country":"us","formatted_address":"23;61;79, Winchester Road, Walden, Winchester Highlands, Temecula, Riverside County, California, 92390, United States of America","place_id":"13151947","datatype":"locationiq"},{"latitude":"33.57357","longitude":"-112.12451","name":"Trader Joe's","address":"USA-Phoenix","street_number":null,"street_name":"North Metro Park West","zip":"85051","city":"Phoenix","area":null,"county":"Maricopa County","state":"Arizona","country":"us","formatted_address":"North Metro Park West, North Mountain, Phoenix, Maricopa County, Arizona, 85051, United States of America","place_id":"157104342","datatype":"locationiq"},{"latitude":"42.69919","longitude":"-71.44035","name":"Trader Joe's","address":"USA-Tyngsborough","street_number":"440","street_name":"Middlesex Road","zip":"01879","city":"Tyngsborough","area":null,"county":"Middlesex County","state":"Massachusetts","country":"us","formatted_address":"440, Middlesex Road, South Nashua, Ward 7, Tyngsborough, Middlesex County, Massachusetts, 01879, United States of America","place_id":"190318105","datatype":"locationiq"},{"latitude":"38.97822","longitude":"-76.49241","name":"Trader Joe's","address":"USA-Annapolis","street_number":"58","street_name":"State Circle","zip":"21401","city":"Annapolis","area":null,"county":"Anne Arundel County","state":"Maryland","country":"us","formatted_address":"The Maryland Inn, 58, State Circle, Annapolis, Anne Arundel County, Maryland, 21401, United States of America","place_id":"148440559","datatype":"locationiq"},{"latitude":"40.86782","longitude":"-73.12830","name":"Trader Joe's","address":"USA-Lake Grove","street_number":null,"street_name":"Burr Lane","zip":"null","city":null,"area":null,"county":"Suffolk County","state":"New York","country":"us","formatted_address":"Burr Lane, Lake Grove Commons, Lake Grove, Suffolk County, New York, null, United States of America","place_id":"71330929","datatype":"locationiq"},{"latitude":"40.65247","longitude":"-74.34981","name":"Trader Joe's","address":"USA-Westfield","street_number":"155","street_name":"Elm Street","zip":"07090","city":null,"area":null,"county":"Union County","state":"New Jersey","country":"us","formatted_address":"Trader Joe's, 155, Elm Street, Westfield, Union County, New Jersey, 07090, United States of America","place_id":"125657665","datatype":"locationiq"},{"latitude":"34.03011","longitude":"-118.42195","name":"Trader Joe's","address":"USA-West Los Angeles","street_number":null,"street_name":"Midvale Avenue","zip":"90064","city":"Los Angeles","area":null,"county":"Los Angeles County","state":"California","country":"us","formatted_address":"Trader Joe's, Midvale Avenue, Palms, Los Angeles, Los Angeles County, California, 90064, United States of America","place_id":"18347564","datatype":"locationiq"},{"latitude":"45.48860","longitude":"-122.62303","name":"Trader Joe's","address":"USA-Portland","street_number":"4715","street_name":"Southeast C\u00e9sar E. Ch\u00e1vez Boulevard","zip":"97202","city":"Portland","area":"Creston-Kenilworth","county":"Multnomah County","state":"Oregon","country":"us","formatted_address":"Trader Joe's, 4715, Southeast C\u00e9sar E. Ch\u00e1vez Boulevard, Creston-Kenilworth, Woodstock, Portland, Multnomah County, Oregon, 97202, United States of America","place_id":"99606872","datatype":"locationiq"},{"latitude":"33.61172","longitude":"-117.70418","name":"Trader Joe's","address":"USA-Laguna Hills","street_number":null,"street_name":"San Diego Freeway","zip":"92694","city":"Lake Forest","area":null,"county":"Orange County","state":"California","country":"us","formatted_address":"91, San Diego Freeway, Lake Forest, Orange County, California, 92694, United States of America","place_id":"313858","datatype":"locationiq"},{"latitude":"38.41015","longitude":"-121.41769","name":"Trader Joe's","address":"USA-Elk Grove","street_number":"9394","street_name":"Bruceville Road","zip":"95758","city":"Elk Grove","area":null,"county":"Sacramento County","state":"California","country":"us","formatted_address":"9394, Bruceville Road, Elk Grove, Sacramento County, California, 95758, United States of America","place_id":"179538490","datatype":"locationiq"},{"latitude":"39.38735","longitude":"-76.73688","name":"Trader Joe's","address":"USA-Pikesville","street_number":"1809","street_name":"Reisterstown Road","zip":"21208","city":null,"area":"Grey Rock","county":"Baltimore County","state":"Maryland","country":"us","formatted_address":"1809, Reisterstown Road, Grey Rock, Pikesville, Baltimore County, Maryland, 21208, United States of America","place_id":"41640399","datatype":"locationiq"},{"latitude":"34.21755","longitude":"-118.86928","name":"Trader Joe's","address":"USA-Thousand Oaks","street_number":"452","street_name":"East Avenida de Los Arboles","zip":"91360","city":"Thousand Oaks","area":null,"county":"Ventura County","state":"California","country":"us","formatted_address":"452, East Avenida de Los Arboles, Thousand Oaks, Ventura County, California, 91360, United States of America","place_id":"180512720","datatype":"locationiq"},{"latitude":"37.13020","longitude":"-76.51359","name":"Trader Joe's","address":"USA-Newport News","street_number":null,"street_name":"Jefferson Avenue","zip":"23602","city":"Newport News City","area":"Warwick Mobile Home Estates","county":null,"state":"Virginia","country":"us","formatted_address":"Panera Bread, Jefferson Avenue, Warwick Mobile Home Estates, Warwick Lawns, Newport News, Newport News City, Virginia, 23602, United States of America","place_id":"142400740","datatype":"locationiq"},{"latitude":"44.06626","longitude":"-123.07440","name":"Trader Joe's","address":"USA-Eugene","street_number":"298","street_name":"Coburg Road","zip":"97401","city":"Eugene","area":null,"county":"Lane County","state":"Oregon","country":"us","formatted_address":"Pier 1 Imports, 298, Coburg Road, College Hill, Eugene, Lane County, Oregon, 97401, United States of America","place_id":"150254710","datatype":"locationiq"},{"latitude":"41.75599","longitude":"-88.14237","name":"Trader Joe's","address":"USA-Naperville","street_number":"1077","street_name":"South Washington Street","zip":"60540","city":"Naperville","area":null,"county":"DuPage County","state":"Illinois","country":"us","formatted_address":"1077, South Washington Street, Naperville, DuPage County, Illinois, 60540, United States of America","place_id":"185074836","datatype":"locationiq"},{"latitude":"41.91457","longitude":"-87.65469","name":"Trader Joe's","address":"USA-Chicago","street_number":"1834-1854","street_name":"North Clybourn Avenue","zip":"60614","city":"Chicago","area":"Lincoln Park","county":"Cook County","state":"Illinois","country":"us","formatted_address":"1834-1854, North Clybourn Avenue, Lincoln Park, Chicago, Cook County, Illinois, 60614, United States of America","place_id":"118470780","datatype":"locationiq"},{"latitude":"38.66241","longitude":"-121.27293","name":"Trader Joe's","address":"USA-Fair Oaks","street_number":"5297","street_name":"Sunrise Boulevard","zip":"95628","city":"Citrus Heights","area":null,"county":"Sacramento County","state":"California","country":"us","formatted_address":"5297, Sunrise Boulevard, Citrus Heights, Sacramento County, California, 95628, United States of America","place_id":"179486266","datatype":"locationiq"},{"latitude":"38.64407","longitude":"-90.56634","name":"Trader Joe's","address":"USA-Chesterfield","street_number":null,"street_name":"Clarkson Road","zip":"63017","city":"Chesterfield","area":null,"county":"St. Louis County","state":"Missouri","country":"us","formatted_address":"Clarkson Road, Chesterfield, St. Louis County, Missouri, 63017, United States of America","place_id":"82531127","datatype":"locationiq"},{"latitude":"40.65373","longitude":"-73.55864","name":"Trader Joe's","address":"USA-Merrick","street_number":"1724","street_name":"Merrick Road","zip":"11566","city":null,"area":null,"county":"Nassau","state":"New York","country":"us","formatted_address":"1724, Merrick Road, Merrick, Nassau, New York, 11566, United States of America","place_id":"196523352","datatype":"locationiq"},{"latitude":"41.39242","longitude":"-73.52000","name":"Trader Joe's","address":"USA-Danbury","street_number":null,"street_name":"Mill Plain Road","zip":null,"city":"Danbury","area":null,"county":"Fairfield County","state":"Connecticut","country":"us","formatted_address":"Mobil, Mill Plain Road, Danbury, Fairfield County, Connecticut, United States of America","place_id":"140233847","datatype":"locationiq"},{"latitude":"45.48671","longitude":"-122.79760","name":"Trader Joe's","address":"USA-Beaverton","street_number":null,"street_name":"Southwest Beaverton Hillsdale Highway","zip":"97005-2992","city":"Beaverton","area":null,"county":"Washington County","state":"Oregon","country":"us","formatted_address":"Beaverton Police, Southwest Beaverton Hillsdale Highway, Whitford, Beaverton, Washington County, Oregon, 97005-2992, United States of America","place_id":"85361363","datatype":"locationiq"},{"latitude":"42.08041","longitude":"-87.79851","name":"Trader Joe's","address":"USA-Glenview","street_number":null,"street_name":"Waukegan Road","zip":"60093","city":null,"area":null,"county":"Cook County","state":"Illinois","country":"us","formatted_address":"Waukegan Road, Glenview, Cook County, Illinois, 60093, United States of America","place_id":"163527949","datatype":"locationiq"},{"latitude":"33.87013","longitude":"-118.06109","name":"Trader Joe's","address":"USA-Cerritos","street_number":null,"street_name":"Towne Center Drive","zip":"90703","city":"Cerritos","area":null,"county":"Los Angeles County","state":"California","country":"us","formatted_address":"T.G.I Fridays, Towne Center Drive, Cerritos, Los Angeles County, California, 90703, United States of America","place_id":"122931257","datatype":"locationiq"},{"latitude":"40.63910","longitude":"-73.70164","name":"Trader Joe's","address":"USA-Hewlett","street_number":"1287","street_name":"West Broadway","zip":"11598","city":null,"area":null,"county":"Nassau","state":"New York","country":"us","formatted_address":"1287, West Broadway, Hewlett, Nassau, New York, 11598, United States of America","place_id":"196513531","datatype":"locationiq"},{"latitude":"39.83386","longitude":"-75.54261","name":"Trader Joe's","address":"USA-Wilmington","street_number":null,"street_name":"Concord Pike","zip":"19810","city":null,"area":null,"county":"New Castle County","state":"Delaware","country":"us","formatted_address":"Concord Pike, Concord Hills, New Castle County, Delaware, 19810, United States of America","place_id":"80247518","datatype":"locationiq"},{"latitude":"47.63244","longitude":"-122.35500","name":"Trader Joe's","address":"USA-Seattle","street_number":"108","street_name":"Galer Street","zip":"98109","city":"Seattle","area":"South Lake Union","county":"King County","state":"Washington","country":"us","formatted_address":"108, Galer Street, South Lake Union, Queen Anne, Seattle, King County, Washington, 98109, United States of America","place_id":"121867476","datatype":"locationiq"},{"latitude":"33.88908","longitude":"-117.79002","name":"Trader Joe's","address":"USA-Yorba Linda","street_number":null,"street_name":"Yorba Linda Boulevard","zip":"92886","city":"Yorba Linda","area":null,"county":"Orange County","state":"California","country":"us","formatted_address":"Yorba Linda Boulevard, Yorba Linda, Orange County, California, 92886, United States of America","place_id":"158210969","datatype":"locationiq"},{"latitude":"40.09592","longitude":"-83.09172","name":"Trader Joe's","address":"USA-Dublin","street_number":"6358","street_name":"Sawmill Road","zip":"43017","city":"Dublin","area":null,"county":"Franklin County","state":"Ohio","country":"us","formatted_address":"6358, Sawmill Road, Sun Center, Dublin, Franklin County, Ohio, 43017, United States of America","place_id":"199187224","datatype":"locationiq"},{"latitude":"32.23567","longitude":"-110.85765","name":"Trader Joe's","address":"USA-Tucson","street_number":null,"street_name":"East Speedway Boulevard","zip":"AZ 85710","city":"Tucson","area":null,"county":"Pima County","state":"Arizona","country":"us","formatted_address":"East Speedway Boulevard, El Dorado Hills Townhouses, El Gheko, Tucson, Pima County, Arizona, AZ 85710, United States of America","place_id":"70000608","datatype":"locationiq"},{"latitude":"42.34212","longitude":"-71.12131","name":"Trader Joe's","address":"USA-Brookline","street_number":null,"street_name":"Harvard Street","zip":"02446","city":null,"area":"Coolidge Corner","county":"Suffolk County","state":"Massachusetts","country":"us","formatted_address":"Coolidge Corner, Harvard Street, Coolidge Corner, Brookline, Suffolk County, Massachusetts, 02446, United States of America","place_id":"139629403","datatype":"locationiq"},{"latitude":"37.55421","longitude":"-122.30277","name":"Trader Joe's","address":"USA-San Mateo","street_number":"1820-22","street_name":"South Grant Street","zip":"94402","city":"San Mateo","area":null,"county":"San Mateo County","state":"California","country":"us","formatted_address":"Trader Joe's, 1820-22, South Grant Street, San Mateo, San Mateo County, California, 94402, United States of America","place_id":"78078793","datatype":"locationiq"},{"latitude":"34.27248","longitude":"-118.50203","name":"Trader Joe's","address":"USA-Granada Hills","street_number":null,"street_name":"Balboa Boulevard","zip":"91344","city":"Los Angeles","area":null,"county":"Los Angeles County","state":"California","country":"us","formatted_address":"Trader Joe's, Balboa Boulevard, Los Angeles, Los Angeles County, California, 91344, United States of America","place_id":"82183801","datatype":"locationiq"},{"latitude":"36.97566","longitude":"-121.96807","name":"Trader Joe's","address":"USA-Capitola","street_number":null,"street_name":"Clares Street","zip":"95010","city":"Capitola","area":null,"county":"Santa Cruz County","state":"California","country":"us","formatted_address":"Capitola Mall, Clares Street, Capitola, Santa Cruz County, California, 95010, United States of America","place_id":"75728125","datatype":"locationiq"},{"latitude":"36.18120","longitude":"-115.25915","name":"Trader Joe's","address":"USA-Summerlin","street_number":"920","street_name":"Buffalo Drive","zip":"89128","city":"Las Vegas","area":null,"county":"Clark County","state":"Nevada","country":"us","formatted_address":"711, 920, Buffalo Drive, The Pueblo, Las Vegas, Clark County, Nevada, 89128, United States of America","place_id":"28128196","datatype":"locationiq"},{"latitude":"34.08789","longitude":"-118.37945","name":"Trader Joe's","address":"USA-West Hollywood","street_number":null,"street_name":"Santa Monica Boulevard","zip":"90069","city":"West Hollywood","area":null,"county":"Los Angeles County","state":"California","country":"us","formatted_address":"Trader Joe's, Santa Monica Boulevard, West Hollywood, Los Angeles County, California, 90069, United States of America","place_id":"17310086","datatype":"locationiq"},{"latitude":"33.64846","longitude":"-117.83521","name":"Trader Joe's","address":"USA-Irvine","street_number":"307","street_name":"Berkeley Avenue","zip":"92612","city":"Irvine","area":null,"county":"Orange County","state":"California","country":"us","formatted_address":"307, Berkeley Avenue, Turtle Rock, Irvine, Orange County, California, 92612, United States of America","place_id":"14224684","datatype":"locationiq"},{"latitude":"42.25947","longitude":"-83.71325","name":"Trader Joe's","address":"USA-Ann Arbor","street_number":null,"street_name":"East Stadium Boulevard","zip":"48104","city":"Ann Arbor","area":null,"county":"Washtenaw County","state":"Michigan","country":"us","formatted_address":"Law Center, East Stadium Boulevard, Ann Arbor, Washtenaw County, Michigan, 48104, United States of America","place_id":"155770109","datatype":"locationiq"},{"latitude":"35.35414","longitude":"-119.09487","name":"Trader Joe's","address":"USA-Bakersfield","street_number":null,"street_name":"Stockdale Highway","zip":"93309","city":"Bakersfield","area":null,"county":"Kern County","state":"California","country":"us","formatted_address":"Town and Country, Stockdale Highway, Bakersfield, Kern County, California, 93309, United States of America","place_id":"83895396","datatype":"locationiq"},{"latitude":"33.63646","longitude":"-111.91766","name":"Trader Joe's","address":"USA-North Scottsdale","street_number":null,"street_name":"East Frank Lloyd Wright Boulevard","zip":"85260","city":"Scottsdale","area":null,"county":"Maricopa County","state":"Arizona","country":"us","formatted_address":"Trader Joe's, East Frank Lloyd Wright Boulevard, Scottsdale, Maricopa County, Arizona, 85260, United States of America","place_id":"86328016","datatype":"locationiq"},{"latitude":"33.75994","longitude":"-118.11284","name":"Trader Joe's","address":"USA-Long Beach","street_number":null,"street_name":"Pacific Coast Highway","zip":"90803","city":"Long Beach","area":"Marina Pacifica","county":"Los Angeles County","state":"California","country":"us","formatted_address":"LBT, Pacific Coast Highway, Marina Pacifica, Naples, Long Beach, Los Angeles County, California, 90803, United States of America","place_id":"7597772","datatype":"locationiq"},{"latitude":"33.37904","longitude":"-111.78758","name":"Trader Joe's","address":"USA-Mesa","street_number":null,"street_name":"East Baseline Road","zip":"85204","city":"Mesa","area":null,"county":"Maricopa County","state":"Arizona","country":"us","formatted_address":"Pizza Hut, East Baseline Road, Mesa, Maricopa County, Arizona, 85204, United States of America","place_id":"152283203","datatype":"locationiq"},{"latitude":"41.45733","longitude":"-81.95107","name":"Trader Joe's","address":"USA-Westlake","street_number":"175","street_name":"Market Street","zip":"4415","city":null,"area":null,"county":"Cuyahoga County","state":"Ohio","country":"us","formatted_address":"Trader Joe's, 175, Market Street, Crocker Park, Westlake, Cuyahoga County, Ohio, 4415, United States of America","place_id":"51550535","datatype":"locationiq"},{"latitude":"36.06988","longitude":"-115.08214","name":"Trader Joe's","address":"USA-Henderson","street_number":null,"street_name":"North Green Valley Parkway","zip":"89014-2132","city":"Henderson","area":null,"county":"Clark County","state":"Nevada","country":"us","formatted_address":"Green Valley Post Office, North Green Valley Parkway, Green Valley, Henderson, Clark County, Nevada, 89014-2132, United States of America","place_id":"3138969","datatype":"locationiq"},{"latitude":"42.47294","longitude":"-71.21218","name":"Trader Joe's","address":"USA-Burlington","street_number":null,"street_name":"Garfield Circle","zip":"01805","city":null,"area":null,"county":"Middlesex County","state":"Massachusetts","country":"us","formatted_address":"Burger King, Garfield Circle, Burlington, Middlesex County, Massachusetts, 01805, United States of America","place_id":"118807033","datatype":"locationiq"},{"latitude":"38.97807","longitude":"-77.09088","name":"Trader Joe's","address":"USA-Bethesda","street_number":null,"street_name":"Stanford Street","zip":"20815","city":null,"area":null,"county":"Montgomery County","state":"Maryland","country":"us","formatted_address":"Trader Joe's, Stanford Street, Chevy Chase, Montgomery County, Maryland, 20815, United States of America","place_id":"45799089","datatype":"locationiq"},{"latitude":"41.18252","longitude":"-73.25367","name":"Trader Joe's","address":"USA-Farifield","street_number":null,"street_name":"Black Rock Turnpike","zip":"06824","city":null,"area":null,"county":"Fairfield County","state":"Connecticut","country":"us","formatted_address":"Chase, Black Rock Turnpike, Tunxis Hill, Fairfield County, Connecticut, 06824, United States of America","place_id":"85644628","datatype":"locationiq"},{"latitude":"33.94872","longitude":"-118.00599","name":"Trader Joe's","address":"USA-Whittier","street_number":null,"street_name":"Whittier Boulevard","zip":"90603","city":"Whittier","area":null,"county":"Los Angeles County","state":"California","country":"us","formatted_address":"McDonalds, Whittier Boulevard, Friendly Hills, Whittier, Los Angeles County, California, 90603, United States of America","place_id":"156631322","datatype":"locationiq"},{"latitude":"33.49592","longitude":"-117.69342","name":"Trader Joe's","address":"USA-Laguna Niguel","street_number":"32105","street_name":"Golden Lantern Street","zip":"92677","city":"Laguna Niguel","area":null,"county":"Orange County","state":"California","country":"us","formatted_address":"32105, Golden Lantern Street, Laguna Niguel, Orange County, California, 92677, United States of America","place_id":"179215751","datatype":"locationiq"},{"latitude":"33.82326","longitude":"-117.83605","name":"Trader Joe's","address":"USA-Orange","street_number":null,"street_name":"East Meats Avenue","zip":"92865","city":"Orange","area":null,"county":"Orange County","state":"California","country":"us","formatted_address":"Starbucks, East Meats Avenue, Orange, Orange County, California, 92865, United States of America","place_id":"55563280","datatype":"locationiq"},{"latitude":"42.42518","longitude":"-71.18769","name":"Trader Joe's","address":"USA-Arlington","street_number":"1425","street_name":"Massachusetts Avenue","zip":"02476","city":null,"area":null,"county":"Middlesex County","state":"Massachusetts","country":"us","formatted_address":"Walgreens, 1425, Massachusetts Avenue, Arlington, Middlesex County, Massachusetts, 02476, United States of America","place_id":"79045377","datatype":"locationiq"},{"latitude":"37.82713","longitude":"-122.00826","name":"Trader Joe's","address":"USA-Danville","street_number":null,"street_name":"Danville Oak Place","zip":"94526","city":null,"area":null,"county":"Contra Costa County","state":"California","country":"us","formatted_address":"Danville Oak Place, Danville, Contra Costa County, California, 94526, United States of America","place_id":"63493998","datatype":"locationiq"},{"latitude":"34.13532","longitude":"-118.16634","name":"Trader Joe's","address":"USA-Pasadena","street_number":null,"street_name":"Arroyo Boulevard","zip":"91105","city":"Pasadena","area":null,"county":"Los Angeles County","state":"California","country":"us","formatted_address":"Arroyo Boulevard, Pasadena, Los Angeles County, California, 91105, United States of America","place_id":"81624345","datatype":"locationiq"},{"latitude":"38.67145","longitude":"-90.43572","name":"Trader Joe's","address":"USA-Creve Coeur","street_number":"11501","street_name":"Olive Boulevard","zip":"63141","city":"Creve Coeur","area":null,"county":"St. Louis County","state":"Missouri","country":"us","formatted_address":"Mattress Firm, 11501, Olive Boulevard, Creve Coeur, St. Louis County, Missouri, 63141, United States of America","place_id":"59347711","datatype":"locationiq"},{"latitude":"33.83198","longitude":"-118.18501","name":"Trader Joe's","address":"USA-Bixby Knolls","street_number":null,"street_name":"Atlantic Avenue","zip":"90807","city":"Long Beach","area":null,"county":"Los Angeles County","state":"California","country":"us","formatted_address":"corked, Atlantic Avenue, Bixby Knolls, Long Beach, Los Angeles County, California, 90807, United States of America","place_id":"136698962","datatype":"locationiq"},{"latitude":"40.00774","longitude":"-75.28741","name":"Trader Joe's","address":"USA-Ardmore","street_number":"78","street_name":"Coulter Avenue","zip":"19003","city":"Lower Merion Township","area":null,"county":"Montgomery County","state":"Pennsylvania","country":"us","formatted_address":"78, Coulter Avenue, Suburban Square, Wynnewood, Lower Merion Township, Montgomery County, Pennsylvania, 19003, United States of America","place_id":"202124406","datatype":"locationiq"},{"latitude":"33.79679","longitude":"-118.12517","name":"Trader Joe's","address":"USA-Long Beach","street_number":null,"street_name":"Bellflower Boulevard","zip":"90808","city":"Long Beach","area":null,"county":"Los Angeles County","state":"California","country":"us","formatted_address":"Chase, Bellflower Boulevard, Los Altos, Long Beach, Los Angeles County, California, 90808, United States of America","place_id":"139376497","datatype":"locationiq"},{"latitude":"34.14020","longitude":"-118.01176","name":"Trader Joe's","address":"USA-Monrovia","street_number":"598","street_name":"West Huntington Drive","zip":"91016","city":"Monrovia","area":null,"county":"Los Angeles County","state":"California","country":"us","formatted_address":"598, West Huntington Drive, Monrovia, Los Angeles County, California, 91016, United States of America","place_id":"178747457","datatype":"locationiq"},{"latitude":"36.83069","longitude":"-119.72972","name":"Trader Joe's","address":"USA-Clovis","street_number":null,"street_name":"North Willow Avenue","zip":"93740","city":"Fresno","area":null,"county":"Fresno County","state":"California","country":"us","formatted_address":"North Willow Avenue, Fresno, Fresno County, California, 93740, United States of America","place_id":"122409640","datatype":"locationiq"},{"latitude":"47.82184","longitude":"-122.31478","name":"Trader Joe's","address":"USA-Lynnwood","street_number":"19428","street_name":"Highway 99","zip":"98036","city":"Lynnwood","area":null,"county":"Snohomish County","state":"Washington","country":"us","formatted_address":"Shari's Restaurant & Pies, 19428, Highway 99, Lynnwood, Snohomish County, Washington, 98036, United States of America","place_id":"147088851","datatype":"locationiq"},{"latitude":"33.30498","longitude":"-111.99667","name":"Trader Joe's","address":"USA-Ahwatukee","street_number":"4041","street_name":"East Chandler Boulevard","zip":"85048","city":"Phoenix","area":null,"county":"Maricopa County","state":"Arizona","country":"us","formatted_address":"4041, East Chandler Boulevard, Ahwatukee, Phoenix, Maricopa County, Arizona, 85048, United States of America","place_id":"177122190","datatype":"locationiq"},{"latitude":"38.56075","longitude":"-121.44453","name":"Trader Joe's","address":"USA-Sacramento","street_number":"5000","street_name":"Folsom Boulevard","zip":"95819","city":"Sacramento","area":"Oak Park","county":"Sacramento County","state":"California","country":"us","formatted_address":"Trader Joe's, 5000, Folsom Boulevard, Oak Park, Sacramento, Sacramento County, California, 95819, United States of America","place_id":"128447726","datatype":"locationiq"},{"latitude":"42.27467","longitude":"-71.75132","name":"Trader Joe's","address":"USA-Shrewsbury","street_number":null,"street_name":"Boston Turnpike","zip":"01655","city":null,"area":null,"county":"Worcester County","state":"Massachusetts","country":"us","formatted_address":"Casual Male XL, Boston Turnpike, White City Plaza, Shrewsbury, Worcester County, Massachusetts, 01655, United States of America","place_id":"20648454","datatype":"locationiq"},{"latitude":"33.95609","longitude":"-117.38805","name":"Trader Joe's","address":"USA-Riverside","street_number":null,"street_name":"Sunnyside Drive","zip":"92506","city":"Riverside","area":null,"county":"Riverside County","state":"California","country":"us","formatted_address":"Pachappa Elementary School, Sunnyside Drive, Riverside, Riverside County, California, 92506, United States of America","place_id":"3563771","datatype":"locationiq"},{"latitude":"37.97968","longitude":"-122.05722","name":"Trader Joe's","address":"USA-Concord","street_number":null,"street_name":"Concord Avenue","zip":"94520","city":null,"area":null,"county":"Contra Costa County","state":"California","country":"us","formatted_address":"Concord Avenue, Pleasant Hill, Contra Costa County, California, 94520, United States of America","place_id":"141703527","datatype":"locationiq"},{"latitude":"34.17465","longitude":"-118.29949","name":"Trader Joe's","address":"USA-Burbank","street_number":"200","street_name":"Alameda Avenue","zip":"91502","city":"Burbank","area":null,"county":"Los Angeles County","state":"California","country":"us","formatted_address":"200, Alameda Avenue, Burbank, Los Angeles County, California, 91502, United States of America","place_id":"178697668","datatype":"locationiq"},{"latitude":"40.04923","longitude":"-82.91677","name":"Trader Joe's","address":"USA-Columbus","street_number":null,"street_name":"Townsfair Way","zip":"43219","city":"Columbus","area":null,"county":"Franklin County","state":"Ohio","country":"us","formatted_address":"Panera Bread, Townsfair Way, Easton Town Center, Columbus, Franklin County, Ohio, 43219, United States of America","place_id":"7362209","datatype":"locationiq"},{"latitude":"41.81068","longitude":"-87.95077","name":"Trader Joe's","address":"USA-Downers Grove","street_number":null,"street_name":"West Ogden Avenue","zip":"60559","city":null,"area":null,"county":"DuPage County","state":"Illinois","country":"us","formatted_address":"Mobil, West Ogden Avenue, Clarendon Hills, DuPage County, Illinois, 60559, United States of America","place_id":"55458186","datatype":"locationiq"},{"latitude":"34.15776","longitude":"-118.44067","name":"Trader Joe's","address":"USA-Sherman Oaks","street_number":null,"street_name":"Stansbury Avenue","zip":"91423","city":"Los Angeles","area":null,"county":"Los Angeles County","state":"California","country":"us","formatted_address":"Trader Joe's, Stansbury Avenue, Sherman Oaks, Los Angeles, Los Angeles County, California, 91423, United States of America","place_id":"162668332","datatype":"locationiq"},{"latitude":"33.45994","longitude":"-117.65315","name":"Trader Joe's","address":"USA-San Clemente","street_number":"616","street_name":"Camino de Los Mares","zip":"92624","city":"San Clemente","area":null,"county":"Orange County","state":"California","country":"us","formatted_address":"616, Camino de Los Mares, San Clemente, Orange County, California, 92624, United States of America","place_id":"51765291","datatype":"locationiq"},{"latitude":"36.14847","longitude":"-115.20792","name":"Trader Joe's","address":"USA-Las Vegas","street_number":"2174","street_name":"South Decatur Boulevard","zip":"89102","city":null,"area":null,"county":"Clark County","state":"Nevada","country":"us","formatted_address":"2174, South Decatur Boulevard, Flamingo Heights, Spring Valley, Clark County, Nevada, 89102, United States of America","place_id":"194973362","datatype":"locationiq"},{"latitude":"47.91017","longitude":"-122.22176","name":"Trader Joe's","address":"USA-Everett","street_number":null,"street_name":"Southeast Everett Mall Way","zip":"98208","city":"Everett","area":null,"county":"Snohomish County","state":"Washington","country":"us","formatted_address":"SE EVERETT MALL WAY and 7TH AVE SE, Southeast Everett Mall Way, Everett, Snohomish County, Washington, 98208, United States of America","place_id":"54603101","datatype":"locationiq"},{"latitude":"32.25054","longitude":"-110.89095","name":"Trader Joe's","address":"USA-Tucson","street_number":null,"street_name":"North Mountain View Avenue","zip":"85712","city":"Tucson","area":null,"county":"Pima County","state":"Arizona","country":"us","formatted_address":"Chipotle, North Mountain View Avenue, Tucson, Pima County, Arizona, 85712, United States of America","place_id":"123709677","datatype":"locationiq"},{"latitude":"34.19306","longitude":"-118.62355","name":"Trader Joe's","address":"USA-West Hills","street_number":null,"street_name":"Fallbrook Avenue","zip":"91307","city":"Los Angeles","area":null,"county":"Los Angeles County","state":"California","country":"us","formatted_address":"Red Lobster, Fallbrook Avenue, West Hills, Los Angeles, Los Angeles County, California, 91307, United States of America","place_id":"99628431","datatype":"locationiq"},{"latitude":"42.52833","longitude":"-83.35834","name":"Trader Joe's","address":"USA-Farmington Hills","street_number":null,"street_name":"Northwestern Highway","zip":"48334","city":"Farmington Hills","area":null,"county":"Oakland County","state":"Michigan","country":"us","formatted_address":"Northwestern Highway & 14 Mile, Northwestern Highway, Farmington Hills, Oakland County, Michigan, 48334, United States of America","place_id":"23474632","datatype":"locationiq"},{"latitude":"34.10717","longitude":"-118.27228","name":"Trader Joe's","address":"USA-Silverlake","street_number":"2729","street_name":"Hyperion Avenue","zip":"90027","city":"Los Angeles","area":"Silver Lake","county":"Los Angeles County","state":"California","country":"us","formatted_address":"2729, Hyperion Avenue, Silver Lake, Atwater, Los Angeles, Los Angeles County, California, 90027, United States of America","place_id":"178555507","datatype":"locationiq"},{"latitude":"42.34951","longitude":"-71.21937","name":"Trader Joe's","address":"USA-Newton","street_number":"1121","street_name":"Washington Street","zip":"02460","city":null,"area":null,"county":"Middlesex County","state":"Massachusetts","country":"us","formatted_address":"Trader Joe's, 1121, Washington Street, Nonantum, Newton, Middlesex County, Massachusetts, 02460, United States of America","place_id":"119535065","datatype":"locationiq"},{"latitude":"33.70588","longitude":"-117.78615","name":"Trader Joe's","address":"USA-Irvine","street_number":"14386","street_name":"Culver Drive","zip":"92604","city":"Irvine","area":null,"county":"Orange County","state":"California","country":"us","formatted_address":"14386, Culver Drive, El Camino Real, Irvine, Orange County, California, 92604, United States of America","place_id":"152883602","datatype":"locationiq"},{"latitude":"33.81771","longitude":"-118.38562","name":"Trader Joe's","address":"USA-Redondo Beach","street_number":null,"street_name":"Avenida del Norte","zip":"90277","city":"Redondo Beach","area":null,"county":"Los Angeles County","state":"California","country":"us","formatted_address":"Yogurtland, Avenida del Norte, Redondo Beach, Los Angeles County, California, 90277, United States of America","place_id":"54422951","datatype":"locationiq"},{"latitude":"33.63826","longitude":"-112.22459","name":"Trader Joe's","address":"USA-Glendale","street_number":null,"street_name":"North 77th Avenue","zip":"85382","city":null,"area":"Arrowhead Ranch Phase II","county":"Maricopa County","state":"Arizona","country":"us","formatted_address":"Burger King, North 77th Avenue, Arrowhead Ranch Phase II, Peacock Village, Maricopa County, Arizona, 85382, United States of America","place_id":"104700717","datatype":"locationiq"},{"latitude":"37.60418","longitude":"-122.39581","name":"Trader Joe's","address":"USA-Millbrae","street_number":"765","street_name":"Broadway","zip":"94030","city":"Millbrae","area":null,"county":"San Mateo County","state":"California","country":"us","formatted_address":"Trader Joe's, 765, Broadway, Millbrae, San Mateo County, California, 94030, United States of America","place_id":"3994466","datatype":"locationiq"},{"latitude":"38.81085","longitude":"-77.04474","name":"Trader Joe's","address":"USA-Alexandria","street_number":null,"street_name":"North Saint Asaph Street","zip":"22314","city":"Alexandria","area":"Jefferson Houston","county":"Alexandria City","state":"Virginia","country":"us","formatted_address":"Saint Asaph St and Pendleton  St, North Saint Asaph Street, Jefferson Houston, Alexandria, Alexandria City, Virginia, 22314, United States of America","place_id":"23070427","datatype":"locationiq"},{"latitude":"34.06021","longitude":"-117.18249","name":"Trader Joe's","address":"USA-Redlands","street_number":null,"street_name":"Orange Street","zip":"92373-4709","city":"Redlands","area":null,"county":"San Bernardino County","state":"California","country":"us","formatted_address":"Deming Building, Orange Street, Redlands, San Bernardino County, California, 92373-4709, United States of America","place_id":"97270047","datatype":"locationiq"},{"latitude":"38.47268","longitude":"-122.73080","name":"Trader Joe's","address":"USA-Santa Rosa","street_number":null,"street_name":"Redwood Highway","zip":"95403","city":"Santa Rosa","area":null,"county":"Sonoma County","state":"California","country":"us","formatted_address":"492, Redwood Highway, Santa Rosa, Sonoma County, California, 95403, United States of America","place_id":"246539","datatype":"locationiq"},{"latitude":"33.78826","longitude":"-116.48223","name":"Trader Joe's","address":"USA-Cathedral City","street_number":null,"street_name":"East Palm Canyon Drive","zip":"92234","city":null,"area":null,"county":"Riverside County","state":"California","country":"us","formatted_address":"Starbucks, East Palm Canyon Drive, Cathedral City, Riverside County, California, 92234, United States of America","place_id":"44566650","datatype":"locationiq"},{"latitude":"33.88722","longitude":"-118.38045","name":"Trader Joe's","address":"USA-Manhattan Beach","street_number":"1809","street_name":"Manhattan Beach Boulevard","zip":"90266","city":"Manhattan Beach","area":null,"county":"Los Angeles County","state":"California","country":"us","formatted_address":"WigSalon.Com, 1809, Manhattan Beach Boulevard, Manhattan Beach, Los Angeles County, California, 90266, United States of America","place_id":"29771605","datatype":"locationiq"},{"latitude":"39.19854","longitude":"-84.38109","name":"Trader Joe's","address":"USA-Cincinnati","street_number":null,"street_name":"Kenwood Road","zip":"45242","city":null,"area":null,"county":"Hamilton County","state":"Ohio","country":"us","formatted_address":"Kenwood Corner Building, Kenwood Road, Harewood Acres, Sycamore Township, Hamilton County, Ohio, 45242, United States of America","place_id":"79603860","datatype":"locationiq"},{"latitude":"37.33779","longitude":"-122.06822","name":"Trader Joe's","address":"USA-Los Altos","street_number":null,"street_name":"Homestead Road","zip":"95014-0116","city":"Los Altos","area":"Creston","county":"Santa Clara County","state":"California","country":"us","formatted_address":"Chevron, Homestead Road, Creston, Los Altos, Santa Clara County, California, 95014-0116, United States of America","place_id":"135744966","datatype":"locationiq"},{"latitude":"38.66960","longitude":"-121.15475","name":"Trader Joe's","address":"USA-Folsom","street_number":null,"street_name":"East Bidwell Street","zip":"95630","city":"Folsom","area":null,"county":"Sacramento County","state":"California","country":"us","formatted_address":"iHop, East Bidwell Street, Folsom, Sacramento County, California, 95630, United States of America","place_id":"116456023","datatype":"locationiq"},{"latitude":"42.54978","longitude":"-70.95436","name":"Trader Joe's","address":"USA-Peabody","street_number":"300","street_name":"Andover Street","zip":"01923","city":null,"area":null,"county":"Essex County","state":"Massachusetts","country":"us","formatted_address":"Outback Steackhouse, 300, Andover Street, Peabody, Essex County, Massachusetts, 01923, United States of America","place_id":"119270565","datatype":"locationiq"},{"latitude":"34.02006","longitude":"-118.42267","name":"Trader Joe's","address":"USA-West Los Angeles","street_number":null,"street_name":"Sepulveda Boulevard","zip":"90064","city":"Los Angeles","area":null,"county":"Los Angeles County","state":"California","country":"us","formatted_address":"CVS, Sepulveda Boulevard, Palms, Los Angeles, Los Angeles County, California, 90064, United States of America","place_id":"23503393","datatype":"locationiq"},{"latitude":"32.35029","longitude":"-110.97495","name":"Trader Joe's","address":"USA-Tucson","street_number":null,"street_name":"North Oracle Road","zip":"85704","city":null,"area":null,"county":"Pima County","state":"Arizona","country":"us","formatted_address":"Panda Express, North Oracle Road, Casas Adobes, Oro Valley, Pima County, Arizona, 85704, United States of America","place_id":"173337577","datatype":"locationiq"},{"latitude":"41.94955","longitude":"-87.67569","name":"Trader Joe's","address":"USA-Chicago","street_number":"3727-3741","street_name":"North Wolcott Avenue","zip":"60613","city":"Chicago","area":"Cuyler","county":"Cook County","state":"Illinois","country":"us","formatted_address":"3727-3741, North Wolcott Avenue, Cuyler, Uptown, Chicago, Cook County, Illinois, 60613, United States of America","place_id":"117972481","datatype":"locationiq"},{"latitude":"40.84037","longitude":"-73.31317","name":"Trader Joe's","address":"USA-Commack","street_number":"5002","street_name":"Jericho Turnpike","zip":"11725","city":null,"area":null,"county":"Suffolk County","state":"New York","country":"us","formatted_address":"5002, Jericho Turnpike, Commack, Suffolk County, New York, 11725, United States of America","place_id":"196902733","datatype":"locationiq"},{"latitude":"39.03096","longitude":"-77.00457","name":"Trader Joe's","address":"USA-Silver Spring","street_number":null,"street_name":"Columbia Pike","zip":"20901","city":null,"area":"Burnt Mills Hills","county":"Montgomery County","state":"Maryland","country":"us","formatted_address":"BP, Columbia Pike, Burnt Mills Hills, White Oak, Montgomery County, Maryland, 20901, United States of America","place_id":"5348012","datatype":"locationiq"},{"latitude":"40.62764","longitude":"-73.64099","name":"Trader Joe's","address":"USA-Oceanside","street_number":"43","street_name":"Alhambra Drive","zip":"11572","city":null,"area":null,"county":"Nassau","state":"New York","country":"us","formatted_address":"43, Alhambra Drive, Oceanside, Nassau, New York, 11572, United States of America","place_id":"196491861","datatype":"locationiq"},{"latitude":"39.76083","longitude":"-121.84590","name":"Trader Joe's","address":"USA-Chico","street_number":"814","street_name":"East Avenue","zip":"95926","city":"Chico","area":null,"county":"Butte County","state":"California","country":"us","formatted_address":"814, East Avenue, Chico, Butte County, California, 95926, United States of America","place_id":"178181524","datatype":"locationiq"},{"latitude":"38.90416","longitude":"-77.20414","name":"Trader Joe's","address":"USA-Falls Church","street_number":"7514","street_name":"Peach Orchard Drive","zip":"22043","city":null,"area":"Southampton Forest","county":"Fairfax County","state":"Virginia","country":"us","formatted_address":"Trader Joe's, 7514, Peach Orchard Drive, Southampton Forest, Pimmit Hills, Fairfax County, Virginia, 22043, United States of America","place_id":"19643805","datatype":"locationiq"},{"latitude":"37.70004","longitude":"-121.86991","name":"Trader Joe's","address":"USA-Pleasanton","street_number":null,"street_name":"Pimlico Drive","zip":"94568","city":null,"area":null,"county":"Alameda County","state":"California","country":"us","formatted_address":"9458800018, Pimlico Drive, Pleasanton, Alameda County, California, 94568, United States of America","place_id":"56007564","datatype":"locationiq"},{"latitude":"34.14316","longitude":"-118.39223","name":"Trader Joe's","address":"USA-Studio City","street_number":null,"street_name":"Ventura Boulevard","zip":"91604","city":"Los Angeles","area":"Studio City","county":"Los Angeles County","state":"California","country":"us","formatted_address":"Teru Sushi, Ventura Boulevard, Studio City, Valley Village, Los Angeles, Los Angeles County, California, 91604, United States of America","place_id":"10769109","datatype":"locationiq"},{"latitude":"41.85938","longitude":"-88.05717","name":"Trader Joe's","address":"USA-Glen Ellyn","street_number":null,"street_name":"East Roosevelt Road","zip":"60137","city":null,"area":null,"county":"DuPage County","state":"Illinois","country":"us","formatted_address":"East Roosevelt Road, Glen Ellyn, DuPage County, Illinois, 60137, United States of America","place_id":"135732669","datatype":"locationiq"},{"latitude":"41.61934","longitude":"-87.85346","name":"Trader Joe's","address":"USA-Orland Park","street_number":"14909","street_name":"South La Grange Road","zip":"60462","city":null,"area":null,"county":"Cook County","state":"Illinois","country":"us","formatted_address":"14909, South La Grange Road, Palos Park, Cook County, Illinois, 60462, United States of America","place_id":"184921647","datatype":"locationiq"},{"latitude":"41.81676","longitude":"-87.86971","name":"Trader Joe's","address":"USA-La Grange","street_number":null,"street_name":"East Hillgrove Avenue","zip":"60525","city":null,"area":null,"county":"Cook County","state":"Illinois","country":"us","formatted_address":"Smash Burger, East Hillgrove Avenue, La Grange, Cook County, Illinois, 60525, United States of America","place_id":"148015048","datatype":"locationiq"},{"latitude":"34.41926","longitude":"-118.54556","name":"Trader Joe's","address":"USA-Valencia","street_number":null,"street_name":"Academy Place","zip":"91355","city":"Santa Clarita","area":null,"county":"Los Angeles County","state":"California","country":"us","formatted_address":"Academy Place, Valencia, Santa Clarita, Los Angeles County, California, 91355, United States of America","place_id":"67311421","datatype":"locationiq"},{"latitude":"37.68508","longitude":"-122.07370","name":"Trader Joe's","address":"USA-Castro Valley","street_number":null,"street_name":"Redwood Road","zip":"94546","city":null,"area":null,"county":"Alameda County","state":"California","country":"us","formatted_address":"Trader Joe's, Redwood Road, Castro Valley, Alameda County, California, 94546, United States of America","place_id":"113142089","datatype":"locationiq"},{"latitude":"40.99261","longitude":"-74.03589","name":"Trader Joe's","address":"USA-Westwood","street_number":null,"street_name":"Madison Avenue","zip":"07675","city":"Westwood","area":null,"county":"Bergen County","state":"New Jersey","country":"us","formatted_address":"Trader Joe's, Madison Avenue, Westwood, Bergen County, New Jersey, 07675, United States of America","place_id":"15089436","datatype":"locationiq"},{"latitude":"37.77065","longitude":"-122.40771","name":"Trader Joe's","address":"USA-San Francisco","street_number":null,"street_name":"9th Street","zip":"94103","city":"San Francisco","area":"West SoMa","county":"San Francisco City and County","state":"California","country":"us","formatted_address":"Arkitectura In-Situ, 9th Street, West SoMa, San Francisco, San Francisco City and County, California, 94103, United States of America","place_id":"135444744","datatype":"locationiq"},{"latitude":"37.89919","longitude":"-122.30176","name":"Trader Joe's","address":"USA-El Cerrito","street_number":"7000","street_name":"San Pablo Avenue","zip":"94530","city":null,"area":null,"county":"Contra Costa County","state":"California","country":"us","formatted_address":"Daiso, 7000, San Pablo Avenue, El Cerrito, Contra Costa County, California, 94530, United States of America","place_id":"17485461","datatype":"locationiq"},{"latitude":"37.29177","longitude":"-121.99450","name":"Trader Joe's","address":"USA-San Jose","street_number":"18488","street_name":"Prospect Road","zip":"95070","city":"Saratoga","area":null,"county":"Santa Clara County","state":"California","country":"us","formatted_address":"Environmental Consulting Services, 18488, Prospect Road, Saratoga, Santa Clara County, California, 95070, United States of America","place_id":"56408040","datatype":"locationiq"},{"latitude":"34.14684","longitude":"-118.24710","name":"Trader Joe's","address":"USA-Glendale","street_number":null,"street_name":"Glendale Avenue","zip":"91205","city":"Glendale","area":null,"county":"Los Angeles County","state":"California","country":"us","formatted_address":"Dollar Tree, Glendale Avenue, Glendale, Los Angeles County, California, 91205, United States of America","place_id":"169754102","datatype":"locationiq"},{"latitude":"38.61806","longitude":"-121.40041","name":"Trader Joe's","address":"USA-Sacramento","street_number":null,"street_name":"Marconi Avenue","zip":"95821","city":null,"area":"Ben Ali","county":"Sacramento County","state":"California","country":"us","formatted_address":"Town and Country Village, Marconi Avenue, Ben Ali, Del Paso Heights, Sacramento County, California, 95821, United States of America","place_id":"335811","datatype":"locationiq"},{"latitude":"38.60094","longitude":"-90.46813","name":"Trader Joe's","address":"USA-Des Peres","street_number":null,"street_name":"Manchester Road","zip":"63011","city":"Des Peres","area":null,"county":"St. Louis County","state":"Missouri","country":"us","formatted_address":"Manchester Road, Des Peres, St. Louis County, Missouri, 63011, United States of America","place_id":"111689932","datatype":"locationiq"},{"latitude":"34.06978","longitude":"-118.34409","name":"Trader Joe's","address":"USA-Los Angeles","street_number":null,"street_name":"West 3rd Street","zip":"90036-2829","city":"Los Angeles","area":"Park La Brea","county":"Los Angeles County","state":"California","country":"us","formatted_address":"Trader Joe's, West 3rd Street, Park La Brea, Hollywood, Los Angeles, Los Angeles County, California, 90036-2829, United States of America","place_id":"9955825","datatype":"locationiq"},{"latitude":"34.25793","longitude":"-119.21097","name":"Trader Joe's","address":"USA-Ventura","street_number":"1717","street_name":"South Victoria Avenue","zip":"93009","city":"Ventura","area":null,"county":"Ventura County","state":"California","country":"us","formatted_address":"1717, South Victoria Avenue, Ventura, Ventura County, California, 93009, United States of America","place_id":"5668778","datatype":"locationiq"},{"latitude":"33.04658","longitude":"-117.25962","name":"Trader Joe's","address":"USA-Encinitas","street_number":null,"street_name":"Encinitas Boulevard","zip":"92024","city":"Encinitas","area":null,"county":"San Diego County","state":"California","country":"us","formatted_address":"Bank of America, Encinitas Boulevard, Encinitas, San Diego County, California, 92024, United States of America","place_id":"46748568","datatype":"locationiq"},{"latitude":"42.43736","longitude":"-83.43551","name":"Trader Joe's","address":"USA-Northville","street_number":"20580","street_name":"Haggerty Road","zip":"48167","city":null,"area":null,"county":"Wayne County","state":"Michigan","country":"us","formatted_address":"Vitamin Shoppe, 20580, Haggerty Road, Northville Township, Wayne County, Michigan, 48167, United States of America","place_id":"56700937","datatype":"locationiq"},{"latitude":"40.10823","longitude":"-75.12312","name":"Trader Joe's","address":"USA-Jenkintown","street_number":null,"street_name":"Hidden Lane","zip":"19001","city":"Abington Township","area":null,"county":"Montgomery County","state":"Pennsylvania","country":"us","formatted_address":"Raymour and Flanigan, Hidden Lane, Abington Township, Montgomery County, Pennsylvania, 19001, United States of America","place_id":"28748400","datatype":"locationiq"},{"latitude":"38.25008","longitude":"-122.62737","name":"Trader Joe's","address":"USA-Petaluma","street_number":null,"street_name":"North McDowell Boulevard","zip":"94954","city":"Petaluma","area":"East Petaluma","county":"Sonoma County","state":"California","country":"us","formatted_address":"McDonald's, North McDowell Boulevard, East Petaluma, Petaluma, Sonoma County, California, 94954, United States of America","place_id":"144195946","datatype":"locationiq"},{"latitude":"47.46036","longitude":"-122.33370","name":"Trader Joe's","address":"USA-Burien","street_number":null,"street_name":"1st Avenue South","zip":"98148","city":"Burien","area":null,"county":"King County","state":"Washington","country":"us","formatted_address":"Panda Express, 1st Avenue South, Burien, King County, Washington, 98148, United States of America","place_id":"109409897","datatype":"locationiq"},{"latitude":"37.28940","longitude":"-121.93185","name":"Trader Joe's","address":"USA-Campbell","street_number":"1875","street_name":"South Bascom Avenue","zip":"95008","city":"Campbell","area":null,"county":"Santa Clara County","state":"California","country":"us","formatted_address":"Pacific Catch, 1875, South Bascom Avenue, Campbell, Santa Clara County, California, 95008, United States of America","place_id":"58576674","datatype":"locationiq"},{"latitude":"42.15409","longitude":"-88.33580","name":"Trader Joe's","address":"USA-Algonquin","street_number":null,"street_name":"North County Line Road","zip":"60102","city":null,"area":null,"county":"Kane County","state":"Illinois","country":"us","formatted_address":"Vitamin Shoppe, North County Line Road, Algonquin, Kane County, Illinois, 60102, United States of America","place_id":"47059181","datatype":"locationiq"},{"latitude":"38.96723","longitude":"-77.35948","name":"Trader Joe's","address":"USA-Reston","street_number":null,"street_name":"Hampton Avenue North","zip":"20194","city":null,"area":"Lake Anne Village","county":"Fairfax County","state":"Virginia","country":"us","formatted_address":"TD Bank, Hampton Avenue North, Lake Anne Village, Reston, Fairfax County, Virginia, 20194, United States of America","place_id":"86351119","datatype":"locationiq"},{"latitude":"39.91770","longitude":"-75.38889","name":"Trader Joe's","address":"USA-Media","street_number":"12","street_name":"East State Street","zip":"19063","city":"Media","area":null,"county":"Delaware County","state":"Pennsylvania","country":"us","formatted_address":"Trader Joe's, 12, East State Street, Media, Delaware County, Pennsylvania, 19063, United States of America","place_id":"20666360","datatype":"locationiq"},{"latitude":"40.97124","longitude":"-73.80590","name":"Trader Joe's","address":"USA-Scarsdale","street_number":"725","street_name":"Post White Plains Road","zip":"10583","city":null,"area":null,"county":"Westchester County","state":"New York","country":"us","formatted_address":"725, Post White Plains Road, Eastchester, Town of Eastchester, Westchester County, New York, 10583, United States of America","place_id":"197122487","datatype":"locationiq"},{"latitude":"34.09082","longitude":"-118.34903","name":"Trader Joe's","address":"USA-West Hollywood","street_number":"1100","street_name":"Greenacre Avenue","zip":"90046","city":"West Hollywood","area":null,"county":"Los Angeles County","state":"California","country":"us","formatted_address":"1100, Greenacre Avenue, West Hollywood, Los Angeles County, California, 90046, United States of America","place_id":"178802010","datatype":"locationiq"},{"latitude":"36.60635","longitude":"-121.92141","name":"Trader Joe's","address":"USA-Pacific Grove","street_number":"1155","street_name":"Forest Avenue","zip":"93950","city":"Pacific Grove","area":null,"county":"Monterey County","state":"California","country":"us","formatted_address":"1155, Forest Avenue, Pacific Grove, Monterey County, California, 93950, United States of America","place_id":"179065963","datatype":"locationiq"},{"latitude":"33.85258","longitude":"-118.35380","name":"Trader Joe's","address":"USA-Torrance","street_number":"19720","street_name":"Hawthorne Boulevard","zip":"90503","city":"Torrance","area":null,"county":"Los Angeles County","state":"California","country":"us","formatted_address":"Trader Joe's, 19720, Hawthorne Boulevard, La Fresa, Torrance, Los Angeles County, California, 90503, United States of America","place_id":"146499967","datatype":"locationiq"},{"latitude":"42.29224","longitude":"-71.23503","name":"Trader Joe's","address":"USA-Needham","street_number":"968","street_name":"Highland Avenue","zip":"02494","city":null,"area":null,"county":"Norfolk County","state":"Massachusetts","country":"us","formatted_address":"Citizens Bank, 968, Highland Avenue, Needham, Norfolk County, Massachusetts, 02494, United States of America","place_id":"119217467","datatype":"locationiq"},{"latitude":"38.74398","longitude":"-121.27449","name":"Trader Joe's","address":"USA-Roseville","street_number":"1120","street_name":"Douglas Boulevard","zip":"95661","city":"Roseville","area":null,"county":"Placer County","state":"California","country":"us","formatted_address":"1120, Douglas Boulevard, Roseville, Placer County, California, 95661, United States of America","place_id":"15454459","datatype":"locationiq"},{"latitude":"42.19749","longitude":"-88.08019","name":"Trader Joe's","address":"USA-Lake Zurich","street_number":null,"street_name":"Main Street","zip":"60047","city":null,"area":null,"county":"Lake County","state":"Illinois","country":"us","formatted_address":"Main Street, Lake Zurich, Lake County, Illinois, 60047, United States of America","place_id":"81791050","datatype":"locationiq"},{"latitude":"34.22050","longitude":"-119.05072","name":"Trader Joe's","address":"USA-Camarillo","street_number":"346","street_name":"North Carmen Drive","zip":"93010","city":"Camarillo","area":null,"county":"Ventura County","state":"California","country":"us","formatted_address":"346, North Carmen Drive, Camarillo, Ventura County, California, 93010, United States of America","place_id":"180506001","datatype":"locationiq"},{"latitude":"47.66227","longitude":"-122.31771","name":"Trader Joe's","address":"USA-Seattle","street_number":"4547","street_name":"Roosevelt Way Northeast","zip":"98105","city":"Seattle","area":"Portage Bay","county":"King County","state":"Washington","country":"us","formatted_address":"4547, Roosevelt Way Northeast, Portage Bay, University District, Seattle, King County, Washington, 98105, United States of America","place_id":"24138856","datatype":"locationiq"},{"latitude":"34.02484","longitude":"-118.39332","name":"Trader Joe's","address":"USA-Culver City","street_number":null,"street_name":"Culver Boulevard","zip":"90293","city":null,"area":null,"county":"Los Angeles County","state":"California","country":"us","formatted_address":"Kay 'n Dave's, Culver Boulevard, Culver City, Los Angeles County, California, 90293, United States of America","place_id":"18922738","datatype":"locationiq"},{"latitude":"37.97064","longitude":"-122.51698","name":"Trader Joe's","address":"USA-San Rafael","street_number":null,"street_name":"4th Street","zip":"94901","city":"San Rafael","area":null,"county":"Marin County","state":"California","country":"us","formatted_address":"Whole Foods, 4th Street, San Rafael, Marin County, California, 94901, United States of America","place_id":"85320073","datatype":"locationiq"},{"latitude":"38.78169","longitude":"-77.18915","name":"Trader Joe's","address":"USA-Springfield","street_number":null,"street_name":"Commerce Street","zip":"22150","city":null,"area":"Beverly Forest","county":"Fairfax County","state":"Virginia","country":"us","formatted_address":"Springfield Plaza, Commerce Street, Beverly Forest, Springfield, Fairfax County, Virginia, 22150, United States of America","place_id":"121691909","datatype":"locationiq"},{"latitude":"34.11583","longitude":"-118.16351","name":"Trader Joe's","address":"USA-South Pasadena","street_number":"601","street_name":"Mission Street","zip":"91030","city":null,"area":null,"county":"Los Angeles County","state":"California","country":"us","formatted_address":"601, Mission Street, South Pasadena, Los Angeles County, California, 91030, United States of America","place_id":"169708316","datatype":"locationiq"},{"latitude":"40.78874","longitude":"-74.39356","name":"Trader Joe's","address":"USA-Florham Park","street_number":null,"street_name":"James Street","zip":"07932","city":"Florham Park","area":null,"county":"Morris County","state":"New Jersey","country":"us","formatted_address":"Starbucks, James Street, Florham Park, Morris County, New Jersey, 07932, United States of America","place_id":"61354984","datatype":"locationiq"},{"latitude":"38.83895","longitude":"-77.43508","name":"Trader Joe's","address":"USA-Centreville","street_number":"5881","street_name":"Post Corners Trail","zip":"20120","city":null,"area":"Sequoia Farms","county":"Fairfax County","state":"Virginia","country":"us","formatted_address":"5881, Post Corners Trail, Sequoia Farms, Centreville, Fairfax County, Virginia, 20120, United States of America","place_id":"207404038","datatype":"locationiq"},{"latitude":"41.25236","longitude":"-73.01915","name":"Trader Joe's","address":"USA-Orange","street_number":"549","street_name":"Boston Post Road","zip":"06477","city":null,"area":null,"county":"New Haven County","state":"Connecticut","country":"us","formatted_address":"Bassett Home Furnishings, 549, Boston Post Road, Orange, New Haven County, Connecticut, 06477, United States of America","place_id":"117658039","datatype":"locationiq"},{"latitude":"42.49504","longitude":"-83.16374","name":"Trader Joe's","address":"USA-Royal Oak","street_number":"27783","street_name":"North Woodward Avenue","zip":"48067","city":"Royal Oak","area":null,"county":"Oakland County","state":"Michigan","country":"us","formatted_address":"27783, North Woodward Avenue, Royal Oak, Oakland County, Michigan, 48067, United States of America","place_id":"191354916","datatype":"locationiq"},{"latitude":"37.25321","longitude":"-121.87552","name":"Trader Joe's","address":"USA-San Jose","street_number":null,"street_name":"Almaden Expressway","zip":"95150","city":"San Jos\u00e9","area":null,"county":"Santa Clara County","state":"California","country":"us","formatted_address":"Almaden Expressway, Almaden, San Jos\u00e9, Santa Clara County, California, 95150, United States of America","place_id":"156284131","datatype":"locationiq"},{"latitude":"32.79822","longitude":"-117.24800","name":"Trader Joe's","address":"USA-Pacific Beach","street_number":null,"street_name":"Everts Street","zip":"92109","city":"San Diego","area":null,"county":"San Diego County","state":"California","country":"us","formatted_address":"PB Sushi, Everts Street, Pacific Beach, San Diego, San Diego County, California, 92109, United States of America","place_id":"4539278","datatype":"locationiq"},{"latitude":"41.02492","longitude":"-73.79258","name":"Trader Joe's","address":"USA-Hartsdale","street_number":null,"street_name":"North Central Avenue","zip":"10530","city":null,"area":null,"county":"Westchester County","state":"New York","country":"us","formatted_address":"North Central Avenue, Hartsdale, Town of Greenburgh, Westchester County, New York, 10530, United States of America","place_id":"73234601","datatype":"locationiq"},{"latitude":"33.10051","longitude":"-117.07355","name":"Trader Joe's","address":"USA-Escondido","street_number":"476","street_name":"West Vermont Avenue","zip":"92025","city":"Escondido","area":null,"county":"San Diego County","state":"California","country":"us","formatted_address":"476, West Vermont Avenue, Escondido, San Diego County, California, 92025, United States of America","place_id":"5694666","datatype":"locationiq"},{"latitude":"34.23307","longitude":"-118.25398","name":"Trader Joe's","address":"USA-La Crescenta","street_number":null,"street_name":"Foothill Boulevard","zip":"91214","city":"Glendale","area":null,"county":"Los Angeles County","state":"California","country":"us","formatted_address":"Dollar King, Foothill Boulevard, Glendale, Los Angeles County, California, 91214, United States of America","place_id":"49573448","datatype":"locationiq"},{"latitude":"36.81496","longitude":"-119.79020","name":"Trader Joe's","address":"USA-Fresno","street_number":"5366","street_name":"North Blackstone Avenue","zip":"93710","city":"Fresno","area":null,"county":"Fresno County","state":"California","country":"us","formatted_address":"5366, North Blackstone Avenue, Fresno, Fresno County, California, 93710, United States of America","place_id":"178375169","datatype":"locationiq"},{"latitude":"37.89101","longitude":"-122.12749","name":"Trader Joe's","address":"USA-Lafayette","street_number":"3642","street_name":"Mount Diablo Boulevard","zip":"94549","city":null,"area":null,"county":"Contra Costa County","state":"California","country":"us","formatted_address":"3642, Mount Diablo Boulevard, Lafayette, Contra Costa County, California, 94549, United States of America","place_id":"178282444","datatype":"locationiq"},{"latitude":"37.78597","longitude":"-122.44688","name":"Trader Joe's","address":"USA-San Francisco","street_number":null,"street_name":"Presidio Avenue","zip":"94115","city":"San Francisco","area":"Anza Vista","county":"San Francisco City and County","state":"California","country":"us","formatted_address":"San Francisco Fire Department Pioneer Museum, Presidio Avenue, Anza Vista, San Francisco, San Francisco City and County, California, 94115, United States of America","place_id":"78450062","datatype":"locationiq"},{"latitude":"35.12671","longitude":"-120.59577","name":"Trader Joe's","address":"USA-Arroyo Grande","street_number":"924","street_name":"Rancho Parkway","zip":"93420","city":"Arroyo Grande","area":null,"county":"San Luis Obispo County","state":"California","country":"us","formatted_address":"Starbucks, 924, Rancho Parkway, Arroyo Grande, San Luis Obispo County, California, 93420, United States of America","place_id":"106510308","datatype":"locationiq"},{"latitude":"37.80547","longitude":"-122.41377","name":"Trader Joe's","address":"USA-San Francisco","street_number":"401","street_name":"Bay Street","zip":"94133","city":"San Francisco","area":"Russian Hill","county":"San Francisco City and County","state":"California","country":"us","formatted_address":"Trader Joe's, 401, Bay Street, Russian Hill, San Francisco, San Francisco City and County, California, 94133, United States of America","place_id":"22266222","datatype":"locationiq"},{"latitude":"38.62780","longitude":"-90.34133","name":"Trader Joe's","address":"USA-Brentwood","street_number":null,"street_name":"Brentwood Promenade Court","zip":"63117","city":"Brentwood","area":null,"county":"St. Louis County","state":"Missouri","country":"us","formatted_address":"Cost Plus World Market, Brentwood Promenade Court, Brentwood, St. Louis County, Missouri, 63117, United States of America","place_id":"131247580","datatype":"locationiq"},{"latitude":"40.96071","longitude":"-74.24163","name":"Trader Joe's","address":"USA-Wayne","street_number":null,"street_name":"Paterson-Hamburg Turnpike","zip":"07470","city":"Wayne","area":null,"county":"Passaic County","state":"New Jersey","country":"us","formatted_address":"Berdan Shopping Center, Paterson-Hamburg Turnpike, Wayne, Passaic County, New Jersey, 07470, United States of America","place_id":"132474189","datatype":"locationiq"},{"latitude":"41.66707","longitude":"-70.29187","name":"Trader Joe's","address":"USA-Hyannis","street_number":null,"street_name":"Barnstable Road","zip":"02601","city":null,"area":null,"county":"Barnstable County","state":"Massachusetts","country":"us","formatted_address":"McDonalds, Barnstable Road, Barnstable, Barnstable County, Massachusetts, 02601, United States of America","place_id":"118926903","datatype":"locationiq"},{"latitude":"34.44119","longitude":"-119.82404","name":"Trader Joe's","address":"USA-Goleta","street_number":null,"street_name":"Calle Real","zip":"93111","city":null,"area":null,"county":"Santa Barbara County","state":"California","country":"us","formatted_address":"Calle Real Center, Calle Real, Goleta, Santa Barbara County, California, 93111, United States of America","place_id":"9777147","datatype":"locationiq"},{"latitude":"42.29818","longitude":"-71.42343","name":"Trader Joe's","address":"USA-Framingham","street_number":"653","street_name":"Worcester Road","zip":"01702","city":null,"area":null,"county":"Middlesex County","state":"Massachusetts","country":"us","formatted_address":"Walgreens, 653, Worcester Road, Framingham, Middlesex County, Massachusetts, 01702, United States of America","place_id":"52425068","datatype":"locationiq"},{"latitude":"38.32192","longitude":"-122.30727","name":"Trader Joe's","address":"USA-Napa","street_number":null,"street_name":"Trancas Street","zip":"94558","city":"Napa","area":null,"county":"Napa County","state":"California","country":"us","formatted_address":"First Republic Bank, Trancas Street, Napa, Napa County, California, 94558, United States of America","place_id":"57726741","datatype":"locationiq"},{"latitude":"47.61579","longitude":"-122.31012","name":"Trader Joe's","address":"USA-Seattle","street_number":null,"street_name":"17th Avenue","zip":"98122","city":"Seattle","area":null,"county":"King County","state":"Washington","country":"us","formatted_address":"SDOT, 17th Avenue, Capitol Hill, Seattle, King County, Washington, 98122, United States of America","place_id":"19012736","datatype":"locationiq"},{"latitude":"42.47858","longitude":"-70.90760","name":"Trader Joe's","address":"USA-Swampscott","street_number":null,"street_name":"Paradise Road","zip":"01907-1907","city":null,"area":null,"county":"Essex County","state":"Massachusetts","country":"us","formatted_address":"Paradise Rd @ Longwood Dr, Paradise Road, Swampscott, Essex County, Massachusetts, 01907-1907, United States of America","place_id":"16519607","datatype":"locationiq"},{"latitude":"45.61942","longitude":"-122.55462","name":"Trader Joe's","address":"USA-Vancouver","street_number":null,"street_name":"Southeast 3rd Street","zip":"98683-5227","city":"Vancouver","area":null,"county":"Clark County","state":"Washington","country":"us","formatted_address":"GoHealth Urgent Care, Southeast 3rd Street, Cascade Park Plaza, Ellsworth, Vancouver, Clark County, Washington, 98683-5227, United States of America","place_id":"52143310","datatype":"locationiq"},{"latitude":"35.24461","longitude":"-120.67503","name":"Trader Joe's","address":"USA-San Luis Obispo","street_number":"83","street_name":"Chuparrosa Drive","zip":"93405","city":"San Luis Obispo","area":null,"county":"San Luis Obispo County","state":"California","country":"us","formatted_address":"83, Chuparrosa Drive, San Luis Obispo, San Luis Obispo County, California, 93405, United States of America","place_id":"81006563","datatype":"locationiq"},{"latitude":"34.27903","longitude":"-118.73821","name":"Trader Joe's","address":"USA-Simi Valley","street_number":null,"street_name":"Cochran Street","zip":"93063","city":"Simi Valley","area":"Greek Track","county":"Ventura County","state":"California","country":"us","formatted_address":"Burger King, Cochran Street, Greek Track, Simi Valley, Ventura County, California, 93063, United States of America","place_id":"18834237","datatype":"locationiq"},{"latitude":"39.40177","longitude":"-76.60187","name":"Trader Joe's","address":"USA-Towson","street_number":"1","street_name":"East Joppa Road","zip":"21204","city":"Towson","area":"East Towson","county":"Baltimore County","state":"Maryland","country":"us","formatted_address":"Towson Circle, 1, East Joppa Road, East Towson, Towson, Baltimore County, Maryland, 21204, United States of America","place_id":"77966677","datatype":"locationiq"},{"latitude":"42.68081","longitude":"-83.19449","name":"Trader Joe's","address":"USA-Rochester Hills","street_number":null,"street_name":"East Walton Boulevard","zip":"48306:48309","city":"Rochester Hills","area":null,"county":"Oakland County","state":"Michigan","country":"us","formatted_address":"East Walton Boulevard, Rochester Hills, Oakland County, Michigan, 48306:48309, United States of America","place_id":"164767780","datatype":"locationiq"},{"latitude":"45.41377","longitude":"-122.74310","name":"Trader Joe's","address":"USA-Lake Oswego","street_number":"15391","street_name":"Bangy Road","zip":"97035","city":"Lake Oswego","area":null,"county":"Clackamas County","state":"Oregon","country":"us","formatted_address":"Trader Joe's, 15391, Bangy Road, Cook, Lake Oswego, Clackamas County, Oregon, 97035, United States of America","place_id":"136747051","datatype":"locationiq"},{"latitude":"34.14016","longitude":"-118.13242","name":"Trader Joe's","address":"USA-Pasadena","street_number":"345","street_name":"South Lake Avenue","zip":"91101","city":"Pasadena","area":"Madison Heights","county":"Los Angeles County","state":"California","country":"us","formatted_address":"Trader Joe's, 345, South Lake Avenue, Madison Heights, Pasadena, Los Angeles County, California, 91101, United States of America","place_id":"77478705","datatype":"locationiq"},{"latitude":"33.36308","longitude":"-111.91130","name":"Trader Joe's","address":"USA-Tempe","street_number":"6404","street_name":"South McClintock Drive","zip":"85283","city":null,"area":null,"county":"Maricopa County","state":"Arizona","country":"us","formatted_address":"Walgreens, 6404, South McClintock Drive, The Landings, Maricopa County, Arizona, 85283, United States of America","place_id":"173286091","datatype":"locationiq"},{"latitude":"32.98251","longitude":"-117.07658","name":"Trader Joe's","address":"USA-Carmel Mountain","street_number":"11995","street_name":"Carmel Mountain Road","zip":"92128","city":"San Diego","area":null,"county":"San Diego County","state":"California","country":"us","formatted_address":"Chase, 11995, Carmel Mountain Road, Rancho Bernardo, San Diego, San Diego County, California, 92128, United States of America","place_id":"76747371","datatype":"locationiq"},{"latitude":"37.68777","longitude":"-121.05349","name":"Trader Joe's","address":"USA-Modesto","street_number":null,"street_name":"Sisk Road","zip":"95368","city":"Modesto","area":null,"county":"Stanislaus County","state":"California","country":"us","formatted_address":"Sisk Road, Modesto, Stanislaus County, California, 95368, United States of America","place_id":"65058320","datatype":"locationiq"},{"latitude":"38.84130","longitude":"-77.27117","name":"Trader Joe's","address":"USA-Fairfax","street_number":null,"street_name":"Pickett Road","zip":"22030","city":"Fairfax","area":null,"county":"Fairfax County","state":"Virginia","country":"us","formatted_address":"Einstein Brothers Bagels, Pickett Road, Fairfax, Fairfax County, Virginia, 22030, United States of America","place_id":"9679003","datatype":"locationiq"},{"latitude":"41.08513","longitude":"-73.46180","name":"Trader Joe's","address":"USA-Darien","street_number":null,"street_name":"Post Road","zip":"06820","city":null,"area":"Boston Post Road Historic District","county":"Fairfield County","state":"Connecticut","country":"us","formatted_address":"Bates Scofield House, Post Road, Boston Post Road Historic District, Darien, Fairfield County, Connecticut, 06820, United States of America","place_id":"3775764","datatype":"locationiq"},{"latitude":"45.53612","longitude":"-122.61953","name":"Trader Joe's","address":"USA-Portland","street_number":"1815","street_name":"Northeast 43rd Avenue","zip":"97213","city":"Portland","area":null,"county":"Multnomah County","state":"Oregon","country":"us","formatted_address":"Dollar Tree, 1815, Northeast 43rd Avenue, Hollywood, Portland, Multnomah County, Oregon, 97213, United States of America","place_id":"51684691","datatype":"locationiq"},{"latitude":"32.77866","longitude":"-117.00675","name":"Trader Joe's","address":"USA-La Mesa","street_number":"5455","street_name":"Grossmont Center Drive","zip":"91942","city":"La Mesa","area":null,"county":"San Diego County","state":"California","country":"us","formatted_address":"5455, Grossmont Center Drive, La Mesa, San Diego County, California, 91942, United States of America","place_id":"83590150","datatype":"locationiq"},{"latitude":"35.67393","longitude":"-105.95330","name":"Trader Joe's","address":"USA-Santa Fe","street_number":"540","street_name":"West Cordova Road","zip":"87505","city":"Santa Fe","area":null,"county":"Santa Fe County","state":"New Mexico","country":"us","formatted_address":"Subway, 540, West Cordova Road, Santa Fe, Santa Fe County, New Mexico, 87505, United States of America","place_id":"58755863","datatype":"locationiq"},{"latitude":"33.60589","longitude":"-112.26877","name":"Trader Joe's","address":"USA-Sun City","street_number":"13648","street_name":"North 99th Avenue","zip":"85351","city":"El Mirage","area":"Villa Vista","county":"Maricopa County","state":"Arizona","country":"us","formatted_address":"13648, North 99th Avenue, Villa Vista, El Mirage, Maricopa County, Arizona, 85351, United States of America","place_id":"176968517","datatype":"locationiq"},{"latitude":"40.94857","longitude":"-74.07189","name":"Trader Joe's","address":"USA-Paramus","street_number":null,"street_name":"NJ 17","zip":"07652","city":"Paramus","area":null,"county":"Bergen County","state":"New Jersey","country":"us","formatted_address":"NJ 17, Paramus, Bergen County, New Jersey, 07652, United States of America","place_id":"149491578","datatype":"locationiq"},{"latitude":"34.16331","longitude":"-118.82687","name":"Trader Joe's","address":"USA-Westlake Village","street_number":null,"street_name":"East Thousand Oaks Boulevard","zip":"91361","city":"Thousand Oaks","area":null,"county":"Ventura County","state":"California","country":"us","formatted_address":"Micky D's, East Thousand Oaks Boulevard, Thousand Oaks, Ventura County, California, 91361, United States of America","place_id":"8203891","datatype":"locationiq"},{"latitude":"47.54811","longitude":"-122.05419","name":"Trader Joe's","address":"USA-Issaquah","street_number":null,"street_name":"Pickering Place","zip":"98027-5305","city":"Issaquah","area":null,"county":"King County","state":"Washington","country":"us","formatted_address":"Barnes & Noble, Pickering Place, Issaquah, King County, Washington, 98027-5305, United States of America","place_id":"23807359","datatype":"locationiq"},{"latitude":"41.46256","longitude":"-81.47474","name":"Trader Joe's","address":"USA-Woodmere","street_number":"28601","street_name":"Chagrin Boulevard","zip":"44122","city":null,"area":null,"county":"Cuyahoga County","state":"Ohio","country":"us","formatted_address":"Apple Store, 28601, Chagrin Boulevard, Woodmere, Cuyahoga County, Ohio, 44122, United States of America","place_id":"26439994","datatype":"locationiq"},{"latitude":"40.93736","longitude":"-73.74645","name":"Trader Joe's","address":"USA-Larchmont","street_number":"1270","street_name":"Boston Post Road","zip":"10538","city":null,"area":null,"county":"Westchester County","state":"New York","country":"us","formatted_address":"1270, Boston Post Road, Orienta, Town of Mamaroneck, Westchester County, New York, 10538, United States of America","place_id":"197112794","datatype":"locationiq"},{"latitude":"42.16320","longitude":"-87.84302","name":"Trader Joe's","address":"USA-Northbrook","street_number":"589","street_name":"Waukegan Road","zip":"60015","city":null,"area":null,"county":"Lake County","state":"Illinois","country":"us","formatted_address":"589, Waukegan Road, Deerfield, Lake County, Illinois, 60015, United States of America","place_id":"185358064","datatype":"locationiq"},{"latitude":"45.52618","longitude":"-122.69495","name":"Trader Joe's","address":"USA-Portland","street_number":"2122","street_name":"Northwest Glisan Street","zip":"97210","city":"Portland","area":null,"county":"Multnomah County","state":"Oregon","country":"us","formatted_address":"Trader Joe's, 2122, Northwest Glisan Street, Kings Heights, Portland, Multnomah County, Oregon, 97210, United States of America","place_id":"102340676","datatype":"locationiq"},{"latitude":"47.22278","longitude":"-122.53730","name":"Trader Joe's","address":"USA-University Place (Tacoma)","street_number":"3800","street_name":"Bridgeport Way West","zip":"98466","city":"University Place","area":null,"county":"Pierce County","state":"Washington","country":"us","formatted_address":"Trader Joe's, 3800, Bridgeport Way West, Union '76, University Place, Pierce County, Washington, 98466, United States of America","place_id":"81363632","datatype":"locationiq"}]