[{"name":"Apple Store - Manhattan Village","code":null,"latitude":33.8952639,"longitude":-118.3942198,"address":"3200 Sepulveda Boulevard, Manhattan Beach CA","chain_name":null,"distance":0,"street_number":null,"street_name":"Village Circle","zip":"90266","city":"Manhattan Beach","area":null,"county":"Los Angeles County","state":"California","country":"us","formatted_address":"Ralphs, Village Circle, Manhattan Beach, Los Angeles County, California, 90266, United States of America","place_id":"139555357","datatype":"locationiq"},{"name":"Apple Store - University Park Mall","code":null,"latitude":41.71949,"longitude":-86.1910124,"address":"6501 North Grape Road, Mishawaka IN","chain_name":null,"distance":0,"street_number":"6501","street_name":"Grape Road","zip":"46545","city":"Mishawaka","area":null,"county":"Saint Joseph County","state":"Indiana","country":"us","formatted_address":"University Park Mall, 6501, Grape Road, Mishawaka, Saint Joseph County, Indiana, 46545, United States of America","place_id":"79792083","datatype":"locationiq"},{"name":"Apple Store - Park City","code":null,"latitude":40.0687293,"longitude":-76.3359897,"address":"541 Park City Center, Lancaster PA","chain_name":null,"distance":0,"street_number":null,"street_name":"Ring Road","zip":"17601","city":"Lancaster","area":null,"county":"Lancaster County","state":"Pennsylvania","country":"us","formatted_address":"Ring Road, Lancaster, Lancaster County, Pennsylvania, 17601, United States of America","place_id":"151680071","datatype":"locationiq"},{"name":"Apple Store - Otay Ranch","code":null,"latitude":32.623489,"longitude":-116.9654569,"address":"2015 Birch Road, Chula Vista CA","chain_name":null,"distance":0,"street_number":null,"street_name":"Kestrel Falls Road","zip":"91915","city":"Chula Vista","area":null,"county":"San Diego County","state":"California","country":"us","formatted_address":"Kestrel Falls Road, Chula Vista, San Diego County, California, 91915, United States of America","place_id":"105122050","datatype":"locationiq"},{"name":"Apple Store - Bridge Street","code":null,"latitude":34.7160189,"longitude":-86.6728156,"address":"320 The Bridge Street, Huntsville AL","chain_name":null,"distance":0,"street_number":"315","street_name":"The Bridge Street","zip":"35806","city":"Huntsville","area":null,"county":"Madison County","state":"Alabama","country":"us","formatted_address":"REEDS Jewelers - Bridge Street Towne Centre, 315, The Bridge Street, Bridge  Street Town Center, Huntsville, Madison County, Alabama, 35806, United States of America","place_id":"38711157","datatype":"locationiq"},{"name":"Apple Store - Nanuet","code":null,"latitude":41.0958414,"longitude":-74.0166281,"address":"8115 Fashion Drive, Nanuet NY","chain_name":null,"distance":0,"street_number":null,"street_name":"Nanuet Mall South","zip":"10954","city":null,"area":null,"county":"Rockland County","state":"New York","country":"us","formatted_address":"Nanuet Mall South, The Shops at Nanuet, Nanuet, Town of Clarkstown, Rockland County, New York, 10954, United States of America","place_id":"138987310","datatype":"locationiq"},{"name":"Apple Store - Stanford","code":null,"latitude":37.442784,"longitude":-122.1730075,"address":"379 Stanford Shopping Center, Palo Alto CA","chain_name":null,"distance":0,"street_number":"660","street_name":"Stanford Shopping Center","zip":"94025","city":null,"area":null,"county":"Santa Clara County","state":"California","country":"us","formatted_address":"Max's Opera Cafe, 660, Stanford Shopping Center, Stanford University, Santa Clara County, California, 94025, United States of America","place_id":"26957208","datatype":"locationiq"},{"name":"Apple Store - Willowbrook Mall","code":null,"latitude":29.958396,"longitude":-95.5386592,"address":"2000 Willowbrook Drive, Houston TX","chain_name":null,"distance":0,"street_number":null,"street_name":"Tomball Parkway Frontage Road","zip":"77070","city":null,"area":"Willowbrook","county":"Harris County","state":"Texas","country":"us","formatted_address":"Tomball Parkway Frontage Road, Willowbrook, North Houston, Harris County, Texas, 77070, United States of America","place_id":"97767534","datatype":"locationiq"},{"name":"Apple Store - Lakeside Shopping Center","code":null,"latitude":30.0062985,"longitude":-90.1573105,"address":"3301 Veterans Memorial Boulevard, Metairie LA","chain_name":null,"distance":0,"street_number":null,"street_name":"North Hullen Street","zip":"70002","city":null,"area":null,"county":"Jefferson Parish","state":"Louisiana","country":"us","formatted_address":"Victoria's Secret, North Hullen Street, Lakeside Shopping Center, Metairie, Jefferson Parish, Louisiana, 70002, United States of America","place_id":"57645704","datatype":"locationiq"},{"name":"Apple Store - Danbury Fair Mall","code":null,"latitude":41.3800517,"longitude":-73.4817327,"address":"Seven Backus Avenue, Danbury CT","chain_name":null,"distance":0,"street_number":"7","street_name":"Backus Avenue","zip":"06810","city":"Danbury","area":null,"county":"Fairfield County","state":"Connecticut","country":"us","formatted_address":"Danbury Fair Mall, 7, Backus Avenue, Danbury, Fairfield County, Connecticut, 06810, United States of America","place_id":"113870807","datatype":"locationiq"},{"name":"Apple Store - Quaker Bridge","code":null,"latitude":40.2910416,"longitude":-74.6826687,"address":"150 Quaker Bridge Mall, Lawrence Township NJ","chain_name":null,"distance":0,"street_number":"3320","street_name":"Brunswick Pike","zip":"08648","city":"Lawrence Township","area":null,"county":"Mercer County","state":"New Jersey","country":"us","formatted_address":"3320, Brunswick Pike, Lawrence Township, Mercer County, New Jersey, 08648, United States of America","place_id":"55322285","datatype":"locationiq"},{"name":"Apple Store - Vintage Faire","code":null,"latitude":37.6872578,"longitude":-121.0498496,"address":"3401 Dale Road, Modesto CA","chain_name":null,"distance":0,"street_number":null,"street_name":"Dale Road","zip":"95356","city":"Modesto","area":null,"county":"Stanislaus County","state":"California","country":"us","formatted_address":"Wendy's, Dale Road, Modesto, Stanislaus County, California, 95356, United States of America","place_id":"19524157","datatype":"locationiq"},{"name":"Apple Store - Tacoma Mall","code":null,"latitude":47.2164165,"longitude":-122.4678568,"address":"4502 S Steele Street, Tacoma WA","chain_name":null,"distance":0,"street_number":null,"street_name":"South Steele Street","zip":"98409-724","city":"Tacoma","area":null,"county":"Pierce County","state":"Washington","country":"us","formatted_address":"South Steele Street, Tacoma, Pierce County, Washington, 98409-724, United States of America","place_id":"67150200","datatype":"locationiq"},{"name":"Apple Store - Country Club Plaza","code":null,"latitude":39.0414934,"longitude":-94.5898819,"address":"227 Nichols Road, Kansas City MO","chain_name":null,"distance":0,"street_number":"220","street_name":"Nichols Road","zip":"64112","city":"Kansas City","area":null,"county":"Jackson County","state":"Missouri","country":"us","formatted_address":"TIVOL, 220, Nichols Road, Westport, Kansas City, Jackson County, Missouri, 64112, United States of America","place_id":"27086350","datatype":"locationiq"},{"name":"Apple Store - Montgomery Mall","code":null,"latitude":39.0257717,"longitude":-77.1475762,"address":"7101 Democracy Boulevard, Bethesda MD","chain_name":null,"distance":0,"street_number":"10319","street_name":"Westlake Drive","zip":"20817","city":null,"area":"Knollwood","county":"Montgomery County","state":"Maryland","country":"us","formatted_address":"10319, Westlake Drive, Knollwood, Potomac, Montgomery County, Maryland, 20817, United States of America","place_id":"189866614","datatype":"locationiq"},{"name":"Apple Store - Manhasset","code":null,"latitude":40.7949568,"longitude":-73.6767486,"address":"1900 Northern Boulevard, Manhasset NY","chain_name":null,"distance":0,"street_number":"13","street_name":"The Gate","zip":"11030","city":null,"area":null,"county":"Nassau","state":"New York","country":"us","formatted_address":"13, The Gate, Munsey Park, Nassau, New York, 11030, United States of America","place_id":"196555459","datatype":"locationiq"},{"name":"Apple Store - Lenox Square","code":null,"latitude":33.8475546,"longitude":-84.3619696,"address":"3393 Peachtree Road NE, Atlanta GA","chain_name":null,"distance":0,"street_number":"3393","street_name":"Peachtree Road Northeast","zip":"30305","city":"Atlanta","area":null,"county":"Fulton County","state":"Georgia","country":"us","formatted_address":"Macy's, 3393, Peachtree Road Northeast, Buckhead, Atlanta, Fulton County, Georgia, 30305, United States of America","place_id":"42551650","datatype":"locationiq"},{"name":"Apple Store - Washington Square","code":null,"latitude":45.4502155,"longitude":-122.7806224,"address":"9585 SW Washington Square Road, Tigard OR","chain_name":null,"distance":0,"street_number":"9700","street_name":"Southwest Washington Square Road","zip":"97223","city":"Tigard","area":null,"county":"Washington County","state":"Oregon","country":"us","formatted_address":"Washington Square Mall, 9700, Southwest Washington Square Road, Tigard, Washington County, Oregon, 97223, United States of America","place_id":"83579076","datatype":"locationiq"},{"name":"Apple Store - Park Meadows","code":null,"latitude":39.5614707,"longitude":-104.8753259,"address":"8405 Park Meadows Center Drive, Lone Tree CO","chain_name":null,"distance":0,"street_number":null,"street_name":"South Park Meadows Center Drive","zip":"80124","city":"Lone Tree","area":null,"county":"Douglas County","state":"Colorado","country":"us","formatted_address":"Nordstrom, South Park Meadows Center Drive, Lone Tree, Douglas County, Lone Tree, Colorado, 80124, United States of America","place_id":"26065990","datatype":"locationiq"},{"name":"Apple Store - Saddle Creek","code":null,"latitude":35.0934714,"longitude":-89.8128164,"address":"2031 West Street, Germantown TN","chain_name":null,"distance":0,"street_number":"7501","street_name":"Poplar Avenue","zip":"38138","city":"Germantown","area":null,"county":"Shelby County","state":"Tennessee","country":"us","formatted_address":"7501, Poplar Avenue, Germantown, Shelby County, Tennessee, 38138, United States of America","place_id":"204099819","datatype":"locationiq"},{"name":"Apple Store - Bay Street","code":null,"latitude":37.8352204,"longitude":-122.2922643,"address":"5640 Bay Street, Emeryville CA","chain_name":null,"distance":0,"street_number":null,"street_name":"Bay Street","zip":"94608","city":null,"area":null,"county":"Alameda County","state":"California","country":"us","formatted_address":"Godiva Chocolate, Bay Street, Bay Street Emeryville, Emeryville, Alameda County, California, 94608, United States of America","place_id":"17141865","datatype":"locationiq"},{"name":"Apple Store - The Promenade at Chenal","code":null,"latitude":34.7662944,"longitude":-92.4589331,"address":"17711 Chenal Parkway, Little Rock AR","chain_name":null,"distance":0,"street_number":null,"street_name":"La Grande Drive","zip":"72223","city":"Little Rock","area":null,"county":"Pulaski County","state":"Arkansas","country":"us","formatted_address":"La Grande Drive, Little Rock, Pulaski County, Arkansas, 72223, United States of America","place_id":"78998901","datatype":"locationiq"},{"name":"Apple Store - The Greene","code":null,"latitude":39.6944669,"longitude":-84.1021206,"address":"4422 Cedar Park Drive, Beavercreek OH","chain_name":null,"distance":0,"street_number":"4416","street_name":"Cedar Park Drive","zip":"45440","city":"Beavercreek","area":null,"county":"Greene County","state":"Ohio","country":"us","formatted_address":"4416, Cedar Park Drive, The Greene Town Center, Beavercreek, Greene County, Ohio, 45440, United States of America","place_id":"199235241","datatype":"locationiq"},{"name":"Apple Store - Scottsdale Quarter","code":null,"latitude":33.6237114,"longitude":-111.9251354,"address":"15169 North Scottsdale Road, Scottsdale AZ","chain_name":null,"distance":0,"street_number":null,"street_name":"North Scottsdale Road","zip":"85260-1235","city":"Scottsdale","area":null,"county":"Maricopa County","state":"Arizona","country":"us","formatted_address":"Apple Store, North Scottsdale Road, Scottsdale, Maricopa County, Arizona, 85260-1235, United States of America","place_id":"28119557","datatype":"locationiq"},{"name":"Apple Store - Freehold Raceway Mall","code":null,"latitude":40.2532995,"longitude":-74.3002341,"address":"3710 Route 9 South, Freehold NJ","chain_name":null,"distance":0,"street_number":null,"street_name":"Winners Circle","zip":"07728","city":"Freehold Township","area":null,"county":"Monmouth County","state":"New Jersey","country":"us","formatted_address":"Freehold Raceway Mall, Winners Circle, Freehold Raceway Mall, Freehold Township, Monmouth County, New Jersey, 07728, United States of America","place_id":"156963253","datatype":"locationiq"},{"name":"Apple Store - Menlo Park","code":null,"latitude":40.5480869,"longitude":-74.3343192,"address":"55 Parsonage Road, Edison NJ","chain_name":null,"distance":0,"street_number":null,"street_name":"Parsonage Road","zip":"08837","city":"Edison","area":null,"county":"Middlesex County","state":"New Jersey","country":"us","formatted_address":"Parsonage Road, Edison, Middlesex County, New Jersey, 08837, United States of America","place_id":"83192508","datatype":"locationiq"},{"name":"Apple Store - Queens Center","code":null,"latitude":40.7344589,"longitude":-73.8704971,"address":"90-15 Queens Boulevard, Elmhurst NY","chain_name":null,"distance":0,"street_number":"90-15","street_name":"Queens Boulevard","zip":"11379","city":"New York City","area":"Elmhurst","county":"Queens County","state":"New York","country":"us","formatted_address":"Applebee's, 90-15, Queens Boulevard, Elmhurst, Queens County, New York City, New York, 11379, United States of America","place_id":"48398735","datatype":"locationiq"},{"name":"Apple Store - Suburban Square","code":null,"latitude":40.0087702,"longitude":-75.2878883,"address":"61 St. James Place, Ardmore PA","chain_name":null,"distance":0,"street_number":"61","street_name":"Saint James Place","zip":"19003","city":"Lower Merion Township","area":null,"county":"Montgomery County","state":"Pennsylvania","country":"us","formatted_address":"Apple Store, 61, Saint James Place, Suburban Square, Wynnewood, Lower Merion Township, Montgomery County, Pennsylvania, 19003, United States of America","place_id":"129376985","datatype":"locationiq"},{"name":"Apple Store - Fashion Fair","code":null,"latitude":36.8065876,"longitude":-119.7760061,"address":"645 E. Shaw Avenue, Fresno CA","chain_name":null,"distance":0,"street_number":"645","street_name":"East Shaw Avenue","zip":"93710","city":"Fresno","area":null,"county":"Fresno County","state":"California","country":"us","formatted_address":"Fashion Fair Mall, 645, East Shaw Avenue, Fresno, Fresno County, California, 93710, United States of America","place_id":"149110774","datatype":"locationiq"},{"name":"Apple Store - Barton Creek","code":null,"latitude":30.2573391,"longitude":-97.8071884,"address":"2901 S. Capital of Texas Highway, Austin TX","chain_name":null,"distance":0,"street_number":"2901","street_name":"Capital of Texas Highway","zip":"78746","city":"West Lake Hills","area":null,"county":"Travis County","state":"Texas","country":"us","formatted_address":"Barton Creek Sqaure Mall, 2901, Capital of Texas Highway, West Lake Hills, Travis County, Texas, 78746, United States of America","place_id":"74949514","datatype":"locationiq"},{"name":"Apple Store - Village Pointe","code":null,"latitude":41.2606989,"longitude":-96.184381,"address":"17255 Davenport Street, Omaha NE","chain_name":null,"distance":0,"street_number":"17255","street_name":"Davenport Street","zip":"68118","city":"Omaha","area":null,"county":"Douglas County","state":"Nebraska","country":"us","formatted_address":"17255, Davenport Street, Village Pointe, Omaha, Douglas County, Nebraska, 68118, United States of America","place_id":"111194544","datatype":"locationiq"},{"name":"Apple Store - El Paseo Village","code":null,"latitude":33.7194398,"longitude":-116.3832284,"address":"73445 El PaseoPalm , Desert CA","chain_name":null,"distance":0,"street_number":"73505","street_name":"El Paseo","zip":"92260-4381","city":"Palm Desert","area":null,"county":"Riverside County","state":"California","country":"us","formatted_address":"Sullivan's Steak House, 73505, El Paseo, Palm Desert, Riverside County, California, 92260-4381, United States of America","place_id":"46596848","datatype":"locationiq"},{"name":"Apple Store - Walden Galleria","code":null,"latitude":42.914913,"longitude":-78.762121,"address":"G116 Walden Galleria, Buffalo NY","chain_name":null,"distance":0,"street_number":"1","street_name":"Galleria Drive","zip":"14225","city":null,"area":null,"county":"Erie County","state":"New York","country":"us","formatted_address":"Regal Walden 16, 1, Galleria Drive, Cheektowaga, Cheektowaga Town, Erie County, New York, 14225, United States of America","place_id":"23509990","datatype":"locationiq"},{"name":"Apple Store - Sherman Oaks","code":null,"latitude":34.1565639,"longitude":-118.4369927,"address":"14006 Riverside Drive, Sherman Oaks CA","chain_name":null,"distance":0,"street_number":null,"street_name":"Ventura Freeway","zip":"91423","city":"Los Angeles","area":null,"county":"Los Angeles County","state":"California","country":"us","formatted_address":"Panda Express, Ventura Freeway, Sherman Oaks, Los Angeles, Los Angeles County, California, 91423, United States of America","place_id":"52151049","datatype":"locationiq"},{"name":"Apple Store - City Creek Center","code":null,"latitude":40.7681878,"longitude":-111.8918804,"address":"50 South Main Street, Salt Lake City UT","chain_name":null,"distance":0,"street_number":"50 South","street_name":"Main Street","zip":"84144","city":"Salt Lake City","area":"Marmalade District","county":"Salt Lake County","state":"Utah","country":"us","formatted_address":"City Creek Center, 50 South, Main Street, Marmalade District, Capitol Hill, Salt Lake City, Salt Lake County, Utah, 84144, United States of America","place_id":"174411096","datatype":"locationiq"},{"name":"Apple Store - Maine Mall","code":null,"latitude":43.6342134,"longitude":-70.3367879,"address":"364 Maine Mall RoadSouth , Portland ME","chain_name":null,"distance":0,"street_number":null,"street_name":"Maine Mall Road","zip":"04106","city":"South Portland","area":null,"county":"Cumberland County","state":"Maine","country":"us","formatted_address":"Best Buy, Maine Mall Road, South Portland, Cumberland County, Maine, 04106, United States of America","place_id":"29191227","datatype":"locationiq"},{"name":"Apple Store - Northbrook","code":null,"latitude":42.1518443,"longitude":-87.8170583,"address":"1310 Northbrook Court, Northbrook IL","chain_name":null,"distance":0,"street_number":"2101","street_name":"Northbrook Court Drive","zip":"60062","city":null,"area":null,"county":"Cook County","state":"Illinois","country":"us","formatted_address":"2101, Northbrook Court Drive, Northbrook Court, Northbrook, Cook County, Illinois, 60062, United States of America","place_id":"184945965","datatype":"locationiq"},{"name":"Apple Store - Union Square","code":null,"latitude":37.7887802,"longitude":-122.4070931,"address":"300 Post Street, San Francisco CA","chain_name":null,"distance":0,"street_number":null,"street_name":"Stockton Street","zip":"CA 94108","city":"San Francisco","area":"Union Square","county":"San Francisco City and County","state":"California","country":"us","formatted_address":"Apple Mini Park, Stockton Street, Union Square, San Francisco, San Francisco City and County, California, CA 94108, United States of America","place_id":"171154984","datatype":"locationiq"},{"name":"Apple Store - Main Place","code":null,"latitude":41.7727282,"longitude":-88.1504182,"address":"120 West Jefferson Avenue, Naperville IL","chain_name":null,"distance":0,"street_number":null,"street_name":"West Jefferson Avenue","zip":"60566","city":"Naperville","area":null,"county":"DuPage County","state":"Illinois","country":"us","formatted_address":"Apple Store, West Jefferson Avenue, Naperville, DuPage County, Illinois, 60566, United States of America","place_id":"50193994","datatype":"locationiq"},{"name":"Apple Store - Walnut Street","code":null,"latitude":39.9499263,"longitude":-75.1679127,"address":"1607 Walnut Street, Philadelphia PA","chain_name":null,"distance":0,"street_number":"1607","street_name":"Walnut Street","zip":"19104","city":"Philadelphia","area":"Rittenhouse Square","county":"Philadelphia County","state":"Pennsylvania","country":"us","formatted_address":"Apple Store, 1607, Walnut Street, Rittenhouse Square, Philadelphia, Philadelphia County, Pennsylvania, 19104, United States of America","place_id":"144913821","datatype":"locationiq"},{"name":"Apple Store - West Town Mall","code":null,"latitude":35.9230111,"longitude":-84.0412354,"address":"7600 Kingston Pike, Knoxville TN","chain_name":null,"distance":0,"street_number":null,"street_name":"Montvue Road","zip":"37909","city":"Knoxville","area":null,"county":"Knox County","state":"Tennessee","country":"us","formatted_address":"Montvue Road, Knoxville, Knox County, Tennessee, 37909, United States of America","place_id":"158988786","datatype":"locationiq"},{"name":"Apple Store - Rockingham Park","code":null,"latitude":42.7661196,"longitude":-71.2303197,"address":"99 Rockingham Park Boulevard, Salem NH","chain_name":null,"distance":0,"street_number":null,"street_name":"Pleasant Street","zip":"03079","city":null,"area":null,"county":"Rockingham County","state":"New Hampshire","country":"us","formatted_address":"Pleasant Street, Salem, Rockingham County, New Hampshire, 03079, United States of America","place_id":"102030476","datatype":"locationiq"},{"name":"Apple Store - Del Monte","code":null,"latitude":36.5854341,"longitude":-121.8971718,"address":"240 Del Monte Center, Monterey CA","chain_name":null,"distance":0,"street_number":null,"street_name":"Don Dahvee Lane","zip":"93940","city":"Monterey","area":null,"county":"Monterey County","state":"California","country":"us","formatted_address":"Don Dahvee Lane, Monterey, Monterey County, California, 93940, United States of America","place_id":"64954326","datatype":"locationiq"},{"name":"Apple Store - Third Street Promenade","code":null,"latitude":34.015423,"longitude":-118.495301,"address":"1415 Third Street Promenade, Santa Monica CA","chain_name":null,"distance":0,"street_number":"1415","street_name":null,"zip":"90401","city":"Santa Monica","area":null,"county":"Los Angeles County","state":"California","country":"us","formatted_address":"Apple Store, 1415, Third Street Promenade, Santa Monica, Los Angeles County, California, 90401, United States of America","place_id":"148008362","datatype":"locationiq"},{"name":"Apple Store - Santa Rosa Plaza","code":null,"latitude":38.4401681,"longitude":-122.717091,"address":"1071 Santa Rosa Plaza, Santa Rosa CA","chain_name":null,"distance":0,"street_number":null,"street_name":"A Street","zip":"95402","city":"Santa Rosa","area":null,"county":"Sonoma County","state":"California","country":"us","formatted_address":"A Street, Santa Rosa, Sonoma County, California, 95402, United States of America","place_id":"79795458","datatype":"locationiq"},{"name":"Apple Store - Promenade Temecula","code":null,"latitude":33.5259385,"longitude":-117.1581976,"address":"40764 Winchester Road, Temecula CA","chain_name":null,"distance":0,"street_number":null,"street_name":"Winchester Road","zip":"92390","city":"Temecula","area":"Walden","county":"Riverside County","state":"California","country":"us","formatted_address":"Men's Wearhouse, Winchester Road, Walden, Winchester Highlands, Temecula, Riverside County, California, 92390, United States of America","place_id":"132875808","datatype":"locationiq"},{"name":"Apple Store - Avalon","code":null,"latitude":34.0707949,"longitude":-84.2764762,"address":"8130 Avalon Boulevard, Alpharetta GA","chain_name":null,"distance":0,"street_number":null,"street_name":"Alpha Court","zip":"30004","city":"Alpharetta","area":"Country Place","county":"Fulton County","state":"Georgia","country":"us","formatted_address":"Avalon, Alpha Court, Country Place, Alpharetta, Fulton County, Georgia, 30004, United States of America","place_id":"169365930","datatype":"locationiq"},{"name":"Apple Store - Mission Viejo","code":null,"latitude":33.5589529,"longitude":-117.6685347,"address":"936C The Shops at Mission Viejo, Mission Viejo CA","chain_name":null,"distance":0,"street_number":null,"street_name":"Shops At Mission Viejo","zip":"92691","city":"Mission Viejo","area":null,"county":"Orange County","state":"California","country":"us","formatted_address":"Shops At Mission Viejo, Mission Viejo, Orange County, California, 92691, United States of America","place_id":"135900170","datatype":"locationiq"},{"name":"Apple Store - North Michigan Avenue","code":null,"latitude":41.8948062,"longitude":-87.6238553,"address":"679 North Michigan Avenue, Chicago IL","chain_name":null,"distance":0,"street_number":"679","street_name":"North Michigan Avenue","zip":"60611","city":"Chicago","area":"Magnificent Mile","county":"Cook County","state":"Illinois","country":"us","formatted_address":"Apple Store, 679, North Michigan Avenue, Magnificent Mile, Chicago, Cook County, Illinois, 60611, United States of America","place_id":"105549634","datatype":"locationiq"},{"name":"Apple Store - River Park Square","code":null,"latitude":47.6592469,"longitude":-117.4225708,"address":"710 West Main Avenue, Spokane WA","chain_name":null,"distance":0,"street_number":null,"street_name":"West Main Avenue","zip":"99201","city":"Spokane","area":"Riverside","county":"Spokane County","state":"Washington","country":"us","formatted_address":"Urban Outfitters, West Main Avenue, Riverside, East Empire, Spokane, Spokane County, Washington, 99201, United States of America","place_id":"56434726","datatype":"locationiq"},{"name":"Apple Store - Cumberland Mall","code":null,"latitude":33.8804303,"longitude":-84.4687488,"address":"1000 Cumberland Mall, Atlanta GA","chain_name":null,"distance":0,"street_number":null,"street_name":"Cumberland Boulevard","zip":"30339","city":null,"area":"Stonewall","county":"Cobb County","state":"Georgia","country":"us","formatted_address":"Cumberland Mall, Cumberland Boulevard, Stonewall, Vinings, Cobb County, Georgia, 30339, United States of America","place_id":"84893143","datatype":"locationiq"},{"name":"Apple Store - University Town Center","code":null,"latitude":27.384433,"longitude":-82.4531881,"address":"140 University Town Center Drive, Sarasota FL","chain_name":null,"distance":0,"street_number":null,"street_name":"University Town Center Drive","zip":"34201","city":"Sarasota","area":null,"county":"Sarasota County","state":"Florida","country":"us","formatted_address":"University Town Center, University Town Center Drive, Sarasota, Sarasota County, Florida, 34201, United States of America","place_id":"144638884","datatype":"locationiq"},{"name":"Apple Store - Twenty Ninth Street","code":null,"latitude":40.0176477,"longitude":-105.2562969,"address":"1755 29th Street, Boulder CO","chain_name":null,"distance":0,"street_number":"1755","street_name":"29th Street","zip":"80309","city":"Boulder","area":null,"county":"Boulder County","state":"Colorado","country":"us","formatted_address":"1755, 29th Street, Twenty Ninth Street, Boulder, Boulder County, Colorado, 80309, United States of America","place_id":"112084735","datatype":"locationiq"},{"name":"Apple Store - Corte Madera","code":null,"latitude":37.9309722,"longitude":-122.5125716,"address":"1520 Redwood Highway, Corte Madera CA","chain_name":null,"distance":0,"street_number":"1493","street_name":"Redwood Highway","zip":"94925","city":null,"area":null,"county":"Marin County","state":"California","country":"us","formatted_address":"1493, Redwood Highway, Corte Madera, Marin County, California, 94925, United States of America","place_id":"179003935","datatype":"locationiq"},{"name":"Apple Store - Irvine Spectrum Center","code":null,"latitude":33.6495615,"longitude":-117.7452164,"address":"763 Spectrum Center Drive, Irvine CA","chain_name":null,"distance":0,"street_number":null,"street_name":"Spectrum Center Drive","zip":"92618","city":"Irvine","area":null,"county":"Orange County","state":"California","country":"us","formatted_address":"Spectrum Center Drive, Irvine, Orange County, California, 92618, United States of America","place_id":"157194157","datatype":"locationiq"},{"name":"Apple Store - Oxmoor","code":null,"latitude":38.2465422,"longitude":-85.6103635,"address":"7900 Shelbyville Road, Louisville KY","chain_name":null,"distance":0,"street_number":null,"street_name":"Shelbyville Road","zip":"40245","city":"Norwood","area":null,"county":"Jefferson County","state":"Kentucky","country":"us","formatted_address":"Shelbyville Road, Norwood, Jefferson County, Kentucky, 40245, United States of America","place_id":"96218176","datatype":"locationiq"},{"name":"Apple Store - FlatIron Crossing","code":null,"latitude":39.9321113,"longitude":-105.1314025,"address":"One West Flatiron Crossing Drive, Broomfield CO","chain_name":null,"distance":0,"street_number":null,"street_name":null,"zip":"80029","city":"Broomfield","area":null,"county":"City and County of Broomfield","state":"Colorado","country":"us","formatted_address":"Dillards, US 36 Bikeway, Flatiron Crossing, Broomfield, City and County of Broomfield, Colorado, 80029, United States of America","place_id":"150644901","datatype":"locationiq"},{"name":"Apple Store - Clarendon","code":null,"latitude":38.8876873,"longitude":-77.0911053,"address":"2700 Clarendon Boulevard, Arlington VA","chain_name":null,"distance":0,"street_number":"2700","street_name":"Clarendon Boulevard","zip":"22201","city":null,"area":null,"county":"Arlington County","state":"Virginia","country":"us","formatted_address":"2700, Clarendon Boulevard, Clarendon, Arlington, Arlington County, Virginia, 22201, United States of America","place_id":"33799173","datatype":"locationiq"},{"name":"Apple Store - Knox Street","code":null,"latitude":32.8225264,"longitude":-96.787939,"address":"3101 Knox Street, Dallas TX","chain_name":null,"distance":0,"street_number":"3109","street_name":"Knox Street","zip":"75205","city":"Dallas","area":"Knox","county":"Dallas County","state":"Texas","country":"us","formatted_address":"Shred Nations, 3109, Knox Street, Knox, Knox Street PID, Dallas, Dallas County, Texas, 75205, United States of America","place_id":"53329628","datatype":"locationiq"},{"name":"Apple Store - Willow Bend","code":null,"latitude":33.0304543,"longitude":-96.8317351,"address":"6121 West Park Boulevard, Plano TX","chain_name":null,"distance":0,"street_number":null,"street_name":"Willow Bend Mall","zip":"75093","city":"Plano","area":null,"county":"Collin County","state":"Texas","country":"us","formatted_address":"Willow Bend Mall, Plano, Collin County, Texas, 75093, United States of America","place_id":"144157234","datatype":"locationiq"},{"name":"Apple Store - University Park Village","code":null,"latitude":32.7274302,"longitude":-97.3616888,"address":"1620 S. University Drive, Fort Worth TX","chain_name":null,"distance":0,"street_number":"1612","street_name":"South University Drive","zip":"76109","city":"Fort Worth","area":null,"county":"Tarrant County","state":"Texas","country":"us","formatted_address":"1612, South University Drive, Fort Worth, Tarrant County, Texas, 76109, United States of America","place_id":"174091038","datatype":"locationiq"},{"name":"Apple Store - Staten Island","code":null,"latitude":40.582418,"longitude":-74.1659155,"address":"2655 Richmond Avenue, Staten Island NY","chain_name":null,"distance":0,"street_number":"2655","street_name":"Richmond Avenue","zip":"10314","city":"New York City","area":"New Springville","county":"Richmond County","state":"New York","country":"us","formatted_address":"2655, Richmond Avenue, New Springville, Staten Island, Richmond County, New York City, New York, 10314, United States of America","place_id":"127100201","datatype":"locationiq"},{"name":"Apple Store - Bellevue Square","code":null,"latitude":47.6124185,"longitude":-122.2016361,"address":"213 Bellevue Square, Bellevue WA","chain_name":null,"distance":0,"street_number":"10410","street_name":"Northeast 2nd Street","zip":"98004","city":"Bellevue","area":"Midlakes","county":"King County","state":"Washington","country":"us","formatted_address":"Avalon Meydenbauer, 10410, Northeast 2nd Street, Midlakes, Bellevue, King County, Washington, 98004, United States of America","place_id":"174401008","datatype":"locationiq"},{"name":"Apple Store - Georgetown","code":null,"latitude":38.905937,"longitude":-77.0623736,"address":"1229 Wisconsin Avenue NW, Washington DC","chain_name":null,"distance":0,"street_number":"1229","street_name":"Wisconsin Avenue Northwest","zip":"20007","city":"Washington","area":null,"county":null,"state":"District of Columbia","country":"us","formatted_address":"Apple Store, 1229, Wisconsin Avenue Northwest, Georgetown, Washington, District of Columbia, 20007, United States of America","place_id":"84873407","datatype":"locationiq"},{"name":"Apple Store - The Grove","code":null,"latitude":34.0716042,"longitude":-118.357882,"address":"189 The Grove Drive, Los Angeles CA","chain_name":null,"distance":0,"street_number":"189","street_name":"The Grove Drive","zip":"90036","city":"Los Angeles","area":null,"county":"Los Angeles County","state":"California","country":"us","formatted_address":"Crate & Barrel, 189, The Grove Drive, The Grove, Hollywood, Los Angeles, Los Angeles County, California, 90036, United States of America","place_id":"161742849","datatype":"locationiq"},{"name":"Apple Store - Bridgewater","code":null,"latitude":40.5858409,"longitude":-74.6194948,"address":"400 Commons Way, Bridgewater NJ","chain_name":null,"distance":0,"street_number":"400","street_name":"Commons Way","zip":"NJ 08807","city":"Bridgewater Township","area":null,"county":"Somerset County","state":"New Jersey","country":"us","formatted_address":"Bridgewater Commons, 400, Commons Way, Bridgewater Township, Somerset County, New Jersey, NJ 08807, United States of America","place_id":"118147373","datatype":"locationiq"},{"name":"Apple Store - Roosevelt Field","code":null,"latitude":40.7399709,"longitude":-73.6135758,"address":"630 Old Country Road, Garden City NY","chain_name":null,"distance":0,"street_number":null,"street_name":"Ring Road North","zip":"11514","city":null,"area":null,"county":"Nassau","state":"New York","country":"us","formatted_address":"Ring Road North, Roosevelt Field Mall, East Garden City, Nassau, New York, 11514, United States of America","place_id":"73508894","datatype":"locationiq"},{"name":"Apple Store - Bridgeport Village","code":null,"latitude":45.3967345,"longitude":-122.7518181,"address":"7293 SW Bridgeport Road, Tigard OR","chain_name":null,"distance":0,"street_number":"7293","street_name":"Southwest Bridgeport Road","zip":"97224","city":"Tualatin","area":null,"county":"Washington County","state":"Oregon","country":"us","formatted_address":"Apple, 7293, Southwest Bridgeport Road, Tualatin, Washington County, Oregon, 97224, United States of America","place_id":"148322514","datatype":"locationiq"},{"name":"Apple Store - Pioneer Place","code":null,"latitude":45.5177608,"longitude":-122.6775569,"address":"450 SW Yamhill Street, Portland OR","chain_name":null,"distance":0,"street_number":"888","street_name":"Southwest 5th Avenue","zip":"97204","city":"Portland","area":null,"county":"Multnomah County","state":"Oregon","country":"us","formatted_address":"Pioneer Tower, 888, Southwest 5th Avenue, University District, Portland, Multnomah County, Oregon, 97204, United States of America","place_id":"104042097","datatype":"locationiq"},{"name":"Apple Store - Deer Park","code":null,"latitude":42.161279,"longitude":-88.0562941,"address":"20530 N. Rand Road, Deer Park IL","chain_name":null,"distance":0,"street_number":null,"street_name":"West Long Grove Road","zip":"60047","city":null,"area":null,"county":"Lake County","state":"Illinois","country":"us","formatted_address":"West Long Grove Road, Deer Park, Lake County, Illinois, 60047, United States of America","place_id":"72641058","datatype":"locationiq"},{"name":"Apple Store - The Falls","code":null,"latitude":25.6443825,"longitude":-80.3394789,"address":"8888 SW 136th Street, Miami FL","chain_name":null,"distance":0,"street_number":null,"street_name":"Southwest 135th Terrace","zip":"33176-5883","city":"Kendall","area":null,"county":"Miami-Dade County","state":"Florida","country":"us","formatted_address":"Southwest 135th Terrace, Kendall, Miami-Dade County, Florida, 33176-5883, United States of America","place_id":"65376085","datatype":"locationiq"},{"name":"Apple Store - Fashion Place","code":null,"latitude":40.6381663,"longitude":-111.8888049,"address":"6191 S State Street, Murray UT","chain_name":null,"distance":0,"street_number":null,"street_name":"6100 South","zip":"84107","city":"Murray","area":null,"county":"Salt Lake County","state":"Utah","country":"us","formatted_address":"Taco Bell, 6100 South, Murray, Salt Lake County, Utah, 84107, United States of America","place_id":"52458772","datatype":"locationiq"},{"name":"Apple Store - South Shore","code":null,"latitude":42.2200925,"longitude":-71.0226617,"address":"250 Granite Street, Braintree MA","chain_name":null,"distance":0,"street_number":null,"street_name":"South Shore Plaza Road","zip":"02184","city":null,"area":null,"county":"Norfolk County","state":"Massachusetts","country":"us","formatted_address":"South Shore Plaza Road, South Shore Plaza, Braintree, Norfolk County, Massachusetts, 02184, United States of America","place_id":"80972401","datatype":"locationiq"},{"name":"Apple Store - Carlsbad","code":null,"latitude":33.0715929,"longitude":-117.2650856,"address":"1923 Calle Barcelona, Carlsbad CA","chain_name":null,"distance":0,"street_number":null,"street_name":"Calle Barcelona","zip":"92024","city":"Carlsbad","area":null,"county":"San Diego County","state":"California","country":"us","formatted_address":"Apple Store, Calle Barcelona, Carlsbad, San Diego County, California, 92024, United States of America","place_id":"10037565","datatype":"locationiq"},{"name":"Apple Store - Mayfair","code":null,"latitude":43.0638475,"longitude":-88.0456476,"address":"2500 N. Mayfair Road, Wauwatosa WI","chain_name":null,"distance":0,"street_number":null,"street_name":"North Mayfair Road","zip":"53222","city":"Wauwatosa","area":null,"county":"Milwaukee County","state":"Wisconsin","country":"us","formatted_address":"Crate & Barrel, North Mayfair Road, Wauwatosa, Milwaukee County, Wisconsin, 53222, United States of America","place_id":"92484396","datatype":"locationiq"},{"name":"Apple Store - Fashion Show","code":null,"latitude":36.1272241,"longitude":-115.1715512,"address":"3200 Las Vegas Boulevard, Las Vegas NV","chain_name":null,"distance":0,"street_number":"3200","street_name":"South Las Vegas Boulevard","zip":"89109","city":null,"area":null,"county":"Clark County","state":"Nevada","country":"us","formatted_address":"Fashion Show Mall, 3200, South Las Vegas Boulevard, Winchester, Clark County, Nevada, 89109, United States of America","place_id":"111367056","datatype":"locationiq"},{"name":"Apple Store - North County","code":null,"latitude":33.0711094,"longitude":-117.0657814,"address":"272 E Via Rancho Parkway, Escondido CA","chain_name":null,"distance":0,"street_number":"272","street_name":"East Via Rancho Parkway","zip":"92025","city":"Escondido","area":null,"county":"San Diego County","state":"California","country":"us","formatted_address":"272, East Via Rancho Parkway, Escondido, San Diego County, California, 92025, United States of America","place_id":"80421012","datatype":"locationiq"},{"name":"Apple Store - Chestnut Street","code":null,"latitude":37.8003459,"longitude":-122.4383374,"address":"2125 Chestnut Street, San Francisco CA","chain_name":null,"distance":0,"street_number":null,"street_name":"Chestnut Street","zip":"94123","city":"San Francisco","area":"Marina District","county":"San Francisco City and County","state":"California","country":"us","formatted_address":"Cinema 21, Chestnut Street, Marina District, San Francisco, San Francisco City and County, California, 94123, United States of America","place_id":"115212122","datatype":"locationiq"},{"name":"Apple Store - Perimeter","code":null,"latitude":33.9232565,"longitude":-84.3400292,"address":"4400 Ashford Dunwoody Road, Atlanta GA","chain_name":null,"distance":0,"street_number":"4400","street_name":"Ashford Dunwoody Road Northeast","zip":"30346","city":null,"area":"Valley View","county":"DeKalb County","state":"Georgia","country":"us","formatted_address":"Perimeter Mall, 4400, Ashford Dunwoody Road Northeast, Valley View, Springfield, DeKalb County, Georgia, 30346, United States of America","place_id":"80293677","datatype":"locationiq"},{"name":"Apple Store - The Americana at Brand","code":null,"latitude":34.1444167,"longitude":-118.2554939,"address":"877 Americana Way, Glendale CA","chain_name":null,"distance":0,"street_number":"889","street_name":null,"zip":"91210","city":"Glendale","area":null,"county":"Los Angeles County","state":"California","country":"us","formatted_address":"The Residences at The Americana at Brand, 889, Caruso Avenue, Glendale, Los Angeles County, California, 91210, United States of America","place_id":"169753777","datatype":"locationiq"},{"name":"Apple Store - Eton","code":null,"latitude":41.4634672,"longitude":-81.4769308,"address":"28849 Chagrin Boulevard, Woodmere OH","chain_name":null,"distance":0,"street_number":"28699","street_name":"Chagrin Boulevard","zip":"44122","city":null,"area":null,"county":"Cuyahoga County","state":"Ohio","country":"us","formatted_address":"B Spot, 28699, Chagrin Boulevard, Woodmere, Cuyahoga County, Ohio, 44122, United States of America","place_id":"26439987","datatype":"locationiq"},{"name":"Apple Store - Sagemore","code":null,"latitude":39.9001412,"longitude":-74.9317018,"address":"500 Route 73 South, Marlton NJ","chain_name":null,"distance":0,"street_number":null,"street_name":"State Route 73","zip":"08053","city":"Evesham Township","area":null,"county":"Burlington County","state":"New Jersey","country":"us","formatted_address":"State Route 73, Greentree Square, Evesham Township, Burlington County, New Jersey, 08053, United States of America","place_id":"84395481","datatype":"locationiq"},{"name":"Apple Store - South Coast Plaza","code":null,"latitude":33.6920547,"longitude":-117.8928998,"address":"3333 Bear Street, Costa Mesa CA","chain_name":null,"distance":0,"street_number":null,"street_name":"Bear Street","zip":"92704","city":"Costa Mesa","area":null,"county":"Orange County","state":"California","country":"us","formatted_address":"Sur la Table, Bear Street, Costa Mesa, Orange County, California, 92704, United States of America","place_id":"45715952","datatype":"locationiq"},{"name":"Apple Store - Woodfield","code":null,"latitude":42.045961,"longitude":-88.03753,"address":"K303 Woodfield Mall, Schaumburg IL","chain_name":null,"distance":0,"street_number":null,"street_name":"Perimeter Drive","zip":"60173","city":null,"area":null,"county":"Cook County","state":"Illinois","country":"us","formatted_address":"Woodfield Mall, Perimeter Drive, Schaumburg, Cook County, Illinois, 60173, United States of America","place_id":"73689628","datatype":"locationiq"},{"name":"Apple Store - Palo Alto","code":null,"latitude":37.4463807,"longitude":-122.1607674,"address":"340 University Avenue, Palo Alto CA","chain_name":null,"distance":0,"street_number":"340","street_name":"University Avenue","zip":"94301","city":"Palo Alto","area":"University South","county":"Santa Clara County","state":"California","country":"us","formatted_address":"Apple Store, 340, University Avenue, University South, Palo Alto, Santa Clara County, California, 94301, United States of America","place_id":"99640734","datatype":"locationiq"},{"name":"Apple Store - Arden Fair","code":null,"latitude":38.601511,"longitude":-121.4278631,"address":"1689 Arden Way, Sacramento CA","chain_name":null,"distance":0,"street_number":null,"street_name":"Bowling Green Drive","zip":"95815","city":"Sacramento","area":"Ben Ali","county":"Sacramento County","state":"California","country":"us","formatted_address":"Arden Fair Mall, Bowling Green Drive, Ben Ali, Sacramento, Sacramento County, California, 95815, United States of America","place_id":"77052211","datatype":"locationiq"},{"name":"Apple Store - Oakridge","code":null,"latitude":37.2515431,"longitude":-121.8624492,"address":"925 Blossom Hill Road, San Jose CA","chain_name":null,"distance":0,"street_number":"925","street_name":"Blossom Hill Road","zip":"95136","city":"San Jos\u00e9","area":null,"county":"Santa Clara County","state":"California","country":"us","formatted_address":"Westfiels Oakridge Food Court, 925, Blossom Hill Road, Westfield Oakridge, Almaden, San Jos\u00e9, Santa Clara County, California, 95136, United States of America","place_id":"61261129","datatype":"locationiq"},{"name":"Apple Store - Cielo Vista Mall","code":null,"latitude":31.7754938,"longitude":-106.3793949,"address":"8401 Gateway Boulevard West, El Paso TX","chain_name":null,"distance":0,"street_number":null,"street_name":"Edison Way","zip":"79925","city":"El Paso City","area":null,"county":"El Paso County","state":"Texas","country":"us","formatted_address":"Edison Way, El Paso City, El Paso County, Texas, 79925, United States of America","place_id":"69278199","datatype":"locationiq"},{"name":"Apple Store - Northlake Mall","code":null,"latitude":35.352549,"longitude":-80.851181,"address":"6801 Northlake Mall Drive, Charlotte NC","chain_name":null,"distance":0,"street_number":null,"street_name":"Northlake Mall Drive","zip":"28269","city":"Charlotte","area":null,"county":"Mecklenburg County","state":"North Carolina","country":"us","formatted_address":"Northlake Mall Drive, Charlotte, Mecklenburg County, North Carolina, 28269, United States of America","place_id":"69252857","datatype":"locationiq"},{"name":"Apple Store - Wellington Green","code":null,"latitude":26.646333,"longitude":-80.2084654,"address":"10300 W. Forest Hill Boulevard, Wellington FL","chain_name":null,"distance":0,"street_number":"10300","street_name":"Ring Road","zip":"33414","city":null,"area":null,"county":"Palm Beach County","state":"Florida","country":"us","formatted_address":"The Mall at Wellington Green, 10300, Ring Road, The Mall at Wellington Green, Wellington, Palm Beach County, Florida, 33414, United States of America","place_id":"81555841","datatype":"locationiq"},{"name":"Apple Store - Orland Square Mall","code":null,"latitude":41.6195628,"longitude":-87.8483756,"address":"428 Orland Square, Orland Park IL","chain_name":null,"distance":0,"street_number":null,"street_name":"Orland Square Drive","zip":"60462","city":null,"area":null,"county":"Cook County","state":"Illinois","country":"us","formatted_address":"Orland Square Mall, Orland Square Drive, Orland Park, Cook County, Illinois, 60462, United States of America","place_id":"132399457","datatype":"locationiq"},{"name":"Apple Store - Somerset","code":null,"latitude":42.5627151,"longitude":-83.1840415,"address":"2800 W Big Beaver Road, Troy MI","chain_name":null,"distance":0,"street_number":null,"street_name":"West Big Beaver Road","zip":"48304","city":"Troy","area":null,"county":"Oakland County","state":"Michigan","country":"us","formatted_address":"Somerset Collection North, West Big Beaver Road, Troy, Oakland County, Michigan, 48304, United States of America","place_id":"79712946","datatype":"locationiq"},{"name":"Apple Store - Woodland","code":null,"latitude":42.9162654,"longitude":-85.5882673,"address":"3195 28th Street, Grand Rapids MI","chain_name":null,"distance":0,"street_number":null,"street_name":"Mall Drive Southeast","zip":"49512","city":"Kentwood","area":null,"county":"Kent County","state":"Michigan","country":"us","formatted_address":"Woodland Mall, Mall Drive Southeast, Kentwood, Kent County, Michigan, 49512, United States of America","place_id":"130495935","datatype":"locationiq"},{"name":"Apple Store - Century City","code":null,"latitude":34.0599924,"longitude":-118.4200376,"address":"10250 Santa Monica Boulevard, Los Angeles CA","chain_name":null,"distance":0,"street_number":null,"street_name":"Century City parking entrance","zip":"90067","city":"Los Angeles","area":"Century City","county":"Los Angeles County","state":"California","country":"us","formatted_address":"Century City Shopping Center, Century City parking entrance, Century City, Westwood, Los Angeles, Los Angeles County, California, 90067, United States of America","place_id":"10372412","datatype":"locationiq"},{"name":"Apple Store - Brea Mall","code":null,"latitude":33.9148897,"longitude":-117.8866922,"address":"1016C Brea Mall, Brea CA","chain_name":null,"distance":0,"street_number":"1065","street_name":"Brea Mall Way","zip":"92821","city":"Brea","area":null,"county":"Orange County","state":"California","country":"us","formatted_address":"Brea Mall, 1065, Brea Mall Way, Brea Mall, Downtown Brea, Brea, Orange County, California, 92821, United States of America","place_id":"93779659","datatype":"locationiq"},{"name":"Apple Store - West 14th Street","code":null,"latitude":40.7413536,"longitude":-74.0055356,"address":"401 W 14th Street, New York NY","chain_name":null,"distance":0,"street_number":"401","street_name":"West 14th Street","zip":"10011","city":"New York City","area":"Chelsea","county":"New York County","state":"New York","country":"us","formatted_address":"401, West 14th Street, Chelsea, Manhattan, New York County, New York City, New York, 10011, United States of America","place_id":"131163263","datatype":"locationiq"},{"name":"Apple Store - CoolSprings Galleria","code":null,"latitude":35.957118,"longitude":-86.8135382,"address":"1800 Galleria Boulevard, Franklin TN","chain_name":null,"distance":0,"street_number":null,"street_name":"Galleria Boulevard","zip":"37027","city":"Franklin","area":null,"county":"Williamson County","state":"Tennessee","country":"us","formatted_address":"Coolsprings Galleria, Galleria Boulevard, Franklin, Williamson County, Tennessee, 37027, United States of America","place_id":"128138577","datatype":"locationiq"},{"name":"Apple Store - Bayshore","code":null,"latitude":43.1216063,"longitude":-87.9150521,"address":"5715 N Centerpark Way, Glendale WI","chain_name":null,"distance":0,"street_number":null,"street_name":"North Centerpark Way","zip":"53217","city":"Glendale","area":null,"county":"Milwaukee County","state":"Wisconsin","country":"us","formatted_address":"Apple Store, North Centerpark Way, Glendale, Milwaukee County, Wisconsin, 53217, United States of America","place_id":"9227280","datatype":"locationiq"},{"name":"Apple Store - The Pier","code":null,"latitude":39.3547815,"longitude":-74.4348863,"address":"The Pier at Caesars, Atlantic City NJ","chain_name":null,"distance":0,"street_number":null,"street_name":null,"zip":"08406","city":"Ventnor City","area":null,"county":"Atlantic County","state":"New Jersey","country":"us","formatted_address":"Continental, Boardwalk, Ventnor City, Atlantic County, New Jersey, 08406, United States of America","place_id":"24477357","datatype":"locationiq"},{"name":"Apple Store - University Village","code":null,"latitude":47.6632832,"longitude":-122.2991532,"address":"2656 NE University Village Street, Seattle WA","chain_name":null,"distance":0,"street_number":"2619","street_name":"Northeast University Village Street","zip":"98105","city":"Seattle","area":null,"county":"King County","state":"Washington","country":"us","formatted_address":"Warby Parker, 2619, Northeast University Village Street, University Village, University District, Seattle, King County, Washington, 98105, United States of America","place_id":"57807234","datatype":"locationiq"},{"name":"Apple Store - MarketStreet","code":null,"latitude":42.5156687,"longitude":-71.0341966,"address":"1220 Market Street, Lynnfield MA","chain_name":null,"distance":0,"street_number":"1210","street_name":"Market Street","zip":"01940","city":null,"area":null,"county":"Essex County","state":"Massachusetts","country":"us","formatted_address":"OTTO Pizza, 1210, Market Street, Lynnfield, Essex County, Massachusetts, 01940, United States of America","place_id":"38735963","datatype":"locationiq"},{"name":"Apple Store - Fashion Valley","code":null,"latitude":32.7681421,"longitude":-117.1698284,"address":"7007 Friars Road, San Diego CA","chain_name":null,"distance":0,"street_number":"6977","street_name":"Friars Road","zip":"92108","city":"San Diego","area":null,"county":"San Diego County","state":"California","country":"us","formatted_address":"6977, Friars Road, Mission Valley, San Diego, San Diego County, California, 92108, United States of America","place_id":"6523890","datatype":"locationiq"},{"name":"Apple Store - Penn Square","code":null,"latitude":35.5246909,"longitude":-97.5440106,"address":"1901 NW Expressway Street, Oklahoma City OK","chain_name":null,"distance":0,"street_number":"1901","street_name":"Belleview Drive","zip":"73118","city":"Oklahoma City","area":null,"county":"Oklahoma County","state":"Oklahoma","country":"us","formatted_address":"James Avery Jewelry, 1901, Belleview Drive, Penn Square Mall, Oklahoma City, Oklahoma County, Oklahoma, 73118, United States of America","place_id":"54033016","datatype":"locationiq"},{"name":"Apple Store - MacArthur Center","code":null,"latitude":36.8489027,"longitude":-76.2879503,"address":"300 Monticello Avenue, Norfolk VA","chain_name":null,"distance":0,"street_number":"300","street_name":"Monticello Avenue","zip":"23510","city":"Norfolk","area":"Huntersville","county":null,"state":"Virginia","country":"us","formatted_address":"Macarthur Center, 300, Monticello Avenue, Huntersville, Berkley, Norfolk, Virginia, 23510, United States of America","place_id":"158560472","datatype":"locationiq"},{"name":"Apple Store - The Forum Shops","code":null,"latitude":36.1173432,"longitude":-115.1763623,"address":"3500 Las Vegas Blvd South, Las Vegas NV","chain_name":null,"distance":0,"street_number":null,"street_name":"Jay Sarno Way","zip":"89109","city":null,"area":null,"county":"Clark County","state":"Nevada","country":"us","formatted_address":"Forum Tower, Jay Sarno Way, Hughes Center, Paradise, Clark County, Nevada, 89109, United States of America","place_id":"99869258","datatype":"locationiq"},{"name":"Apple Store - Memorial City","code":null,"latitude":29.7810332,"longitude":-95.5397304,"address":"303 Memorial City, Houston TX","chain_name":null,"distance":0,"street_number":null,"street_name":"Barryknoll Lane","zip":"77024","city":"Hedwig Village","area":null,"county":"Harris County","state":"Texas","country":"us","formatted_address":"Memorial City Mall, Barryknoll Lane, Hedwig Village, Harris County, Texas, 77024, United States of America","place_id":"102993626","datatype":"locationiq"},{"name":"Apple Store - Walnut Creek","code":null,"latitude":37.8969815,"longitude":-122.0602576,"address":"1129 S. Main Street, Walnut Creek CA","chain_name":null,"distance":0,"street_number":null,"street_name":"South Main Street","zip":"94596","city":null,"area":null,"county":"Contra Costa County","state":"California","country":"us","formatted_address":"Apple Store, South Main Street, Walnut Creek, Contra Costa County, California, 94596, United States of America","place_id":"22280523","datatype":"locationiq"},{"name":"Apple Store - Partridge Creek","code":null,"latitude":42.6252504,"longitude":-82.9464749,"address":"17360 Hall Road, Clinton Township MI","chain_name":null,"distance":0,"street_number":null,"street_name":"Hall Road","zip":"48038","city":null,"area":null,"county":"Macomb County","state":"Michigan","country":"us","formatted_address":"Hall Road, Clinton Township, Macomb County, Michigan, 48038, United States of America","place_id":"172889401","datatype":"locationiq"},{"name":"Apple Store - Southdale","code":null,"latitude":44.880335,"longitude":-93.324465,"address":"1560 Southdale Center, Edina MN","chain_name":null,"distance":0,"street_number":null,"street_name":"W 69th Street","zip":"55435","city":null,"area":null,"county":"Hennepin County","state":"Minnesota","country":"us","formatted_address":"Southdale Shopping Center, W 69th Street, Southdale, Edina, Hennepin County, Minnesota, 55435, United States of America","place_id":"80175091","datatype":"locationiq"},{"name":"Apple Store - Lincoln Park","code":null,"latitude":41.9105977,"longitude":-87.6485178,"address":"801 W. North Avenue, Chicago IL","chain_name":null,"distance":0,"street_number":"801","street_name":"West North Avenue","zip":"60642","city":"Chicago","area":"Belgravia Terrace","county":"Cook County","state":"Illinois","country":"us","formatted_address":"Apple Store, 801, West North Avenue, Belgravia Terrace, Chicago, Cook County, Illinois, 60642, United States of America","place_id":"135171976","datatype":"locationiq"},{"name":"Apple Store - Grand Central","code":null,"latitude":40.752735,"longitude":-73.977002,"address":"45 Grand Central Terminal, New York NY","chain_name":null,"distance":0,"street_number":"89","street_name":"East 42nd Street","zip":"10017","city":"New York City","area":"Murray Hill","county":"New York County","state":"New York","country":"us","formatted_address":"Grand Central Terminal, 89, East 42nd Street, Murray Hill, Manhattan, New York County, New York City, New York, 10017, United States of America","place_id":"131713335","datatype":"locationiq"},{"name":"Apple Store - Upper West Side","code":null,"latitude":40.775071,"longitude":-73.9826624,"address":"1981 Broadway, New York NY","chain_name":null,"distance":0,"street_number":"1981","street_name":"Broadway","zip":"10023","city":"New York City","area":"Upper West Side","county":"New York County","state":"New York","country":"us","formatted_address":"Apple Store, Upper West Side, 1981, Broadway, Upper West Side, Manhattan, New York County, New York City, New York, 10023, United States of America","place_id":"125982592","datatype":"locationiq"},{"name":"Apple Store - Summit Mall","code":null,"latitude":41.1341338,"longitude":-81.6176897,"address":"3265 West Market Street, Akron OH","chain_name":null,"distance":0,"street_number":null,"street_name":"West Market Street","zip":"44333","city":"Fairlawn","area":null,"county":"Summit County","state":"Ohio","country":"us","formatted_address":"Summit Mall, West Market Street, Fairlawn, Summit County, Ohio, 44333, United States of America","place_id":"138759193","datatype":"locationiq"},{"name":"Apple Store - La Encantada","code":null,"latitude":32.3247418,"longitude":-110.9301132,"address":"2905 East Skyline Drive, Tucson AZ","chain_name":null,"distance":0,"street_number":null,"street_name":"North Campbell Avenue","zip":"85718","city":"Tucson","area":null,"county":"Pima County","state":"Arizona","country":"us","formatted_address":"Crate & Barrel, North Campbell Avenue, Catalina Foothills, Tucson, Pima County, Arizona, 85718, United States of America","place_id":"113902837","datatype":"locationiq"},{"name":"Apple Store - Summerlin","code":null,"latitude":36.1502694,"longitude":-115.3338102,"address":"1985 Festival Plaza Drive, Las Vegas NV","chain_name":null,"distance":0,"street_number":null,"street_name":"Hughes Park Drive","zip":"89135","city":null,"area":null,"county":"Clark County","state":"Nevada","country":"us","formatted_address":"Hughes Park Drive, Red Rock Country Club, Summerlin South, Clark County, Nevada, 89135, United States of America","place_id":"75035700","datatype":"locationiq"},{"name":"Apple Store - The Oaks","code":null,"latitude":34.1852016,"longitude":-118.8859322,"address":"432 West Hillcrest Drive, Thousand Oaks CA","chain_name":null,"distance":0,"street_number":"494","street_name":"West Hillcrest Drive","zip":"91360","city":"Thousand Oaks","area":null,"county":"Ventura County","state":"California","country":"us","formatted_address":"494, West Hillcrest Drive, Thousand Oaks, Ventura County, California, 91360, United States of America","place_id":"180533742","datatype":"locationiq"},{"name":"Apple Store - UTC","code":null,"latitude":32.8723957,"longitude":-117.2092816,"address":"4505 La Jolla Village Drive, San Diego CA","chain_name":null,"distance":0,"street_number":null,"street_name":"Towne Centre Drive","zip":"92039","city":"San Diego","area":"University City","county":"San Diego County","state":"California","country":"us","formatted_address":"Sears, Towne Centre Drive, University City, San Diego, San Diego County, California, 92039, United States of America","place_id":"105246131","datatype":"locationiq"},{"name":"Apple Store - Short Pump Town Center","code":null,"latitude":37.6562009,"longitude":-77.6194616,"address":"11800 W. Broad Street, Richmond VA","chain_name":null,"distance":0,"street_number":"11800","street_name":"West Broad Street","zip":"23233","city":null,"area":null,"county":"Henrico County","state":"Virginia","country":"us","formatted_address":"Short Pump Town Center, 11800, West Broad Street, Short Pump, Henrico County, Virginia, 23233, United States of America","place_id":"122063908","datatype":"locationiq"},{"name":"Apple Store - Burlingame","code":null,"latitude":37.5782646,"longitude":-122.3470871,"address":"1301 Burlingame Avenue, Burlingame CA","chain_name":null,"distance":0,"street_number":"1301","street_name":"Burlingame Avenue","zip":"94101","city":"Burlingame","area":null,"county":"San Mateo County","state":"California","country":"us","formatted_address":"Apple Store, 1301, Burlingame Avenue, Burlingame, San Mateo County, California, 94101, United States of America","place_id":"82326271","datatype":"locationiq"},{"name":"Apple Store - Waterside Shops","code":null,"latitude":26.2128929,"longitude":-81.8025183,"address":"5555 Tamiami Trail North, Naples FL","chain_name":null,"distance":0,"street_number":null,"street_name":"Tamiami Trail","zip":"34103","city":"Naples","area":null,"county":"Collier County","state":"Florida","country":"us","formatted_address":"Tamiami Trail, Naples, Collier County, Florida, 34103, United States of America","place_id":"98399250","datatype":"locationiq"},{"name":"Apple Store - Willow Grove Park","code":null,"latitude":40.1431285,"longitude":-75.1201341,"address":"2500 West Moreland Road, Willow Grove PA","chain_name":null,"distance":0,"street_number":"2472","street_name":"West Moreland Road","zip":"19090","city":"Abington Township","area":null,"county":"Montgomery County","state":"Pennsylvania","country":"us","formatted_address":"2472, West Moreland Road, Abington Township, Montgomery County, Pennsylvania, 19090, United States of America","place_id":"202155950","datatype":"locationiq"},{"name":"Apple Store - Cherry Creek","code":null,"latitude":39.7175014,"longitude":-104.952671,"address":"3000 E 1st Avenue, Denver CO","chain_name":null,"distance":0,"street_number":"3030","street_name":"East 1st Avenue","zip":"80206","city":"Denver","area":null,"county":"Denver County","state":"Colorado","country":"us","formatted_address":"Neiman Marcus, 3030, East 1st Avenue, Denver, Denver County, Colorado, 80206, United States of America","place_id":"37518548","datatype":"locationiq"},{"name":"Apple Store - The Domain","code":null,"latitude":30.4015938,"longitude":-97.7267811,"address":"11410 Century Oaks Terrace, Austin TX","chain_name":null,"distance":0,"street_number":"11410","street_name":"Century Oaks Terrace","zip":"78758","city":"Austin","area":null,"county":"Travis County","state":"Texas","country":"us","formatted_address":"11410, Century Oaks Terrace, Austin, Travis County, Texas, 78758, United States of America","place_id":"92221727","datatype":"locationiq"},{"name":"Apple Store - Stonestown","code":null,"latitude":37.7278702,"longitude":-122.4770819,"address":"3251 20th Avenue, San Francisco CA","chain_name":null,"distance":0,"street_number":null,"street_name":"Underground Parking Entrance","zip":"94132","city":"San Francisco","area":"Saint Francis Wood","county":"San Francisco City and County","state":"California","country":"us","formatted_address":"Stonestown Galleria Mall, Underground Parking Entrance, Saint Francis Wood, San Francisco, San Francisco City and County, California, 94132, United States of America","place_id":"102515599","datatype":"locationiq"},{"name":"Apple Store - Altamonte","code":null,"latitude":28.663915,"longitude":-81.377079,"address":"451 E Altamonte Drive, Altamonte Springs FL","chain_name":null,"distance":0,"street_number":"467","street_name":"East Altamonte Drive","zip":"32701","city":null,"area":null,"county":"Seminole County","state":"Florida","country":"us","formatted_address":"467, East Altamonte Drive, Altamonte Springs, Seminole County, Florida, 32701, United States of America","place_id":"183186176","datatype":"locationiq"},{"name":"Apple Store - Town Square","code":null,"latitude":36.0661928,"longitude":-115.1722432,"address":"6671 Las Vegas Boulevard South, Las Vegas NV","chain_name":null,"distance":0,"street_number":"6800","street_name":"South Las Vegas Boulevard","zip":"89119","city":null,"area":null,"county":"Clark County","state":"Nevada","country":"us","formatted_address":"6800, South Las Vegas Boulevard, Enterprise, Paradise, Clark County, Nevada, 89119, United States of America","place_id":"194843515","datatype":"locationiq"},{"name":"Apple Store - Ridge Hill","code":null,"latitude":40.963703,"longitude":-73.856564,"address":"143 Market Street, Yonkers NY","chain_name":null,"distance":0,"street_number":null,"street_name":"Archer Street","zip":"10710","city":"Yonkers","area":null,"county":"Westchester County","state":"New York","country":"us","formatted_address":"Archer Street, Westchester Ridge Hill, Yonkers, Westchester County, New York, 10710, United States of America","place_id":"116046160","datatype":"locationiq"},{"name":"Apple Store - Lehigh Valley","code":null,"latitude":40.6307581,"longitude":-75.4799733,"address":"250 Lehigh Valley Mall, Whitehall PA","chain_name":null,"distance":0,"street_number":null,"street_name":"Lehigh Valley Mall","zip":"18052","city":"Whitehall","area":null,"county":"Lehigh County","state":"Pennsylvania","country":"us","formatted_address":"Lehigh Valley Mall, Whitehall, Lehigh County, Pennsylvania, 18052, United States of America","place_id":"76318667","datatype":"locationiq"},{"name":"Apple Store - Old Orchard","code":null,"latitude":42.0595722,"longitude":-87.749028,"address":"4999 Old Orchard Center, Skokie IL","chain_name":null,"distance":0,"street_number":null,"street_name":"Old Orchard Drive","zip":"60077","city":null,"area":null,"county":"Cook County","state":"Illinois","country":"us","formatted_address":"Old Orchard Drive, Westfield Old Orchard, Skokie, Cook County, Illinois, 60077, United States of America","place_id":"153607131","datatype":"locationiq"},{"name":"Apple Store - Eastwood Towne Center","code":null,"latitude":42.7639062,"longitude":-84.5133864,"address":"3025 Preyde Boulevard, Lansing MI","chain_name":null,"distance":0,"street_number":"3007","street_name":"Preyde Boulevard","zip":"48912","city":"Lansing charter township","area":null,"county":"Ingham County","state":"Michigan","country":"us","formatted_address":"American Eagle, 3007, Preyde Boulevard, Eastwood Towne Center, Lansing charter township, Ingham County, Michigan, 48912, United States of America","place_id":"45430874","datatype":"locationiq"},{"name":"Apple Store - Chestnut Hill","code":null,"latitude":42.3213853,"longitude":-71.175966,"address":"199 Boylston Street, Chestnut Hill MA","chain_name":null,"distance":0,"street_number":null,"street_name":"Hammond Pond Parkway","zip":"02467","city":null,"area":null,"county":"Middlesex County","state":"Massachusetts","country":"us","formatted_address":"Hammond Pond Parkway, Chestnut Hill, Newton, Middlesex County, Massachusetts, 02467, United States of America","place_id":"65163484","datatype":"locationiq"},{"name":"Apple Store - Saint Louis Galleria","code":null,"latitude":38.6372982,"longitude":-90.3483764,"address":"2440 Saint Louis Galleria, St. Louis MO","chain_name":null,"distance":0,"street_number":"8282","street_name":"Clayton Road","zip":"63117","city":"Ladue","area":null,"county":"St. Louis County","state":"Missouri","country":"us","formatted_address":"8282, Clayton Road, Ladue, St. Louis County, Missouri, 63117, United States of America","place_id":"194014883","datatype":"locationiq"},{"name":"Apple Store - Florida Mall","code":null,"latitude":28.4554186,"longitude":-81.398841,"address":"8001 South Orange Blossom Trail, Orlando FL","chain_name":null,"distance":0,"street_number":null,"street_name":"Skyview Drive","zip":"32809","city":"Orlando","area":null,"county":"Orange County","state":"Florida","country":"us","formatted_address":"Taco Bell, Skyview Drive, Orlando, Orange County, Florida, 32809, United States of America","place_id":"140680975","datatype":"locationiq"},{"name":"Apple Store - Derby Street","code":null,"latitude":42.17746,"longitude":-70.9087745,"address":"94 Derby Street, Hingham MA","chain_name":null,"distance":0,"street_number":"2","street_name":"Keith Way","zip":"02043","city":null,"area":null,"county":"Plymouth County","state":"Massachusetts","country":"us","formatted_address":"2, Keith Way, Hingham, Plymouth County, Massachusetts, 02043, United States of America","place_id":"190470012","datatype":"locationiq"},{"name":"Apple Store - Tice's Corner","code":null,"latitude":41.0419119,"longitude":-74.0750021,"address":"441 Chestnut Ridge Road, Woodcliff Lake NJ","chain_name":null,"distance":0,"street_number":null,"street_name":"Harriet Drive","zip":"07677","city":"Woodcliff Lake","area":null,"county":"Bergen County","state":"New Jersey","country":"us","formatted_address":"Apple Store, Harriet Drive, Woodcliff Lake, Bergen County, New Jersey, 07677, United States of America","place_id":"28213390","datatype":"locationiq"},{"name":"Apple Store - CambridgeSide","code":null,"latitude":42.3681321,"longitude":-71.0763644,"address":"100 CambridgeSide Place, Cambridge MA","chain_name":null,"distance":0,"street_number":null,"street_name":"Cambridgeside Place","zip":"02141","city":null,"area":"East Cambridge","county":"Middlesex County","state":"Massachusetts","country":"us","formatted_address":"Cambridgeside Galleria, Cambridgeside Place, East Cambridge, Cambridge, Middlesex County, Massachusetts, 02141, United States of America","place_id":"174119734","datatype":"locationiq"},{"name":"Apple Store - Holyoke","code":null,"latitude":42.167247,"longitude":-72.641327,"address":"50 Holyoke Street, Holyoke MA","chain_name":null,"distance":0,"street_number":null,"street_name":"Mall Drive","zip":"01013","city":null,"area":null,"county":"Hampden County","state":"Massachusetts","country":"us","formatted_address":"Holyoke Mall, Mall Drive, Holyoke, Hampden County, Massachusetts, 01013, United States of America","place_id":"77533491","datatype":"locationiq"},{"name":"Apple Store - Alderwood Mall","code":null,"latitude":47.8299542,"longitude":-122.2725709,"address":"3000 184th Street S.W., Lynnwood WA","chain_name":null,"distance":0,"street_number":"3000","street_name":"184th Street Southwest","zip":"98037","city":"Lynnwood","area":null,"county":"Snohomish County","state":"Washington","country":"us","formatted_address":"Alderwood Mall, 3000, 184th Street Southwest, Lynnwood, Snohomish County, Washington, 98037, United States of America","place_id":"77847600","datatype":"locationiq"},{"name":"Apple Store - Brandon","code":null,"latitude":27.9312118,"longitude":-82.325879,"address":"459 Brandon Town Center Drive, Brandon FL","chain_name":null,"distance":0,"street_number":null,"street_name":"Brandon Town Center Drive","zip":"33511","city":"Brandon","area":null,"county":"Hillsborough County","state":"Florida","country":"us","formatted_address":"Brandon Town Center Drive, Brandon, Hillsborough County, Florida, 33511, United States of America","place_id":"65994316","datatype":"locationiq"},{"name":"Apple Store - The Woodlands","code":null,"latitude":30.1639591,"longitude":-95.45537,"address":"1201 Lake Woodlands Drive, The Woodlands TX","chain_name":null,"distance":0,"street_number":"1201","street_name":"Lake Woodlands Drive","zip":"77385","city":"The Woodlands","area":null,"county":"Montgomery County","state":"Texas","country":"us","formatted_address":"1201, Lake Woodlands Drive, Town Center, The Woodlands, Montgomery County, Texas, 77385, United States of America","place_id":"96368996","datatype":"locationiq"},{"name":"Apple Store - Dadeland","code":null,"latitude":25.6905453,"longitude":-80.3124946,"address":"7535 Dadeland Mall, Miami FL","chain_name":null,"distance":0,"street_number":"7535","street_name":"Southwest 88th Street","zip":"33156-7704","city":"Kendall","area":null,"county":"Miami-Dade County","state":"Florida","country":"us","formatted_address":"Dadeland Mall, 7535, Southwest 88th Street, Kendall, Miami-Dade County, Florida, 33156-7704, United States of America","place_id":"102094939","datatype":"locationiq"},{"name":"Apple Store - Garden State Plaza","code":null,"latitude":40.914763,"longitude":-74.075323,"address":"1 Garden State Plaza, Paramus NJ","chain_name":null,"distance":0,"street_number":null,"street_name":"Garden State Plaza Boulevard","zip":"07652","city":"Rochelle Park","area":null,"county":"Bergen County","state":"New Jersey","country":"us","formatted_address":"Best Buy, Garden State Plaza Boulevard, Rochelle Park, Bergen County, New Jersey, 07652, United States of America","place_id":"122891576","datatype":"locationiq"},{"name":"Apple Store - Franklin Park Mall","code":null,"latitude":41.6947913,"longitude":-83.6405727,"address":"5001 Monroe Street, Toledo OH","chain_name":null,"distance":0,"street_number":null,"street_name":"Royer Road","zip":"43623","city":"Toledo","area":"Franklin Park","county":"Lucas County","state":"Ohio","country":"us","formatted_address":"Royer Road, Franklin Park, Toledo, Lucas County, Ohio, 43623, United States of America","place_id":"64255902","datatype":"locationiq"},{"name":"Apple Store - Green Hills","code":null,"latitude":36.1085772,"longitude":-86.8133432,"address":"2126 Abbott Martin Road, Nashville TN","chain_name":null,"distance":0,"street_number":null,"street_name":"Green Hills Village Drive","zip":"37215","city":"Nashville-Davidson","area":null,"county":"Davidson County","state":"Tennessee","country":"us","formatted_address":"Green Hills Village Drive, Nashville-Davidson, Davidson County, Tennessee, 37215, United States of America","place_id":"116114102","datatype":"locationiq"},{"name":"Apple Store - Evergreen Walk","code":null,"latitude":41.8127151,"longitude":-72.5564937,"address":"401 Evergreen WalkSouth , Windsor CT","chain_name":null,"distance":0,"street_number":"800","street_name":"Evergreen Way","zip":"06074","city":null,"area":null,"county":"Hartford County","state":"Connecticut","country":"us","formatted_address":"Sakura Garden, 800, Evergreen Way, Wapping, Hartford County, Connecticut, 06074, United States of America","place_id":"29845497","datatype":"locationiq"},{"name":"Apple Store - Burlington","code":null,"latitude":42.481127,"longitude":-71.216752,"address":"75 Middlesex Turnpike, Burlington MA","chain_name":null,"distance":0,"street_number":null,"street_name":"Middlesex Turnpike","zip":"01805","city":null,"area":null,"county":"Middlesex County","state":"Massachusetts","country":"us","formatted_address":"Middlesex Turnpike, Burlington, Middlesex County, Massachusetts, 01805, United States of America","place_id":"108055958","datatype":"locationiq"},{"name":"Apple Store - Augusta","code":null,"latitude":33.4635508,"longitude":-82.0788358,"address":"3450 Wrightsboro Road, Augusta GA","chain_name":null,"distance":0,"street_number":"3450","street_name":"Wrightsboro Road","zip":"30909","city":null,"area":null,"county":"Richmond County","state":"Georgia","country":"us","formatted_address":"Augusta Mall, 3450, Wrightsboro Road, Springfield, Richmond County, Georgia, 30909, United States of America","place_id":"44123557","datatype":"locationiq"},{"name":"Apple Store - Coconut Point","code":null,"latitude":26.402173,"longitude":-81.806526,"address":"23151 Fashion Drive, Estero FL","chain_name":null,"distance":0,"street_number":"23151","street_name":"Fashion Drive","zip":"33928","city":null,"area":null,"county":"Lee County","state":"Florida","country":"us","formatted_address":"23151, Fashion Drive, Coconut Point, Residences at Coconut Point, Lee County, Florida, 33928, United States of America","place_id":"110167635","datatype":"locationiq"},{"name":"Apple Store - Columbia","code":null,"latitude":39.2153109,"longitude":-76.8612159,"address":"10300 Little Patuxent Parkway, Columbia MD","chain_name":null,"distance":0,"street_number":null,"street_name":"Mall Access Road","zip":"21044","city":"Columbia","area":"Bryant Woods","county":"Howard County","state":"Maryland","country":"us","formatted_address":"Zo\u00ebs Kitchen, Mall Access Road, Bryant Woods, Columbia Town Center, Columbia, Howard County, Maryland, 21044, United States of America","place_id":"37682664","datatype":"locationiq"},{"name":"Apple Store - Jordan Creek","code":null,"latitude":41.5702624,"longitude":-93.8070392,"address":"101 Jordan Creek Parkway, West Des Moines IA","chain_name":null,"distance":0,"street_number":"101","street_name":"South Jordan Creek Parkway","zip":"50266","city":"West Des Moines","area":null,"county":"Dallas County","state":"Iowa","country":"us","formatted_address":"Younkers, 101, South Jordan Creek Parkway, Plaza at Jordan Creek, West Des Moines, Dallas County, Iowa, 50266, United States of America","place_id":"94251345","datatype":"locationiq"},{"name":"Apple Store - Biltmore","code":null,"latitude":33.5103953,"longitude":-112.0286923,"address":"2502 East Camelback Road, Phoenix AZ","chain_name":null,"distance":0,"street_number":null,"street_name":"North 24th Street","zip":"85016","city":"Phoenix","area":null,"county":"Maricopa County","state":"Arizona","country":"us","formatted_address":"North 24th Street, Biltmore Fashion Park, Camelback East, Phoenix, Maricopa County, Arizona, 85016, United States of America","place_id":"163856630","datatype":"locationiq"},{"name":"Apple Store - Baybrook","code":null,"latitude":29.541913,"longitude":-95.1481783,"address":"500 Baybrook Mall, Friendswood TX","chain_name":null,"distance":0,"street_number":"500","street_name":"Baybrook Mall","zip":"77546","city":null,"area":null,"county":"Harris County","state":"Texas","country":"us","formatted_address":"Baybrook Mall, 500, Baybrook Mall, Clear Lake City, Harris County, Texas, 77546, United States of America","place_id":"81393859","datatype":"locationiq"},{"name":"Apple Store - Pheasant Lane","code":null,"latitude":42.7016049,"longitude":-71.4367899,"address":"310 Daniel Webster Highway, Nashua NH","chain_name":null,"distance":0,"street_number":"310","street_name":"Daniel Webster Highway","zip":"03060","city":"Nashua","area":null,"county":"Hillsborough County","state":"New Hampshire","country":"us","formatted_address":"310, Daniel Webster Highway, South Nashua, Ward 7, Nashua, Hillsborough County, New Hampshire, 03060, United States of America","place_id":"76551766","datatype":"locationiq"},{"name":"Apple Store - Potomac Town Center","code":null,"latitude":38.6280732,"longitude":-77.2879214,"address":"15100 Potomac Town Place, Woodbridge VA","chain_name":null,"distance":0,"street_number":null,"street_name":"Potomac Town Place","zip":"22191","city":null,"area":null,"county":"Prince William County","state":"Virginia","country":"us","formatted_address":"Soma, Potomac Town Place, Potomac Mills, Prince William County, Virginia, 22191, United States of America","place_id":"24790063","datatype":"locationiq"},{"name":"Apple Store - Aventura","code":null,"latitude":25.9581542,"longitude":-80.1468335,"address":"19501 Biscayne Boulevard, Aventura FL","chain_name":null,"distance":0,"street_number":null,"street_name":"West Dixie Highway","zip":"33160","city":null,"area":"Highland Lakes","county":"Miami-Dade County","state":"Florida","country":"us","formatted_address":"W DIXIE HY@OP.# 19800, West Dixie Highway, Highland Lakes, Aventura, Landmark Mobile Home Park, Miami-Dade County, Florida, 33160, United States of America","place_id":"12449475","datatype":"locationiq"},{"name":"Apple Store - Woodland Hills","code":null,"latitude":36.0619114,"longitude":-95.8862805,"address":"7021 S. Memorial Drive, Tulsa OK","chain_name":null,"distance":0,"street_number":null,"street_name":"South Memorial Drive","zip":"74133","city":"Tulsa","area":"Burning Tree","county":"Tulsa County","state":"Oklahoma","country":"us","formatted_address":"Olive Garden, South Memorial Drive, Burning Tree, Tulsa, Tulsa County, Oklahoma, 74133, United States of America","place_id":"90201804","datatype":"locationiq"},{"name":"Apple Store - Towson Town Center","code":null,"latitude":39.4038642,"longitude":-76.5987395,"address":"825 Dulaney Valley Road, Towson MD","chain_name":null,"distance":0,"street_number":"825","street_name":"Dulaney Valley Road","zip":"21204","city":"Towson","area":"Towson Park","county":"Baltimore County","state":"Maryland","country":"us","formatted_address":"Towson Town Center, 825, Dulaney Valley Road, Towson Park, Towson, Baltimore County, Maryland, 21204, United States of America","place_id":"104926319","datatype":"locationiq"},{"name":"Apple Store - The Summit","code":null,"latitude":33.4465154,"longitude":-86.7296322,"address":"217 Summit Boulevard, Birmingham AL","chain_name":null,"distance":0,"street_number":"205","street_name":"Summit Boulevard","zip":"35243","city":"Vestavia Hills","area":null,"county":"Jefferson County","state":"Alabama","country":"us","formatted_address":"Trader Joe's, 205, Summit Boulevard, The Summit, Vestavia Hills, Jefferson County, Alabama, 35243, United States of America","place_id":"61350476","datatype":"locationiq"},{"name":"Apple Store - Houston Galleria","code":null,"latitude":29.7382947,"longitude":-95.4645046,"address":"5085 Westheimer Road, Houston TX","chain_name":null,"distance":0,"street_number":"5085","street_name":"Westheimer Road","zip":"77056","city":null,"area":"Highland Village","county":"Harris County","state":"Texas","country":"us","formatted_address":"The Galleria, 5085, Westheimer Road, Highland Village, Lamar Terrace, Harris County, Texas, 77056, United States of America","place_id":"81629711","datatype":"locationiq"},{"name":"Apple Store - Briarwood","code":null,"latitude":42.2403679,"longitude":-83.7475749,"address":"100 Briarwood Circle, Ann Arbor MI","chain_name":null,"distance":0,"street_number":"434","street_name":"Briarwood Circle","zip":"48108","city":"Ann Arbor","area":null,"county":"Washtenaw County","state":"Michigan","country":"us","formatted_address":"Loft, 434, Briarwood Circle, Ann Arbor, Washtenaw County, Michigan, 48108, United States of America","place_id":"53422391","datatype":"locationiq"},{"name":"Apple Store - West Towne","code":null,"latitude":43.057412,"longitude":-89.512696,"address":"18 West Towne Mall, Madison WI","chain_name":null,"distance":0,"street_number":null,"street_name":"Zor Shrine Place","zip":"53719","city":"Madison","area":null,"county":"Dane County","state":"Wisconsin","country":"us","formatted_address":"REI, Zor Shrine Place, High Point Center, Madison, Dane County, Wisconsin, 53719, United States of America","place_id":"75079697","datatype":"locationiq"},{"name":"Apple Store - Twelve Oaks","code":null,"latitude":42.4899334,"longitude":-83.4759009,"address":"27500 Novi Road, Novi MI","chain_name":null,"distance":0,"street_number":"27750","street_name":"Novi Road","zip":"48377","city":"Novi","area":null,"county":"Oakland County","state":"Michigan","country":"us","formatted_address":"27750, Novi Road, Novi, Oakland County, Michigan, 48377, United States of America","place_id":"131691542","datatype":"locationiq"},{"name":"Apple Store - Topanga","code":null,"latitude":34.1854111,"longitude":-118.6045941,"address":"6600 Topanga Canyon Boulevard, Canoga Park CA","chain_name":null,"distance":0,"street_number":null,"street_name":null,"zip":"91367","city":"Los Angeles","area":null,"county":"Los Angeles County","state":"California","country":"us","formatted_address":"Emphatic, Sunday Market, Topanga Village, Warner Center, Los Angeles, Los Angeles County, California, 91367, United States of America","place_id":"51855597","datatype":"locationiq"},{"name":"Apple Store - Hillsdale","code":null,"latitude":37.536709,"longitude":-122.300118,"address":"340 Hillsdale Shopping Center, San Mateo CA","chain_name":null,"distance":0,"street_number":null,"street_name":"31st Avenue","zip":"94403","city":"San Mateo","area":null,"county":"San Mateo County","state":"California","country":"us","formatted_address":"Hillsdale Shopping Center, 31st Avenue, Hillsdale Shopping Center, San Mateo, San Mateo County, California, 94403, United States of America","place_id":"105219953","datatype":"locationiq"},{"name":"Apple Store - West County","code":null,"latitude":38.6009346,"longitude":-90.4476968,"address":"131 West County Center, St. Louis MO","chain_name":null,"distance":0,"street_number":null,"street_name":"West County Center Drive","zip":"63131","city":"Des Peres","area":null,"county":"St. Louis County","state":"Missouri","country":"us","formatted_address":"West County Center, West County Center Drive, Des Peres, St. Louis County, Missouri, 63131, United States of America","place_id":"152808588","datatype":"locationiq"},{"name":"Apple Store - Uptown","code":null,"latitude":44.9476919,"longitude":-93.2986118,"address":"3018 Hennepin Avenue, Minneapolis MN","chain_name":null,"distance":0,"street_number":"3018","street_name":"Hennepin Avenue South","zip":"55408","city":"Minneapolis","area":null,"county":"Hennepin County","state":"Minnesota","country":"us","formatted_address":"3018, Hennepin Avenue South, CARAG, Minneapolis, Hennepin County, Minnesota, 55408, United States of America","place_id":"104369991","datatype":"locationiq"},{"name":"Apple Store - ABQ Uptown","code":null,"latitude":35.1024312,"longitude":-106.5669329,"address":"2240 Q Street NE, Albuquerque NM","chain_name":null,"distance":0,"street_number":null,"street_name":"Indian School Road Northeast","zip":"87112","city":"Albuquerque","area":null,"county":"Bernalillo County","state":"New Mexico","country":"us","formatted_address":"Gap Kids, Indian School Road Northeast, Vista Encantada, Albuquerque, Bernalillo County, New Mexico, 87112, United States of America","place_id":"21778020","datatype":"locationiq"},{"name":"Apple Store - Christiana Mall","code":null,"latitude":39.679285,"longitude":-75.653025,"address":"125 Christiana Mall, Newark DE","chain_name":null,"distance":0,"street_number":"132","street_name":"Mall Road","zip":"19702","city":null,"area":null,"county":"New Castle County","state":"Delaware","country":"us","formatted_address":"Sephora, 132, Mall Road, Edgebrooke, New Castle County, Delaware, 19702, United States of America","place_id":"58254224","datatype":"locationiq"},{"name":"Apple Store - Eastview","code":null,"latitude":43.0277091,"longitude":-77.4436866,"address":"7979 Pittsford-, Victor RoadVictor NY","chain_name":null,"distance":0,"street_number":null,"street_name":"Eastview Mall Drive","zip":"14564","city":null,"area":null,"county":"Ontario County","state":"New York","country":"us","formatted_address":"Eastview Mall Drive, Eastview Mall, Fishers, Victor Town, Ontario County, New York, 14564, United States of America","place_id":"174074325","datatype":"locationiq"},{"name":"Apple Store - The Fashion Mall at Keystone","code":null,"latitude":39.9140651,"longitude":-86.1111523,"address":"8702 Keystone Crossing, Indianapolis IN","chain_name":null,"distance":0,"street_number":null,"street_name":"Keystone Crossing","zip":"46240","city":null,"area":null,"county":"Marion County","state":"Indiana","country":"us","formatted_address":"Fashion Mall at Keystone, Keystone Crossing, Driftwood Hills, Marion County, Indiana, 46240, United States of America","place_id":"136966709","datatype":"locationiq"},{"name":"Apple Store - Mall of America","code":null,"latitude":44.8532693,"longitude":-93.2417851,"address":"132 South Avenue, Bloomington MN","chain_name":null,"distance":0,"street_number":"2100","street_name":"Killebrew Drive","zip":"55425","city":"Bloomington","area":null,"county":"Hennepin County","state":"Minnesota","country":"us","formatted_address":"Radisson Blu Mall of America, 2100, Killebrew Drive, Bloomington, Hennepin County, Minnesota, 55425, United States of America","place_id":"109242546","datatype":"locationiq"},{"name":"Apple Store - Providence Place","code":null,"latitude":41.827286,"longitude":-71.415986,"address":"20 Providence Place, Providence RI","chain_name":null,"distance":0,"street_number":null,"street_name":null,"zip":"02903","city":"Providence","area":null,"county":"Providence County","state":"Rhode Island","country":"us","formatted_address":"Providence Place Mall, Woonasquatucket Greenway Ramp, Providence, Providence County, Rhode Island, 02903, United States of America","place_id":"174650869","datatype":"locationiq"},{"name":"Apple Store - Valley Fair","code":null,"latitude":37.325845,"longitude":-121.9456152,"address":"2855 Stevens Creek Boulevard, Santa Clara CA","chain_name":null,"distance":0,"street_number":null,"street_name":"Forest Avenue","zip":"95128","city":"San Jos\u00e9","area":null,"county":"Santa Clara County","state":"California","country":"us","formatted_address":"Westfield Valley Fair, Forest Avenue, Rose Garden, San Jos\u00e9, Santa Clara County, California, 95128, United States of America","place_id":"73535356","datatype":"locationiq"},{"name":"Apple Store - SoHo","code":null,"latitude":40.7251148,"longitude":-73.9989687,"address":"103 Prince Street, New York NY","chain_name":null,"distance":0,"street_number":"101","street_name":"Prince Street","zip":"10012","city":"New York City","area":"SoHo","county":"New York County","state":"New York","country":"us","formatted_address":"101, Prince Street, SoHo, Manhattan, New York County, New York City, New York, 10012, United States of America","place_id":"127790249","datatype":"locationiq"},{"name":"Apple Store - Rosedale Center","code":null,"latitude":45.0128486,"longitude":-93.1690483,"address":"1595 Highway 36 W, Roseville MN","chain_name":null,"distance":0,"street_number":null,"street_name":"Rosedale Shopping Center","zip":"55113","city":"Roseville","area":null,"county":"Ramsey County","state":"Minnesota","country":"us","formatted_address":"AMC Rosedale 16, Rosedale Shopping Center, Roseville, Ramsey County, Minnesota, 55113, United States of America","place_id":"78910124","datatype":"locationiq"},{"name":"Apple Store - Willowbrook","code":null,"latitude":40.8900807,"longitude":-74.2615039,"address":"1400 Willowbrook Mall, Wayne NJ","chain_name":null,"distance":0,"street_number":null,"street_name":"Willowbrook Boulevard","zip":"07470","city":"Wayne","area":null,"county":"Passaic County","state":"New Jersey","country":"us","formatted_address":"Sears, Willowbrook Boulevard, Wayne, Passaic County, New Jersey, 07470, United States of America","place_id":"24544894","datatype":"locationiq"},{"name":"Apple Store - La Cantera","code":null,"latitude":29.5932926,"longitude":-98.6109397,"address":"15900 La Cantera Parkway, San Antonio TX","chain_name":null,"distance":0,"street_number":null,"street_name":"Via Mercado","zip":"78249","city":"San Antonio","area":null,"county":"Bexar County","state":"Texas","country":"us","formatted_address":"Yard House, Via Mercado, San Antonio, Bexar County, Texas, 78249, United States of America","place_id":"96956264","datatype":"locationiq"},{"name":"Apple Store - Millenia","code":null,"latitude":28.485565,"longitude":-81.4315497,"address":"4200 Conroy Road, Orlando FL","chain_name":null,"distance":0,"street_number":null,"street_name":"Millenia Boulevard","zip":"32811","city":"Orlando","area":null,"county":"Orange County","state":"Florida","country":"us","formatted_address":"Millenia Boulevard, Orlando, Orange County, Florida, 32811, United States of America","place_id":"81446936","datatype":"locationiq"},{"name":"Apple Store - Easton Town Center","code":null,"latitude":40.0540687,"longitude":-82.9148552,"address":"4210 The Strand, Columbus OH","chain_name":null,"distance":0,"street_number":null,"street_name":"The Strand","zip":"43219","city":"Columbus","area":null,"county":"Franklin County","state":"Ohio","country":"us","formatted_address":"Easton Town Center, The Strand, Easton Town Center, Columbus, Franklin County, Ohio, 43219, United States of America","place_id":"84989955","datatype":"locationiq"},{"name":"Apple Store - Fayette Mall","code":null,"latitude":37.99027,"longitude":-84.524191,"address":"3401 Nicholasville Road, Lexington KY","chain_name":null,"distance":0,"street_number":"100","street_name":"Brigadoon Parkway","zip":"40517","city":null,"area":"Brigadoon","county":"Fayette County","state":"Kentucky","country":"us","formatted_address":"100, Brigadoon Parkway, Brigadoon, Blueberry Hill, Fayette County, Kentucky, 40517, United States of America","place_id":"157235346","datatype":"locationiq"},{"name":"Apple Store - Highland Village","code":null,"latitude":29.7420592,"longitude":-95.4457387,"address":"4012 Westheimer Road, Houston TX","chain_name":null,"distance":0,"street_number":null,"street_name":"Westheimer Road","zip":"77027","city":"Houston","area":"Highland Village","county":"Harris County","state":"Texas","country":"us","formatted_address":"Highland Village, Westheimer Road, Highland Village, Houston, Harris County, Texas, 77027, United States of America","place_id":"108323584","datatype":"locationiq"},{"name":"Apple Store - Cherry Hill","code":null,"latitude":39.9423869,"longitude":-75.025193,"address":"2000 Route 38, Cherry Hill NJ","chain_name":null,"distance":0,"street_number":"1","street_name":"Cherry Hill Mall Drive","zip":"08002","city":"Cherry Hill Township","area":null,"county":"Camden County","state":"New Jersey","country":"us","formatted_address":"1, Cherry Hill Mall Drive, Cherry Hill Mall, Cherry Hill Township, Camden County, New Jersey, 08002, United States of America","place_id":"76108326","datatype":"locationiq"},{"name":"Apple Store - Stoneridge Mall","code":null,"latitude":37.6957464,"longitude":-121.92924,"address":"One Stoneridge Mall, Pleasanton CA","chain_name":null,"distance":0,"street_number":null,"street_name":"Stoneridge Mall Road","zip":"94568","city":null,"area":null,"county":"Alameda County","state":"California","country":"us","formatted_address":"Stoneridge Mall, Stoneridge Mall Road, Pleasanton, Alameda County, California, 94568, United States of America","place_id":"90950254","datatype":"locationiq"},{"name":"Apple Store - Southpoint","code":null,"latitude":35.9048455,"longitude":-78.9448592,"address":"8030 Renaissance Parkway, Durham NC","chain_name":null,"distance":0,"street_number":"6910","street_name":"Fayetteville Road","zip":"27713","city":"Durham","area":null,"county":"Durham County","state":"North Carolina","country":"us","formatted_address":"6910, Fayetteville Road, Durham, Durham County, North Carolina, 27713, United States of America","place_id":"15109095","datatype":"locationiq"},{"name":"Apple Store - Station Park","code":null,"latitude":40.9833287,"longitude":-111.9065687,"address":"148 N. East Promontory, Farmington UT","chain_name":null,"distance":0,"street_number":"125","street_name":"West Clark Lane","zip":"84025","city":"Farmington","area":null,"county":"Davis County","state":"Utah","country":"us","formatted_address":"Caffe Torino, 125, West Clark Lane, Farmington, Davis County, Utah, 84025, United States of America","place_id":"26866086","datatype":"locationiq"},{"name":"Apple Store - Upper East Side","code":null,"latitude":40.7733789,"longitude":-73.9645457,"address":"940 Madison Avenue, New York NY","chain_name":null,"distance":0,"street_number":"940","street_name":"Madison Avenue","zip":"10021","city":"New York City","area":"Upper East Side","county":"New York County","state":"New York","country":"us","formatted_address":"940, Madison Avenue, Upper East Side, Manhattan, New York County, New York City, New York, 10021, United States of America","place_id":"48458573","datatype":"locationiq"},{"name":"Apple Store - St. Johns Town Center","code":null,"latitude":30.2533507,"longitude":-81.5251315,"address":"4835 River City Drive, Jacksonville FL","chain_name":null,"distance":0,"street_number":null,"street_name":"Bistro Drive","zip":"32246","city":"Jacksonville","area":null,"county":"Duval County","state":"Florida","country":"us","formatted_address":"Forever 21, Bistro Drive, St. Johns Town Center, Jacksonville, Duval County, Florida, 32246, United States of America","place_id":"147839760","datatype":"locationiq"},{"name":"Apple Store - King of Prussia","code":null,"latitude":40.0879055,"longitude":-75.3897629,"address":"160 N. Gulph Road, King of Prussia PA","chain_name":null,"distance":0,"street_number":null,"street_name":"Court Boulevard","zip":"19406","city":"Upper Merion Township","area":null,"county":"Montgomery County","state":"Pennsylvania","country":"us","formatted_address":"Neiman Marcus, Court Boulevard, King of Prussia Mall, Upper Merion Township, Montgomery County, Pennsylvania, 19406, United States of America","place_id":"174704088","datatype":"locationiq"},{"name":"Apple Store - Reston","code":null,"latitude":38.9587147,"longitude":-77.3577355,"address":"11949 Market Street, Reston VA","chain_name":null,"distance":0,"street_number":null,"street_name":"Market Street","zip":"20190","city":null,"area":null,"county":"Fairfax County","state":"Virginia","country":"us","formatted_address":"Victoria's Secret, Market Street, Reston Town Center, Reston, Fairfax County, Virginia, 20190, United States of America","place_id":"8399171","datatype":"locationiq"},{"name":"Apple Store - Stamford","code":null,"latitude":41.0530773,"longitude":-73.5371438,"address":"100 Greyrock Place, Stamford CT","chain_name":null,"distance":0,"street_number":null,"street_name":"Edith Sherman Drive","zip":"06901","city":"Stamford","area":null,"county":"Fairfield County","state":"Connecticut","country":"us","formatted_address":"Stamford Town Center, Edith Sherman Drive, Stamford, Fairfield County, Connecticut, 06901, United States of America","place_id":"150887763","datatype":"locationiq"},{"name":"Apple Store - Higuera Street","code":null,"latitude":35.2802914,"longitude":-120.661687,"address":"899 Higuera StreetSan , Luis Obispo CA","chain_name":null,"distance":0,"street_number":"897","street_name":"Higuera Street","zip":"93401","city":"San Luis Obispo","area":null,"county":"San Luis Obispo County","state":"California","country":"us","formatted_address":"897, Higuera Street, San Luis Obispo, San Luis Obispo County, California, 93401, United States of America","place_id":"25449715","datatype":"locationiq"},{"name":"Apple Store - Stonebriar","code":null,"latitude":33.0982299,"longitude":-96.805935,"address":"2601 Preston Road, Frisco TX","chain_name":null,"distance":0,"street_number":null,"street_name":"Preston Road","zip":"75024","city":"Frisco","area":null,"county":"Collin County","state":"Texas","country":"us","formatted_address":"Preston Road, Frisco, Collin County, Texas, 75024, United States of America","place_id":"160247876","datatype":"locationiq"},{"name":"Apple Store - Rockaway","code":null,"latitude":40.9006225,"longitude":-74.5461549,"address":"301 Mt. Hope Avenue, Rockaway NJ","chain_name":null,"distance":0,"street_number":null,"street_name":"Mount Hope Avenue","zip":"07801","city":"Rockaway Township","area":null,"county":"Morris County","state":"New Jersey","country":"us","formatted_address":"Clark Pond, Mount Hope Avenue, Rockaway Township, Morris County, New Jersey, 07801, United States of America","place_id":"168843670","datatype":"locationiq"},{"name":"Apple Store - Polaris Fashion Place","code":null,"latitude":40.1415928,"longitude":-82.9773875,"address":"1500 Polaris Parkway, Columbus OH","chain_name":null,"distance":0,"street_number":"9104","street_name":"Polaris Parkway","zip":"43240","city":"Columbus","area":null,"county":"Delaware County","state":"Ohio","country":"us","formatted_address":"9104, Polaris Parkway, Columbus, Delaware County, Ohio, 43240, United States of America","place_id":"199076008","datatype":"locationiq"},{"name":"Apple Store - Annapolis","code":null,"latitude":38.9895813,"longitude":-76.5485936,"address":"1735 Annapolis Mall, Annapolis MD","chain_name":null,"distance":0,"street_number":"2131","street_name":"Generals Highway","zip":"21401","city":null,"area":null,"county":"Anne Arundel County","state":"Maryland","country":"us","formatted_address":"2131, Generals Highway, Crownsville, Anne Arundel County, Maryland, 21401, United States of America","place_id":"189627560","datatype":"locationiq"},{"name":"Apple Store - Oakbrook","code":null,"latitude":41.8497458,"longitude":-87.9536297,"address":"70 Oakbrook Center, Oak Brook IL","chain_name":null,"distance":0,"street_number":null,"street_name":"Oakbrook Center Drive","zip":"60523","city":null,"area":"Mammoth Springs","county":"DuPage County","state":"Illinois","country":"us","formatted_address":"Oakbrook Center, Oakbrook Center Drive, Mammoth Springs, Oak Brook, DuPage County, Illinois, 60523, United States of America","place_id":"83865449","datatype":"locationiq"},{"name":"Apple Store - Haywood Mall","code":null,"latitude":34.8499171,"longitude":-82.3335876,"address":"700 Haywood Road, Greenville SC","chain_name":null,"distance":0,"street_number":null,"street_name":"Woods Crossing Road","zip":"29607","city":"Greenville","area":null,"county":"Greenville County","state":"South Carolina","country":"us","formatted_address":"Haywood Mall, Woods Crossing Road, Greenville, Greenville County, South Carolina, 29607, United States of America","place_id":"79991221","datatype":"locationiq"},{"name":"Apple Store - Mall of Louisiana","code":null,"latitude":30.3889748,"longitude":-91.0885434,"address":"6401 Bluebonnet Boulevard, Baton Rouge LA","chain_name":null,"distance":0,"street_number":null,"street_name":"Bluebonnet Boulevard","zip":"70836","city":null,"area":null,"county":"East Baton Rouge Parish","state":"Louisiana","country":"us","formatted_address":"Bluebonnet Boulevard, Oak Hills Place, East Baton Rouge Parish, Louisiana, 70836, United States of America","place_id":"109817534","datatype":"locationiq"},{"name":"Apple Store - Short Hills","code":null,"latitude":40.7396366,"longitude":-74.3656369,"address":"1200 Morris Turnpike, Short Hills NJ","chain_name":null,"distance":0,"street_number":null,"street_name":"John F. Kennedy Parkway","zip":"07078","city":"Millburn","area":null,"county":"Essex County","state":"New Jersey","country":"us","formatted_address":"John F. Kennedy Parkway, Millburn, Essex County, New Jersey, 07078, United States of America","place_id":"76982397","datatype":"locationiq"},{"name":"Apple Store - Boylston Street","code":null,"latitude":42.3488956,"longitude":-71.0824216,"address":"815 Boylston Street, Boston MA","chain_name":null,"distance":0,"street_number":null,"street_name":"Boylston Street","zip":"02116","city":"Boston","area":"Chinatown","county":"Suffolk County","state":"Massachusetts","country":"us","formatted_address":"Apple, Boylston Street, Chinatown, Back Bay, Boston, Suffolk County, Massachusetts, 02116, United States of America","place_id":"24098686","datatype":"locationiq"},{"name":"Apple Store - Bethesda Row","code":null,"latitude":38.9806494,"longitude":-77.0977075,"address":"4860 Bethesda Avenue, Bethesda MD","chain_name":null,"distance":0,"street_number":"4848","street_name":"Bethesda Avenue","zip":"20814","city":"Bethesda","area":"Bethesda Row","county":"Montgomery County","state":"Maryland","country":"us","formatted_address":"4848, Bethesda Avenue, Bethesda Row, East Bethesda, Bethesda, Montgomery County, Maryland, 20814, United States of America","place_id":"15721848","datatype":"locationiq"},{"name":"Apple Store - Kenwood Towne Centre","code":null,"latitude":39.2025027,"longitude":-84.3770223,"address":"7875 Montgomery Road, Cincinnati OH","chain_name":null,"distance":0,"street_number":null,"street_name":"Montgomery Road","zip":"45236-4202","city":null,"area":null,"county":"Hamilton County","state":"Ohio","country":"us","formatted_address":"Kenwood Towne Centre, Montgomery Road, Harewood Acres, Sycamore Township, Hamilton County, Ohio, 45236-4202, United States of America","place_id":"77325537","datatype":"locationiq"},{"name":"Apple Store - Ross Park","code":null,"latitude":40.5445585,"longitude":-80.0087394,"address":"1000 Ross Park Mall Drive, Pittsburgh PA","chain_name":null,"distance":0,"street_number":null,"street_name":"Ross Park Mall Drive","zip":"15237","city":null,"area":null,"county":"Allegheny County","state":"Pennsylvania","country":"us","formatted_address":"Nordstrom, Ross Park Mall Drive, Ross Township, Allegheny County, Pennsylvania, 15237, United States of America","place_id":"126502595","datatype":"locationiq"},{"name":"Apple Store - Shadyside","code":null,"latitude":40.4510431,"longitude":-79.9333379,"address":"5508 Walnut Street, Pittsburgh PA","chain_name":null,"distance":0,"street_number":null,"street_name":"Walnut Street","zip":"15206","city":"Pittsburgh","area":null,"county":"Allegheny County","state":"Pennsylvania","country":"us","formatted_address":"Apple Store, Walnut Street, Shadyside, Pittsburgh, Allegheny County, Pennsylvania, 15206, United States of America","place_id":"41983420","datatype":"locationiq"},{"name":"Apple Store - Crabtree Valley Mall","code":null,"latitude":35.8377024,"longitude":-78.6758944,"address":"4325 Glenwood Avenue, Raleigh NC","chain_name":null,"distance":0,"street_number":null,"street_name":"Blue Ridge Road","zip":"27612","city":"Raleigh","area":null,"county":"Wake County","state":"North Carolina","country":"us","formatted_address":"Best Buy, Blue Ridge Road, Crabtree Valley, Raleigh, Wake County, North Carolina, 27612, United States of America","place_id":"14541680","datatype":"locationiq"},{"name":"Apple Store - NorthPark Center","code":null,"latitude":32.8685017,"longitude":-96.7735125,"address":"8687 North Central Expressway, Dallas TX","chain_name":null,"distance":0,"street_number":"8687","street_name":"North Central Expressway","zip":"75225","city":"Dallas","area":null,"county":"Dallas County","state":"Texas","country":"us","formatted_address":"NorthPark Center, 8687, North Central Expressway, Dallas, Dallas County, Texas, 75225, United States of America","place_id":"174769852","datatype":"locationiq"},{"name":"Apple Store - World Trade Center","code":null,"latitude":40.7115712,"longitude":-74.0114251,"address":"185 Greenwich Street, New York NY","chain_name":null,"distance":0,"street_number":"175","street_name":"Greenwich Street","zip":"10048","city":"New York City","area":"Tribeca","county":"New York County","state":"New York","country":"us","formatted_address":"Three World Trade Center, 175, Greenwich Street, Tribeca, Manhattan, New York County, New York City, New York, 10048, United States of America","place_id":"107511218","datatype":"locationiq"},{"name":"Apple Store - Los Gatos","code":null,"latitude":37.223439,"longitude":-121.983882,"address":"23 N. Santa Cruz Avenue, Los Gatos CA","chain_name":null,"distance":0,"street_number":null,"street_name":"North Santa Cruz Avenue","zip":"95030","city":null,"area":null,"county":"Santa Clara County","state":"California","country":"us","formatted_address":"Apple Store, North Santa Cruz Avenue, Los Gatos, Santa Clara County, California, 95030, United States of America","place_id":"28023985","datatype":"locationiq"},{"name":"Apple Store - Legacy Place","code":null,"latitude":42.2310068,"longitude":-71.1783863,"address":"508 Legacy Place, Dedham MA","chain_name":null,"distance":0,"street_number":"101","street_name":"Elm Street","zip":"02026","city":null,"area":null,"county":"Norfolk County","state":"Massachusetts","country":"us","formatted_address":"101, Elm Street, Legacy Place, Dedham, Norfolk County, Massachusetts, 02026, United States of America","place_id":"190427633","datatype":"locationiq"},{"name":"Apple Store - Natick Collection","code":null,"latitude":42.3019258,"longitude":-71.3843794,"address":"1245 Worcester Street, Natick MA","chain_name":null,"distance":0,"street_number":null,"street_name":"Natick Mall Road","zip":"01760","city":null,"area":null,"county":"Middlesex County","state":"Massachusetts","country":"us","formatted_address":"Natick Mall Road, Natick Mall, Natick, Middlesex County, Massachusetts, 01760, United States of America","place_id":"101842993","datatype":"locationiq"},{"name":"Apple Store - Lincoln Road","code":null,"latitude":25.79075,"longitude":-80.1393315,"address":"1021 Lincoln Road, Miami Beach FL","chain_name":null,"distance":0,"street_number":"1021","street_name":null,"zip":"33139","city":"Miami Beach","area":null,"county":"Miami-Dade County","state":"Florida","country":"us","formatted_address":"Apple Store Miami Beach, 1021, Lincoln Road, Miami Beach, Miami-Dade County, Florida, 33139, United States of America","place_id":"52252392","datatype":"locationiq"},{"name":"Apple Store - Chandler Fashion Center","code":null,"latitude":33.30525,"longitude":-111.8984042,"address":"3111 W Chandler Boulevard, Chandler AZ","chain_name":null,"distance":0,"street_number":null,"street_name":"West Chandler Boulevard","zip":"85226","city":"Chandler","area":null,"county":"Maricopa County","state":"Arizona","country":"us","formatted_address":"P. F. Chang's, West Chandler Boulevard, Chandler, Maricopa County, Arizona, 85226, United States of America","place_id":"18600194","datatype":"locationiq"},{"name":"Apple Store - Tysons Corner","code":null,"latitude":38.9176225,"longitude":-77.2222369,"address":"1961 Chain Bridge Road, McLean VA","chain_name":null,"distance":0,"street_number":null,"street_name":"Fashion Boulevard","zip":"22102","city":null,"area":null,"county":"Fairfax County","state":"Virginia","country":"us","formatted_address":"Fashion Boulevard, Tysons Corner Center, Madrillon Farms, Fairfax County, Virginia, 22102, United States of America","place_id":"109046506","datatype":"locationiq"},{"name":"Apple Store - Williamsburg","code":null,"latitude":40.7155938,"longitude":-73.9599319,"address":"247 Bedford Avenue, Brooklyn NY","chain_name":null,"distance":0,"street_number":"159","street_name":"North 3rd Street","zip":"11211","city":"New York City","area":"Williamsburg","county":"Kings County","state":"New York","country":"us","formatted_address":"159, North 3rd Street, Williamsburg, Kings County, New York City, New York, 11211, United States of America","place_id":"35820950","datatype":"locationiq"},{"name":"Apple Store - Beverly Center","code":null,"latitude":34.0753309,"longitude":-118.3774933,"address":"8500 Beverly Boulevard, Los Angeles CA","chain_name":null,"distance":0,"street_number":null,"street_name":"La Cienega Boulevard","zip":"90048","city":"Los Angeles","area":"Carthay Circle","county":"Los Angeles County","state":"California","country":"us","formatted_address":"Beverly Center, La Cienega Boulevard, Carthay Circle, Los Angeles, Los Angeles County, California, 90048, United States of America","place_id":"77013743","datatype":"locationiq"},{"name":"Apple Store - Pasadena","code":null,"latitude":34.1454131,"longitude":-118.1516385,"address":"54 West Colorado Boulevard, Pasadena CA","chain_name":null,"distance":0,"street_number":"54","street_name":"West Colorado Boulevard","zip":"91105","city":"Pasadena","area":"Madison Heights","county":"Los Angeles County","state":"California","country":"us","formatted_address":"Apple Store, 54, West Colorado Boulevard, Madison Heights, Pasadena, Los Angeles County, California, 91105, United States of America","place_id":"117318841","datatype":"locationiq"},{"name":"Apple Store - Renaissance at Colony Park","code":null,"latitude":32.438187,"longitude":-90.147741,"address":"1000 Highland Colony Parkway, Ridgeland MS","chain_name":null,"distance":0,"street_number":null,"street_name":"Parkway Drive","zip":"39157","city":"Ridgeland","area":null,"county":"Madison County","state":"Mississippi","country":"us","formatted_address":"Parkway Drive, Ridgeland, Madison County, Mississippi, 39157, United States of America","place_id":"67612483","datatype":"locationiq"},{"name":"Apple Store - Aspen Grove","code":null,"latitude":39.5844826,"longitude":-105.0253232,"address":"7301 S Santa Fe Drive, Littleton CO","chain_name":null,"distance":0,"street_number":null,"street_name":"Santa Fe Drive","zip":"80120","city":"Littleton","area":null,"county":"Arapahoe County","state":"Colorado","country":"us","formatted_address":"Santa Fe Drive, Littleton, Arapahoe County, Colorado, 80120, United States of America","place_id":"132447371","datatype":"locationiq"},{"name":"Apple Store - Mall of Georgia","code":null,"latitude":34.0642698,"longitude":-83.982806,"address":"3333 Buford Drive, Buford GA","chain_name":null,"distance":0,"street_number":null,"street_name":"Mall of Georgia Boulevard","zip":"30519","city":null,"area":null,"county":"Gwinnett County","state":"Georgia","country":"us","formatted_address":"P.F. Chang's China Bistro, Mall of Georgia Boulevard, Mall of Georgia, Gravel Springs, Gwinnett County, Georgia, 30519, United States of America","place_id":"52101770","datatype":"locationiq"},{"name":"Apple Store - The Galleria","code":null,"latitude":26.1372239,"longitude":-80.1150952,"address":"2388 E. Sunrise Boulevard, Fort Lauderdale FL","chain_name":null,"distance":0,"street_number":null,"street_name":"East Sunrise Boulevard","zip":"33304","city":"Fort Lauderdale","area":null,"county":"Broward County","state":"Florida","country":"us","formatted_address":"East Sunrise Boulevard, Fort Lauderdale, Broward County, Florida, 33304, United States of America","place_id":"81436122","datatype":"locationiq"},{"name":"Apple Store - Valley Plaza","code":null,"latitude":35.3381784,"longitude":-119.0343967,"address":"2701 Ming Avenue, Bakersfield CA","chain_name":null,"distance":0,"street_number":"2701","street_name":"Ming Avenue","zip":"93304","city":"Bakersfield","area":null,"county":"Kern County","state":"California","country":"us","formatted_address":"Subway, 2701, Ming Avenue, Bakersfield, Kern County, California, 93304, United States of America","place_id":"54797181","datatype":"locationiq"},{"name":"Apple Store - Southlake Town Square","code":null,"latitude":32.9438372,"longitude":-97.1305752,"address":"260 Grand Avenue, Southlake TX","chain_name":null,"distance":0,"street_number":null,"street_name":"Grand Avenue","zip":"76092","city":"Southlake","area":null,"county":"Tarrant County","state":"Texas","country":"us","formatted_address":"Grand Avenue, Southlake Town Square, Southlake, Tarrant County, Texas, 76092, United States of America","place_id":"65028751","datatype":"locationiq"},{"name":"Apple Store - 4th Street","code":null,"latitude":37.8693462,"longitude":-122.3001651,"address":"1823 4th Street, Berkeley CA","chain_name":null,"distance":0,"street_number":null,"street_name":"4th Street","zip":"94710","city":"Berkeley","area":null,"county":"Alameda County","state":"California","country":"us","formatted_address":"Apple Store, 4th Street, 4th Street Shops, Berkeley, Alameda County, California, 94710, United States of America","place_id":"19199380","datatype":"locationiq"},{"name":"Apple Store - Smith Haven","code":null,"latitude":40.8643874,"longitude":-73.1332695,"address":"518 Smith Haven Mall, Lake Grove NY","chain_name":null,"distance":0,"street_number":null,"street_name":"Alexander Avenue","zip":"null","city":null,"area":null,"county":"Suffolk County","state":"New York","country":"us","formatted_address":"Smith Haven Mall, Alexander Avenue, Smith Haven Mall, St. James, Suffolk County, New York, null, United States of America","place_id":"146849296","datatype":"locationiq"},{"name":"Apple Store - Los Cerritos","code":null,"latitude":33.8632709,"longitude":-118.0937029,"address":"242 Los Cerritos Center, Cerritos CA","chain_name":null,"distance":0,"street_number":"739","street_name":"Los Cerritos Center","zip":"90703","city":"Cerritos","area":null,"county":"Los Angeles County","state":"California","country":"us","formatted_address":"739, Los Cerritos Center, Cerritos, Los Angeles County, California, 90703, United States of America","place_id":"178924384","datatype":"locationiq"},{"name":"Apple Store - Brickell City Centre","code":null,"latitude":25.7671674,"longitude":-80.1930873,"address":"701 S. Miami Avenue, Miami FL","chain_name":null,"distance":0,"street_number":"701","street_name":"South Miami Avenue","zip":"33131","city":"Miami","area":null,"county":"Miami-Dade County","state":"Florida","country":"us","formatted_address":"Brickell City Centre, 701, South Miami Avenue, Miami, Miami-Dade County, Florida, 33131, United States of America","place_id":"56196931","datatype":"locationiq"},{"name":"Apple Store - South Hills Village","code":null,"latitude":40.3426231,"longitude":-80.0561688,"address":"301 South Hills Village, Pittsburgh PA","chain_name":null,"distance":0,"street_number":null,"street_name":"Village Drive","zip":"15241","city":"Bethel Park","area":null,"county":"Allegheny County","state":"Pennsylvania","country":"us","formatted_address":"South Hills Village Mall, Village Drive, Bethel Park, Allegheny County, Pennsylvania, 15241, United States of America","place_id":"80219045","datatype":"locationiq"},{"name":"Apple Store - Syracuse","code":null,"latitude":43.0692244,"longitude":-76.1737549,"address":"1 Destiny USA Drive, Syracuse NY","chain_name":null,"distance":0,"street_number":"9586","street_name":"Destiny USA Drive","zip":"13204","city":"Syracuse","area":null,"county":"Onondaga County","state":"New York","country":"us","formatted_address":"Regal Destiny USA Stadium 19 IMAX & RPX, 9586, Destiny USA Drive, Destiny USA Mall, Syracuse, Onondaga County, New York, 13204, United States of America","place_id":"15888832","datatype":"locationiq"},{"name":"Apple Store - Summit Sierra","code":null,"latitude":39.4065597,"longitude":-119.7511759,"address":"13925 S. Virginia Street, Reno NV","chain_name":null,"distance":0,"street_number":null,"street_name":"North-South Freeway","zip":"190","city":"Reno","area":null,"county":"Washoe County","state":"Nevada","country":"us","formatted_address":"North-South Freeway, Reno, Washoe County, Nevada, 190, United States of America","place_id":"110133742","datatype":"locationiq"},{"name":"Apple Store - International Plaza","code":null,"latitude":27.9656125,"longitude":-82.5211208,"address":"2223 N West Shore Boulevard, Tampa FL","chain_name":null,"distance":0,"street_number":"2223","street_name":"North West Shore Boulevard","zip":"33607","city":"Tampa","area":null,"county":"Hillsborough County","state":"Florida","country":"us","formatted_address":"Zen Bistro & Sushi, 2223, North West Shore Boulevard, Tampa, Hillsborough County, Florida, 33607, United States of America","place_id":"46208774","datatype":"locationiq"},{"name":"Apple Store - Victoria Gardens","code":null,"latitude":34.1106127,"longitude":-117.5336233,"address":"12461 South Main Street, Rancho Cucamonga CA","chain_name":null,"distance":0,"street_number":"12461","street_name":"South Mainstreet","zip":"91730","city":"Rancho Cucamonga","area":null,"county":"San Bernardino County","state":"California","country":"us","formatted_address":"Apple, 12461, South Mainstreet, Rancho Cucamonga, San Bernardino County, California, 91730, United States of America","place_id":"25651789","datatype":"locationiq"},{"name":"Apple Store - Crocker Park","code":null,"latitude":41.459021,"longitude":-81.953204,"address":"267 Crocker Park Boulevard, Westlake OH","chain_name":null,"distance":0,"street_number":"260","street_name":"Crocker Park Boulevard","zip":"44145","city":null,"area":null,"county":"Cuyahoga County","state":"Ohio","country":"us","formatted_address":"260, Crocker Park Boulevard, Crocker Park, Westlake, Cuyahoga County, Ohio, 44145, United States of America","place_id":"198993980","datatype":"locationiq"},{"name":"Apple Store - The Westchester","code":null,"latitude":41.0315151,"longitude":-73.7585505,"address":"125 Westchester Avenue, White Plains NY","chain_name":null,"distance":0,"street_number":"24","street_name":"Bloomingdale Road","zip":"10605","city":"White Plains","area":null,"county":"Westchester County","state":"New York","country":"us","formatted_address":"24, Bloomingdale Road, White Plains, Westchester County, New York, 10605, United States of America","place_id":"197083999","datatype":"locationiq"},{"name":"Apple Store - Simi Valley","code":null,"latitude":34.284423,"longitude":-118.7719737,"address":"1555 Simi Town Center Way, Simi Valley CA","chain_name":null,"distance":0,"street_number":"1585","street_name":"Jefferson Way","zip":"93065","city":"Simi Valley","area":null,"county":"Ventura County","state":"California","country":"us","formatted_address":"1585, Jefferson Way, Simi Valley, Ventura County, California, 93065, United States of America","place_id":"180490290","datatype":"locationiq"},{"name":"Apple Store - The Promenade Shops at Briargate","code":null,"latitude":38.962592,"longitude":-104.7957324,"address":"1685 Briargate ParkwaySuite 315, Colorado Springs CO","chain_name":null,"distance":0,"street_number":null,"street_name":"Telstar Drive","zip":"80920","city":"Colorado Springs","area":null,"county":"El Paso County","state":"Colorado","country":"us","formatted_address":"Ted's Montana Grill, Telstar Drive, Colorado Springs, El Paso County, Colorado, 80920, United States of America","place_id":"17960925","datatype":"locationiq"},{"name":"Apple Store - North Star","code":null,"latitude":29.5174091,"longitude":-98.4982007,"address":"7400 San Pedro AvenueSan , Antonio TX","chain_name":null,"distance":0,"street_number":"339","street_name":"West Rector","zip":"78216","city":"San Antonio","area":null,"county":"Bexar County","state":"Texas","country":"us","formatted_address":"339, West Rector, San Antonio, Bexar County, Texas, 78216, United States of America","place_id":"204504742","datatype":"locationiq"},{"name":"Apple Store - Fifth Avenue","code":null,"latitude":40.7635861,"longitude":-73.9723967,"address":"767 Fifth Avenue, New York NY","chain_name":null,"distance":0,"street_number":"767","street_name":"5th Avenue","zip":"10035","city":"New York City","area":"Upper East Side","county":"New York County","state":"New York","country":"us","formatted_address":"GM Building, 767, 5th Avenue, Upper East Side, Manhattan, New York County, New York City, New York, 10035, United States of America","place_id":"87658899","datatype":"locationiq"},{"name":"Apple Store - Arrowhead","code":null,"latitude":33.6420894,"longitude":-112.2254067,"address":"7700 West Arrowhead Towne Center, Glendale AZ","chain_name":null,"distance":0,"street_number":null,"street_name":"West Arrowhead Towne Center","zip":"85382","city":null,"area":"Arrowhead Ranch Phase II","county":"Maricopa County","state":"Arizona","country":"us","formatted_address":"Arrowhead Towne Center, West Arrowhead Towne Center, Arrowhead Ranch Phase II, Peacock Village, Maricopa County, Arizona, 85382, United States of America","place_id":"96641802","datatype":"locationiq"},{"name":"Apple Store - Ridgedale","code":null,"latitude":44.9690334,"longitude":-93.4382175,"address":"12531 Wayzata Boulevard, Minnetonka MN","chain_name":null,"distance":0,"street_number":null,"street_name":"I 394","zip":"55305","city":"Minnetonka","area":null,"county":"Hennepin County","state":"Minnesota","country":"us","formatted_address":"Macy's, I 394, Minnetonka, Hennepin County, Minnesota, 55305, United States of America","place_id":"48298295","datatype":"locationiq"},{"name":"Apple Store - Infinite Loop","code":null,"latitude":37.3320003,"longitude":-122.0307812,"address":"One Infinite Loop, Cupertino CA","chain_name":null,"distance":0,"street_number":"1","street_name":"Infinite Loop","zip":"95014","city":"Cupertino","area":null,"county":"Santa Clara County","state":"California","country":"us","formatted_address":"Infinite Loop 1, 1, Infinite Loop, Apple, Inc., Cupertino, Santa Clara County, California, 95014, United States of America","place_id":"94284012","datatype":"locationiq"},{"name":"Apple Store - Friendly Center","code":null,"latitude":36.0860898,"longitude":-79.8360379,"address":"3320 West Friendly Avenue, Greensboro NC","chain_name":null,"distance":0,"street_number":null,"street_name":"West Friendly Avenue","zip":"27409","city":"Greensboro","area":null,"county":"Guilford County","state":"North Carolina","country":"us","formatted_address":"Apple, West Friendly Avenue, Greensboro, Guilford County, North Carolina, 27409, United States of America","place_id":"53278463","datatype":"locationiq"},{"name":"Apple Store - The Gardens Mall","code":null,"latitude":26.8473981,"longitude":-80.0853836,"address":"3101 PGA Boulevard, Palm Beach Gardens FL","chain_name":null,"distance":0,"street_number":"3107","street_name":"PGA Boulevard","zip":"33410","city":null,"area":null,"county":"Palm Beach County","state":"Florida","country":"us","formatted_address":"Macy's, 3107, PGA Boulevard, North Palm Beach, Palm Beach Gardens, Palm Beach County, Florida, 33410, United States of America","place_id":"59298253","datatype":"locationiq"},{"name":"Apple Store - Solomon Pond Mall","code":null,"latitude":42.3550944,"longitude":-71.6132072,"address":"601 Donald Lynch Boulevard, Marlborough MA","chain_name":null,"distance":0,"street_number":"601","street_name":"Donald J. Lynch Boulevard","zip":"01503","city":null,"area":null,"county":"Middlesex County","state":"Massachusetts","country":"us","formatted_address":"Bertucci's, 601, Donald J. Lynch Boulevard, Marlborough, Middlesex County, Massachusetts, 01503, United States of America","place_id":"23414826","datatype":"locationiq"},{"name":"Apple Store - SouthPark","code":null,"latitude":35.1523852,"longitude":-80.8321253,"address":"4400 Sharon Road, Charlotte NC","chain_name":null,"distance":0,"street_number":null,"street_name":"South Park Drive","zip":"28211","city":"Charlotte","area":null,"county":"Mecklenburg County","state":"North Carolina","country":"us","formatted_address":"Southpark Mall, South Park Drive, South Park Mall, Charlotte, Mecklenburg County, North Carolina, 28211, United States of America","place_id":"174988106","datatype":"locationiq"},{"name":"Apple Store - The Mall of New Hampshire","code":null,"latitude":42.9553882,"longitude":-71.4327448,"address":"1500 S Willow Street, Manchester NH","chain_name":null,"distance":0,"street_number":"1500","street_name":"South Willow Street","zip":"03103","city":"Manchester","area":null,"county":"Hillsborough County","state":"New Hampshire","country":"us","formatted_address":"Fanzz, 1500, South Willow Street, Manchester, Hillsborough County, New Hampshire, 03103, United States of America","place_id":"123191806","datatype":"locationiq"},{"name":"Apple Store - King Street","code":null,"latitude":32.7833456,"longitude":-79.9349292,"address":"301 King Street, Charleston SC","chain_name":null,"distance":0,"street_number":"303","street_name":"King Street","zip":"29401","city":"Charleston","area":null,"county":"Charleston County","state":"South Carolina","country":"us","formatted_address":"The Finicky Filly, 303, King Street, Charleston, Charleston County, South Carolina, 29401, United States of America","place_id":"29007691","datatype":"locationiq"},{"name":"Apple Store - Walt Whitman","code":null,"latitude":40.8229235,"longitude":-73.4106894,"address":"160 Walt Whitman Road, Huntington Station NY","chain_name":null,"distance":0,"street_number":null,"street_name":"Walt Whitman Road","zip":"11747","city":null,"area":null,"county":"Suffolk County","state":"New York","country":"us","formatted_address":"Walt Whitman Mall, Walt Whitman Road, Huntington Station, Suffolk County, New York, 11747, United States of America","place_id":"37380038","datatype":"locationiq"},{"name":"Apple Store - State Street","code":null,"latitude":34.421413,"longitude":-119.7012304,"address":"928 State Street, Santa Barbara CA","chain_name":null,"distance":0,"street_number":null,"street_name":"State Street","zip":"93101","city":"Santa Barbara","area":"Waterfront","county":"Santa Barbara County","state":"California","country":"us","formatted_address":"Apple Store, State Street, Waterfront, Santa Barbara, Santa Barbara County, California, 93101, United States of America","place_id":"61717343","datatype":"locationiq"},{"name":"Apple Store - Greenwich Avenue","code":null,"latitude":41.0233649,"longitude":-73.6254486,"address":"356 Greenwich Avenue, Greenwich CT","chain_name":null,"distance":0,"street_number":null,"street_name":"Greenwich Avenue","zip":"06830","city":"Greenwich","area":null,"county":"Fairfield County","state":"Connecticut","country":"us","formatted_address":"Greenwich Post Office, Greenwich Avenue, Greenwich, Fairfield County, Connecticut, 06830, United States of America","place_id":"3520867","datatype":"locationiq"},{"name":"Apple Store - New Haven","code":null,"latitude":41.3120018,"longitude":-72.9306827,"address":"65 Broadway, New Haven CT","chain_name":null,"distance":0,"street_number":null,"street_name":"Broadway","zip":"06511-4709","city":"New Haven","area":"Downtown","county":"New Haven County","state":"Connecticut","country":"us","formatted_address":"Yale Bookstore, Broadway, Downtown, New Haven, New Haven County, Connecticut, 06511-4709, United States of America","place_id":"118854674","datatype":"locationiq"},{"name":"Apple Store - SanTan Village","code":null,"latitude":33.3088069,"longitude":-111.7426997,"address":"2218 E. Williams Field Road, Gilbert AZ","chain_name":null,"distance":0,"street_number":null,"street_name":"East Williams Field Road","zip":"85295","city":"Gilbert","area":null,"county":"Maricopa County","state":"Arizona","country":"us","formatted_address":"Charming Charlies, East Williams Field Road, Santan Village, Gilbert, Maricopa County, Arizona, 85295, United States of America","place_id":"59505410","datatype":"locationiq"},{"name":"Apple Store - Valencia Town Center","code":null,"latitude":34.4176299,"longitude":-118.5608039,"address":"24201 West , Valencia BoulevardValencia CA","chain_name":null,"distance":0,"street_number":null,"street_name":"Town Center Drive","zip":"91355","city":"Santa Clarita","area":null,"county":"Los Angeles County","state":"California","country":"us","formatted_address":"Town Center Drive, Valencia Town Center, Valencia, Santa Clarita, Los Angeles County, California, 91355, United States of America","place_id":"143977476","datatype":"locationiq"},{"name":"Apple Store - Boise Towne Square","code":null,"latitude":43.6086364,"longitude":-116.2781046,"address":"350 North Milwaukee Street#1083, Boise ID","chain_name":null,"distance":0,"street_number":null,"street_name":"West Rifleman Street","zip":"83704","city":"Boise City","area":null,"county":"Ada County","state":"Idaho","country":"us","formatted_address":"Boise Towne Square Mall, West Rifleman Street, Boise City, Ada County, Idaho, 83704, United States of America","place_id":"127161857","datatype":"locationiq"},{"name":"Apple Store - Westfarms","code":null,"latitude":41.7219021,"longitude":-72.7634768,"address":"500 Westfarms Mall, Farmington CT","chain_name":null,"distance":0,"street_number":"500","street_name":"New Britain Avenue","zip":"06032","city":null,"area":null,"county":"Hartford County","state":"Connecticut","country":"us","formatted_address":"Cellairis, 500, New Britain Avenue, Town of West Hartford, Hartford County, Connecticut, 06032, United States of America","place_id":"57727084","datatype":"locationiq"},{"name":"Apple Store - Northridge","code":null,"latitude":34.2385732,"longitude":-118.5562362,"address":"9301 Tampa Avenue, Northridge CA","chain_name":null,"distance":0,"street_number":null,"street_name":"Shirley Avenue","zip":"91324","city":"Los Angeles","area":null,"county":"Los Angeles County","state":"California","country":"us","formatted_address":"Mall de Northdrige, Shirley Avenue, Northridge Fashion Center, Northridge, Los Angeles, Los Angeles County, California, 91324, United States of America","place_id":"174898649","datatype":"locationiq"},{"name":"Apple Store - First Colony Mall","code":null,"latitude":29.5929163,"longitude":-95.6230478,"address":"16535 Southwest Freeway, Sugar Land TX","chain_name":null,"distance":0,"street_number":null,"street_name":"Town Center Boulevard","zip":"77478","city":"Sugar Land","area":null,"county":"Fort Bend County","state":"Texas","country":"us","formatted_address":"Town Center Boulevard, Sugar Land, Fort Bend County, Texas, 77478, United States of America","place_id":"112606172","datatype":"locationiq"},{"name":"Apple Store - Southcenter","code":null,"latitude":47.4594188,"longitude":-122.2607647,"address":"801 Southcenter Mall, Tukwila WA","chain_name":null,"distance":0,"street_number":null,"street_name":"East Entrance","zip":"98188","city":"Tukwila","area":null,"county":"King County","state":"Washington","country":"us","formatted_address":"Nordstrom, East Entrance, Tukwila, King County, Washington, 98188, United States of America","place_id":"161990470","datatype":"locationiq"},{"name":"Apple Store - Fair Oaks","code":null,"latitude":38.8623883,"longitude":-77.3592103,"address":"11750 Fair Oaks, Fairfax VA","chain_name":null,"distance":0,"street_number":null,"street_name":"Fair Oaks Mall","zip":"22035","city":null,"area":null,"county":"Fairfax County","state":"Virginia","country":"us","formatted_address":"Fair Oaks Mall, Fair Oaks, Fairfax County, Virginia, 22035, United States of America","place_id":"100559260","datatype":"locationiq"},{"name":"Apple Store - Boca Raton","code":null,"latitude":26.3659017,"longitude":-80.1343467,"address":"6000 West Glades Road, Boca Raton FL","chain_name":null,"distance":0,"street_number":null,"street_name":"Town Center Road","zip":"33486","city":null,"area":null,"county":"Palm Beach County","state":"Florida","country":"us","formatted_address":"Town Center Road, Paradise Palms, Palm Beach County, Florida, 33486, United States of America","place_id":"66497030","datatype":"locationiq"},{"name":"Apple Store - Pentagon City","code":null,"latitude":38.8639404,"longitude":-77.0601179,"address":"1100 South Hayes Street, Arlington VA","chain_name":null,"distance":0,"street_number":null,"street_name":"Army Navy Drive","zip":"22202","city":null,"area":null,"county":"Arlington County","state":"Virginia","country":"us","formatted_address":"Macy's, Army Navy Drive, Arlington Heights, Arlington, Arlington County, Virginia, 22202, United States of America","place_id":"52866928","datatype":"locationiq"},{"name":"Apple Store - Roseville","code":null,"latitude":38.7734416,"longitude":-121.2692829,"address":"1151 Galleria Boulevard, Roseville CA","chain_name":null,"distance":0,"street_number":null,"street_name":"Galleria Circle","zip":"95678","city":"Roseville","area":null,"county":"Placer County","state":"California","country":"us","formatted_address":"Westfield Galleria, Galleria Circle, Westfield Galleria at Roseville, Roseville, Placer County, California, 95678, United States of America","place_id":"81030681","datatype":"locationiq"},{"name":"Apple Store - Leawood","code":null,"latitude":38.9114916,"longitude":-94.6374712,"address":"4529 West 119th Street, Leawood KS","chain_name":null,"distance":0,"street_number":"4529","street_name":"West 119th Street","zip":"66209","city":"Leawood","area":null,"county":"Johnson County","state":"Kansas","country":"us","formatted_address":"Apple Store, 4529, West 119th Street, Leawood, Johnson County, Kansas, 66209, United States of America","place_id":"114856722","datatype":"locationiq"},{"name":"Apple Store - Fashion Island","code":null,"latitude":33.6151092,"longitude":-117.8768732,"address":"1113 Newport Center Drive, Newport Beach CA","chain_name":null,"distance":0,"street_number":null,"street_name":"Newport Center Drive West","zip":"62660","city":"Newport Beach","area":null,"county":"Orange County","state":"California","country":"us","formatted_address":"Sperry Top-Sider, Newport Center Drive West, Newport Center, Newport Beach, Orange County, California, 62660, United States of America","place_id":"19839279","datatype":"locationiq"},{"name":"Apple Store - Glendale Galleria","code":null,"latitude":34.145276,"longitude":-118.2585,"address":"2126 Glendale Galleria, Glendale CA","chain_name":null,"distance":0,"street_number":"100","street_name":"Central Avenue","zip":"91203","city":"Glendale","area":null,"county":"Los Angeles County","state":"California","country":"us","formatted_address":"Glendale Galleria, 100, Central Avenue, Glendale, Los Angeles County, California, 91203, United States of America","place_id":"170470599","datatype":"locationiq"},{"name":"Apple Store - Trumbull","code":null,"latitude":41.2293532,"longitude":-73.226474,"address":"5065 Main Street, Trumbull CT","chain_name":null,"distance":0,"street_number":null,"street_name":"Lealand Street","zip":"06606","city":"Bridgeport","area":null,"county":"Fairfield County","state":"Connecticut","country":"us","formatted_address":"Westfield Trumbull, Lealand Street, Bridgeport, Fairfield County, Connecticut, 06606, United States of America","place_id":"84360379","datatype":"locationiq"},{"name":"Apple Store - Lynnhaven Mall","code":null,"latitude":36.8165135,"longitude":-76.0708276,"address":"701 Lynnhaven Parkway, Virginia Beach VA","chain_name":null,"distance":0,"street_number":"701","street_name":"Lynnhaven Parkway","zip":"23452","city":"Virginia Beach","area":null,"county":null,"state":"Virginia","country":"us","formatted_address":"Lynnhaven Mall, 701, Lynnhaven Parkway, Lynnhaven Crossing, Lynnhaven, Mapleton, Virginia Beach, Virginia, 23452, United States of America","place_id":"157599522","datatype":"locationiq"},{"name":"Apple Store - Crossgates","code":null,"latitude":42.688374,"longitude":-73.845376,"address":"1 Crossgates Mall Road, Albany NY","chain_name":null,"distance":0,"street_number":null,"street_name":"Crossgates Mall Road","zip":"12203","city":null,"area":null,"county":"Albany County","state":"New York","country":"us","formatted_address":"Crossgates Mall Road, Crossgates Mall, Westmere, Town of Guilderland, Albany County, New York, 12203, United States of America","place_id":"138051551","datatype":"locationiq"}]