[{"latitude":"25.68519","longitude":"-80.40336","name":"Ashley Furniture HomeStore","address":"USA-United States","street_number":null,"street_name":"Southwest 88th Street","zip":"33186","city":null,"area":null,"county":"Miami-Dade County","state":"Florida","country":"us","formatted_address":"SW 88 ST@SW 132 AV, Southwest 88th Street, The Crossings, Miami-Dade County, Florida, 33186, United States of America","place_id":"12487486","datatype":"locationiq"},{"latitude":"40.74613","longitude":"-73.61720","name":"Ashley Furniture HomeStore","address":"USA-United States","street_number":null,"street_name":"Glen Cove Road","zip":"11514","city":null,"area":null,"county":"Nassau","state":"New York","country":"us","formatted_address":"Glen Cove Road, Carle Place, Nassau, New York, 11514, United States of America","place_id":"160398186","datatype":"locationiq"},{"latitude":"40.78235","longitude":"-74.04470","name":"Ashley Furniture HomeStore","address":"USA-United States","street_number":null,"street_name":"NJ 3","zip":"07047","city":null,"area":null,"county":"Hudson County","state":"New Jersey","country":"us","formatted_address":"NJ 3, Secaucus, Hudson County, New Jersey, 07047, United States of America","place_id":"83004660","datatype":"locationiq"},{"latitude":"30.63761","longitude":"-96.30677","name":"Ashley Furniture HomeStore","address":"USA-United States","street_number":null,"street_name":"North Earl Rudder Freeway Frontage Road","zip":"77845","city":null,"area":null,"county":"Brazos County","state":"Texas","country":"us","formatted_address":"North Earl Rudder Freeway Frontage Road, College Station, Brazos County, Texas, 77845, United States of America","place_id":"162755890","datatype":"locationiq"},{"latitude":"33.51965","longitude":"-88.43520","name":"Ashley Furniture HomeStore","address":"USA-United States","street_number":"797","street_name":"US 45;MS 50","zip":"39701","city":null,"area":null,"county":"Lowndes County","state":"Mississippi","country":"us","formatted_address":"797, US 45;MS 50, Columbus, Lowndes County, Mississippi, 39701, United States of America","place_id":"192985500","datatype":"locationiq"},{"latitude":"38.57149","longitude":"-89.92402","name":"Ashley Furniture HomeStore","address":"USA-United States","street_number":"3800","street_name":"Green Mount Crossing Drive","zip":"62269","city":null,"area":null,"county":"Saint Clair County","state":"Illinois","country":"us","formatted_address":"3800, Green Mount Crossing Drive, Shiloh, Saint Clair County, Illinois, 62269, United States of America","place_id":"115240384","datatype":"locationiq"},{"latitude":"33.39333","longitude":"-111.82758","name":"Ashley Furniture HomeStore","address":"USA-United States","street_number":"201","street_name":"East Southern Avenue","zip":"85210","city":"Mesa","area":null,"county":"Maricopa County","state":"Arizona","country":"us","formatted_address":"201, East Southern Avenue, Mesa, Maricopa County, Arizona, 85210, United States of America","place_id":"176963789","datatype":"locationiq"},{"latitude":"36.06821","longitude":"-79.51975","name":"Ashley Furniture HomeStore","address":"USA-United States","street_number":"1447 A","street_name":"University Drive","zip":"27201","city":null,"area":null,"county":"Alamance County","state":"North Carolina","country":"us","formatted_address":"Starbucks, 1447 A, University Drive, Elon, Alamance County, North Carolina, 27201, United States of America","place_id":"45260180","datatype":"locationiq"},{"latitude":"46.23190","longitude":"-119.23198","name":"Ashley Furniture HomeStore","address":"USA-United States","street_number":"1302","street_name":"Tapteal Drive","zip":"99352","city":"Richland","area":null,"county":"Benton County","state":"Washington","country":"us","formatted_address":"1302, Tapteal Drive, Richland, Benton County, Washington, 99352, United States of America","place_id":"208187157","datatype":"locationiq"},{"latitude":"32.35488","longitude":"-106.76850","name":"Ashley Furniture HomeStore","address":"USA-United States","street_number":"3381","street_name":"Del Rey Boulevard","zip":"88012","city":"Las Cruces","area":null,"county":"Do\u00f1a Ana County","state":"New Mexico","country":"us","formatted_address":"3381, Del Rey Boulevard, Las Cruces, Do\u00f1a Ana County, New Mexico, 88012, United States of America","place_id":"109119009","datatype":"locationiq"},{"latitude":"45.67102","longitude":"-111.17478","name":"Ashley Furniture HomeStore","address":"USA-United States","street_number":"8192","street_name":"Huffine Lane","zip":"59718","city":null,"area":null,"county":"Gallatin County","state":"Montana","country":"us","formatted_address":"8192, Huffine Lane, Four Corners, Gallatin County, Montana, 59718, United States of America","place_id":"194262354","datatype":"locationiq"},{"latitude":"33.61467","longitude":"-111.92586","name":"Ashley Furniture HomeStore","address":"USA-United States","street_number":null,"street_name":"North Scottsdale Road","zip":"85254-3433","city":"Scottsdale","area":null,"county":"Maricopa County","state":"Arizona","country":"us","formatted_address":"North Scottsdale Road, Scottsdale, Maricopa County, Arizona, 85254-3433, United States of America","place_id":"163591504","datatype":"locationiq"},{"latitude":"36.76901","longitude":"-108.14432","name":"Ashley Furniture HomeStore","address":"USA-United States","street_number":"5150","street_name":"East Main Street","zip":"87402","city":"Farmington","area":null,"county":"San Juan County","state":"New Mexico","country":"us","formatted_address":"Olive Garden, 5150, East Main Street, Farmington, San Juan County, New Mexico, 87402, United States of America","place_id":"49286908","datatype":"locationiq"},{"latitude":"31.26063","longitude":"-90.47389","name":"Ashley Furniture HomeStore","address":"USA-United States","street_number":"1722","street_name":"Smithdale Road","zip":"39648","city":"McComb","area":null,"county":"Pike County","state":"Mississippi","country":"us","formatted_address":"Ashley HomeStore, 1722, Smithdale Road, McComb, Pike County, Mississippi, 39648, United States of America","place_id":"61810225","datatype":"locationiq"},{"latitude":"39.76237","longitude":"-86.39957","name":"Ashley Furniture HomeStore","address":"USA-United States","street_number":null,"street_name":"Rockville Road","zip":"46123","city":null,"area":null,"county":"Hendricks County","state":"Indiana","country":"us","formatted_address":"Chase, Rockville Road, Avon, Hendricks County, Indiana, 46123, United States of America","place_id":"47874241","datatype":"locationiq"},{"latitude":"39.60819","longitude":"-75.87128","name":"Ashley Furniture HomeStore","address":"USA-United States","street_number":null,"street_name":"West Pulaski Highway","zip":"21921","city":null,"area":null,"county":"Cecil","state":"Maryland","country":"us","formatted_address":"West Pulaski Highway, Prestige Village, Cecil, Maryland, 21921, United States of America","place_id":"88531981","datatype":"locationiq"},{"latitude":"39.92417","longitude":"-82.82924","name":"Ashley Furniture HomeStore","address":"USA-United States","street_number":"2800","street_name":"Brice Road","zip":"43068","city":"Columbus","area":null,"county":"Franklin County","state":"Ohio","country":"us","formatted_address":"Ashley HomeStore, 2800, Brice Road, Columbus, Franklin County, Ohio, 43068, United States of America","place_id":"61133859","datatype":"locationiq"},{"latitude":"39.05360","longitude":"-84.56964","name":"Ashley Furniture HomeStore","address":"USA-United States","street_number":"2320","street_name":"Clock Tower Way","zip":"41017","city":"Crescent Springs","area":null,"county":"Kenton County","state":"Kentucky","country":"us","formatted_address":"2320, Clock Tower Way, Crescent Springs, Kenton County, Kentucky, 41017, United States of America","place_id":"188602189","datatype":"locationiq"},{"latitude":"40.05140","longitude":"-82.91899","name":"Ashley Furniture HomeStore","address":"USA-United States","street_number":"3859","street_name":"Gramercy Street","zip":"43219","city":"Columbus","area":null,"county":"Franklin County","state":"Ohio","country":"us","formatted_address":"3859, Gramercy Street, Easton Town Center, Columbus, Franklin County, Ohio, 43219, United States of America","place_id":"199144431","datatype":"locationiq"},{"latitude":"35.62255","longitude":"-117.67723","name":"Ashley Furniture HomeStore","address":"USA-United States","street_number":"414","street_name":"West Ridgecrest Boulevard","zip":"93555","city":"Ridgecrest","area":null,"county":"Kern County","state":"California","country":"us","formatted_address":"Ashley HomeStore, 414, West Ridgecrest Boulevard, Ridgecrest, Kern County, California, 93555, United States of America","place_id":"61459823","datatype":"locationiq"},{"latitude":"48.44697","longitude":"-122.33549","name":"Ashley Furniture HomeStore","address":"USA-United States","street_number":null,"street_name":"South Burlington Boulevard","zip":"98273","city":null,"area":null,"county":"Skagit County","state":"Washington","country":"us","formatted_address":"Burlington Blvd. north of bridge, South Burlington Boulevard, Burlington, Skagit County, Washington, 98273, United States of America","place_id":"49992393","datatype":"locationiq"},{"latitude":"29.55981","longitude":"-98.58944","name":"Ashley Furniture HomeStore","address":"USA-United States","street_number":null,"street_name":"Interstate Highway 10 Frontage Road","zip":"78249","city":"San Antonio","area":null,"county":"Bexar County","state":"Texas","country":"us","formatted_address":"Security Service Federal Credit Union, Interstate Highway 10 Frontage Road, San Antonio, Bexar County, Texas, 78249, United States of America","place_id":"125000309","datatype":"locationiq"},{"latitude":"33.79724","longitude":"-116.38806","name":"Ashley Furniture HomeStore","address":"USA-United States","street_number":null,"street_name":"Monterey Avenue","zip":"92211-0817","city":"Palm Desert","area":null,"county":"Riverside County","state":"California","country":"us","formatted_address":"Monterey Avenue, Palm Desert, Riverside County, California, 92211-0817, United States of America","place_id":"141303596","datatype":"locationiq"},{"latitude":"38.79381","longitude":"-97.61292","name":"Ashley Furniture HomeStore","address":"USA-United States","street_number":null,"street_name":"Planet Avenue","zip":"67401","city":null,"area":null,"county":"Saline County","state":"Kansas","country":"us","formatted_address":"Longhorn Steakhouse, Planet Avenue, Salina, Saline County, Kansas, 67401, United States of America","place_id":"26128068","datatype":"locationiq"},{"latitude":"42.92114","longitude":"-87.94989","name":"Ashley Furniture HomeStore","address":"USA-United States","street_number":"6855","street_name":"South 27th Street","zip":"53132","city":null,"area":null,"county":"Milwaukee County","state":"Wisconsin","country":"us","formatted_address":"Dental Associates Franklin, 6855, South 27th Street, Franklin, Milwaukee County, Wisconsin, 53132, United States of America","place_id":"167060236","datatype":"locationiq"},{"latitude":"29.55334","longitude":"-95.71535","name":"Ashley Furniture HomeStore","address":"USA-United States","street_number":null,"street_name":"Southwest Freeway Frontage Road","zip":"77469","city":null,"area":null,"county":"Fort Bend County","state":"Texas","country":"us","formatted_address":"Southwest Freeway Frontage Road, Greatwood, Crabb, Fort Bend County, Texas, 77469, United States of America","place_id":"76221747","datatype":"locationiq"},{"latitude":"33.95107","longitude":"-84.14238","name":"Ashley Furniture HomeStore","address":"USA-United States","street_number":null,"street_name":"West Liddell Road","zip":"30096","city":null,"area":null,"county":"Gwinnett County","state":"Georgia","country":"us","formatted_address":"West Liddell Road, Adams Crossroads, Gwinnett County, Georgia, 30096, United States of America","place_id":"64651042","datatype":"locationiq"},{"latitude":"32.35923","longitude":"-88.66845","name":"Ashley Furniture HomeStore","address":"USA-United States","street_number":null,"street_name":"Bonita Lakes Circle","zip":"39301","city":null,"area":null,"county":"Lauderdale County","state":"Mississippi","country":"us","formatted_address":"Bonita Lakes Circle, Meridian, Lauderdale County, Mississippi, 39301, United States of America","place_id":"95902356","datatype":"locationiq"},{"latitude":"31.30807","longitude":"-86.48056","name":"Ashley Furniture HomeStore","address":"USA-United States","street_number":"212","street_name":"East Three Notch Street","zip":"36420","city":"Andalusia","area":null,"county":"Covington County","state":"Alabama","country":"us","formatted_address":"Ashley HomeStore, 212, East Three Notch Street, Andalusia, Covington County, Alabama, 36420, United States of America","place_id":"61699009","datatype":"locationiq"},{"latitude":"28.07901","longitude":"-80.69750","name":"Ashley Furniture HomeStore","address":"USA-United States","street_number":null,"street_name":"New Haven Avenue","zip":"32904","city":null,"area":null,"county":"Brevard County","state":"Florida","country":"us","formatted_address":"Volvo of Melbourne, New Haven Avenue, Melbourne Village, Brevard County, Florida, 32904, United States of America","place_id":"61165039","datatype":"locationiq"},{"latitude":"26.30076","longitude":"-81.80316","name":"Ashley Furniture HomeStore","address":"USA-United States","street_number":null,"street_name":"Tamiami Trail","zip":"34110","city":null,"area":null,"county":"Collier County","state":"Florida","country":"us","formatted_address":"Tamiami Trail, Gulf Harbor, Collier County, Florida, 34110, United States of America","place_id":"100198413","datatype":"locationiq"},{"latitude":"29.64958","longitude":"-95.16448","name":"Ashley Furniture HomeStore","address":"USA-United States","street_number":"5104","street_name":"Fairmont Parkway","zip":"77505","city":"Pasadena","area":null,"county":"Harris County","state":"Texas","country":"us","formatted_address":"Chick-fil-A, 5104, Fairmont Parkway, Pasadena, Harris County, Texas, 77505, United States of America","place_id":"143452616","datatype":"locationiq"},{"latitude":"30.25945","longitude":"-81.52533","name":"Ashley Furniture HomeStore","address":"USA-United States","street_number":null,"street_name":"River City Drive","zip":"32246","city":"Jacksonville","area":null,"county":"Duval County","state":"Florida","country":"us","formatted_address":"Pier 1 Imports, River City Drive, St. Johns Town Center, Jacksonville, Duval County, Florida, 32246, United States of America","place_id":"48124033","datatype":"locationiq"},{"latitude":"42.15970","longitude":"-88.33566","name":"Ashley Furniture HomeStore","address":"USA-United States","street_number":"12055","street_name":"Randall Road","zip":"60102","city":null,"area":null,"county":"McHenry County","state":"Illinois","country":"us","formatted_address":"12055, Randall Road, McHenry County, Illinois, 60102, United States of America","place_id":"185457153","datatype":"locationiq"},{"latitude":"44.10975","longitude":"-103.22174","name":"Ashley Furniture HomeStore","address":"USA-United States","street_number":"2384","street_name":"Haines Avenue","zip":"57701","city":"Rapid City","area":null,"county":"Pennington County","state":"South Dakota","country":"us","formatted_address":"2384, Haines Avenue, Rapid City, Pennington County, South Dakota, 57701, United States of America","place_id":"203414009","datatype":"locationiq"},{"latitude":"33.31970","longitude":"-111.98299","name":"Ashley Furniture HomeStore","address":"USA-United States","street_number":null,"street_name":"East Ray Road","zip":"85044","city":"Phoenix","area":null,"county":"Maricopa County","state":"Arizona","country":"us","formatted_address":"Boston Market, East Ray Road, Ahwatukee, Phoenix, Maricopa County, Arizona, 85044, United States of America","place_id":"18169120","datatype":"locationiq"},{"latitude":"44.26048","longitude":"-88.48550","name":"Ashley Furniture HomeStore","address":"USA-United States","street_number":null,"street_name":"West Lawrence Street","zip":"54914","city":null,"area":null,"county":"Outagamie County","state":"Wisconsin","country":"us","formatted_address":"West Lawrence Street, Town of Grand Chute, Outagamie County, Wisconsin, 54914, United States of America","place_id":"138834850","datatype":"locationiq"},{"latitude":"33.44651","longitude":"-94.09819","name":"Ashley Furniture HomeStore","address":"USA-United States","street_number":"500","street_name":"Walton Drive","zip":"75501","city":"Texarkana","area":null,"county":"Bowie County","state":"Texas","country":"us","formatted_address":"500, Walton Drive, Texarkana, Bowie County, Texas, 75501, United States of America","place_id":"204525652","datatype":"locationiq"},{"latitude":"37.42310","longitude":"-77.63454","name":"Ashley Furniture HomeStore","address":"USA-United States","street_number":"12898","street_name":"Hull Street Road","zip":"23112","city":null,"area":"Thornridge","county":"Chesterfield County","state":"Virginia","country":"us","formatted_address":"12898, Hull Street Road, Thornridge, Swift Creek Farms, Chesterfield County, Virginia, 23112, United States of America","place_id":"207308607","datatype":"locationiq"},{"latitude":"42.10970","longitude":"-87.97863","name":"Ashley Furniture HomeStore","address":"USA-United States","street_number":"685","street_name":"Palatine Road","zip":"60004","city":null,"area":null,"county":"Cook County","state":"Illinois","country":"us","formatted_address":"685, Palatine Road, Arlington Heights, Cook County, Illinois, 60004, United States of America","place_id":"184784019","datatype":"locationiq"},{"latitude":"33.37633","longitude":"-84.76241","name":"Ashley Furniture HomeStore","address":"USA-United States","street_number":"96","street_name":"Newnan Lakes Parkway","zip":"30263","city":null,"area":null,"county":"Coweta County","state":"Georgia","country":"us","formatted_address":"96, Newnan Lakes Parkway, Newnan, Coweta County, Georgia, 30263, United States of America","place_id":"183594117","datatype":"locationiq"},{"latitude":"39.94641","longitude":"-83.83368","name":"Ashley Furniture HomeStore","address":"USA-United States","street_number":null,"street_name":"Bechtle Avenue","zip":"45504","city":"Springfield","area":null,"county":"Clark County","state":"Ohio","country":"us","formatted_address":"Bechtle Avenue, Springfield, Clark County, Ohio, 45504, United States of America","place_id":"98501849","datatype":"locationiq"},{"latitude":"40.72374","longitude":"-73.42369","name":"Ashley Furniture HomeStore","address":"USA-United States","street_number":"707","street_name":"Republic Airport","zip":"11735","city":null,"area":null,"county":"Suffolk County","state":"New York","country":"us","formatted_address":"707, Republic Airport, East Farmingdale, Suffolk County, New York, 11735, United States of America","place_id":"169308296","datatype":"locationiq"},{"latitude":"46.80100","longitude":"-100.78484","name":"Ashley Furniture HomeStore","address":"USA-United States","street_number":"499","street_name":"East Bowen Avenue","zip":"58504","city":"Bismarck","area":null,"county":"Burleigh County","state":"North Dakota","country":"us","formatted_address":"499, East Bowen Avenue, Bismarck, Burleigh County, North Dakota, 58504, United States of America","place_id":"198506184","datatype":"locationiq"},{"latitude":"44.94690","longitude":"-92.90867","name":"Ashley Furniture HomeStore","address":"USA-United States","street_number":"9813","street_name":"Hudson Road","zip":"55129","city":"Woodbury","area":null,"county":"Washington County","state":"Minnesota","country":"us","formatted_address":"9813, Hudson Road, Woodbury, Washington County, Minnesota, 55129, United States of America","place_id":"192650389","datatype":"locationiq"},{"latitude":"47.75185","longitude":"-117.39991","name":"Ashley Furniture HomeStore","address":"USA-United States","street_number":null,"street_name":"US 2","zip":"99218","city":null,"area":null,"county":"Spokane County","state":"Washington","country":"us","formatted_address":"US 2, Country Homes, Spokane County, Washington, 99218, United States of America","place_id":"82346363","datatype":"locationiq"},{"latitude":"36.05357","longitude":"-79.88964","name":"Ashley Furniture HomeStore","address":"USA-United States","street_number":"1701","street_name":"South 40 Drive","zip":"2707","city":"Greensboro","area":null,"county":"Guilford County","state":"North Carolina","country":"us","formatted_address":"Best Buy, 1701, South 40 Drive, Greensboro, Guilford County, North Carolina, 2707, United States of America","place_id":"37392882","datatype":"locationiq"},{"latitude":"30.44755","longitude":"-97.66242","name":"Ashely Furniture HomeStead","address":"USA-United States","street_number":"15420","street_name":"West Pecan Street","zip":"78660","city":"Austin","area":null,"county":"Travis County","state":"Texas","country":"us","formatted_address":"15420, West Pecan Street, Austin, Travis County, Texas, 78660, United States of America","place_id":"206473308","datatype":"locationiq"},{"latitude":"36.08055","longitude":"-80.30053","name":"Ashley Furniture HomeStore","address":"USA-United States","street_number":null,"street_name":"Mall Boulevard","zip":"27103","city":"Winston-Salem","area":null,"county":"Forsyth County","state":"North Carolina","country":"us","formatted_address":"Mall Boulevard, Winston-Salem, Forsyth County, North Carolina, 27103, United States of America","place_id":"168497826","datatype":"locationiq"},{"latitude":"28.66522","longitude":"-81.41670","name":"Ashley Furniture HomeStore","address":"USA-United States","street_number":"850","street_name":"FL 436","zip":"32714","city":null,"area":null,"county":"Seminole County","state":"Florida","country":"us","formatted_address":"850, FL 436, Altamonte Springs, Forest City, Seminole County, Florida, 32714, United States of America","place_id":"183189529","datatype":"locationiq"},{"latitude":"32.80970","longitude":"-96.61600","name":"Ashley Furniture HomeStore","address":"USA-United States","street_number":"3352","street_name":"Towne Centre Drive","zip":"75150","city":"Mesquite","area":null,"county":"Dallas County","state":"Texas","country":"us","formatted_address":"3352, Towne Centre Drive, Mesquite, Dallas County, Texas, 75150, United States of America","place_id":"204909217","datatype":"locationiq"},{"latitude":"32.29389","longitude":"-80.94357","name":"Ashley Furniture HomeStore","address":"USA-United States","street_number":null,"street_name":"Okatie Center Boulevard South","zip":"29909","city":null,"area":null,"county":"Beaufort County","state":"South Carolina","country":"us","formatted_address":"Okatie Center Boulevard South, Hardeeville, Beaufort County, South Carolina, 29909, United States of America","place_id":"121466113","datatype":"locationiq"},{"latitude":"28.55642","longitude":"-81.20687","name":"Ashley Furniture HomeStore","address":"USA-United States","street_number":null,"street_name":"Alafaya Trail","zip":"32828","city":null,"area":null,"county":"Orange County","state":"Florida","country":"us","formatted_address":"Orlando Ale House, Alafaya Trail, Waterford Lakes, Alafaya, Orange County, Florida, 32828, United States of America","place_id":"118331406","datatype":"locationiq"},{"latitude":"33.96447","longitude":"-80.40513","name":"Ashley Furniture HomeStore","address":"USA-United States","street_number":"2801","street_name":"Broad Street","zip":"29150","city":null,"area":null,"county":"Sumter County","state":"South Carolina","country":"us","formatted_address":"2801, Broad Street, Cherryvale, Sumter County, South Carolina, 29150, United States of America","place_id":"203213381","datatype":"locationiq"},{"latitude":"43.60594","longitude":"-116.34972","name":"Ashley Furniture HomeStore","address":"USA-United States","street_number":"3590","street_name":"East Franklin Road","zip":"83642","city":"Meridian","area":null,"county":"Ada County","state":"Idaho","country":"us","formatted_address":"3590, East Franklin Road, Meridian, Ada County, Idaho, 83642, United States of America","place_id":"184375227","datatype":"locationiq"},{"latitude":"29.56786","longitude":"-95.39089","name":"Ashley Furniture HomeStore","address":"USA-United States","street_number":null,"street_name":"Business Center Drive","zip":"74404","city":"Pearland","area":null,"county":"Brazoria County","state":"Texas","country":"us","formatted_address":"Business Center Drive, Pearland, Brazoria County, Texas, 74404, United States of America","place_id":"82907255","datatype":"locationiq"},{"latitude":"31.10391","longitude":"-97.71864","name":"Ashley Furniture HomeStore","address":"USA-United States","street_number":"1099","street_name":"South W S Young Drive","zip":"76543","city":"Killeen","area":null,"county":"Bell County","state":"Texas","country":"us","formatted_address":"1099, South W S Young Drive, Killeen, Bell County, Texas, 76543, United States of America","place_id":"204385264","datatype":"locationiq"},{"latitude":"40.93065","longitude":"-98.38116","name":"Ashely Furniture HomeStead","address":"USA-United States","street_number":"1199","street_name":"Allen Drive","zip":"68803","city":"Grand Island","area":null,"county":"Hall County","state":"Nebraska","country":"us","formatted_address":"1199, Allen Drive, Grand Island, Hall County, Nebraska, 68803, United States of America","place_id":"194616489","datatype":"locationiq"},{"latitude":"37.72809","longitude":"-89.20567","name":"Ashley Furniture HomeStore","address":"USA-United States","street_number":"710","street_name":"East Main Street","zip":"62901","city":"Carbondale","area":null,"county":"Jackson County","state":"Illinois","country":"us","formatted_address":"Hunan, 710, East Main Street, Carbondale, Jackson County, Illinois, 62901, United States of America","place_id":"128901600","datatype":"locationiq"},{"latitude":"32.83415","longitude":"-97.20153","name":"Ashley Furniture HomeStore","address":"USA-United States","street_number":null,"street_name":"Airport Freeway","zip":"76092","city":"Hurst","area":null,"county":"Tarrant County","state":"Texas","country":"us","formatted_address":"Airport Freeway, Hurst, Tarrant County, Texas, 76092, United States of America","place_id":"65360137","datatype":"locationiq"},{"latitude":"34.18310","longitude":"-103.33834","name":"Ashley Furniture HomeStore","address":"USA-United States","street_number":null,"street_name":"South Avenue C","zip":"88130","city":null,"area":null,"county":"Roosevelt County","state":"New Mexico","country":"us","formatted_address":"South Avenue C, Portales, Roosevelt County, New Mexico, 88130, United States of America","place_id":"141957754","datatype":"locationiq"},{"latitude":"41.51176","longitude":"-87.46946","name":"Ashley Furniture HomeStore","address":"USA-United States","street_number":null,"street_name":"Indianapolis Boulevard","zip":"46322","city":null,"area":"Highland Terrace Estates","county":"Lake County","state":"Indiana","country":"us","formatted_address":"Indianapolis Boulevard, Highland Terrace Estates, Highland, Lake County, Indiana, 46322, United States of America","place_id":"83454426","datatype":"locationiq"},{"latitude":"45.45913","longitude":"-98.44227","name":"Ashley Furniture HomeStore","address":"USA-United States","street_number":"3311","street_name":"6th Avenue Southeast","zip":"57401","city":"Aberdeen","area":null,"county":"Brown County","state":"South Dakota","country":"us","formatted_address":"Pizza Hut + Wing Street, 3311, 6th Avenue Southeast, Aberdeen, Brown County, South Dakota, 57401, United States of America","place_id":"27218148","datatype":"locationiq"},{"latitude":"39.29302","longitude":"-84.45634","name":"Ashley Furniture HomeStore","address":"USA-United States","street_number":null,"street_name":"Commons Drive","zip":"45246","city":"Springdale","area":null,"county":"Hamilton County","state":"Ohio","country":"us","formatted_address":"Commons Drive, Kemper Commons, Springdale, Hamilton County, Ohio, 45246, United States of America","place_id":"70688787","datatype":"locationiq"},{"latitude":"37.14229","longitude":"-93.26397","name":"Ashley Furniture HomeStore","address":"USA-United States","street_number":"1715","street_name":"East Independence Street","zip":"65804","city":"Springfield","area":null,"county":"Greene County","state":"Missouri","country":"us","formatted_address":"Ashley HomeStore, 1715, East Independence Street, Springfield, Greene County, Missouri, 65804, United States of America","place_id":"62236846","datatype":"locationiq"},{"latitude":"48.23635","longitude":"-101.29620","name":"Ashley Furniture HomeStore","address":"USA-United States","street_number":"10","street_name":"1st Avenue Southwest","zip":"58701","city":"Minot","area":null,"county":"Ward County","state":"North Dakota","country":"us","formatted_address":"Ashley HomeStore, 10, 1st Avenue Southwest, Minot, Ward County, North Dakota, 58701, United States of America","place_id":"61130345","datatype":"locationiq"},{"latitude":"31.26196","longitude":"-85.43836","name":"Ashley Furniture HomeStore","address":"USA-United States","street_number":"4129","street_name":"Montgomery Highway","zip":"36303","city":"Dothan","area":null,"county":"Houston County","state":"Alabama","country":"us","formatted_address":"Ashley HomeStore, 4129, Montgomery Highway, Dothan, Houston County, Alabama, 36303, United States of America","place_id":"62238584","datatype":"locationiq"},{"latitude":"35.06661","longitude":"-78.95791","name":"Ashley Furniture HomeStore","address":"USA-United States","street_number":null,"street_name":"Morganton Road","zip":"28303","city":"Fayetteville","area":null,"county":"Cumberland County","state":"North Carolina","country":"us","formatted_address":"Morganton Road, Fayetteville, Cumberland County, North Carolina, 28303, United States of America","place_id":"162747736","datatype":"locationiq"},{"latitude":"38.35200","longitude":"-122.71567","name":"Ashley Furniture HomeStore","address":"USA-United States","street_number":null,"street_name":"Redwood Drive","zip":"94928","city":"Rohnert Park","area":null,"county":"Sonoma County","state":"California","country":"us","formatted_address":"Redwood Drive, Rohnert Park, Sonoma County, California, 94928, United States of America","place_id":"63379811","datatype":"locationiq"},{"latitude":"30.21085","longitude":"-90.92990","name":"Ashley Furniture HomeStore","address":"USA-United States","street_number":null,"street_name":"State Route 30","zip":"70737-5510","city":null,"area":null,"county":"Ascension Parish","state":"Louisiana","country":"us","formatted_address":"State Route 30, Gonzales, Ascension Parish, Louisiana, 70737-5510, United States of America","place_id":"140800336","datatype":"locationiq"},{"latitude":"38.50043","longitude":"-90.33349","name":"Ashley Furniture HomeStore","address":"USA-United States","street_number":null,"street_name":"Lemay Ferry Road","zip":"63129","city":null,"area":null,"county":"St. Louis County","state":"Missouri","country":"us","formatted_address":"McDonald's, Lemay Ferry Road, Mehlville, St. Louis County, Missouri, 63129, United States of America","place_id":"7947467","datatype":"locationiq"},{"latitude":"32.87938","longitude":"-111.72843","name":"Ashley Furniture HomeStore","address":"USA-United States","street_number":"1320","street_name":"East Florence Boulevard","zip":"85122","city":"Casa Grande","area":null,"county":"Pinal County","state":"Arizona","country":"us","formatted_address":"1320, East Florence Boulevard, Casa Grande, Pinal County, Arizona, 85122, United States of America","place_id":"177426044","datatype":"locationiq"},{"latitude":"32.88295","longitude":"-117.15568","name":"Ashley Furniture HomeStore","address":"USA-United States","street_number":"7310","street_name":"Miramar Road","zip":"92126","city":"San Diego","area":null,"county":"San Diego County","state":"California","country":"us","formatted_address":"7310, Miramar Road, Mira Mesa, San Diego, San Diego County, California, 92126, United States of America","place_id":"5998067","datatype":"locationiq"},{"latitude":"31.34166","longitude":"-93.85175","name":"Ashley Furniture HomeStore","address":"USA-United States","street_number":null,"street_name":"Farm-to-Market Road 83","zip":null,"city":"Hemphill","area":null,"county":"Sabine County","state":"Texas","country":"us","formatted_address":"Farm-to-Market Road 83, Hemphill, Sabine County, Texas, United States of America","place_id":"71678021","datatype":"locationiq"},{"latitude":"42.05469","longitude":"-87.83030","name":"Ashley Furniture HomeStore","address":"USA-United States","street_number":"8170","street_name":"Golf Road","zip":"60714","city":null,"area":null,"county":"Cook County","state":"Illinois","country":"us","formatted_address":"Liquor Barn, 8170, Golf Road, Niles, Cook County, Illinois, 60714, United States of America","place_id":"154425457","datatype":"locationiq"},{"latitude":"35.37282","longitude":"-77.94972","name":"Ashley Furniture HomeStore","address":"USA-United States","street_number":"465","street_name":"North Berkeley Boulevard","zip":"27534","city":null,"area":null,"county":"Wayne County","state":"North Carolina","country":"us","formatted_address":"465, North Berkeley Boulevard, Goldsboro, Wayne County, North Carolina, 27534, United States of America","place_id":"198421711","datatype":"locationiq"},{"latitude":"41.61479","longitude":"-83.69741","name":"Ashley Furniture HomeStore","address":"USA-United States","street_number":"1426","street_name":"Spring Meadows Drive","zip":"43528","city":null,"area":null,"county":"Lucas County","state":"Ohio","country":"us","formatted_address":"1426, Spring Meadows Drive, Holland, Lucas County, Ohio, 43528, United States of America","place_id":"199526013","datatype":"locationiq"},{"latitude":"34.55313","longitude":"-82.68043","name":"Ashley Furniture HomeStore","address":"USA-United States","street_number":null,"street_name":"US 76","zip":"19621","city":null,"area":null,"county":"Anderson County","state":"South Carolina","country":"us","formatted_address":"US 76, Northlake, Anderson County, South Carolina, 19621, United States of America","place_id":"148734166","datatype":"locationiq"},{"latitude":"41.72671","longitude":"-88.03033","name":"Ashley Furniture HomeStore","address":"USA-United States","street_number":"2098","street_name":"87th Street","zip":"60517","city":null,"area":null,"county":"DuPage County","state":"Illinois","country":"us","formatted_address":"2098, 87th Street, Woodridge, DuPage County, Illinois, 60517, United States of America","place_id":"185101452","datatype":"locationiq"},{"latitude":"39.74040","longitude":"-89.69644","name":"Ashley Furniture HomeStore","address":"USA-United States","street_number":null,"street_name":"Chuckwagon Drive","zip":"62711","city":"Springfield","area":null,"county":"Sangamon County","state":"Illinois","country":"us","formatted_address":"Ashley Furniture, Chuckwagon Drive, Prairie Crossing, Springfield, Sangamon County, Illinois, 62711, United States of America","place_id":"107243968","datatype":"locationiq"},{"latitude":"44.07309","longitude":"-123.04255","name":"Ashley Furniture HomeStore","address":"USA-United States","street_number":"2790","street_name":"Gateway Street","zip":"97477","city":"Springfield","area":null,"county":"Lane County","state":"Oregon","country":"us","formatted_address":"Umpqua bank, 2790, Gateway Street, Springfield, Lane County, Oregon, 97477, United States of America","place_id":"158472744","datatype":"locationiq"},{"latitude":"32.55518","longitude":"-93.72037","name":"Ashley Furniture HomeStore","address":"USA-United States","street_number":"2479","street_name":"Viking Drive","zip":"71111","city":"Bossier City","area":null,"county":"Bossier Parish","state":"Louisiana","country":"us","formatted_address":"2479, Viking Drive, Bossier City, Bossier Parish, Louisiana, 71111, United States of America","place_id":"188885489","datatype":"locationiq"},{"latitude":"27.84014","longitude":"-82.68508","name":"Ashley Furniture HomeStore","address":"USA-United States","street_number":null,"street_name":"US 19","zip":"33781","city":null,"area":null,"county":"Pinellas County","state":"Florida","country":"us","formatted_address":"La Quinta Inn, US 19, Pinellas Park, Pinellas County, Florida, 33781, United States of America","place_id":"174372344","datatype":"locationiq"},{"latitude":"33.87558","longitude":"-117.74118","name":"Ashley Furniture HomeStore","address":"USA-United States","street_number":null,"street_name":"Savi Ranch Parkway","zip":"92887","city":"Yorba Linda","area":null,"county":"Orange County","state":"California","country":"us","formatted_address":"Savi Ranch Parkway, Savi Ranch, Yorba Linda, Orange County, California, 92887, United States of America","place_id":"158400036","datatype":"locationiq"},{"latitude":"30.69700","longitude":"-88.17388","name":"Ashley Furniture HomeStore","address":"USA-United States","street_number":"426","street_name":"University Boulevard","zip":"36608","city":"Mobile","area":null,"county":"Mobile County","state":"Alabama","country":"us","formatted_address":"426, University Boulevard, Mobile, Mobile County, Alabama, 36608, United States of America","place_id":"176566738","datatype":"locationiq"},{"latitude":"31.30727","longitude":"-94.73340","name":"Ashley Furniture HomeStore","address":"USA-United States","street_number":"2905","street_name":"South John Redditt Drive","zip":"75904","city":"Lufkin","area":null,"county":"Angelina County","state":"Texas","country":"us","formatted_address":"2905, South John Redditt Drive, Lufkin, Angelina County, Texas, 75904, United States of America","place_id":"204320215","datatype":"locationiq"},{"latitude":"35.19046","longitude":"-89.79266","name":"Ashley Furniture HomeStore","address":"USA-United States","street_number":"2385","street_name":"North Germantown Parkway","zip":"38016","city":"Memphis","area":null,"county":"Shelby County","state":"Tennessee","country":"us","formatted_address":"Ashley HomeStore, 2385, North Germantown Parkway, Memphis, Shelby County, Tennessee, 38016, United States of America","place_id":"61130406","datatype":"locationiq"},{"latitude":"38.77677","longitude":"-90.69996","name":"Ashley Furniture HomeStore","address":"USA-United States","street_number":"2377","street_name":"Highway K","zip":"63368","city":"O'Fallon","area":null,"county":"St. Charles County","state":"Missouri","country":"us","formatted_address":"2377, Highway K, O'Fallon, St. Charles County, Missouri, 63368, United States of America","place_id":"193948271","datatype":"locationiq"},{"latitude":"32.67670","longitude":"-114.62509","name":"Ashley Furniture HomeStore","address":"USA-United States","street_number":"2790","street_name":"West 28th Street","zip":"85364","city":"Yuma","area":null,"county":"Yuma County","state":"Arizona","country":"us","formatted_address":"Ashley HomeStore, 2790, West 28th Street, Yuma, Yuma County, Arizona, 85364, United States of America","place_id":"61805196","datatype":"locationiq"},{"latitude":"46.84280","longitude":"-114.02895","name":"Ashley Furniture HomeStore","address":"USA-United States","street_number":"3078","street_name":"Paxson Street","zip":"59801","city":"Missoula","area":null,"county":"Missoula County","state":"Montana","country":"us","formatted_address":"3078, Paxson Street, Missoula, Missoula County, Montana, 59801, United States of America","place_id":"194332721","datatype":"locationiq"},{"latitude":"40.98944","longitude":"-76.01504","name":"Ashley Furniture HomeStore","address":"USA-United States","street_number":null,"street_name":"Moisey Drive","zip":"18202","city":null,"area":null,"county":"Luzerne County","state":"Pennsylvania","country":"us","formatted_address":"Moisey Drive, Dippel Manor, Luzerne County, Pennsylvania, 18202, United States of America","place_id":"126038821","datatype":"locationiq"},{"latitude":"39.77996","longitude":"-84.06029","name":"Ashley Furniture HomeStore","address":"USA-United States","street_number":null,"street_name":"Loop Road","zip":"45433","city":"Fairborn","area":null,"county":"Greene County","state":"Ohio","country":"us","formatted_address":"Lot 14, Loop Road, Fairborn, Greene County, Ohio, 45433, United States of America","place_id":"104538703","datatype":"locationiq"},{"latitude":"45.48317","longitude":"-122.57894","name":"Ashley Furniture HomeStore","address":"USA-United States","street_number":null,"street_name":"Southeast 82nd Avenue","zip":"97266","city":"Portland","area":null,"county":"Multnomah County","state":"Oregon","country":"us","formatted_address":"Southeast 82nd & Foster, Southeast 82nd Avenue, Lents, Portland, Multnomah County, Oregon, 97266, United States of America","place_id":"15283868","datatype":"locationiq"},{"latitude":"29.56294","longitude":"-98.33323","name":"Ashley Furniture HomeStore","address":"USA-United States","street_number":null,"street_name":"Pat Booker Road","zip":"78148","city":null,"area":null,"county":"Bexar County","state":"Texas","country":"us","formatted_address":"Pat Booker Road, Live Oak, Bexar County, Texas, 78148, United States of America","place_id":"126332959","datatype":"locationiq"},{"latitude":"28.83623","longitude":"-97.00178","name":"Ashley Furniture HomeStore","address":"USA-United States","street_number":"4503","street_name":"North Navarro Street","zip":"77904","city":"Victoria","area":null,"county":"Victoria County","state":"Texas","country":"us","formatted_address":"4503, North Navarro Street, Victoria, Victoria County, Texas, 77904, United States of America","place_id":"206545689","datatype":"locationiq"},{"latitude":"26.19424","longitude":"-98.20479","name":"Ashley Furniture HomeStore","address":"USA-United States","street_number":"1799","street_name":"West Kelly Avenue","zip":"78577","city":null,"area":null,"county":"Hidalgo County","state":"Texas","country":"us","formatted_address":"1799, West Kelly Avenue, Pharr, Hidalgo County, Texas, 78577, United States of America","place_id":"205637759","datatype":"locationiq"},{"latitude":"35.56658","longitude":"-78.39252","name":"Ashley Furniture HomeStore","address":"USA-United States","street_number":"4012","street_name":"US 70 Business","zip":"27520","city":null,"area":null,"county":"Johnston County","state":"North Carolina","country":"us","formatted_address":"4012, US 70 Business, Whitley Heights, Johnston County, North Carolina, 27520, United States of America","place_id":"197795878","datatype":"locationiq"},{"latitude":"32.90517","longitude":"-109.84632","name":"Ashley Furniture HomeStore","address":"USA-United States","street_number":null,"street_name":"US 70","zip":"85543","city":null,"area":null,"county":"Graham County","state":"Arizona","country":"us","formatted_address":"US 70, Glenbar, Graham County, Arizona, 85543, United States of America","place_id":"142680093","datatype":"locationiq"},{"latitude":"40.71704","longitude":"-99.08401","name":"Ashley Furniture HomeStore","address":"USA-United States","street_number":null,"street_name":"West 44th Street","zip":"68847","city":"Kearney","area":null,"county":"Buffalo County","state":"Nebraska","country":"us","formatted_address":"Sinclair, West 44th Street, Kearney, Buffalo County, Nebraska, 68847, United States of America","place_id":"12073135","datatype":"locationiq"},{"latitude":"39.43022","longitude":"-77.42091","name":"Ashley Furniture HomeStore","address":"USA-United States","street_number":"1301","street_name":"West 7th Street","zip":"21702","city":"Frederick","area":null,"county":"Frederick County","state":"Maryland","country":"us","formatted_address":"1301, West 7th Street, Frederick, Frederick County, Maryland, 21702, United States of America","place_id":"189771420","datatype":"locationiq"},{"latitude":"40.58743","longitude":"-122.34948","name":"Ashley Furniture HomeStore","address":"USA-United States","street_number":null,"street_name":"Churn Creek Road","zip":"96003","city":"Redding","area":null,"county":"Shasta County","state":"California","country":"us","formatted_address":"Churn Creek Road, Redding, Shasta County, California, 96003, United States of America","place_id":"76272458","datatype":"locationiq"},{"latitude":"28.71514","longitude":"-100.47758","name":"Ashley Furniture HomeStore","address":"USA-United States","street_number":"101","street_name":"Aztec Mall Drive","zip":"78852","city":null,"area":null,"county":"Maverick County","state":"Texas","country":"us","formatted_address":"Ashley HomeStore, 101, Aztec Mall Drive, Eagle Pass, Maverick County, Texas, 78852, United States of America","place_id":"61134498","datatype":"locationiq"},{"latitude":"34.83590","longitude":"-82.31298","name":"Ashley Furniture HomeStore","address":"USA-United States","street_number":null,"street_name":"Woodruff Road","zip":"29607","city":"Greenville","area":null,"county":"Greenville County","state":"South Carolina","country":"us","formatted_address":"Woodruff Rd @ Costco, Woodruff Road, Greenville, Greenville County, South Carolina, 29607, United States of America","place_id":"20805039","datatype":"locationiq"},{"latitude":"32.61615","longitude":"-85.40652","name":"Ashley Furniture HomeStore","address":"USA-United States","street_number":"2514","street_name":"Interstate Drive","zip":"36801","city":"Opelika","area":null,"county":"Lee County","state":"Alabama","country":"us","formatted_address":"2514, Interstate Drive, Tiger Town, Opelika, Lee County, Alabama, 36801, United States of America","place_id":"176434331","datatype":"locationiq"},{"latitude":"33.16518","longitude":"-87.54678","name":"Ashley Furniture HomeStore","address":"USA-United States","street_number":"46","street_name":"Skyland Boulevard East","zip":"35405","city":"Tuscaloosa","area":"Dixon Manor","county":"Tuscaloosa County","state":"Alabama","country":"us","formatted_address":"46, Skyland Boulevard East, Dixon Manor, West End, Tuscaloosa, Tuscaloosa County, Alabama, 35405, United States of America","place_id":"176738608","datatype":"locationiq"},{"latitude":"37.08361","longitude":"-84.61707","name":"Ashley Furniture HomeStore","address":"USA-United States","street_number":null,"street_name":"US 27","zip":"42501","city":null,"area":null,"county":"Pulaski County","state":"Kentucky","country":"us","formatted_address":"Wildcat Beer, Wine and Spirits, US 27, Somerset, Pulaski County, Kentucky, 42501, United States of America","place_id":"44385053","datatype":"locationiq"},{"latitude":"35.59593","longitude":"-80.87596","name":"Ashley Furniture HomeStore","address":"USA-United States","street_number":"654","street_name":"River Highway","zip":"28117","city":null,"area":null,"county":"Iredell County","state":"North Carolina","country":"us","formatted_address":"654, River Highway, Mooresville, Iredell County, North Carolina, 28117, United States of America","place_id":"52960129","datatype":"locationiq"},{"latitude":"27.71870","longitude":"-97.39186","name":"Ashley Furniture HomeStore","address":"USA-United States","street_number":null,"street_name":"South Padre Island Drive Frontage Road","zip":"78415","city":"Corpus Christi","area":null,"county":"Nueces County","state":"Texas","country":"us","formatted_address":"South Padre Island Drive Frontage Road, Corpus Christi, Nueces County, Texas, 78415, United States of America","place_id":"72007962","datatype":"locationiq"},{"latitude":"39.66092","longitude":"-77.70172","name":"Ashley Furniture HomeStore","address":"USA-United States","street_number":"1525","street_name":"Potomac Avenue","zip":"21742","city":"Hagerstown","area":null,"county":"Washington County","state":"Maryland","country":"us","formatted_address":"1525, Potomac Avenue, Hagerstown, Washington County, Maryland, 21742, United States of America","place_id":"189983780","datatype":"locationiq"},{"latitude":"33.69128","longitude":"-84.09011","name":"Ashley Furniture HomeStore","address":"USA-United States","street_number":"8875","street_name":"Mall Parkway","zip":"30038","city":null,"area":null,"county":"DeKalb County","state":"Georgia","country":"us","formatted_address":"8875, Mall Parkway, Collinsville, DeKalb County, Georgia, 30038, United States of America","place_id":"183624741","datatype":"locationiq"},{"latitude":"40.61198","longitude":"-74.25546","name":"Ashley Furniture HomeStore","address":"USA-United States","street_number":"1741","street_name":"Edward Street","zip":"07036","city":"Linden","area":null,"county":"Union County","state":"New Jersey","country":"us","formatted_address":"Ashley HomeStore, 1741, Edward Street, Linden, Union County, New Jersey, 07036, United States of America","place_id":"61811379","datatype":"locationiq"},{"latitude":"45.03578","longitude":"-93.02588","name":"Ashley Furniture HomeStore","address":"USA-United States","street_number":null,"street_name":"I 694","zip":"55109","city":"White Bear Lake","area":null,"county":"Ramsey County","state":"Minnesota","country":"us","formatted_address":"Best Buy, I 694, White Bear Lake, Ramsey County, Minnesota, 55109, United States of America","place_id":"97590239","datatype":"locationiq"},{"latitude":"37.07562","longitude":"-88.61313","name":"Ashley Furniture HomeStore","address":"USA-United States","street_number":"455","street_name":"South 16th Street","zip":"42003","city":"Paducah","area":null,"county":"McCracken County","state":"Kentucky","country":"us","formatted_address":"455, South 16th Street, Paducah, McCracken County, Kentucky, 42003, United States of America","place_id":"188651713","datatype":"locationiq"},{"latitude":"36.27710","longitude":"-115.20661","name":"Ashley Furniture HomeStore","address":"USA-United States","street_number":null,"street_name":"North Decatur Boulevard","zip":"89107","city":"Las Vegas","area":null,"county":"Clark County","state":"Nevada","country":"us","formatted_address":"North Decatur Boulevard, Las Vegas, Clark County, Nevada, 89107, United States of America","place_id":"172857638","datatype":"locationiq"},{"latitude":"41.87374","longitude":"-103.67928","name":"Ashley Furniture HomeStore","address":"USA-United States","street_number":null,"street_name":"West 27th Street","zip":"69361","city":"Scottsbluff","area":null,"county":"Scotts Bluff County","state":"Nebraska","country":"us","formatted_address":"West 27th Street, Scottsbluff, Scotts Bluff County, Nebraska, 69361, United States of America","place_id":"68349052","datatype":"locationiq"},{"latitude":"36.84523","longitude":"-119.78617","name":"Ashley Furniture HomeStore","address":"USA-United States","street_number":"198","street_name":"East Alluvial Avenue","zip":"93720","city":"Fresno","area":null,"county":"Fresno County","state":"California","country":"us","formatted_address":"198, East Alluvial Avenue, Fresno, Fresno County, California, 93720, United States of America","place_id":"178333316","datatype":"locationiq"},{"latitude":"40.87359","longitude":"-74.65227","name":"Ashley Furniture HomeStore","address":"USA-United States","street_number":null,"street_name":"Route 10 East","zip":"07847","city":"Roxbury Township","area":null,"county":"Morris County","state":"New Jersey","country":"us","formatted_address":"Route 10 East, Roxbury Township, Morris County, New Jersey, 07847, United States of America","place_id":"65768253","datatype":"locationiq"},{"latitude":"35.85455","longitude":"-86.43041","name":"Ashley Furniture HomeStore","address":"USA-United States","street_number":null,"street_name":"North Thompson Lane","zip":"37129","city":"Murfreesboro","area":null,"county":"Rutherford County","state":"Tennessee","country":"us","formatted_address":"Cool Beans, North Thompson Lane, Murfreesboro, Rutherford County, Tennessee, 37129, United States of America","place_id":"6953315","datatype":"locationiq"},{"latitude":"39.76261","longitude":"-75.04814","name":"Ashley Furniture HomeStore","address":"USA-United States","street_number":null,"street_name":"Black Horse Pike","zip":"08012","city":null,"area":null,"county":"Gloucester County","state":"New Jersey","country":"us","formatted_address":"Black Horse Pike, Bells Lake, Gloucester County, New Jersey, 08012, United States of America","place_id":"84050968","datatype":"locationiq"},{"latitude":"38.21252","longitude":"-122.14022","name":"Ashley Furniture HomeStore","address":"USA-United States","street_number":"4890","street_name":"Auto Plaza Court","zip":"94534","city":"Fairfield","area":null,"county":"Solano County","state":"California","country":"us","formatted_address":"4890, Auto Plaza Court, Fairfield, Solano County, California, 94534, United States of America","place_id":"180321554","datatype":"locationiq"},{"latitude":"35.45663","longitude":"-82.52035","name":"Ashley Furniture HomeStore","address":"USA-United States","street_number":"49","street_name":"Airport Road","zip":"28704","city":"Asheville","area":null,"county":"Buncombe County","state":"North Carolina","country":"us","formatted_address":"49, Airport Road, Asheville, Buncombe County, North Carolina, 28704, United States of America","place_id":"197250881","datatype":"locationiq"},{"latitude":"34.48016","longitude":"-117.33905","name":"Ashley Furniture HomeStore","address":"USA-United States","street_number":"12707","street_name":"Amargosa Road","zip":"92392","city":"Victorville","area":null,"county":"San Bernardino County","state":"California","country":"us","formatted_address":"12707, Amargosa Road, Victorville, San Bernardino County, California, 92392, United States of America","place_id":"179708231","datatype":"locationiq"},{"latitude":"31.21167","longitude":"-82.36102","name":"Ashley Furniture HomeStore","address":"USA-United States","street_number":"425","street_name":"Tebeau Street","zip":"31501","city":null,"area":null,"county":"Ware County","state":"Georgia","country":"us","formatted_address":"425, Tebeau Street, Waycross, Ware County, Georgia, 31501, United States of America","place_id":"184283818","datatype":"locationiq"},{"latitude":"42.23442","longitude":"-87.94331","name":"Ashley Furniture HomeStore","address":"USA-United States","street_number":"359","street_name":"Milwaukee Avenue","zip":"60061","city":null,"area":null,"county":"Lake County","state":"Illinois","country":"us","formatted_address":"359, Milwaukee Avenue, Vernon Hills, Lake County, Illinois, 60061, United States of America","place_id":"185366564","datatype":"locationiq"},{"latitude":"35.87032","longitude":"-78.57703","name":"Ashley Furniture HomeStore","address":"USA-United States","street_number":"6426","street_name":"Old Wake Forest Road","zip":"27616","city":"Raleigh","area":null,"county":"Wake County","state":"North Carolina","country":"us","formatted_address":"6426, Old Wake Forest Road, Millbrook, Raleigh, Wake County, North Carolina, 27616, United States of America","place_id":"198359489","datatype":"locationiq"},{"latitude":"42.73303","longitude":"-90.43965","name":"Ashley Furniture HomeStore","address":"USA-United States","street_number":"1775","street_name":"Progressive Parkway","zip":"53818","city":"Platteville","area":null,"county":"Grant County","state":"Wisconsin","country":"us","formatted_address":"McDonald's, 1775, Progressive Parkway, Platteville, Grant County, Wisconsin, 53818, United States of America","place_id":"162443627","datatype":"locationiq"},{"latitude":"38.88556","longitude":"-99.31785","name":"Ashley Furniture HomeStore","address":"USA-United States","street_number":"189","street_name":"East 27th Street","zip":"67601","city":null,"area":null,"county":"Ellis County","state":"Kansas","country":"us","formatted_address":"189, East 27th Street, Hays, Ellis County, Kansas, 67601, United States of America","place_id":"187824274","datatype":"locationiq"},{"latitude":"30.47885","longitude":"-81.63807","name":"Ashley Furniture HomeStore","address":"USA-United States","street_number":"13265","street_name":"Airport Center Drive","zip":"32218","city":"Jacksonville","area":null,"county":"Duval County","state":"Florida","country":"us","formatted_address":"Ashley HomeStore, 13265, Airport Center Drive, Jacksonville, Duval County, Florida, 32218, United States of America","place_id":"61461098","datatype":"locationiq"},{"latitude":"35.30359","longitude":"-80.75675","name":"Ashley Furniture HomeStore","address":"USA-United States","street_number":"298","street_name":"McCullough Drive","zip":"28262","city":"Charlotte","area":null,"county":"Mecklenburg County","state":"North Carolina","country":"us","formatted_address":"298, McCullough Drive, Charlotte, Mecklenburg County, North Carolina, 28262, United States of America","place_id":"197970105","datatype":"locationiq"},{"latitude":"38.01367","longitude":"-84.41942","name":"Ashley Furniture HomeStore","address":"USA-United States","street_number":"1837","street_name":"Plaudit Place","zip":"40509","city":null,"area":null,"county":"Fayette County","state":"Kentucky","country":"us","formatted_address":"1837, Plaudit Place, Brighton, Fayette County, Kentucky, 40509, United States of America","place_id":"158387452","datatype":"locationiq"},{"latitude":"36.31716","longitude":"-82.35563","name":"Ashley Furniture HomeStore","address":"USA-United States","street_number":"136","street_name":"West Market Street","zip":"37604","city":"Johnson City","area":"Mountain Home","county":"Washington County","state":"Tennessee","country":"us","formatted_address":"136, West Market Street, Mountain Home, Johnson City, Washington County, Tennessee, 37604, United States of America","place_id":"204246202","datatype":"locationiq"},{"latitude":"32.67520","longitude":"-97.13113","name":"Ashley Furniture HomeStore","address":"USA-United States","street_number":"1536","street_name":"I-20 West","zip":"76017","city":"Arlington","area":null,"county":"Tarrant County","state":"Texas","country":"us","formatted_address":"1536, I-20 West, Arlington, Tarrant County, Texas, 76017, United States of America","place_id":"206365316","datatype":"locationiq"},{"latitude":"40.85239","longitude":"-74.07530","name":"Ashley Furniture HomeStore","address":"USA-United States","street_number":null,"street_name":"Hillside Drive","zip":"07604","city":"Hasbrouck Heights","area":null,"county":"Bergen County","state":"New Jersey","country":"us","formatted_address":"Hillside Drive, Hasbrouck Heights, Bergen County, New Jersey, 07604, United States of America","place_id":"65992671","datatype":"locationiq"},{"latitude":"39.98067","longitude":"-76.75029","name":"Ashley Furniture HomeStore","address":"USA-United States","street_number":"801","street_name":"Loucks Road","zip":"17404","city":"York","area":null,"county":"York County","state":"Pennsylvania","country":"us","formatted_address":"Haller Enterprises, Inc., 801, Loucks Road, York, York County, Pennsylvania, 17404, United States of America","place_id":"27145376","datatype":"locationiq"},{"latitude":"30.42829","longitude":"-86.60656","name":"Ashley Furniture HomeStore","address":"USA-United States","street_number":"219","street_name":"Eglin Parkway","zip":"32547","city":"Fort Walton Beach","area":null,"county":"Okaloosa County","state":"Florida","country":"us","formatted_address":"219, Eglin Parkway, Fort Walton Beach, Okaloosa County, Florida, 32547, United States of America","place_id":"182663046","datatype":"locationiq"},{"latitude":"46.88152","longitude":"-102.75234","name":"Ashley Furniture HomeStore","address":"USA-United States","street_number":null,"street_name":"I 94 Business","zip":"58601","city":"Dickinson","area":null,"county":"Stark County","state":"North Dakota","country":"us","formatted_address":"I 94 Business, Dickinson, Stark County, North Dakota, 58601, United States of America","place_id":"101870042","datatype":"locationiq"},{"latitude":"29.35730","longitude":"-98.53304","name":"Ashley Furniture HomeStore","address":"USA-United States","street_number":null,"street_name":"South Zarzamora Street","zip":"78211","city":"San Antonio","area":"Columbia Heights","county":"Bexar County","state":"Texas","country":"us","formatted_address":"H-E-B Fuel, South Zarzamora Street, Columbia Heights, San Antonio, Bexar County, Texas, 78211, United States of America","place_id":"148982855","datatype":"locationiq"},{"latitude":"43.72378","longitude":"-98.02565","name":"Ashley Furniture HomeStore","address":"USA-United States","street_number":null,"street_name":"North Main Street","zip":"57301","city":"Mitchell","area":null,"county":"Davison County","state":"South Dakota","country":"us","formatted_address":"Central Electric Cooperative, North Main Street, Mitchell, Davison County, South Dakota, 57301, United States of America","place_id":"127098333","datatype":"locationiq"},{"latitude":"45.53445","longitude":"-122.85337","name":"Ashley Furniture HomeStore","address":"USA-United States","street_number":"1885","street_name":"Northwest 169th Place","zip":"97006","city":"Beaverton","area":null,"county":"Washington County","state":"Oregon","country":"us","formatted_address":"1885, Northwest 169th Place, Beaverton, Washington County, Oregon, 97006, United States of America","place_id":"45809149","datatype":"locationiq"},{"latitude":"30.57688","longitude":"-91.17023","name":"Ashley Furniture HomeStore","address":"USA-United States","street_number":"246","street_name":"Main Street","zip":"70714","city":"Baker","area":null,"county":"East Baton Rouge Parish","state":"Louisiana","country":"us","formatted_address":"246, Main Street, Baker, East Baton Rouge Parish, Louisiana, 70714, United States of America","place_id":"188960624","datatype":"locationiq"},{"latitude":"39.41373","longitude":"-75.04010","name":"Ashley Furniture HomeStore","address":"USA-United States","street_number":"1600","street_name":"North High Street","zip":"08312","city":"Millville","area":null,"county":"Cumberland County","state":"New Jersey","country":"us","formatted_address":"Ashley HomeStore, 1600, North High Street, Millville, Cumberland County, New Jersey, 08312, United States of America","place_id":"61698121","datatype":"locationiq"},{"latitude":"44.16898","longitude":"-93.25911","name":"Ashley Furniture HomeStore","address":"USA-United States","street_number":null,"street_name":"I 35","zip":"55049","city":"Medford","area":null,"county":"Rice County","state":"Minnesota","country":"us","formatted_address":"48, I 35, Medford, Rice County, Minnesota, 55049, United States of America","place_id":"533175","datatype":"locationiq"},{"latitude":"33.01648","longitude":"-96.70900","name":"Ashley Furniture HomeStore","address":"USA-United States","street_number":null,"street_name":"Central Expressway","zip":"75074","city":"Plano","area":null,"county":"Collin County","state":"Texas","country":"us","formatted_address":"28A, Central Expressway, Plano, Collin County, Texas, 75074, United States of America","place_id":"336271","datatype":"locationiq"},{"latitude":"37.12585","longitude":"-113.52896","name":"Ashley Furniture HomeStore","address":"USA-United States","street_number":null,"street_name":"North 2720 East","zip":"84780","city":"St. George","area":null,"county":"Washington County","state":"Utah","country":"us","formatted_address":"America First Credit Union, North 2720 East, Middleton, St. George, Washington County, Utah, 84780, United States of America","place_id":"45732021","datatype":"locationiq"},{"latitude":"29.60951","longitude":"-90.74908","name":"Ashley Furniture HomeStore","address":"USA-United States","street_number":null,"street_name":"Martin Luther King Boulevard","zip":"70360","city":null,"area":null,"county":"Terrebonne Parish","state":"Louisiana","country":"us","formatted_address":"Outback Steakhouse, Martin Luther King Boulevard, Bayou Cane, Terrebonne Parish, Louisiana, 70360, United States of America","place_id":"51005313","datatype":"locationiq"},{"latitude":"31.86987","longitude":"-110.97073","name":"Ashely Furniture HomeStead","address":"USA-United States","street_number":null,"street_name":"South Old Nogales Highway, White House Canyon Road","zip":"85614","city":null,"area":null,"county":"Pima County","state":"Arizona","country":"us","formatted_address":"South Old Nogales Highway, White House Canyon Road, Sahuarita, Pima County, Arizona, 85614, United States of America","place_id":"103668375","datatype":"locationiq"},{"latitude":"33.55579","longitude":"-117.19889","name":"Ashley Furniture HomeStore","address":"USA-United States","street_number":null,"street_name":"Madison Avenue","zip":"92562","city":"Murrieta","area":null,"county":"Riverside County","state":"California","country":"us","formatted_address":"Starbucks, Madison Avenue, California Oaks, Murrieta, Riverside County, California, 92562, United States of America","place_id":"14765614","datatype":"locationiq"},{"latitude":"39.94198","longitude":"-75.02078","name":"Ashley Furniture HomeStore","address":"USA-United States","street_number":null,"street_name":"Mall Drive","zip":"08002","city":"Cherry Hill Township","area":null,"county":"Camden County","state":"New Jersey","country":"us","formatted_address":"LA Fitness Center, Mall Drive, Hillview Shopping Center, Cherry Hill Township, Camden County, New Jersey, 08002, United States of America","place_id":"18198584","datatype":"locationiq"},{"latitude":"39.49291","longitude":"-119.78620","name":"Ashley Furniture HomeStore","address":"USA-United States","street_number":"750","street_name":"East Moana Lane","zip":"89502","city":"Reno","area":null,"county":"Washoe County","state":"Nevada","country":"us","formatted_address":"Ashley HomeStore, 750, East Moana Lane, Midtown, Reno, Washoe County, Nevada, 89502, United States of America","place_id":"62239708","datatype":"locationiq"},{"latitude":"61.18220","longitude":"-149.86116","name":"Ashley Furniture HomeStore","address":"USA-United States","street_number":null,"street_name":"Seward Highway","zip":"99518","city":"Anchorage","area":null,"county":"Anchorage","state":"Alaska","country":"us","formatted_address":"Seward Highway, Anchorage, Alaska, 99518, United States of America","place_id":"95193198","datatype":"locationiq"},{"latitude":"33.71226","longitude":"-78.90339","name":"Ashley Furniture HomeStore","address":"USA-United States","street_number":"891","street_name":"Frontage Road East","zip":"29577","city":"Myrtle Beach","area":"Saint Charles Place","county":"Horry County","state":"South Carolina","country":"us","formatted_address":"891, Frontage Road East, Saint Charles Place, Myrtle Beach, Horry County, South Carolina, 29577, United States of America","place_id":"202942990","datatype":"locationiq"},{"latitude":"32.65447","longitude":"-116.95528","name":"Ashley Furniture HomeStore","address":"USA-United States","street_number":"851","street_name":"Showroom Place","zip":"91914","city":"Chula Vista","area":null,"county":"San Diego County","state":"California","country":"us","formatted_address":"851, Showroom Place, Chula Vista, San Diego County, California, 91914, United States of America","place_id":"13729537","datatype":"locationiq"},{"latitude":"34.14277","longitude":"-77.89602","name":"Ashley Furniture HomeStore","address":"USA-United States","street_number":"5259","street_name":"Carolina Beach Road","zip":"28412","city":null,"area":null,"county":"New Hanover County","state":"North Carolina","country":"us","formatted_address":"5259, Carolina Beach Road, Silver Lake, New Hanover County, North Carolina, 28412, United States of America","place_id":"198024600","datatype":"locationiq"},{"latitude":"43.20739","longitude":"-77.68007","name":"Ashley Furniture HomeStore","address":"USA-United States","street_number":null,"street_name":"Ridge Road West","zip":"14626","city":null,"area":null,"county":"Monroe County","state":"New York","country":"us","formatted_address":"Outback Steakhouse, Ridge Road West, Greece, Greece Town, Monroe County, New York, 14626, United States of America","place_id":"12038076","datatype":"locationiq"},{"latitude":"46.61741","longitude":"-112.02249","name":"Ashley Furniture HomeStore","address":"USA-United States","street_number":"3101","street_name":"Dredge Drive","zip":"59602","city":"Helena","area":null,"county":"Lewis and Clark County","state":"Montana","country":"us","formatted_address":"3101, Dredge Drive, Helena, Lewis and Clark County, Montana, 59602, United States of America","place_id":"194295010","datatype":"locationiq"},{"latitude":"40.77995","longitude":"-72.99976","name":"Ashley Furniture HomeStore","address":"USA-United States","street_number":"289","street_name":"Washington Avenue","zip":"11772","city":null,"area":null,"county":"Suffolk County","state":"New York","country":"us","formatted_address":"289, Washington Avenue, East Patchogue, Suffolk County, New York, 11772, United States of America","place_id":"169329967","datatype":"locationiq"},{"latitude":"35.96582","longitude":"-86.80319","name":"Ashley Furniture HomeStore","address":"USA-United States","street_number":null,"street_name":"Moores Lane","zip":"37027","city":"Brentwood","area":null,"county":"Williamson County","state":"Tennessee","country":"us","formatted_address":"Moores Lane, Brentwood Pointe, Brentwood, Williamson County, Tennessee, 37027, United States of America","place_id":"92532007","datatype":"locationiq"},{"latitude":"41.54648","longitude":"-87.85166","name":"Ashley Furniture HomeStore","address":"USA-United States","street_number":null,"street_name":"South La Grange Road","zip":"60449","city":null,"area":null,"county":"Will County","state":"Illinois","country":"us","formatted_address":"South La Grange Road, Mokena, Will County, Illinois, 60449, United States of America","place_id":"95310005","datatype":"locationiq"},{"latitude":"40.46396","longitude":"-74.45035","name":"Ashley Furniture HomeStore","address":"USA-United States","street_number":null,"street_name":"US 1","zip":"08902","city":"North Brunswick Township","area":null,"county":"Middlesex County","state":"New Jersey","country":"us","formatted_address":"US 1, North Brunswick Township, Middlesex County, New Jersey, 08902, United States of America","place_id":"153328809","datatype":"locationiq"},{"latitude":"44.93215","longitude":"-74.89420","name":"Ashley Furniture HomeStore","address":"USA-United States","street_number":"28","street_name":"Andrews Street","zip":"13662","city":null,"area":null,"county":"Saint Lawrence County","state":"New York","country":"us","formatted_address":"Ashley HomeStore, 28, Andrews Street, Massena, Saint Lawrence County, New York, 13662, United States of America","place_id":"62240545","datatype":"locationiq"},{"latitude":"27.24381","longitude":"-80.82157","name":"Ashley Furniture HomeStore","address":"USA-United States","street_number":"801","street_name":"Park Street","zip":"34974","city":null,"area":null,"county":"Okeechobee County","state":"Florida","country":"us","formatted_address":"801, Park Street, Okeechobee, Okeechobee County, Florida, 34974, United States of America","place_id":"182669349","datatype":"locationiq"},{"latitude":"34.01547","longitude":"-117.26418","name":"Ashley Furniture HomeStore","address":"USA-United States","street_number":"7249","street_name":"Ashley Street","zip":"92324","city":null,"area":null,"county":"Riverside County","state":"California","country":"us","formatted_address":"7249, Ashley Street, Riverside County, California, 92324, United States of America","place_id":"179417366","datatype":"locationiq"},{"latitude":"29.78659","longitude":"-95.71409","name":"Ashley Furniture HomeStore","address":"USA-United States","street_number":null,"street_name":"Fox Lake Drive","zip":"77084","city":null,"area":null,"county":"Harris County","state":"Texas","country":"us","formatted_address":"Soft Touch Nails, Fox Lake Drive, Barker, Harris County, Texas, 77084, United States of America","place_id":"51353211","datatype":"locationiq"},{"latitude":"42.90971","longitude":"-112.46054","name":"Ashley Furniture HomeStore","address":"USA-United States","street_number":"1947","street_name":"Hurley Drive","zip":"83202","city":"Pocatello","area":null,"county":"Bannock County","state":"Idaho","country":"us","formatted_address":"1947, Hurley Drive, Pocatello, Bannock County, Idaho, 83202, United States of America","place_id":"184419068","datatype":"locationiq"},{"latitude":"31.28031","longitude":"-92.47285","name":"Ashley Furniture HomeStore","address":"USA-United States","street_number":"1757","street_name":"Macarthur Drive","zip":"71303","city":"Alexandria","area":null,"county":"Rapides Parish","state":"Louisiana","country":"us","formatted_address":"1757, Macarthur Drive, Alexandria, Rapides Parish, Louisiana, 71303, United States of America","place_id":"189194106","datatype":"locationiq"},{"latitude":"40.73455","longitude":"-73.87518","name":"Ashley Furniture HomeStore","address":"USA-United States","street_number":"88-12","street_name":"Queens Boulevard","zip":"11373","city":"New York City","area":"Elmhurst","county":"Queens County","state":"New York","country":"us","formatted_address":"88-12, Queens Boulevard, Elmhurst, Queens County, New York City, New York, 11373, United States of America","place_id":"133921300","datatype":"locationiq"},{"latitude":"33.03755","longitude":"-84.99182","name":"Ashley Furniture HomeStore","address":"USA-United States","street_number":"108","street_name":"Durand Road","zip":"30241","city":null,"area":null,"county":"Troup County","state":"Georgia","country":"us","formatted_address":"108, Durand Road, LaGrange, Troup County, Georgia, 30241, United States of America","place_id":"184242603","datatype":"locationiq"},{"latitude":"37.72168","longitude":"-97.46691","name":"Ashley Furniture HomeStore","address":"USA-United States","street_number":null,"street_name":"West 21st Street North","zip":"67223","city":"Wichita","area":null,"county":"Sedgwick County","state":"Kansas","country":"us","formatted_address":"Ashley Furniture, West 21st Street North, Wichita, Sedgwick County, Kansas, 67223, United States of America","place_id":"17472170","datatype":"locationiq"},{"latitude":"40.88860","longitude":"-74.27798","name":"Ashley Furniture HomeStore","address":"USA-United States","street_number":"563","street_name":"US 46","zip":"07004","city":"Fairfield","area":null,"county":"Essex County","state":"New Jersey","country":"us","formatted_address":"563, US 46, Fairfield, Essex County, New Jersey, 07004, United States of America","place_id":"195407618","datatype":"locationiq"},{"latitude":"47.66486","longitude":"-117.08297","name":"Ashley Furniture HomeStore","address":"USA-United States","street_number":"24002","street_name":"Country Vista Drive","zip":"99019","city":"Liberty Lake","area":null,"county":"Spokane County","state":"Washington","country":"us","formatted_address":"24002, Country Vista Drive, Liberty Lake, Spokane County, Washington, 99019, United States of America","place_id":"208805334","datatype":"locationiq"},{"latitude":"31.30595","longitude":"-85.82262","name":"Ashley Furniture HomeStore","address":"USA-United States","street_number":null,"street_name":"East Park Avenue","zip":"36330","city":"Enterprise","area":null,"county":"Coffee County","state":"Alabama","country":"us","formatted_address":"East Park Avenue, Enterprise, Coffee County, Alabama, 36330, United States of America","place_id":"82662871","datatype":"locationiq"},{"latitude":"40.61587","longitude":"-73.92896","name":"Ashley Furniture HomeStore","address":"USA-United States","street_number":"2283","street_name":"Schenectady Avenue","zip":"11234","city":"New York City","area":"Flatlands","county":"Kings County","state":"New York","country":"us","formatted_address":"2283, Schenectady Avenue, Flatlands, Brooklyn, Kings County, New York City, New York, 11234, United States of America","place_id":"27259651","datatype":"locationiq"},{"latitude":"47.49383","longitude":"-111.23063","name":"Ashley Furniture HomeStore","address":"USA-United States","street_number":null,"street_name":"10th Avenue South","zip":"59405","city":"Great Falls","area":null,"county":"Cascade County","state":"Montana","country":"us","formatted_address":"10th Avenue South, Great Falls, Cascade County, Montana, 59405, United States of America","place_id":"95280558","datatype":"locationiq"},{"latitude":"35.17151","longitude":"-106.58407","name":"Ashley Furniture HomeStore","address":"USA-United States","street_number":"7948","street_name":"Pan American Frontage Road Northbound","zip":"87109","city":"Albuquerque","area":null,"county":"Bernalillo County","state":"New Mexico","country":"us","formatted_address":"7948, Pan American Frontage Road Northbound, Albuquerque, Bernalillo County, New Mexico, 87109, United States of America","place_id":"195854955","datatype":"locationiq"},{"latitude":"28.18155","longitude":"-82.35349","name":"Ashely Furniture HomeStore","address":"USA-United States","street_number":null,"street_name":"Bruce B Downs Boulevard","zip":"33647","city":null,"area":null,"county":"Pasco County","state":"Florida","country":"us","formatted_address":"Bruce B Downs Boulevard, Pasco County, Florida, 33647, United States of America","place_id":"121415821","datatype":"locationiq"},{"latitude":"44.66734","longitude":"-74.99903","name":"Ashley Furniture HomeStore","address":"USA-United States","street_number":"101","street_name":"Maple Street","zip":"13676","city":null,"area":null,"county":"Saint Lawrence County","state":"New York","country":"us","formatted_address":"101, Maple Street, Potsdam, Saint Lawrence County, New York, 13676, United States of America","place_id":"196811807","datatype":"locationiq"},{"latitude":"32.29521","longitude":"-95.30482","name":"Ashley Furniture HomeStore","address":"USA-United States","street_number":"5005","street_name":"Old Bullard Road","zip":"75703","city":"Tyler","area":null,"county":"Smith County","state":"Texas","country":"us","formatted_address":"5005, Old Bullard Road, Tyler, Smith County, Texas, 75703, United States of America","place_id":"206224063","datatype":"locationiq"},{"latitude":"34.03017","longitude":"-118.38659","name":"Ashley Furniture HomeStore","address":"USA-United States","street_number":"8847","street_name":"Venice Boulevard","zip":"90034","city":"Los Angeles","area":null,"county":"Los Angeles County","state":"California","country":"us","formatted_address":"8847, Venice Boulevard, The Village Green, Los Angeles, Los Angeles County, California, 90034, United States of America","place_id":"178670643","datatype":"locationiq"},{"latitude":"36.73227","longitude":"-90.44043","name":"Ashley Furniture HomeStore","address":"USA-United States","street_number":"3157","street_name":"South Westwood Boulevard","zip":"63901","city":"Poplar Bluff","area":null,"county":"Butler County","state":"Missouri","country":"us","formatted_address":"3157, South Westwood Boulevard, Poplar Bluff, Butler County, Missouri, 63901, United States of America","place_id":"193304724","datatype":"locationiq"},{"latitude":"42.15894","longitude":"-76.83006","name":"Ashley Furniture HomeStore","address":"USA-United States","street_number":"901","street_name":"Lackawanna Avenue","zip":"14845","city":null,"area":null,"county":"Chemung County","state":"New York","country":"us","formatted_address":"Ashley HomeStore, 901, Lackawanna Avenue, Horseheads, Chemung County, New York, 14845, United States of America","place_id":"62240887","datatype":"locationiq"},{"latitude":"30.49444","longitude":"-87.19039","name":"Ashley Furniture HomeStore","address":"USA-United States","street_number":"6895","street_name":"North 9th Avenue","zip":"32504","city":"Pensacola","area":null,"county":"Escambia County","state":"Florida","country":"us","formatted_address":"Batteries Plus Bulbs, 6895, North 9th Avenue, Ferry Pass, Pensacola, Escambia County, Florida, 32504, United States of America","place_id":"148539444","datatype":"locationiq"},{"latitude":"43.81895","longitude":"-83.00089","name":"Ashley Furniture HomeStore","address":"USA-United States","street_number":"700","street_name":"North Van Dyke Road","zip":"48413","city":"Bad Axe","area":null,"county":"Huron County","state":"Michigan","country":"us","formatted_address":"700, North Van Dyke Road, Bad Axe, Huron County, Michigan, 48413, United States of America","place_id":"190907253","datatype":"locationiq"},{"latitude":"33.09184","longitude":"-96.82127","name":"Ashley Furniture HomeStore","address":"USA-United States","street_number":null,"street_name":"Sam Rayburn Tollway","zip":"75024","city":"Frisco","area":null,"county":"Collin County","state":"Texas","country":"us","formatted_address":"Sam Rayburn Tollway, Frisco, Collin County, Texas, 75024, United States of America","place_id":"79248897","datatype":"locationiq"},{"latitude":"35.96601","longitude":"-78.96140","name":"Ashley Furniture HomeStore","address":"USA-United States","street_number":"3421","street_name":"Westgate Drive","zip":"27707","city":"Durham","area":null,"county":"Durham County","state":"North Carolina","country":"us","formatted_address":"3421, Westgate Drive, Durham, Durham County, North Carolina, 27707, United States of America","place_id":"197512554","datatype":"locationiq"},{"latitude":"40.83033","longitude":"-75.30642","name":"Ashley Furniture HomeStore","address":"USA-United States","street_number":"446","street_name":"East Moorestown Road","zip":"18091","city":null,"area":null,"county":"Northampton County","state":"Pennsylvania","country":"us","formatted_address":"446, East Moorestown Road, Knechts, Northampton County, Pennsylvania, 18091, United States of America","place_id":"202177324","datatype":"locationiq"},{"latitude":"36.15540","longitude":"-85.52147","name":"Ashley Furniture HomeStore","address":"USA-United States","street_number":"620","street_name":"West Jackson Street","zip":"38501","city":null,"area":null,"county":"Putnam County","state":"Tennessee","country":"us","formatted_address":"Ashley HomeStore, 620, West Jackson Street, Cookeville, Putnam County, Tennessee, 38501, United States of America","place_id":"62243208","datatype":"locationiq"},{"latitude":"39.63057","longitude":"-86.12451","name":"Ashley Furniture HomeStore","address":"USA-United States","street_number":"721","street_name":"Loews Boulevard","zip":"46142","city":"Greenwood","area":null,"county":"Johnson County","state":"Indiana","country":"us","formatted_address":"721, Loews Boulevard, Greenwood, Johnson County, Indiana, 46142, United States of America","place_id":"186397459","datatype":"locationiq"},{"latitude":"34.60249","longitude":"-118.14639","name":"Ashley Furniture HomeStore","address":"USA-United States","street_number":"39626","street_name":"10th Street West","zip":"93551","city":"Palmdale","area":null,"county":"Los Angeles County","state":"California","country":"us","formatted_address":"Ashley HomeStore, 39626, 10th Street West, Palmdale, Los Angeles County, California, 93551, United States of America","place_id":"61700968","datatype":"locationiq"},{"latitude":"42.26920","longitude":"-88.97829","name":"Ashley Furniture HomeStore","address":"USA-United States","street_number":"7141","street_name":"East State Street","zip":"61108","city":null,"area":null,"county":"Winnebago County","state":"Illinois","country":"us","formatted_address":"7141, East State Street, Cherry Valley, Winnebago County, Illinois, 61108, United States of America","place_id":"185952349","datatype":"locationiq"},{"latitude":"40.73142","longitude":"-111.89824","name":"Ashley Furniture HomeStore","address":"USA-United States","street_number":null,"street_name":"300 West","zip":"84115","city":"South Salt Lake","area":null,"county":"Salt Lake County","state":"Utah","country":"us","formatted_address":"300 West, South Salt Lake, Salt Lake County, Utah, 84115, United States of America","place_id":"109309683","datatype":"locationiq"},{"latitude":"44.48437","longitude":"-88.05851","name":"Ashley Furniture HomeStore","address":"USA-United States","street_number":"689","street_name":"Willard Drive","zip":"54304","city":null,"area":null,"county":"Brown County","state":"Wisconsin","country":"us","formatted_address":"689, Willard Drive, Bay Park Square Mall, Ashwaubenon, Brown County, Wisconsin, 54304, United States of America","place_id":"209229375","datatype":"locationiq"},{"latitude":"41.02432","longitude":"-80.65143","name":"Ashley Furniture HomeStore","address":"USA-United States","street_number":null,"street_name":"Boardman Poland Road","zip":"44512","city":null,"area":"South Main Street Historic District","county":"Mahoning County","state":"Ohio","country":"us","formatted_address":"Beardsley-Walter-Diehm House, Boardman Poland Road, South Main Street Historic District, McKays Corners, Mahoning County, Ohio, 44512, United States of America","place_id":"135730706","datatype":"locationiq"},{"latitude":"41.31066","longitude":"-105.59098","name":"Ashley Furniture HomeStore","address":"USA-United States","street_number":null,"street_name":"South 5th Street","zip":"82070","city":"Laramie","area":null,"county":"Albany County","state":"Wyoming","country":"us","formatted_address":"Wyo Theatre, South 5th Street, Laramie, Albany County, Wyoming, 82070, United States of America","place_id":"156622071","datatype":"locationiq"},{"latitude":"37.35635","longitude":"-89.61712","name":"Ashley Furniture HomeStore","address":"USA-United States","street_number":"4166","street_name":"East Jackson Boulevard","zip":"63755","city":"Jackson","area":null,"county":"Cape Girardeau County","state":"Missouri","country":"us","formatted_address":"4166, East Jackson Boulevard, Jackson, Cape Girardeau County, Missouri, 63755, United States of America","place_id":"193346876","datatype":"locationiq"},{"latitude":"29.37502","longitude":"-100.90207","name":"Ashley Furniture HomeStore","address":"USA-United States","street_number":null,"street_name":"West 10th Street","zip":"78840","city":"Del Rio","area":null,"county":"Val Verde County","state":"Texas","country":"us","formatted_address":"Don Marcelino's, West 10th Street, Del Rio, Val Verde County, Texas, 78840, United States of America","place_id":"22079945","datatype":"locationiq"},{"latitude":"41.78045","longitude":"-111.83386","name":"Ashely Furniture HomeStead","address":"USA-United States","street_number":"2650","street_name":"US 91","zip":"84341","city":"Hyde Park","area":null,"county":"Cache County","state":"Utah","country":"us","formatted_address":"Ashley HomeStore, 2650, US 91, Hyde Park, Cache County, Utah, 84341, United States of America","place_id":"62242560","datatype":"locationiq"},{"latitude":"37.25423","longitude":"-77.39037","name":"Ashley Furniture HomeStore","address":"USA-United States","street_number":"2099","street_name":"Southpark Boulevard","zip":"23834","city":"Colonial Heights","area":null,"county":null,"state":"Virginia","country":"us","formatted_address":"2099, Southpark Boulevard, Southpark, Archer Bluff, Colonial Heights, Virginia, 23834, United States of America","place_id":"207999602","datatype":"locationiq"},{"latitude":"39.26568","longitude":"-76.74178","name":"Ashley Furniture HomeStore","address":"USA-United States","street_number":"117","street_name":"Park Drive","zip":"21228","city":null,"area":"Oak Forest","county":"Baltimore County","state":"Maryland","country":"us","formatted_address":"117, Park Drive, Oak Forest, Catonsville, Baltimore County, Maryland, 21228, United States of America","place_id":"138034460","datatype":"locationiq"},{"latitude":"42.56379","longitude":"-87.85766","name":"Ashley Furniture HomeStore","address":"USA-United States","street_number":"7698","street_name":"Pershing Boulevard","zip":"53142","city":"Kenosha","area":null,"county":"Kenosha County","state":"Wisconsin","country":"us","formatted_address":"7698, Pershing Boulevard, Kenosha, Kenosha County, Wisconsin, 53142, United States of America","place_id":"209428154","datatype":"locationiq"},{"latitude":"44.36943","longitude":"-100.31749","name":"Ashley Furniture HomeStore","address":"USA-United States","street_number":"760","street_name":"North Garfield Avenue","zip":"57501","city":"Pierre","area":null,"county":"Hughes County","state":"South Dakota","country":"us","formatted_address":"760, North Garfield Avenue, Pierre, Hughes County, South Dakota, 57501, United States of America","place_id":"203348018","datatype":"locationiq"},{"latitude":"44.78415","longitude":"-93.46651","name":"Ashley Furniture HomeStore","address":"USA-United States","street_number":"4250","street_name":"12th Avenue East","zip":"55379","city":"Shakopee","area":null,"county":"Scott County","state":"Minnesota","country":"us","formatted_address":"Ashley HomeStore, 4250, 12th Avenue East, Shakopee, Scott County, Minnesota, 55379, United States of America","place_id":"61133868","datatype":"locationiq"},{"latitude":"39.64188","longitude":"-84.22741","name":"Ashley Furniture HomeStore","address":"USA-United States","street_number":null,"street_name":"Summit Glen Road","zip":"45449","city":"Miamisburg","area":null,"county":"Montgomery County","state":"Ohio","country":"us","formatted_address":"Summit Glen Road, Miamisburg, Montgomery County, Ohio, 45449, United States of America","place_id":"70829899","datatype":"locationiq"},{"latitude":"32.49728","longitude":"-92.06735","name":"Ashley Furniture HomeStore","address":"USA-United States","street_number":"4443","street_name":"Pecanland Mall Dr","zip":"71203","city":"Monroe","area":null,"county":"Ouachita Parish","state":"Louisiana","country":"us","formatted_address":"4443, Pecanland Mall Dr, Monroe, Ouachita Parish, Louisiana, 71203, United States of America","place_id":"189185452","datatype":"locationiq"},{"latitude":"40.58149","longitude":"-83.07303","name":"Ashley Furniture HomeStore","address":"USA-United States","street_number":"2120","street_name":"Marion-Mt Gilead Road","zip":"43302","city":null,"area":null,"county":"Marion County","state":"Ohio","country":"us","formatted_address":"2120, Marion-Mt Gilead Road, Canaan Township, Marion County, Ohio, 43302, United States of America","place_id":"199562109","datatype":"locationiq"},{"latitude":"30.85068","longitude":"-83.94934","name":"Ashley Furniture HomeStore","address":"USA-United States","street_number":"2705","street_name":"East Pinetree Boulevard","zip":"31792","city":null,"area":null,"county":"Thomas County","state":"Georgia","country":"us","formatted_address":"Archbold Urgent Care Center, 2705, East Pinetree Boulevard, Thomasville, Thomas County, Georgia, 31792, United States of America","place_id":"3451637","datatype":"locationiq"},{"latitude":"30.73345","longitude":"-86.56618","name":"Ashley Furniture HomeStore","address":"USA-United States","street_number":null,"street_name":"South Ferdon Boulevard","zip":"32536","city":"Crestview","area":null,"county":"Okaloosa County","state":"Florida","country":"us","formatted_address":"Taco Bell, South Ferdon Boulevard, Crestview, Okaloosa County, Florida, 32536, United States of America","place_id":"108653331","datatype":"locationiq"},{"latitude":"34.25304","longitude":"-88.72035","name":"Ashley Furniture HomeStore","address":"USA-United States","street_number":"353","street_name":"South Industrial Road","zip":"38801","city":"Tupelo","area":null,"county":"Lee County","state":"Mississippi","country":"us","formatted_address":"353, South Industrial Road, Tupelo, Lee County, Mississippi, 38801, United States of America","place_id":"192960203","datatype":"locationiq"},{"latitude":"34.20688","longitude":"-84.13763","name":"Ashley Furniture HomeStore","address":"USA-United States","street_number":null,"street_name":"East Main Street","zip":"30040","city":null,"area":null,"county":"Forsyth County","state":"Georgia","country":"us","formatted_address":"East Main Street, Cumming, Forsyth County, Georgia, 30040, United States of America","place_id":"88034568","datatype":"locationiq"},{"latitude":"41.13507","longitude":"-104.77194","name":"Ashley Furniture HomeStore","address":"USA-United States","street_number":"3191","street_name":"Nationway","zip":"82001","city":"Cheyenne","area":null,"county":"Laramie County","state":"Wyoming","country":"us","formatted_address":"3191, Nationway, Cheyenne, Laramie County, Wyoming, 82001, United States of America","place_id":"209860355","datatype":"locationiq"},{"latitude":"33.72259","longitude":"-89.78276","name":"Ashley Furniture HomeStore","address":"USA-United States","street_number":null,"street_name":"US 51","zip":"38926","city":null,"area":null,"county":"Grenada County","state":"Mississippi","country":"us","formatted_address":"US 51, Grenada, Grenada County, Mississippi, 38926, United States of America","place_id":"101540430","datatype":"locationiq"},{"latitude":"38.93784","longitude":"-92.33426","name":"Ashley Furniture HomeStore","address":"USA-United States","street_number":"2","street_name":"East Stadium Boulevard","zip":"65201","city":"Columbia","area":null,"county":"Boone County","state":"Missouri","country":"us","formatted_address":"2, East Stadium Boulevard, Columbia, Boone County, Missouri, 65201, United States of America","place_id":"193252377","datatype":"locationiq"},{"latitude":"33.87653","longitude":"-98.55710","name":"Ashley Furniture HomeStore","address":"USA-United States","street_number":null,"street_name":"Kell Boulevard West","zip":"76310","city":"Wichita Falls","area":null,"county":"Wichita County","state":"Texas","country":"us","formatted_address":"Days Inn & Suites Wichita Falls, Kell Boulevard West, Wichita Falls, Wichita County, Texas, 76310, United States of America","place_id":"53202408","datatype":"locationiq"},{"latitude":"27.17133","longitude":"-80.23037","name":"Ashley Furniture HomeStore","address":"USA-United States","street_number":null,"street_name":"Southeast Federal Highway","zip":"33994-4554","city":null,"area":null,"county":"Martin County","state":"Florida","country":"us","formatted_address":"Southeast Federal Highway, Stuart, Martin County, Florida, 33994-4554, United States of America","place_id":"89788368","datatype":"locationiq"},{"latitude":"47.65709","longitude":"-122.67833","name":"Ashley Furniture HomeStore","address":"USA-United States","street_number":null,"street_name":"Northwest Myhre Road","zip":"98383","city":null,"area":null,"county":"Kitsap County","state":"Washington","country":"us","formatted_address":"Ashley Furniture, Northwest Myhre Road, Silverdale, Kitsap County, Washington, 98383, United States of America","place_id":"15217271","datatype":"locationiq"},{"latitude":"35.11551","longitude":"-80.69743","name":"Ashley Furniture HomeStore","address":"USA-United States","street_number":"11200","street_name":"Brigman Road","zip":"28105","city":null,"area":null,"county":"Mecklenburg County","state":"North Carolina","country":"us","formatted_address":"11200, Brigman Road, Matthews, Mecklenburg County, North Carolina, 28105, United States of America","place_id":"197968137","datatype":"locationiq"},{"latitude":"33.97249","longitude":"-78.38654","name":"Ashley Furniture HomeStore","address":"USA-United States","street_number":null,"street_name":"Main Street","zip":"28470","city":null,"area":null,"county":"Brunswick County","state":"North Carolina","country":"us","formatted_address":"Main Street, Shallotte, Brunswick County, North Carolina, 28470, United States of America","place_id":"155722542","datatype":"locationiq"},{"latitude":"44.49579","longitude":"-89.51002","name":"Ashley Furniture HomeStore","address":"USA-United States","street_number":null,"street_name":"Commons Circle","zip":null,"city":null,"area":null,"county":"Portage County","state":"Wisconsin","country":"us","formatted_address":"Commons Circle, Crossroads Commons, Village of Plover, Town of Plover, Portage County, Wisconsin, United States of America","place_id":"84845149","datatype":"locationiq"},{"latitude":"43.10906","longitude":"-76.14584","name":"Ashley Furniture HomeStore","address":"USA-United States","street_number":"100","street_name":"Northern Lights Plaza","zip":"13212","city":null,"area":null,"county":"Onondaga County","state":"New York","country":"us","formatted_address":"100, Northern Lights Plaza, Pitcher Hill, Town of Salina, Onondaga County, New York, 13212, United States of America","place_id":"196631558","datatype":"locationiq"},{"latitude":"37.97881","longitude":"-122.05546","name":"Ashley Furniture HomeStore","address":"USA-United States","street_number":"2201","street_name":"John Glenn Drive","zip":"94520","city":"Concord","area":null,"county":"Contra Costa County","state":"California","country":"us","formatted_address":"Ashley HomeStore, 2201, John Glenn Drive, Concord, Contra Costa County, California, 94520, United States of America","place_id":"61698523","datatype":"locationiq"},{"latitude":"33.14955","longitude":"-117.20043","name":"Ashley Furniture HomeStore","address":"USA-United States","street_number":"1730","street_name":"Descanso Avenue","zip":"92078","city":"San Marcos","area":"Villa Vista Estates Mobil Home Park","county":"San Diego County","state":"California","country":"us","formatted_address":"1730, Descanso Avenue, Villa Vista Estates Mobil Home Park, San Marcos, San Diego County, California, 92078, United States of America","place_id":"6641214","datatype":"locationiq"},{"latitude":"32.68112","longitude":"-97.41236","name":"Ashley Furniture HomeStore","address":"USA-United States","street_number":null,"street_name":"Citylake Boulevard West","zip":"76132","city":"Fort Worth","area":null,"county":"Tarrant County","state":"Texas","country":"us","formatted_address":"Holiday Inn Express Hotel & Suites Fort Worth (I-20), Citylake Boulevard West, Fort Worth, Tarrant County, Texas, 76132, United States of America","place_id":"103659015","datatype":"locationiq"},{"latitude":"35.25721","longitude":"-81.11093","name":"Ashley Furniture HomeStore","address":"USA-United States","street_number":"3930","street_name":"East Franklin Boulevard","zip":"28056","city":"Lowell","area":null,"county":"Gaston County","state":"North Carolina","country":"us","formatted_address":"3930, East Franklin Boulevard, Lowell, Gaston County, North Carolina, 28056, United States of America","place_id":"197602778","datatype":"locationiq"},{"latitude":"35.59182","longitude":"-114.10242","name":"Ashley Furniture HomeStore","address":"USA-United States","street_number":null,"street_name":"Stockton Hill Road","zip":null,"city":null,"area":null,"county":"Mohave County","state":"Arizona","country":"us","formatted_address":"Stockton Hill Road, Stockton, Mohave County, Arizona, United States of America","place_id":"111420406","datatype":"locationiq"},{"latitude":"35.59724","longitude":"-77.33734","name":"Ashley Furniture HomeStore","address":"USA-United States","street_number":null,"street_name":"Eastbrook Drive","zip":"27858","city":null,"area":null,"county":"Pitt County","state":"North Carolina","country":"us","formatted_address":"Pizza Inn, Eastbrook Drive, Greenville, Pitt County, North Carolina, 27858, United States of America","place_id":"131984076","datatype":"locationiq"},{"latitude":"34.16185","longitude":"-110.00539","name":"Ashley Furniture HomeStore","address":"USA-United States","street_number":"2355","street_name":"Lockwood Drive","zip":"85929","city":null,"area":null,"county":"Navajo County","state":"Arizona","country":"us","formatted_address":"2355, Lockwood Drive, Pinetop-Lakeside, Navajo County, Arizona, 85929, United States of America","place_id":"177310554","datatype":"locationiq"},{"latitude":"37.98904","longitude":"-87.49251","name":"Ashley Furniture HomeStore","address":"USA-United States","street_number":null,"street_name":"North Green River Road","zip":"47715","city":"Evansville","area":null,"county":"Vanderburgh County","state":"Indiana","country":"us","formatted_address":"Arby's, North Green River Road, Evansville, Vanderburgh County, Indiana, 47715, United States of America","place_id":"48013835","datatype":"locationiq"},{"latitude":"34.00694","longitude":"-84.57293","name":"Ashley Furniture HomeStore","address":"USA-United States","street_number":"755","street_name":"Ernest W. Barrett Parkway Northwest","zip":"30144","city":"Kennesaw","area":null,"county":"Cobb County","state":"Georgia","country":"us","formatted_address":"Bahama Breeze, 755, Ernest W. Barrett Parkway Northwest, Kennesaw, Cobb County, Georgia, 30144, United States of America","place_id":"138841122","datatype":"locationiq"},{"latitude":"39.18393","longitude":"-96.55561","name":"Ashley Furniture HomeStore","address":"USA-United States","street_number":null,"street_name":"Sarber Lane","zip":"66502","city":"Manhattan","area":null,"county":"Pottawatomie County","state":"Kansas","country":"us","formatted_address":"Dillons Gas Station, Sarber Lane, Manhattan, Pottawatomie County, Kansas, 66502, United States of America","place_id":"108131706","datatype":"locationiq"},{"latitude":"36.17276","longitude":"-94.52432","name":"Ashley Furniture HomeStore","address":"USA-United States","street_number":"1646","street_name":"US 412;Hwy 59","zip":"72761","city":"Siloam Springs","area":null,"county":"Benton County","state":"Arkansas","country":"us","formatted_address":"1646, US 412;Hwy 59, Siloam Springs, Benton County, Arkansas, 72761, United States of America","place_id":"177564520","datatype":"locationiq"},{"latitude":"41.11797","longitude":"-85.14375","name":"Ashley Furniture HomeStore","address":"USA-United States","street_number":"305","street_name":"Coliseum Boulevard West","zip":"46805","city":"Fort Wayne","area":null,"county":"Allen County","state":"Indiana","country":"us","formatted_address":"Cheddar's Scratch Kitchen, 305, Coliseum Boulevard West, Concordia Gardens, Fort Wayne, Allen County, Indiana, 46805, United States of America","place_id":"61698333","datatype":"locationiq"},{"latitude":"31.21854","longitude":"-81.49401","name":"Ashley Furniture HomeStore","address":"USA-United States","street_number":null,"street_name":"Scranton Road","zip":"31521","city":null,"area":null,"county":"Glynn County","state":"Georgia","country":"us","formatted_address":"Scranton Road, Benedict, Glynn County, Georgia, 31521, United States of America","place_id":"64836178","datatype":"locationiq"},{"latitude":"33.49089","longitude":"-82.07836","name":"Ashley Furniture HomeStore","address":"USA-United States","street_number":"216","street_name":"Robert C. Daniel Junior Parkway","zip":"30909","city":null,"area":null,"county":"Richmond County","state":"Georgia","country":"us","formatted_address":"Ashley HomeStore, 216, Robert C. Daniel Junior Parkway, Westwood, Richmond County, Georgia, 30909, United States of America","place_id":"61808535","datatype":"locationiq"},{"latitude":"32.44582","longitude":"-93.72012","name":"Ashley Furniture HomeStore","address":"USA-United States","street_number":"6564","street_name":"Youree Drive","zip":"71105","city":"Shreveport","area":null,"county":"Caddo Parish","state":"Louisiana","country":"us","formatted_address":"6564, Youree Drive, Shreveport, Caddo Parish, Louisiana, 71105, United States of America","place_id":"188903904","datatype":"locationiq"},{"latitude":"44.16680","longitude":"-93.96376","name":"Ashley Furniture HomeStore","address":"USA-United States","street_number":"1689","street_name":"Madison Avenue","zip":"56001","city":null,"area":null,"county":"Blue Earth County","state":"Minnesota","country":"us","formatted_address":"1689, Madison Avenue, Mankato, Blue Earth County, Minnesota, 56001, United States of America","place_id":"191859369","datatype":"locationiq"},{"latitude":"33.45422","longitude":"-112.33868","name":"Ashley Furniture HomeStore","address":"USA-United States","street_number":"1479","street_name":"East Coffelt Drive","zip":"85323","city":"Avondale","area":null,"county":"Maricopa County","state":"Arizona","country":"us","formatted_address":"Ashley HomeStore, 1479, East Coffelt Drive, Avondale, Maricopa County, Arizona, 85323, United States of America","place_id":"61806863","datatype":"locationiq"},{"latitude":"38.77378","longitude":"-76.02372","name":"Ashley Furniture HomeStore","address":"USA-United States","street_number":"30499","street_name":"Dover Road","zip":"21601","city":null,"area":null,"county":"Talbot County","state":"Maryland","country":"us","formatted_address":"30499, Dover Road, Chilcutt, Talbot County, Maryland, 21601, United States of America","place_id":"189974427","datatype":"locationiq"},{"latitude":"42.87132","longitude":"-76.98045","name":"Ashley Furniture HomeStore","address":"USA-United States","street_number":"258","street_name":"Exchange Street","zip":"14456","city":"Geneva","area":null,"county":"Ontario County","state":"New York","country":"us","formatted_address":"Ashley HomeStore, 258, Exchange Street, Geneva, Geneva Town, Ontario County, New York, 14456, United States of America","place_id":"61699495","datatype":"locationiq"},{"latitude":"44.69756","longitude":"-73.45259","name":"Ashley Furniture HomeStore","address":"USA-United States","street_number":"84","street_name":"Margaret Street","zip":"12901","city":"Plattsburgh","area":null,"county":"Clinton County","state":"New York","country":"us","formatted_address":"Ashley HomeStore, 84, Margaret Street, Plattsburgh, Clinton County, New York, 12901, United States of America","place_id":"61806799","datatype":"locationiq"},{"latitude":"46.86140","longitude":"-96.87374","name":"Ashley Furniture HomeStore","address":"USA-United States","street_number":"1650","street_name":"13th Avenue East","zip":"58078","city":"West Fargo","area":null,"county":"Cass County","state":"North Dakota","country":"us","formatted_address":"1650, 13th Avenue East, West Fargo, Cass County, North Dakota, 58078, United States of America","place_id":"198523355","datatype":"locationiq"},{"latitude":"41.05986","longitude":"-83.59389","name":"Ashley Furniture HomeStore","address":"USA-United States","street_number":"7448","street_name":"County Road 236","zip":"45840","city":"Findlay","area":"Villas at Blueberry","county":"Hancock County","state":"Ohio","country":"us","formatted_address":"7448, County Road 236, Villas at Blueberry, Findlay, Hancock County, Ohio, 45840, United States of America","place_id":"199312930","datatype":"locationiq"},{"latitude":"42.75803","longitude":"-71.21438","name":"Ashley Furniture HomeStore","address":"USA-United States","street_number":null,"street_name":"Kelly Road","zip":"03079","city":null,"area":null,"county":"Rockingham County","state":"New Hampshire","country":"us","formatted_address":"Kelly Road, Salem, Rockingham County, New Hampshire, 03079, United States of America","place_id":"70527012","datatype":"locationiq"},{"latitude":"40.77336","longitude":"-82.59032","name":"Ashley Furniture HomeStore","address":"USA-United States","street_number":"780","street_name":"North Lexington-Springmill Road","zip":"44906","city":"Ontario","area":null,"county":"Richland County","state":"Ohio","country":"us","formatted_address":"780, North Lexington-Springmill Road, Ontario, Springfield Township, Richland County, Ohio, 44906, United States of America","place_id":"199787563","datatype":"locationiq"},{"latitude":"26.02954","longitude":"-80.35889","name":"Ashley Furniture HomeStore","address":"USA-United States","street_number":"15623","street_name":"Sheridan Street","zip":"33331","city":null,"area":null,"county":"Broward County","state":"Florida","country":"us","formatted_address":"15623, Sheridan Street, Pembroke Pines, Broward County, Florida, 33331, United States of America","place_id":"181713742","datatype":"locationiq"},{"latitude":"36.71542","longitude":"-121.65485","name":"Ashley Furniture HomeStore","address":"USA-United States","street_number":null,"street_name":"San Juan Grade Road","zip":"93906","city":"Salinas","area":null,"county":"Monterey County","state":"California","country":"us","formatted_address":"San Juan Grade Road, Salinas, Monterey County, California, 93906, United States of America","place_id":"65302070","datatype":"locationiq"},{"latitude":"40.32796","longitude":"-83.76121","name":"Ashley Furniture HomeStore","address":"USA-United States","street_number":"2131","street_name":"South Main Street","zip":"43311","city":"Bellefontaine","area":null,"county":"Logan County","state":"Ohio","country":"us","formatted_address":"2131, South Main Street, Bellefontaine, Lake Township, Logan County, Ohio, 43311, United States of America","place_id":"199463207","datatype":"locationiq"},{"latitude":"29.17939","longitude":"-81.08056","name":"Ashley Furniture HomeStore","address":"USA-United States","street_number":null,"street_name":"International Speedway Boulevard","zip":"32114","city":"Daytona Beach","area":null,"county":"Volusia County","state":"Florida","country":"us","formatted_address":"International Speedway Boulevard, Daytona Beach, Volusia County, Florida, 32114, United States of America","place_id":"113940362","datatype":"locationiq"},{"latitude":"42.06503","longitude":"-78.38191","name":"Ashley Furniture HomeStore","address":"USA-United States","street_number":"1425","street_name":"Olean-Portville Road","zip":"14760","city":null,"area":null,"county":"Cattaraugus County","state":"New York","country":"us","formatted_address":"1425, Olean-Portville Road, Weston Mills, Cattaraugus County, New York, 14760, United States of America","place_id":"196149530","datatype":"locationiq"},{"latitude":"30.12542","longitude":"-94.16144","name":"Ashley Furniture HomeStore","address":"USA-United States","street_number":"6155","street_name":"Eastex Freeway Frontage Road","zip":"77708","city":null,"area":null,"county":"Jefferson County","state":"Texas","country":"us","formatted_address":"Parkdale Mall, 6155, Eastex Freeway Frontage Road, Rosedale, Jefferson County, Texas, 77708, United States of America","place_id":"82352081","datatype":"locationiq"},{"latitude":"36.96429","longitude":"-84.08151","name":"Ashley Furniture HomeStore","address":"USA-United States","street_number":null,"street_name":"Corbin Bypass","zip":"40702","city":null,"area":null,"county":"Laurel County","state":"Kentucky","country":"us","formatted_address":"Corbin Bypass, North Corbin, Laurel County, Kentucky, 40702, United States of America","place_id":"136705022","datatype":"locationiq"},{"latitude":"34.47371","longitude":"-114.34762","name":"Ashley Furniture HomeStore","address":"USA-United States","street_number":null,"street_name":"London Bridge Road","zip":"86403","city":"Lake Havasu City","area":null,"county":"Mohave County","state":"Arizona","country":"us","formatted_address":"In-N-Out Burger, London Bridge Road, Lake Havasu City, Mohave County, Arizona, 86403, United States of America","place_id":"129617596","datatype":"locationiq"},{"latitude":"33.60040","longitude":"-86.80633","name":"Ashley Furniture HomeStore","address":"USA-United States","street_number":null,"street_name":"Lowery Parkway","zip":"35068","city":"Fultondale","area":null,"county":"Jefferson County","state":"Alabama","country":"us","formatted_address":"Lowery Parkway, Fultondale, Jefferson County, Alabama, 35068, United States of America","place_id":"130355834","datatype":"locationiq"},{"latitude":"40.27853","longitude":"-76.82284","name":"Ashley Furniture HomeStore","address":"USA-United States","street_number":null,"street_name":"Union Deposit Road","zip":"17111","city":null,"area":null,"county":"Dauphin County","state":"Pennsylvania","country":"us","formatted_address":"Sheetz, Union Deposit Road, Progress, Dauphin County, Pennsylvania, 17111, United States of America","place_id":"39976948","datatype":"locationiq"},{"latitude":"32.40712","longitude":"-99.78589","name":"Ashley Furniture HomeStore","address":"USA-United States","street_number":"4702","street_name":"Southwest Drive","zip":"79606","city":"Abilene","area":null,"county":"Taylor County","state":"Texas","country":"us","formatted_address":"Kia of Abilene, 4702, Southwest Drive, Abilene, Taylor County, Texas, 79606, United States of America","place_id":"171868988","datatype":"locationiq"},{"latitude":"30.15822","longitude":"-93.15730","name":"Ashley Furniture HomeStore","address":"USA-United States","street_number":"3261","street_name":"Gerstner Memorial Boulevard","zip":"70607","city":null,"area":"The Meadows","county":"Calcasieu Parish","state":"Louisiana","country":"us","formatted_address":"3261, Gerstner Memorial Boulevard, The Meadows, Harbor, Calcasieu Parish, Louisiana, 70607, United States of America","place_id":"188919083","datatype":"locationiq"},{"latitude":"34.94109","longitude":"-81.99075","name":"Ashley Furniture HomeStore","address":"USA-United States","street_number":"300","street_name":"West Blackstock Road","zip":"29301","city":null,"area":null,"county":"Spartanburg County","state":"South Carolina","country":"us","formatted_address":"Ashley HomeStore, 300, West Blackstock Road, Wadsworth, Spartanburg County, South Carolina, 29301, United States of America","place_id":"173408929","datatype":"locationiq"},{"latitude":"40.50795","longitude":"-78.40018","name":"Ashley Furniture HomeStore","address":"USA-United States","street_number":"599","street_name":"17th Street","zip":"16602","city":"Altoona","area":null,"county":"Blair County","state":"Pennsylvania","country":"us","formatted_address":"599, 17th Street, Altoona, Blair County, Pennsylvania, 16602, United States of America","place_id":"201385521","datatype":"locationiq"},{"latitude":"40.76991","longitude":"-84.16424","name":"Ashley Furniture HomeStore","address":"USA-United States","street_number":"3289","street_name":"Elida Road","zip":"45805","city":null,"area":null,"county":"Allen County","state":"Ohio","country":"us","formatted_address":"3289, Elida Road, Elida, Allen County, Ohio, 45805, United States of America","place_id":"198777627","datatype":"locationiq"},{"latitude":"42.79194","longitude":"-78.78213","name":"Ashley Furniture HomeStore","address":"USA-United States","street_number":null,"street_name":"Amelia Dr","zip":"14127","city":null,"area":null,"county":"Erie County","state":"New York","country":"us","formatted_address":"Amelia Dr, Windom, Erie County, New York, 14127, United States of America","place_id":"89036948","datatype":"locationiq"},{"latitude":"39.93511","longitude":"-91.34619","name":"Ashley Furniture HomeStore","address":"USA-United States","street_number":null,"street_name":"Broadway Street","zip":"62305","city":"Quincy","area":null,"county":"Adams County","state":"Illinois","country":"us","formatted_address":"Lakeview, Broadway Street, Quincy Commons, Quincy, Adams County, Illinois, 62305, United States of America","place_id":"132843964","datatype":"locationiq"},{"latitude":"43.28374","longitude":"-88.18941","name":"Ashley Furniture HomeStore","address":"USA-United States","street_number":null,"street_name":"Cabela Way","zip":"53076","city":null,"area":null,"county":"Washington County","state":"Wisconsin","country":"us","formatted_address":"Cabela Way, Rugby Junction, Washington County, Wisconsin, 53076, United States of America","place_id":"147555694","datatype":"locationiq"},{"latitude":"45.06540","longitude":"-93.28028","name":"Ashley Furniture HomeStore","address":"USA-United States","street_number":null,"street_name":"East River Road","zip":"55430","city":"Fridley","area":null,"county":"Anoka County","state":"Minnesota","country":"us","formatted_address":"East River Road, Fridley, Anoka County, Minnesota, 55430, United States of America","place_id":"84849954","datatype":"locationiq"},{"latitude":"28.10324","longitude":"-81.97454","name":"Ashley Furniture HomeStore","address":"USA-United States","street_number":"1187","street_name":"Baker Drive","zip":"33810","city":"Lakeland","area":null,"county":"Polk County","state":"Florida","country":"us","formatted_address":"1187, Baker Drive, Lakeland, Polk County, Florida, 33810, United States of America","place_id":"182985131","datatype":"locationiq"},{"latitude":"37.27270","longitude":"-107.88102","name":"Ashley Furniture HomeStore","address":"USA-United States","street_number":"813","street_name":"Main Avenue","zip":"CO 81301","city":"Durango","area":null,"county":"La Plata County","state":"Colorado","country":"us","formatted_address":"813, Main Avenue, Durango, La Plata County, Colorado, CO 81301, United States of America","place_id":"55148260","datatype":"locationiq"},{"latitude":"44.91207","longitude":"-122.98209","name":"Ashley Furniture HomeStore","address":"USA-United States","street_number":"3863","street_name":"Hagers Grove Road Southeast","zip":"97317","city":"Salem","area":null,"county":"Marion County","state":"Oregon","country":"us","formatted_address":"3863, Hagers Grove Road Southeast, Salem, Marion County, Oregon, 97317, United States of America","place_id":"200978888","datatype":"locationiq"},{"latitude":"38.30726","longitude":"-77.51130","name":"Ashley Furniture HomeStore","address":"USA-United States","street_number":"1845","street_name":"Carl D Silver Parkway","zip":"22401","city":"Fredericksburg","area":null,"county":"Fredericksburg City","state":"Virginia","country":"us","formatted_address":"Ashley HomeStore, 1845, Carl D Silver Parkway, Central Park, Fredericksburg, Fredericksburg City, Virginia, 22401, United States of America","place_id":"61133706","datatype":"locationiq"},{"latitude":"38.45586","longitude":"-75.56868","name":"Ashley Furniture HomeStore","address":"USA-United States","street_number":"798","street_name":"East State Street","zip":"21875","city":null,"area":null,"county":"Wicomico County","state":"Maryland","country":"us","formatted_address":"798, East State Street, Delmar, Wicomico County, Maryland, 21875, United States of America","place_id":"181526841","datatype":"locationiq"},{"latitude":"32.74020","longitude":"-103.14069","name":"Ashley Furniture HomeStore","address":"USA-United States","street_number":"405","street_name":"West Navajo Drive","zip":"88240","city":"Hobbs","area":null,"county":"Lea County","state":"New Mexico","country":"us","formatted_address":"Ashley HomeStore, 405, West Navajo Drive, Hobbs, Lea County, New Mexico, 88240, United States of America","place_id":"61812247","datatype":"locationiq"},{"latitude":"30.15679","longitude":"-97.79086","name":"Ashley Furniture HomeStore","address":"USA-United States","street_number":null,"street_name":"Interstate 35 Frontage Road","zip":"78748","city":"Austin","area":null,"county":"Travis County","state":"Texas","country":"us","formatted_address":"Interstate 35 Frontage Road, Austin, Travis County, Texas, 78748, United States of America","place_id":"101758701","datatype":"locationiq"},{"latitude":"30.97218","longitude":"-95.88916","name":"Ashley Furniture HomeStore","address":"USA-United States","street_number":null,"street_name":"I 45","zip":"77864","city":"Madisonville","area":null,"county":"Madison County","state":"Texas","country":"us","formatted_address":"I 45, Madisonville, Madison County, Texas, 77864, United States of America","place_id":"79709530","datatype":"locationiq"},{"latitude":"38.14957","longitude":"-85.67848","name":"Ashley Furniture HomeStore","address":"USA-United States","street_number":null,"street_name":"Jefferson Boulevard","zip":"40219","city":"Louisville","area":null,"county":"Jefferson County","state":"Kentucky","country":"us","formatted_address":"Jefferson Boulevard, Festival at Jefferson Court, Louisville, Jefferson County, Kentucky, 40219, United States of America","place_id":"68941302","datatype":"locationiq"},{"latitude":"41.24436","longitude":"-75.85459","name":"Ashley Furniture HomeStore","address":"USA-United States","street_number":"145","street_name":"Mundy Street","zip":"18702","city":null,"area":null,"county":"Luzerne County","state":"Pennsylvania","country":"us","formatted_address":"145, Mundy Street, Wilkes-Barre Township, Luzerne County, Pennsylvania, 18702, United States of America","place_id":"202024814","datatype":"locationiq"},{"latitude":"40.13560","longitude":"-88.25262","name":"Ashley Furniture HomeStore","address":"USA-United States","street_number":"602","street_name":"West Anthony Drive","zip":"61822","city":"Champaign","area":null,"county":"Champaign County","state":"Illinois","country":"us","formatted_address":"Ashley HomeStore, 602, West Anthony Drive, Champaign, Champaign County, Illinois, 61822, United States of America","place_id":"61133121","datatype":"locationiq"},{"latitude":"37.59668","longitude":"-77.51086","name":"Ashley Furniture HomeStore","address":"USA-United States","street_number":null,"street_name":"West Broad Street","zip":"23230","city":"Richmond","area":null,"county":"Henrico County","state":"Virginia","country":"us","formatted_address":"Ashley Furniture Homestore, West Broad Street, Willow Place Shopping Center, Scott's Addition, Richmond, Henrico County, Virginia, 23230, United States of America","place_id":"150292000","datatype":"locationiq"},{"latitude":"36.29437","longitude":"-86.69975","name":"Ashley Furniture HomeStore","address":"USA-United States","street_number":null,"street_name":"Gallatin Pike North","zip":"37115","city":"Nashville-Davidson","area":null,"county":"Davidson County","state":"Tennessee","country":"us","formatted_address":"Gallatin Pike North, Nashville-Davidson, Davidson County, Tennessee, 37115, United States of America","place_id":"143547278","datatype":"locationiq"},{"latitude":"40.09641","longitude":"-83.08512","name":"Ashley Furniture HomeStore","address":"USA-United States","street_number":"3622","street_name":"West Dublin - Granville Road","zip":"43235","city":"Worthington","area":null,"county":"Franklin County","state":"Ohio","country":"us","formatted_address":"Ashley Furniture Store, 3622, West Dublin - Granville Road, Sun Center, Worthington, Franklin County, Ohio, 43235, United States of America","place_id":"23586230","datatype":"locationiq"},{"latitude":"30.43879","longitude":"-90.44147","name":"Ashley Furniture HomeStore","address":"USA-United States","street_number":"100","street_name":"Northwest Railroad Avenue","zip":"70454","city":"Ponchatoula","area":null,"county":"Tangipahoa Parish","state":"Louisiana","country":"us","formatted_address":"100, Northwest Railroad Avenue, Ponchatoula, Tangipahoa Parish, Louisiana, 70454, United States of America","place_id":"189308698","datatype":"locationiq"},{"latitude":"36.98107","longitude":"-86.45223","name":"Ashley Furniture HomeStore","address":"USA-United States","street_number":null,"street_name":"Park Street","zip":"42101","city":"Bowling Green","area":null,"county":"Warren County","state":"Kentucky","country":"us","formatted_address":"Environmental, Health & Safety, Park Street, Bowling Green, Warren County, Kentucky, 42101, United States of America","place_id":"140788332","datatype":"locationiq"},{"latitude":"38.32283","longitude":"-81.71129","name":"Ashley Furniture HomeStore","address":"USA-United States","street_number":"2308","street_name":"Mountaineer Boulevard","zip":"25309","city":"South Charleston","area":null,"county":"Kanawha County","state":"West Virginia","country":"us","formatted_address":"2308, Mountaineer Boulevard, South Charleston, Kanawha County, West Virginia, 25309, United States of America","place_id":"209055724","datatype":"locationiq"},{"latitude":"47.88937","longitude":"-97.07426","name":"Ashley Furniture HomeStore","address":"USA-United States","street_number":null,"street_name":"32nd Avenue South","zip":"58201","city":"Grand Forks","area":null,"county":"Grand Forks County","state":"North Dakota","country":"us","formatted_address":"Burger King, 32nd Avenue South, Grand Forks, Grand Forks County, North Dakota, 58201, United States of America","place_id":"12444915","datatype":"locationiq"},{"latitude":"41.45568","longitude":"-74.38740","name":"Ashley Furniture HomeStore","address":"USA-United States","street_number":null,"street_name":"State Highway 211","zip":"10941","city":null,"area":null,"county":"Orange County","state":"New York","country":"us","formatted_address":"Boston Market, State Highway 211, Mechanicstown, Town of Wallkill, Orange County, New York, 10941, United States of America","place_id":"124789975","datatype":"locationiq"},{"latitude":"40.24703","longitude":"-77.02033","name":"Ashley Furniture HomeStore","address":"USA-United States","street_number":"6484","street_name":"Carlisle Pike","zip":"17050","city":null,"area":null,"county":"Cumberland County","state":"Pennsylvania","country":"us","formatted_address":"Ashley HomeStore, 6484, Carlisle Pike, Hogestown, Cumberland County, Pennsylvania, 17050, United States of America","place_id":"61132857","datatype":"locationiq"},{"latitude":"26.65102","longitude":"-80.20787","name":"Ashley Furniture HomeStore","address":"USA-United States","street_number":"10283","street_name":"Forest Hill Boulevard","zip":"33414","city":null,"area":null,"county":"Palm Beach County","state":"Florida","country":"us","formatted_address":"10283, Forest Hill Boulevard, Wellington, Palm Beach County, Florida, 33414, United States of America","place_id":"182841757","datatype":"locationiq"},{"latitude":"28.34231","longitude":"-81.41674","name":"Ashley Furniture HomeStore","address":"USA-United States","street_number":null,"street_name":"Osceola Parkway","zip":"32837","city":null,"area":null,"county":"Osceola County","state":"Florida","country":"us","formatted_address":"Osceola Parkway, Osceola County, Florida, 32837, United States of America","place_id":"105228943","datatype":"locationiq"},{"latitude":"35.15215","longitude":"-101.88387","name":"Ashley Furniture HomeStore","address":"USA-United States","street_number":"5214","street_name":"South Western Street","zip":"79109","city":"Amarillo","area":null,"county":"Randall County","state":"Texas","country":"us","formatted_address":"5214, South Western Street, Amarillo, Randall County, Texas, 79109, United States of America","place_id":"206150745","datatype":"locationiq"},{"latitude":"35.35069","longitude":"-94.34621","name":"Ashley Furniture HomeStore","address":"USA-United States","street_number":null,"street_name":"Rogers Avenue","zip":"72903","city":"Fort Smith","area":null,"county":"Sebastian County","state":"Arkansas","country":"us","formatted_address":"IHOP, Rogers Avenue, Fort Smith, Sebastian County, Arkansas, 72903, United States of America","place_id":"45531828","datatype":"locationiq"},{"latitude":"42.33174","longitude":"-122.86728","name":"Ashley Furniture HomeStore","address":"USA-United States","street_number":null,"street_name":"East Jackson Street","zip":"97501","city":"Medford","area":null,"county":"Jackson County","state":"Oregon","country":"us","formatted_address":"Firestone, East Jackson Street, Medford, Jackson County, Oregon, 97501, United States of America","place_id":"57297943","datatype":"locationiq"},{"latitude":"26.70657","longitude":"-80.08983","name":"Ashley Furniture HomeStore","address":"USA-United States","street_number":"2487","street_name":"Okeechobee Boulevard","zip":"33409","city":"West Palm Beach","area":null,"county":"Palm Beach County","state":"Florida","country":"us","formatted_address":"2487, Okeechobee Boulevard, West Palm Beach, Palm Beach County, Florida, 33409, United States of America","place_id":"182846251","datatype":"locationiq"},{"latitude":"42.98735","longitude":"-78.81723","name":"Ashley Furniture HomeStore","address":"USA-United States","street_number":"669","street_name":"Alberta Drive","zip":"14226","city":null,"area":null,"county":"Erie County","state":"New York","country":"us","formatted_address":"669, Alberta Drive, North Bailey, Amherst Town, Erie County, New York, 14226, United States of America","place_id":"196263358","datatype":"locationiq"},{"latitude":"39.07293","longitude":"-108.57088","name":"Ashley Furniture HomeStore","address":"USA-United States","street_number":"611","street_name":"North 1st Street","zip":"81501","city":"Grand Junction","area":null,"county":"Mesa County","state":"Colorado","country":"us","formatted_address":"611, North 1st Street, Grand Junction, Mesa County, Colorado, 81501, United States of America","place_id":"173780605","datatype":"locationiq"},{"latitude":"35.04951","longitude":"-89.82232","name":"Ashley Furniture HomeStore","address":"USA-United States","street_number":"7226","street_name":"Winchester Road","zip":"38125","city":"Memphis","area":null,"county":"Shelby County","state":"Tennessee","country":"us","formatted_address":"7226, Winchester Road, Memphis, Shelby County, Tennessee, 38125, United States of America","place_id":"204106292","datatype":"locationiq"},{"latitude":"38.47655","longitude":"-107.88114","name":"Ashley Furniture HomeStore","address":"USA-United States","street_number":"197","street_name":"West Main Street","zip":"81401","city":"Montrose","area":null,"county":"Montrose County","state":"Colorado","country":"us","formatted_address":"197, West Main Street, Montrose, Montrose County, Colorado, 81401, United States of America","place_id":"181056489","datatype":"locationiq"},{"latitude":"33.63961","longitude":"-112.20795","name":"Ashley Furniture HomeStore","address":"USA-United States","street_number":"6910","street_name":"West Bell Road","zip":"85308","city":null,"area":null,"county":"Maricopa County","state":"Arizona","country":"us","formatted_address":"Ashley HomeStore, 6910, West Bell Road, Lexington Place, Maricopa County, Arizona, 85308, United States of America","place_id":"61698879","datatype":"locationiq"},{"latitude":"30.51834","longitude":"-92.06712","name":"Ashley Furniture HomeStore","address":"USA-United States","street_number":null,"street_name":"Cresswell Lane","zip":"70570","city":"Opelousas","area":null,"county":"St. Landry Parish","state":"Louisiana","country":"us","formatted_address":"Cresswell Lane, Opelousas, St. Landry Parish, Louisiana, 70570, United States of America","place_id":"66909128","datatype":"locationiq"},{"latitude":"48.20213","longitude":"-114.31511","name":"Ashley Furniture HomeStore","address":"USA-United States","street_number":null,"street_name":"North Main Street","zip":"59901","city":"Kalispell","area":null,"county":"Flathead County","state":"Montana","country":"us","formatted_address":"Flathead Valley United Church of Christ, North Main Street, Kalispell, Flathead County, Montana, 59901, United States of America","place_id":"3263878","datatype":"locationiq"},{"latitude":"45.50603","longitude":"-92.99399","name":"Ashley Furniture HomeStore","address":"USA-United States","street_number":"38524","street_name":"Tanger Drive","zip":"55056","city":"North Branch","area":null,"county":"Chisago County","state":"Minnesota","country":"us","formatted_address":"38524, Tanger Drive, North Branch, Chisago County, Minnesota, 55056, United States of America","place_id":"191925356","datatype":"locationiq"},{"latitude":"43.11895","longitude":"-89.30835","name":"Ashley Furniture HomeStore","address":"USA-United States","street_number":null,"street_name":"Lien Road","zip":"53714","city":"Madison","area":null,"county":"Dane County","state":"Wisconsin","country":"us","formatted_address":"Hobby Lobby, Lien Road, Madison, Dane County, Wisconsin, 53714, United States of America","place_id":"58105834","datatype":"locationiq"},{"latitude":"33.37451","longitude":"-86.81341","name":"Ashely Furniture HomeStore","address":"USA-United States","street_number":null,"street_name":"Galleria Boulevard","zip":"35244","city":"Hoover","area":"Chace Lake","county":"Jefferson County","state":"Alabama","country":"us","formatted_address":"Galleria Boulevard, Chace Lake, Hoover, Jefferson County, Alabama, 35244, United States of America","place_id":"79575821","datatype":"locationiq"},{"latitude":"36.59479","longitude":"-79.42668","name":"Ashley Furniture HomeStore","address":"USA-United States","street_number":"126","street_name":"Crown Drive","zip":"24540","city":"Danville City","area":null,"county":null,"state":"Virginia","country":"us","formatted_address":"126, Crown Drive, Danville, Danville City, Virginia, 24540, United States of America","place_id":"208002475","datatype":"locationiq"},{"latitude":"45.77054","longitude":"-87.08119","name":"Ashley Furniture HomeStore","address":"USA-United States","street_number":"2030","street_name":"North Lincoln Road","zip":"49829","city":"Escanaba","area":null,"county":"Delta County","state":"Michigan","country":"us","formatted_address":"2030, North Lincoln Road, Escanaba, Delta County, Michigan, 49829, United States of America","place_id":"190795021","datatype":"locationiq"},{"latitude":"36.15019","longitude":"-94.14397","name":"Ashley Furniture HomeStore","address":"USA-United States","street_number":"3901","street_name":"South Thompson Street","zip":"72764","city":"Springdale","area":null,"county":"Washington County","state":"Arkansas","country":"us","formatted_address":"3901, South Thompson Street, Springdale, Washington County, Arkansas, 72764, United States of America","place_id":"12975811","datatype":"locationiq"},{"latitude":"26.15130","longitude":"-80.31606","name":"Ashley Furniture HomeStore","address":"USA-United States","street_number":"1960","street_name":"Sawgrass Mills Circle","zip":"33323","city":null,"area":null,"county":"Broward County","state":"Florida","country":"us","formatted_address":"Ashley HomeStore, 1960, Sawgrass Mills Circle, Sawgrass Mills, Sunrise, Broward County, Florida, 33323, United States of America","place_id":"61045855","datatype":"locationiq"},{"latitude":"35.59445","longitude":"-82.53203","name":"Ashley Furniture HomeStore","address":"USA-United States","street_number":null,"street_name":"Mineral Springs Road","zip":"28802","city":"Asheville","area":null,"county":"Buncombe County","state":"North Carolina","country":"us","formatted_address":"Burger King, Mineral Springs Road, Asheville, Buncombe County, North Carolina, 28802, United States of America","place_id":"53032411","datatype":"locationiq"},{"latitude":"29.54522","longitude":"-95.39828","name":"Ashley Furniture HomeStore","address":"USA-United States","street_number":"11500","street_name":"Yoakum Street","zip":"77584","city":"Pearland","area":null,"county":"Brazoria County","state":"Texas","country":"us","formatted_address":"11500, Yoakum Street, Pearland, Brazoria County, Texas, 77584, United States of America","place_id":"204555109","datatype":"locationiq"},{"latitude":"33.91639","longitude":"-83.44463","name":"Ashley Furniture HomeStore","address":"USA-United States","street_number":null,"street_name":"Epps Bridge Parkway","zip":"30606","city":null,"area":null,"county":"Oconee County","state":"Georgia","country":"us","formatted_address":"Epps Bridge Parkway, Oconee County, Georgia, 30606, United States of America","place_id":"75784374","datatype":"locationiq"},{"latitude":"35.66694","longitude":"-88.85690","name":"Ashley Furniture HomeStore","address":"USA-United States","street_number":"1096","street_name":"Vann Drive","zip":"38305","city":"Jackson","area":null,"county":"Madison County","state":"Tennessee","country":"us","formatted_address":"Ashley HomeStore, 1096, Vann Drive, Jackson, Madison County, Tennessee, 38305, United States of America","place_id":"61700260","datatype":"locationiq"},{"latitude":"45.77126","longitude":"-108.57903","name":"Ashley Furniture HomeStore","address":"USA-United States","street_number":"79","street_name":"25th Street West","zip":"59102","city":"Billings","area":null,"county":"Yellowstone County","state":"Montana","country":"us","formatted_address":"79, 25th Street West, Billings, Yellowstone County, Montana, 59102, United States of America","place_id":"194399955","datatype":"locationiq"},{"latitude":"39.38617","longitude":"-74.55595","name":"Ashley Furniture HomeStore","address":"USA-United States","street_number":"331","street_name":"Tilton Road","zip":"08225","city":"Northfield","area":null,"county":"Atlantic County","state":"New Jersey","country":"us","formatted_address":"The Spot, 331, Tilton Road, London Square Mall, Northfield, Atlantic County, New Jersey, 08225, United States of America","place_id":"29168456","datatype":"locationiq"},{"latitude":"41.81244","longitude":"-89.65327","name":"Ashley Furniture HomeStore","address":"USA-United States","street_number":"3614","street_name":"East Lincolnway","zip":"61081","city":"Sterling","area":null,"county":"Whiteside County","state":"Illinois","country":"us","formatted_address":"Knie Appliance & TV, 3614, East Lincolnway, Sterling, Whiteside County, Illinois, 61081, United States of America","place_id":"173963917","datatype":"locationiq"},{"latitude":"34.62300","longitude":"-92.49275","name":"Ashley Furniture HomeStore","address":"USA-United States","street_number":"3698","street_name":"Marketplace Drive","zip":"72022","city":null,"area":null,"county":"Saline County","state":"Arkansas","country":"us","formatted_address":"3698, Marketplace Drive, Bryant, Saline County, Arkansas, 72022, United States of America","place_id":"177977333","datatype":"locationiq"},{"latitude":"31.42158","longitude":"-100.47332","name":"Ashley Furniture HomeStore","address":"USA-United States","street_number":"2615","street_name":"Sunset Drive","zip":"76904","city":"San Angelo","area":"Vista del Arroyo","county":"Tom Green County","state":"Texas","country":"us","formatted_address":"2615, Sunset Drive, Vista del Arroyo, San Angelo, Tom Green County, Texas, 76904, United States of America","place_id":"206436550","datatype":"locationiq"},{"latitude":"43.51385","longitude":"-96.75487","name":"Ashley Furniture HomeStore","address":"USA-United States","street_number":null,"street_name":"West 41st Street","zip":"57106","city":"Sioux Falls","area":null,"county":"Minnehaha County","state":"South Dakota","country":"us","formatted_address":"West 41st Street, Sioux Falls, Minnehaha County, South Dakota, 57106, United States of America","place_id":"96005463","datatype":"locationiq"},{"latitude":"30.38919","longitude":"-88.99201","name":"Ashley Furniture HomeStore","address":"USA-United States","street_number":"2640","street_name":"Beach Boulevard","zip":"39507","city":"Biloxi","area":null,"county":"Harrison County","state":"Mississippi","country":"us","formatted_address":"Wendy's, 2640, Beach Boulevard, Biloxi, Harrison County, Mississippi, 39507, United States of America","place_id":"107538127","datatype":"locationiq"},{"latitude":"39.12728","longitude":"-121.63567","name":"Ashley Furniture HomeStore","address":"USA-United States","street_number":"1310","street_name":"Franklin Road","zip":"95993","city":"Yuba City","area":null,"county":"Sutter County","state":"California","country":"us","formatted_address":"1310, Franklin Road, Yuba City, Sutter County, California, 95993, United States of America","place_id":"180413653","datatype":"locationiq"},{"latitude":"33.70087","longitude":"-117.93609","name":"Ashley Furniture HomeStore","address":"USA-United States","street_number":"18060","street_name":"Euclid Street","zip":"92708","city":"Fountain Valley","area":null,"county":"Orange County","state":"California","country":"us","formatted_address":"Ashley HomeStore, 18060, Euclid Street, Fountain Valley Commercial Area, Fountain Valley, Orange County, California, 92708, United States of America","place_id":"61815262","datatype":"locationiq"},{"latitude":"37.08423","longitude":"-94.51328","name":"Ashley Furniture HomeStore","address":"USA-United States","street_number":null,"street_name":"East 7th Street","zip":"64801","city":"Joplin","area":null,"county":"Jasper County","state":"Missouri","country":"us","formatted_address":"East 7th Street, Joplin, Jasper County, Missouri, 64801, United States of America","place_id":"80507267","datatype":"locationiq"},{"latitude":"27.54030","longitude":"-99.50434","name":"Ashley Furniture HomeStore","address":"USA-United States","street_number":"4542","street_name":"San Bernardo Avenue","zip":"78041","city":"Laredo","area":null,"county":"Webb County","state":"Texas","country":"us","formatted_address":"4542, San Bernardo Avenue, Del Mar, Laredo, Webb County, Texas, 78041, United States of America","place_id":"206580568","datatype":"locationiq"},{"latitude":"26.49116","longitude":"-81.78927","name":"Ashley Furniture HomeStore","address":"USA-United States","street_number":null,"street_name":"University Plaza Drive","zip":"33915","city":null,"area":null,"county":"Lee County","state":"Florida","country":"us","formatted_address":"University Plaza Drive, San Carlos Park, Timberwalk at Three Oaks, Lee County, Florida, 33915, United States of America","place_id":"107402740","datatype":"locationiq"},{"latitude":"38.21821","longitude":"-85.54209","name":"Ashley Furniture HomeStore","address":"USA-United States","street_number":"11492","street_name":"Bluegrass Parkway","zip":"40299","city":"Forest Hills","area":null,"county":"Jefferson County","state":"Kentucky","country":"us","formatted_address":"11492, Bluegrass Parkway, Forest Hills, Jefferson County, Kentucky, 40299, United States of America","place_id":"147574406","datatype":"locationiq"},{"latitude":"43.93526","longitude":"-92.33698","name":"Ashely Furniture HomeStore","address":"USA-United States","street_number":"7153","street_name":"US 52","zip":"55904","city":null,"area":null,"county":"Olmsted County","state":"Minnesota","country":"us","formatted_address":"7153, US 52, Predmore, Olmsted County, Minnesota, 55904, United States of America","place_id":"192365870","datatype":"locationiq"},{"latitude":"33.56852","longitude":"-84.32810","name":"Ashley Furniture HomeStore","address":"USA-United States","street_number":null,"street_name":"Mount Zion Road","zip":"30281","city":"Morrow","area":"Woodstone","county":"Clayton County","state":"Georgia","country":"us","formatted_address":"Mount Zion Road, Woodstone, Morrow, Clayton County, Georgia, 30281, United States of America","place_id":"64389974","datatype":"locationiq"},{"latitude":"33.46440","longitude":"-84.21929","name":"Ashley Furniture HomeStore","address":"USA-United States","street_number":"1889","street_name":"Jonesboro Road","zip":"30228","city":null,"area":null,"county":"Henry County","state":"Georgia","country":"us","formatted_address":"1889, Jonesboro Road, Mount Carmel Estates, Henry County, Georgia, 30228, United States of America","place_id":"183963372","datatype":"locationiq"},{"latitude":"33.54617","longitude":"-101.93978","name":"Ashley Furniture HomeStore","address":"USA-United States","street_number":null,"street_name":"Frankford Avenue","zip":"79424","city":"Lubbock","area":"Ironton","county":"Lubbock County","state":"Texas","country":"us","formatted_address":"Sherwin-Williams, Frankford Avenue, Ironton, Lubbock, Lubbock County, Texas, 79424, United States of America","place_id":"165529489","datatype":"locationiq"},{"latitude":"34.18768","longitude":"-79.82094","name":"Ashley Furniture HomeStore","address":"USA-United States","street_number":null,"street_name":"West David H McLeod Boulevard","zip":"29501","city":"Florence","area":null,"county":"Florence County","state":"South Carolina","country":"us","formatted_address":"West David H McLeod Boulevard, Florence, Florence County, South Carolina, 29501, United States of America","place_id":"86072689","datatype":"locationiq"},{"latitude":"35.82103","longitude":"-90.65178","name":"Ashley Furniture HomeStore","address":"USA-United States","street_number":"1800","street_name":"Irby Street","zip":"72401","city":"Jonesboro","area":null,"county":"Craighead County","state":"Arkansas","country":"us","formatted_address":"1800, Irby Street, Jonesboro, Craighead County, Arkansas, 72401, United States of America","place_id":"177650779","datatype":"locationiq"},{"latitude":"30.66569","longitude":"-87.84888","name":"Ashley Furniture HomeStore","address":"USA-United States","street_number":null,"street_name":"Eastern Shore Boulevard","zip":"36527","city":"Spanish Fort","area":null,"county":"Baldwin County","state":"Alabama","country":"us","formatted_address":"Eastern Shore Boulevard, Spanish Fort, Baldwin County, Alabama, 36527, United States of America","place_id":"139202061","datatype":"locationiq"},{"latitude":"38.43127","longitude":"-90.97047","name":"Ashley Furniture HomeStore","address":"USA-United States","street_number":null,"street_name":"Denmark Road","zip":"63084","city":"Union","area":null,"county":"Franklin County","state":"Missouri","country":"us","formatted_address":"Denmark Road, Union, Franklin County, Missouri, 63084, United States of America","place_id":"70900169","datatype":"locationiq"},{"latitude":"27.95605","longitude":"-82.31263","name":"Ashley Furniture HomeStore","address":"USA-United States","street_number":"1002","street_name":"Estatewood Drive","zip":"33510","city":"Brandon","area":null,"county":"Hillsborough County","state":"Florida","country":"us","formatted_address":"1002, Estatewood Drive, Brandon, Hillsborough County, Florida, 33510, United States of America","place_id":"182144580","datatype":"locationiq"},{"latitude":"37.50230","longitude":"-121.97503","name":"Ashley Furniture HomeStore","address":"USA-United States","street_number":null,"street_name":"Boscell Road","zip":"94538","city":"Fremont","area":null,"county":"Alameda County","state":"California","country":"us","formatted_address":"Costco Gasoline, Boscell Road, Irvington District, Fremont, Alameda County, California, 94538, United States of America","place_id":"26074368","datatype":"locationiq"},{"latitude":"39.75900","longitude":"-121.81516","name":"Ashley Furniture HomeStore","address":"USA-United States","street_number":"1501","street_name":"Manzanita Avenue","zip":"95926","city":"Chico","area":null,"county":"Butte County","state":"California","country":"us","formatted_address":"1501, Manzanita Avenue, Chico, Butte County, California, 95926, United States of America","place_id":"178190584","datatype":"locationiq"},{"latitude":"32.97214","longitude":"-97.03682","name":"Ashley Furniture HomeStore","address":"USA-United States","street_number":"3357","street_name":"International Parkway","zip":"76051","city":"Grapevine","area":null,"county":"Tarrant County","state":"Texas","country":"us","formatted_address":"3357, International Parkway, Grapevine, Tarrant County, Texas, 76051, United States of America","place_id":"206330667","datatype":"locationiq"},{"latitude":"31.78730","longitude":"-106.39686","name":"Ashley Furniture HomeStore","address":"USA-United States","street_number":"1411","street_name":"Airway Boulevard","zip":"79925","city":"El Paso City","area":null,"county":"El Paso County","state":"Texas","country":"us","formatted_address":"Ashley HomeStore, 1411, Airway Boulevard, El Paso City, El Paso County, Texas, 79925, United States of America","place_id":"61700186","datatype":"locationiq"},{"latitude":"35.90319","longitude":"-84.15126","name":"Ashley Furniture HomeStore","address":"USA-United States","street_number":null,"street_name":"Turkey Drive","zip":"37934","city":"Knoxville","area":null,"county":"Knox County","state":"Tennessee","country":"us","formatted_address":"Texas Roadhouse, Turkey Drive, Knoxville, Knox County, Tennessee, 37934, United States of America","place_id":"151845021","datatype":"locationiq"},{"latitude":"35.42010","longitude":"-80.67608","name":"Ashley Furniture HomeStore","address":"USA-United States","street_number":"5051","street_name":"Bayfield Parkway","zip":"28027","city":null,"area":null,"county":"Cabarrus County","state":"North Carolina","country":"us","formatted_address":"McDonald's, 5051, Bayfield Parkway, Poplar Tent, Cabarrus County, North Carolina, 28027, United States of America","place_id":"145665222","datatype":"locationiq"},{"latitude":"40.47049","longitude":"-75.37047","name":"Ashley Furniture HomeStore","address":"USA-United States","street_number":"1051","street_name":"PA 309","zip":"18951","city":"Richlandtown","area":null,"county":"Bucks County","state":"Pennsylvania","country":"us","formatted_address":"1051, PA 309, Richlandtown, Bucks County, Pennsylvania, 18951, United States of America","place_id":"201418334","datatype":"locationiq"},{"latitude":"34.77112","longitude":"-76.55342","name":"Ashley Furniture HomeStore","address":"USA-United States","street_number":"781","street_name":"US 70","zip":"28516","city":null,"area":null,"county":"Carteret County","state":"North Carolina","country":"us","formatted_address":"781, US 70, Otway, Carteret County, North Carolina, 28516, United States of America","place_id":"197314424","datatype":"locationiq"},{"latitude":"30.46188","longitude":"-90.95646","name":"Ashley Furniture HomeStore","address":"USA-United States","street_number":"1936","street_name":"South Range Avenue","zip":"70726","city":"Denham Springs","area":null,"county":"Livingston Parish","state":"Louisiana","country":"us","formatted_address":"1936, South Range Avenue, Denham Springs, Livingston Parish, Louisiana, 70726, United States of America","place_id":"189104088","datatype":"locationiq"},{"latitude":"30.00719","longitude":"-95.26642","name":"Ashley Furniture HomeStore","address":"USA-United States","street_number":null,"street_name":"Eastex Freeway Frontage Road","zip":"77339","city":"Humble","area":null,"county":"Harris County","state":"Texas","country":"us","formatted_address":"Eastex Freeway Frontage Road, Humble, Harris County, Texas, 77339, United States of America","place_id":"110269160","datatype":"locationiq"},{"latitude":"44.24371","longitude":"-91.47381","name":"Ashley Furniture HomeStore","address":"USA-United States","street_number":"715","street_name":"Detloff Drive","zip":"54612","city":"Arcadia","area":null,"county":"Trempealeau County","state":"Wisconsin","country":"us","formatted_address":"715, Detloff Drive, Arcadia, Trempealeau County, Wisconsin, 54612, United States of America","place_id":"209719782","datatype":"locationiq"},{"latitude":"38.63914","longitude":"-77.29932","name":"Ashley Furniture HomeStore","address":"USA-United States","street_number":"14375","street_name":"Smoketown Road","zip":"22192","city":null,"area":null,"county":"Prince William County","state":"Virginia","country":"us","formatted_address":"Silver Diner, 14375, Smoketown Road, Dale City, Prince William County, Virginia, 22192, United States of America","place_id":"89333479","datatype":"locationiq"},{"latitude":"40.30317","longitude":"-78.83295","name":"Ashley Furniture HomeStore","address":"USA-United States","street_number":"591","street_name":"Galleria Drive","zip":"15904","city":null,"area":null,"county":"Cambria County","state":"Pennsylvania","country":"us","formatted_address":"591, Galleria Drive, Richland, Cambria County, Pennsylvania, 15904, United States of America","place_id":"201485565","datatype":"locationiq"},{"latitude":"35.07852","longitude":"-80.87992","name":"Ashley Furniture HomeStore","address":"USA-United States","street_number":"11320","street_name":"Carolina Place Parkway","zip":"28134","city":null,"area":null,"county":"Mecklenburg County","state":"North Carolina","country":"us","formatted_address":"Ashley HomeStore, 11320, Carolina Place Parkway, Pineville, Mecklenburg County, North Carolina, 28134, United States of America","place_id":"61806009","datatype":"locationiq"},{"latitude":"34.78692","longitude":"-77.39864","name":"Ashley Furniture HomeStore","address":"USA-United States","street_number":"1250","street_name":"Western Boulevard","zip":"28546","city":"Jacksonville","area":null,"county":"Onslow County","state":"North Carolina","country":"us","formatted_address":"Ashley HomeStore, 1250, Western Boulevard, Jacksonville, Onslow County, North Carolina, 28546, United States of America","place_id":"61812184","datatype":"locationiq"},{"latitude":"37.31078","longitude":"-79.96481","name":"Ashley Furniture HomeStore","address":"USA-United States","street_number":null,"street_name":"Valley View Boulevard Northwest","zip":"24012","city":"Roanoke","area":null,"county":null,"state":"Virginia","country":"us","formatted_address":"Valley View Boulevard Northwest, Villa Heights, Dorchester Court, Roanoke, Virginia, 24012, United States of America","place_id":"102763395","datatype":"locationiq"},{"latitude":"32.41113","longitude":"-90.01881","name":"Ashley Furniture HomeStore","address":"USA-United States","street_number":"61","street_name":"Grand View Circle","zip":"39047","city":null,"area":null,"county":"Rankin County","state":"Mississippi","country":"us","formatted_address":"61, Grand View Circle, Barnes Prairie, Rankin County, Mississippi, 39047, United States of America","place_id":"193100103","datatype":"locationiq"},{"latitude":"41.07661","longitude":"-111.98332","name":"Ashley Furniture HomeStore","address":"USA-United States","street_number":null,"street_name":"North Main Street","zip":"84041","city":null,"area":"Mala","county":"Davis County","state":"Utah","country":"us","formatted_address":"Travel Clean Car Wash, North Main Street, Mala, Layton, Davis County, Utah, 84041, United States of America","place_id":"172389982","datatype":"locationiq"},{"latitude":"40.28844","longitude":"-96.74695","name":"Ashley Furniture HomeStore","address":"USA-United States","street_number":"2237","street_name":"North 6th Street","zip":"68310","city":"Beatrice","area":null,"county":"Gage County","state":"Nebraska","country":"us","formatted_address":"2237, North 6th Street, Beatrice, Gage County, Nebraska, 68310, United States of America","place_id":"194593492","datatype":"locationiq"},{"latitude":"31.49990","longitude":"-97.16337","name":"Ashley Furniture HomeStore","address":"USA-United States","street_number":null,"street_name":"Bagby Avenue","zip":"76711","city":"Waco","area":null,"county":"McLennan County","state":"Texas","country":"us","formatted_address":"Ashley Furniture, Bagby Avenue, Waco, McLennan County, Texas, 76711, United States of America","place_id":"130274210","datatype":"locationiq"},{"latitude":"45.25155","longitude":"-93.66334","name":"Ashley Furniture HomeStore","address":"USA-United States","street_number":"6947","street_name":"Labeaux Avenue Northeast","zip":"55301","city":null,"area":null,"county":"Wright County","state":"Minnesota","country":"us","formatted_address":"Ashley HomeStore, 6947, Labeaux Avenue Northeast, Albertville, Wright County, Minnesota, 55301, United States of America","place_id":"61131807","datatype":"locationiq"},{"latitude":"32.87325","longitude":"-80.02114","name":"Ashley Furniture HomeStore","address":"USA-United States","street_number":null,"street_name":"Centre Pointe Drive","zip":"29418","city":"North Charleston","area":null,"county":"Charleston County","state":"South Carolina","country":"us","formatted_address":"Verizon Wireless, Centre Pointe Drive, North Charleston, Charleston County, South Carolina, 29418, United States of America","place_id":"41509794","datatype":"locationiq"},{"latitude":"34.70481","longitude":"-86.58854","name":"Ashley Furniture HomeStore","address":"USA-United States","street_number":null,"street_name":"Drake Avenue Southwest","zip":"35801","city":"Huntsville","area":null,"county":"Madison County","state":"Alabama","country":"us","formatted_address":"Cracker Barrell, Drake Avenue Southwest, Huntsville, Madison County, Alabama, 35801, United States of America","place_id":"154470492","datatype":"locationiq"},{"latitude":"32.00883","longitude":"-102.15595","name":"Ashley Furniture HomeStore","address":"USA-United States","street_number":"5268","street_name":"Preston Drive","zip":"79707","city":"Midland","area":"Wydewood Estates","county":"Midland County","state":"Texas","country":"us","formatted_address":"5268, Preston Drive, Wydewood Estates, Midland, Midland County, Texas, 79707, United States of America","place_id":"205950690","datatype":"locationiq"},{"latitude":"33.24306","longitude":"-92.66537","name":"Ashley Furniture HomeStore","address":"USA-United States","street_number":"101","street_name":"Hathaway Drive","zip":"71730","city":"El Dorado","area":null,"county":"Union County","state":"Arkansas","country":"us","formatted_address":"101, Hathaway Drive, El Dorado, Union County, Arkansas, 71730, United States of America","place_id":"178024052","datatype":"locationiq"},{"latitude":"44.02299","longitude":"-116.96408","name":"Ashley Furniture HomeStore","address":"USA-United States","street_number":"498","street_name":"South Oregon Street","zip":"97914","city":"Ontario","area":null,"county":"Malheur County","state":"Oregon","country":"us","formatted_address":"498, South Oregon Street, Ontario, Malheur County, Oregon, 97914, United States of America","place_id":"200945821","datatype":"locationiq"},{"latitude":"35.03394","longitude":"-85.14990","name":"Ashley Furniture HomeStore","address":"USA-United States","street_number":"2132","street_name":"Gunbarrel Road","zip":"37421","city":"Chattanooga","area":null,"county":"Hamilton County","state":"Tennessee","country":"us","formatted_address":"Ashley HomeStore, 2132, Gunbarrel Road, Chattanooga, Hamilton County, Tennessee, 37421, United States of America","place_id":"62241695","datatype":"locationiq"},{"latitude":"31.32116","longitude":"-89.38484","name":"Ashley Furniture HomeStore","address":"USA-United States","street_number":null,"street_name":"US 98","zip":"39402","city":"Hattiesburg","area":null,"county":"Lamar County","state":"Mississippi","country":"us","formatted_address":"Logan's Roadhouse, US 98, Hattiesburg, Lamar County, Mississippi, 39402, United States of America","place_id":"20850558","datatype":"locationiq"},{"latitude":"39.21772","longitude":"-121.06302","name":"Ashely Furniture HomeStore","address":"USA-United States","street_number":"161","street_name":"Mill Street","zip":"95945","city":null,"area":null,"county":"Nevada County","state":"California","country":"us","formatted_address":"Ashley HomeStore, 161, Mill Street, Grass Valley, Nevada County, California, 95945, United States of America","place_id":"61132087","datatype":"locationiq"},{"latitude":"34.06643","longitude":"-81.16826","name":"Ashley Furniture HomeStore","address":"USA-United States","street_number":"108","street_name":"Harbison Boulevard","zip":"29212","city":null,"area":null,"county":"Lexington County","state":"South Carolina","country":"us","formatted_address":"Ashley HomeStore, 108, Harbison Boulevard, Seven Oaks, Lexington County, South Carolina, 29212, United States of America","place_id":"61806767","datatype":"locationiq"},{"latitude":"30.43159","longitude":"-84.22681","name":"Ashley Furniture HomeStore","address":"USA-United States","street_number":"1188","street_name":"Capital Circle Southeast","zip":"32301","city":"Tallahassee","area":null,"county":"Leon County","state":"Florida","country":"us","formatted_address":"1188, Capital Circle Southeast, Tallahassee, Leon County, Florida, 32301, United States of America","place_id":"182342326","datatype":"locationiq"},{"latitude":"40.95730","longitude":"-74.07569","name":"Ashley Furniture HomeStore","address":"USA-United States","street_number":"545","street_name":"NJ 17","zip":"07652","city":"Paramus","area":null,"county":"Bergen County","state":"New Jersey","country":"us","formatted_address":"Ashley HomeStore, 545, NJ 17, Paramus, Bergen County, New Jersey, 07652, United States of America","place_id":"61812510","datatype":"locationiq"},{"latitude":"30.90714","longitude":"-94.00882","name":"Ashley Furniture HomeStore","address":"USA-United States","street_number":"472","street_name":"West Gibson Street","zip":"75951","city":"Jasper","area":null,"county":"Jasper County","state":"Texas","country":"us","formatted_address":"472, West Gibson Street, Jasper, Jasper County, Texas, 75951, United States of America","place_id":"205702025","datatype":"locationiq"},{"latitude":"34.94978","longitude":"-89.99129","name":"Ashley Furniture HomeStore","address":"USA-United States","street_number":null,"street_name":"Airways Boulevard","zip":"38671","city":"Southaven","area":null,"county":"DeSoto County","state":"Mississippi","country":"us","formatted_address":"Airways Boulevard, Southaven, DeSoto County, Mississippi, 38671, United States of America","place_id":"104519979","datatype":"locationiq"},{"latitude":"43.08327","longitude":"-77.62963","name":"Ashley Furniture HomeStore","address":"USA-United States","street_number":"598","street_name":"Hylan Drive","zip":"14623","city":null,"area":null,"county":"Monroe County","state":"New York","country":"us","formatted_address":"598, Hylan Drive, Ridgeland, Henrietta Town, Monroe County, New York, 14623, United States of America","place_id":"196447449","datatype":"locationiq"},{"latitude":"40.89641","longitude":"-73.79700","name":"Ashley Furniture HomeStore","address":"USA-United States","street_number":null,"street_name":"New England Thruway","zip":"10805","city":"New Rochelle","area":null,"county":"Westchester County","state":"New York","country":"us","formatted_address":"New England Thruway, New Rochelle, Westchester County, New York, 10805, United States of America","place_id":"85263814","datatype":"locationiq"},{"latitude":"35.38242","longitude":"-119.10142","name":"Ashley Furniture HomeStore","address":"USA-United States","street_number":"8915","street_name":"Rosedale Highway","zip":"93312","city":"Bakersfield","area":null,"county":"Kern County","state":"California","country":"us","formatted_address":"Ashley HomeStore, 8915, Rosedale Highway, Bakersfield, Kern County, California, 93312, United States of America","place_id":"61814453","datatype":"locationiq"},{"latitude":"36.06677","longitude":"-115.03629","name":"Ashley Furniture HomeStore","address":"USA-United States","street_number":"736","street_name":"Marks Street","zip":"89014","city":"Henderson","area":null,"county":"Clark County","state":"Nevada","country":"us","formatted_address":"736, Marks Street, Whitney Ranch, Henderson, Clark County, Nevada, 89014, United States of America","place_id":"194841851","datatype":"locationiq"}]