[{"latitude":40.435033,"longitude":-79.790322,"name":"BABIES R US - MONROEVILLE [6452]","address":"3700 WILLIAM PENN HIGHWAY\r\nMONROEVILLE, PA 15146","phone":"(412)856-9891","street_number":"3721","street_name":"William Penn Hwy","zip":"15146","city":"Monroeville","area":null,"county":"Allegheny County","state":"PA","country":"USA","formatted_address":"3721 William Penn Hwy, Monroeville, PA, USA","place_id":"openaddresses:address:us\/pa\/allegheny:4f9aa9f7b770257c","datatype":"openaddresses"},{"latitude":40.338912,"longitude":-79.954988,"name":"TOYS R US\/BABIES R US - WEST MIFFLIN [9214]","address":"275 CLAIRTON BOULEVARD\r\nWEST MIFFLIN, PA 15122","phone":"(412)655-0677","street_number":"205","street_name":"Clairton Blvd","zip":"15236","city":"Pleasant Hills","area":null,"county":"Allegheny County","state":"PA","country":"USA","formatted_address":"205 Clairton Blvd, Pleasant Hills, PA, USA","place_id":"openaddresses:address:us\/pa\/allegheny:8c413a5980208908","datatype":"openaddresses"},{"latitude":40.344561,"longitude":-80.049583,"name":"TOYS R US\/BABIES R US - BETHEL PARK [6560]","address":"4000 OXFORD DRIVE\r\nBETHEL PARK, PA 15102","phone":"(412)479-9020","street_number":"1500","street_name":"Oxford Dr","zip":"15102","city":"Bethel Park","area":null,"county":"Allegheny County","state":"PA","country":"USA","formatted_address":"1500 Oxford Dr, Bethel Park, PA, USA","place_id":"openaddresses:address:us\/pa\/allegheny:cad654a9ae7e58e6","datatype":"openaddresses"},{"latitude":40.685589,"longitude":-80.103404,"name":"BABIES R US - CRANBERRY TOWNSHIP [6478]","address":"20111 ROUTE19\r\nCRANBERRY TOWNSHIP, PA 16066","phone":"(724)772-2500","street_number":"1343","street_name":"A Old Freedom Rd","zip":null,"city":null,"area":null,"county":"Butler County","state":"PA","country":"USA","formatted_address":"1343 A Old Freedom Rd, Cranberry, PA, USA","place_id":"openaddresses:address:us\/pa\/butler:3235357f7b8965fc","datatype":"openaddresses"},{"latitude":41.025737,"longitude":-80.633291,"name":"BABIES R US - POLAND [9254]","address":"1240 DORAL DRIVE\r\nPOLAND, OH 44514","phone":"(330)965-0412","street_number":"1128","street_name":"Boardman Poland Rd","zip":"44514","city":"Boardman","area":null,"county":"Mahoning County","state":"OH","country":"USA","formatted_address":"1128 Boardman Poland Rd, Boardman, OH, USA","place_id":"openaddresses:address:us\/oh\/mahoning:e5bc7efdbcf1daca","datatype":"openaddresses"},{"latitude":40.873987,"longitude":-81.432187,"name":"BABIES R US - NORTH CANTON [9241]","address":"6655 STRIP AVENUE NW\r\nNORTH CANTON, OH 44720","phone":"(330)305-1750","street_number":"6370","street_name":"Strip Ave Nw","zip":"44720","city":null,"area":null,"county":"Stark County","state":"OH","country":"USA","formatted_address":"6370 Strip Ave Nw, Jackson, OH, USA","place_id":"openaddresses:address:us\/oh\/stark:5de19405caac56f5","datatype":"openaddresses"},{"latitude":41.1193,"longitude":-81.4877,"name":"TOYS R US\/BABIES R US - CUYAHOGA FALLS [9203]","address":"590 HOWE AVENUE\r\nCUYAHOGA FALLS, OH 44221","phone":"(330)923-8697","street_number":"1100","street_name":"Main St","zip":null,"city":"Cuyahoga Falls","area":null,"county":"Summit County","state":"OH","country":"USA","formatted_address":"1100 Main St, Cuyahoga Falls, OH, USA","place_id":"openaddresses:address:us\/oh\/summit:91b5dbf007c891be","datatype":"openaddresses"},{"latitude":41.13592,"longitude":-81.644971,"name":"TOYS R US\/BABIES R US - COPLEY [9232]","address":"52 ROTHROCK ROAD\r\nCOPLEY, OH 44321","phone":"(330)666-8697","street_number":"4035","street_name":"Medina Rd","zip":null,"city":"Montrose-Ghent","area":null,"county":"Summit County","state":"OH","country":"USA","formatted_address":"4035 Medina Rd, Montrose-Ghent, OH, USA","place_id":"openaddresses:address:us\/oh\/summit:111ca28b8038c099","datatype":"openaddresses"},{"latitude":41.52264,"longitude":-81.438727,"name":"TOYS R US\/BABIES R US - MAYFIELD HEIGHTS [9204]","address":"1385 SOM CENTER ROAD\r\nMAYFIELD HEIGHTS, OH 44124","phone":"(440)473-0310","street_number":"1392","street_name":"Som Center Rd","zip":"44124","city":"Mayfield Heights","area":null,"county":"Cuyahoga County","state":"OH","country":"USA","formatted_address":"1392 Som Center Rd, Mayfield Heights, OH, USA","place_id":"openaddresses:address:us\/oh\/cuyahoga:77be4c8bf493be2b","datatype":"openaddresses"},{"latitude":42.058096,"longitude":-80.091214,"name":"BABIES R US - ERIE [6470]","address":"6680 PEACH STREET\r\nERIE, PA 16509","phone":"(814)864-5814","street_number":"6601","street_name":"Peach St","zip":"16509","city":null,"area":null,"county":"Erie County","state":"PA","country":"USA","formatted_address":"6601 Peach St, Summit, PA, USA","place_id":"openaddresses:address:us\/pa\/erie:3c9838a4103446ad","datatype":"openaddresses"},{"latitude":41.661289,"longitude":-81.36002,"name":"BABIES R US - MENTOR [9283]","address":"7841 MENTOR AVENUE\r\nMENTOR, OH 44060","phone":"(440)974-7388","street_number":"7837","street_name":"Mentor Ave","zip":"44060","city":"Mentor","area":null,"county":"Lake County","state":"OH","country":"USA","formatted_address":"7837 Mentor Ave, Mentor, OH, USA","place_id":"openaddresses:address:us\/oh\/lake:1b05c0631b52b00e","datatype":"openaddresses"},{"latitude":41.38049,"longitude":-81.743801,"name":"TOYS R US\/BABIES R US - PARMA [9205]","address":"8515 DAY DRIVE\r\nPARMA, OH 44129","phone":"(440)888-8697","street_number":"8443","street_name":"Day Dr","zip":"44129","city":"Parma","area":null,"county":"Cuyahoga County","state":"OH","country":"USA","formatted_address":"8443 Day Dr, Parma, OH, USA","place_id":"openaddresses:address:us\/oh\/cuyahoga:7ffbaa2542781fea","datatype":"openaddresses"},{"latitude":39.301417,"longitude":-81.548727,"name":"TOYS R US\/BABIES R US - VIENNA [8367]","address":"113 GRAND CENTRAL AVENUE\r\nVIENNA, WV 26105","phone":"(304)428-2885","street_number":"500","street_name":"13th Avenue","zip":"26105","city":"Vienna","area":null,"county":"Wood County","state":"WV","country":"USA","formatted_address":"500 13th Avenue, Vienna, WV, USA","place_id":"openstreetmap:address:way:398444702","datatype":"openstreetmap"},{"latitude":39.626963,"longitude":-77.768649,"name":"TOYS R US\/BABIES R US - HAGERSTOWN [8345]","address":"1730 VALLEY MALL ROAD\r\nHAGERSTOWN, MD 21740","phone":"(301)582-9741","street_number":"1726","street_name":"Massey Blvd","zip":"21740","city":"Halfway","area":null,"county":"Washington County","state":"MD","country":"USA","formatted_address":"1726 Massey Blvd, Halfway, MD, USA","place_id":"openaddresses:address:us\/md\/statewide:1f64495ab3ae2bba","datatype":"openaddresses"},{"latitude":41.418793,"longitude":-81.915765,"name":"BABIES R US - NORTH OLMSTED [9284]","address":"26520 LORAIN ROAD\r\nNORTH OLMSTED, OH 44070","phone":"(440)716-8614","street_number":"26516","street_name":"Lorain Rd","zip":"44070","city":"North Olmsted","area":null,"county":"Cuyahoga County","state":"OH","country":"USA","formatted_address":"26516 Lorain Rd, North Olmsted, OH, USA","place_id":"openaddresses:address:us\/oh\/cuyahoga:23cf67b40578ba0b","datatype":"openaddresses"},{"latitude":40.247627,"longitude":-77.003168,"name":"TOYS R US\/BABIES R US - MECHANICSBURG [8315]","address":"6391 CARLISLE PIKE\r\nMECHANICSBURG, PA 17050","phone":"(717)697-5087","street_number":"6385","street_name":"Carlisle Pike","zip":"17050","city":null,"area":null,"county":"Cumberland County","state":"PA","country":"USA","formatted_address":"6385 Carlisle Pike, Hampden, PA, USA","place_id":"openstreetmap:address:node:3011242112","datatype":"openstreetmap"},{"latitude":39.936683,"longitude":-82.783235,"name":"BABIES R US - REYNOLDSBURG [9239]","address":"2686 TAYLOR ROAD\r\nREYNOLDSBURG, OH 43068","phone":"(614)759-7744","street_number":"-9","street_name":"Taylor Rd","zip":"43068","city":"Reynoldsburg","area":null,"county":"Fairfield County","state":"OH","country":"USA","formatted_address":"-9 Taylor Rd, Reynoldsburg, OH, USA","place_id":"openaddresses:address:us\/oh\/fairfield:83ef22031c3962fe","datatype":"openaddresses"},{"latitude":40.311777,"longitude":-76.800806,"name":"BABIES R US - HARRISBURG [6425]","address":"5125 JONESTOWN ROAD\r\nHARRISBURG, PA 17112","phone":"(717)671-7101","street_number":"5116","street_name":"Jonestown Rd","zip":"17112","city":"Colonial Park","area":null,"county":"Dauphin County","state":"PA","country":"USA","formatted_address":"5116 Jonestown Rd, Colonial Park, PA, USA","place_id":"openaddresses:address:us\/pa\/dauphin:347e32bb33398761","datatype":"openaddresses"},{"latitude":39.025986,"longitude":-77.389845,"name":"BABIES R US - STERLING [6393]","address":"21300 SIGNAL HILL PLAZA\r\nSTERLING, VA 20164","phone":"(571)434-8850","street_number":"21300","street_name":"Signal Hill Plz","zip":"20164","city":"Sugarland Run","area":null,"county":"Loudoun County","state":"VA","country":"USA","formatted_address":"21300 Signal Hill Plz, Sugarland Run, VA, USA","place_id":"openaddresses:address:us\/va\/statewide:f95083bca397a62a","datatype":"openaddresses"},{"latitude":40.1485,"longitude":-82.98019,"name":"TOYS R US\/BABIES R US - COLUMBUS [8911]","address":"1400 GEMINI PLACE ROAD\r\nCOLUMBUS, OH 43240","phone":"(614)785-0874","street_number":"1402","street_name":"Gemini Pl","zip":"43240","city":"Columbus","area":null,"county":"Delaware County","state":"OH","country":"USA","formatted_address":"1402 Gemini Pl, Columbus, OH, USA","place_id":"openaddresses:address:us\/oh\/franklin:9d2977fe05e7d6a8","datatype":"openaddresses"},{"latitude":39.975253,"longitude":-76.766238,"name":"TOYS R US\/BABIES R US - YORK [8310]","address":"1410 KENNETH ROAD\r\nYORK, PA 17408","phone":"(717)764-1300","street_number":"1420","street_name":"Kenneth Road","zip":"17408","city":"Shiloh","area":null,"county":"York County","state":"PA","country":"USA","formatted_address":"1420 Kenneth Road, Shiloh, PA, USA","place_id":"openstreetmap:address:node:3522850717","datatype":"openstreetmap"},{"latitude":38.894242,"longitude":-77.424499,"name":"BABIES R US - CHANTILLY [8884]","address":"13954 METRO TECH DRIVE\r\nCHANTILLY, VA 20151","phone":"(703)502-9200","street_number":"13881","street_name":"Metrotech Dr","zip":"20151","city":"Chantilly","area":null,"county":"Fairfax County","state":"VA","country":"USA","formatted_address":"13881 Metrotech Dr, Chantilly, VA, USA","place_id":"openaddresses:address:us\/va\/statewide:5eea4741ede4dde0","datatype":"openaddresses"},{"latitude":40.094112,"longitude":-83.086249,"name":"BABIES R US - COLUMBUS [9242]","address":"3610 W DUBLIN-GRANVILLE\r\nCOLUMBUS, OH 43235","phone":"(614)799-2229","street_number":"3586","street_name":"W Dublin-granville Rd","zip":"43235","city":"Columbus","area":null,"county":"Franklin County","state":"OH","country":"USA","formatted_address":"3586 W Dublin-granville Rd, Columbus, OH, USA","place_id":"openaddresses:address:us\/oh\/franklin:dc3c795701cf77b2","datatype":"openaddresses"},{"latitude":42.794803,"longitude":-78.811255,"name":"TOYS R US\/BABIES R US - HAMBURG [9226]","address":"3464 MC KINLEY PARKWAY\r\nHAMBURG, NY 14075","phone":"(716)825-7227","street_number":"3300","street_name":"Mckinley Pkwy","zip":"14127","city":null,"area":null,"county":"Erie County","state":"NY","country":"USA","formatted_address":"3300 Mckinley Pkwy, Hamburg, NY, USA","place_id":"openaddresses:address:us\/ny\/erie:9e9b846067829b06","datatype":"openaddresses"},{"latitude":38.319391,"longitude":-81.717293,"name":"TOYS R US\/BABIES R US - CHARLESTON [8933]","address":"2846 MOUNTAINEER BOULEVARD\r\nCHARLESTON, WV 25309","phone":"(304)744-8696","street_number":null,"street_name":null,"zip":null,"city":null,"area":null,"county":null,"state":null,"country":null,"formatted_address":null,"place_id":null,"datatype":null},{"latitude":38.072868,"longitude":-78.478846,"name":"TOYS R US\/BABIES R US - CHARLOTTESVILLE [8338]","address":"590 BRANCHLANDS BOULEVARD\r\nCHARLOTTESVILLE, VA 22901","phone":"(434)973-4406","street_number":"590","street_name":"Branchlands Blvd","zip":"22901","city":null,"area":null,"county":"Albemarle County","state":"VA","country":"USA","formatted_address":"590 Branchlands Blvd, Albemarle County, VA, USA","place_id":"openaddresses:address:us\/va\/statewide:7dfc67789f731537","datatype":"openaddresses"},{"latitude":39.415353,"longitude":-76.774399,"name":"TOYS R US\/BABIES R US - OWINGS MILLS [8332]","address":"10200 REISTERTOWN ROAD\r\nOWINGS MILLS, MD 21117","phone":"(410)356-4824","street_number":"10219","street_name":"Reisterstown Rd","zip":"21117","city":"Owings Mills","area":null,"county":"Baltimore County","state":"MD","country":"USA","formatted_address":"10219 Reisterstown Rd, Owings Mills, MD, USA","place_id":"openaddresses:address:us\/md\/baltimore:dba8daf7e3ce7c60","datatype":"openaddresses"},{"latitude":38.849174,"longitude":-77.126236,"name":"BABIES R US - FALLS CHURCH [6380]","address":"5700 LEESBURG PIKE\r\nFALLS CHURCH, VA 22041","phone":"(703)575-9542","street_number":"5634","street_name":"Leesburg Pike","zip":"22041","city":"Bailey's Crossroads","area":null,"county":"Fairfax County","state":"VA","country":"USA","formatted_address":"5634 Leesburg Pike, Bailey's Crossroads, VA, USA","place_id":"openaddresses:address:us\/va\/statewide:199426e459e44438","datatype":"openaddresses"},{"latitude":39.056843,"longitude":-76.95465,"name":"BABIES R US - SILVER SPRING [6414]","address":"12012 CHERRY HILL ROAD\r\nSILVER SPRING, MD 20904","phone":"(301)586-8630","street_number":"12322","street_name":"Sandy Point Ct","zip":"20904","city":"Calverton","area":null,"county":"Montgomery County","state":"MD","country":"USA","formatted_address":"12322 Sandy Point Ct, Calverton, MD, USA","place_id":"openaddresses:address:us\/md\/montgomery:4d8ec0038c10c364","datatype":"openaddresses"},{"latitude":39.198535,"longitude":-76.814569,"name":"TOYS R US\/BABIES R US - COLUMBIA [8363]","address":"6100 DOBBIN ROAD\r\nCOLUMBIA, MD 21045","phone":"(410)290-4490","street_number":"6231","street_name":"Columbia Crossing Dr","zip":"21045","city":"Columbia","area":null,"county":"Howard County","state":"MD","country":"USA","formatted_address":"6231 Columbia Crossing Dr, Columbia, MD, USA","place_id":"openaddresses:address:us\/md\/statewide:fab8af9023ec0292","datatype":"openaddresses"},{"latitude":38.653781,"longitude":-77.285125,"name":"BABIES R US - WOODBRIDGE [8885]","address":"14173 CROSSING PLACE\r\nWOODBRIDGE, VA 22192","phone":"(703)492-0209","street_number":"14301","street_name":"Crossing Pl","zip":"22192","city":"Potomac Mills","area":null,"county":"Prince William County","state":"VA","country":"USA","formatted_address":"14301 Crossing Pl, Potomac Mills, VA, USA","place_id":"openaddresses:address:us\/va\/prince_william:85607a3d2d1c4cc4","datatype":"openaddresses"},{"latitude":42.980769,"longitude":-78.821247,"name":"TOYS R US\/BABIES R US - AMHERST [9223]","address":"3030 SHERIDAN DRIVE\r\nAMHERST, NY 14226","phone":"(716)837-4350","street_number":"3025","street_name":"Sheridan Dr","zip":"14220","city":"Eggertsville","area":null,"county":"Erie County","state":"NY","country":"USA","formatted_address":"3025 Sheridan Dr, Eggertsville, NY, USA","place_id":"openaddresses:address:us\/ny\/erie:4e041a61db59bab6","datatype":"openaddresses"},{"latitude":42.997644,"longitude":-78.822348,"name":"BABIES R US - BUFFALO [9282]","address":"1569 NIAGARA FALLS BOULEVARD\r\nBUFFALO, NY 14228","phone":"(716)803-1399","street_number":"1590","street_name":"Niagara Falls Blvd","zip":"14150","city":"Tonawanda","area":null,"county":"Erie County","state":"NY","country":"USA","formatted_address":"1590 Niagara Falls Blvd, Tonawanda, NY, USA","place_id":"openaddresses:address:us\/ny\/erie:1c8b48da89c0c3dc","datatype":"openaddresses"},{"latitude":40.066288,"longitude":-76.343714,"name":"BABIES R US - LANCASTER [6504]","address":"990 PLAZA BOULEVARD\r\nLANCASTER, PA 17601","phone":"(717)394-0823","street_number":"925","street_name":"Plaza Blvd","zip":"17601","city":"Lancaster","area":null,"county":"Lancaster County","state":"PA","country":"USA","formatted_address":"925 Plaza Blvd, Lancaster, PA, USA","place_id":"openaddresses:address:us\/pa\/lancaster:a1fa748573a9d2ab","datatype":"openaddresses"},{"latitude":39.396152,"longitude":-76.5815,"name":"TOYS R US\/BABIES R US - TOWSON [6559]","address":"1238 PUTTY HILL AVENUE\r\nTOWSON, MD 21204","phone":"(410)372-5000","street_number":"1238","street_name":"Putty Hill Ave","zip":"21286","city":"Towson","area":null,"county":"Baltimore County","state":"MD","country":"USA","formatted_address":"1238 Putty Hill Ave, Towson, MD, USA","place_id":"openaddresses:address:us\/md\/baltimore:958a65d9ebc437fe","datatype":"openaddresses"},{"latitude":38.295849,"longitude":-77.514159,"name":"TOYS R US\/BABIES R US - FREDERICKSBURG [8342]","address":"3101 PLANK ROAD\r\nFREDERICKSBURG, VA 22404","phone":"(540)785-7377","street_number":"3071","street_name":"Plank Rd","zip":"22401","city":"Fredericksburg","area":null,"county":"Fredericksburg city","state":"VA","country":"USA","formatted_address":"3071 Plank Rd, Fredericksburg, VA, USA","place_id":"openaddresses:address:us\/va\/statewide:e857c321206f5463","datatype":"openaddresses"},{"latitude":39.125383,"longitude":-76.589476,"name":"BABIES R US - PASADENA [8875]","address":"8040 RICHIE HIGHWAY\r\nPASADENA, MD 21122","phone":"(410)863-8840","street_number":"8100","street_name":"Ritchie Hwy","zip":"21122","city":"Severna Park","area":null,"county":"Anne Arundel County","state":"MD","country":"USA","formatted_address":"8100 Ritchie Hwy, Severna Park, MD, USA","place_id":"openaddresses:address:us\/md\/statewide:faf0d48b2827f746","datatype":"openaddresses"},{"latitude":39.521914,"longitude":-76.351404,"name":"TOYS R US\/BABIES R US - BEL AIR [8348]","address":"660 MARKET PLACE DRIVE\r\nBEL AIR, MD 21014","phone":"(410)838-0010","street_number":"655","street_name":"Marketplace Dr","zip":"21014","city":"Bel Air","area":null,"county":"Harford County","state":"MD","country":"USA","formatted_address":"655 Marketplace Dr, Bel Air, MD, USA","place_id":"openaddresses:address:us\/md\/statewide:39a7a078f4bc5d87","datatype":"openaddresses"},{"latitude":38.630604,"longitude":-76.910865,"name":"BABIES R US - WALDORF [6477]","address":"2969 FESTIVAL WAY\r\nWALDORF, MD 20601","phone":"(301)396-8037","street_number":"2960","street_name":"Technology Pl","zip":"20601","city":"Waldorf","area":null,"county":"Charles County","state":"MD","country":"USA","formatted_address":"2960 Technology Pl, Waldorf, MD, USA","place_id":"openaddresses:address:us\/md\/statewide:988dbdbd82e0bc24","datatype":"openaddresses"},{"latitude":40.360274,"longitude":-75.987527,"name":"BABIES R US - READING [6394]","address":"2789 PAPER MILL ROAD\r\nREADING, PA 19610","phone":"(610)373-7174","street_number":"2750","street_name":"Paper Mill Rd","zip":null,"city":"Spring Ridge","area":null,"county":"Berks County","state":"PA","country":"USA","formatted_address":"2750 Paper Mill Rd, Spring Ridge, PA, USA","place_id":"openaddresses:address:us\/pa\/berks:0ef9654f45357497","datatype":"openaddresses"},{"latitude":38.9782,"longitude":-76.4958,"name":"TOYS R US\/BABIES R US - ANNAPOLIS [8336]","address":"2115 WEST STREET\r\nANNAPOLIS, MD 21401","phone":"(410)573-0440","street_number":"63","street_name":"West St","zip":"21401","city":"Annapolis","area":null,"county":"Anne Arundel County","state":"MD","country":"USA","formatted_address":"63 West St, Annapolis, MD, USA","place_id":"openaddresses:address:us\/md\/anne_arundel:cd0c9b15a6d98d7d","datatype":"openaddresses"},{"latitude":42.200925,"longitude":-83.24824,"name":"BABIES R US - TAYLOR [6440]","address":"14544 RACHO ROAD\r\nTAYLOR, MI 48180","phone":"(734)287-5982","street_number":"14500","street_name":"Racho","zip":"48180","city":"Taylor","area":null,"county":"Wayne County","state":"MI","country":"USA","formatted_address":"14500 Racho, Taylor, MI, USA","place_id":"openaddresses:address:us\/mi\/semcog:74dfc3f3cf71c790","datatype":"openaddresses"},{"latitude":41.615123,"longitude":-83.684229,"name":"BABIES R US - HOLLAND [9279]","address":"1360 S.HOLLAND-SYLVANIA\r\nHOLLAND, OH 43528","phone":"(419)861-7015","street_number":"1349","street_name":"S Holland Sylvania Rd","zip":"43528","city":"Toledo","area":null,"county":"Lucas County","state":"OH","country":"USA","formatted_address":"1349 S Holland Sylvania Rd, Toledo, OH, USA","place_id":"openaddresses:address:us\/oh\/lucas:3f0553c247355486","datatype":"openaddresses"},{"latitude":42.533814,"longitude":-82.913078,"name":"BABIES R US - ROSEVILLE [9250]","address":"32471 GRATIOT AVENUE\r\nROSEVILLE, MI 48066","phone":"(586)296-5615","street_number":"32088","street_name":"Gratiot","zip":"48066","city":"Roseville","area":null,"county":"Macomb County","state":"MI","country":"USA","formatted_address":"32088 Gratiot, Roseville, MI, USA","place_id":"openaddresses:address:us\/mi\/semcog:dcbfcfe7b925e27c","datatype":"openaddresses"},{"latitude":37.305355,"longitude":-79.968366,"name":"TOYS R US\/BABIES R US - ROANOKE [8358]","address":"4943 VALLEY VIEW BOULEVARD\r\nROANOKE, VA 24012","phone":"(540)563-9800","street_number":"4873","street_name":"Valley View Blvd Nw","zip":"24012","city":"Roanoke","area":null,"county":"Roanoke city","state":"VA","country":"USA","formatted_address":"4873 Valley View Blvd Nw, Roanoke, VA, USA","place_id":"openaddresses:address:us\/va\/statewide:98e183a09d2065fd","datatype":"openaddresses"},{"latitude":43.077123,"longitude":-77.630574,"name":"BABIES R US - ROCHESTER [9281]","address":"2335 MARKET PLACE DRIVE\r\nROCHESTER, NY 14623","phone":"(585)424-7170","street_number":"2350","street_name":"Marketplace Drive","zip":"14623","city":null,"area":null,"county":"Monroe County","state":"NY","country":"USA","formatted_address":"2350 Marketplace Drive, Henrietta, NY, USA","place_id":"openaddresses:address:us\/ny\/statewide:f071646bffb7ca1d","datatype":"openaddresses"},{"latitude":41.2403,"longitude":-75.8616,"name":"BABIES R US - WILKES BARRE [6467]","address":"3300 WILKES-BARRE COMMO\r\nWILKES BARRE, PA 18702","phone":"(570)822-7854","street_number":"2150","street_name":"market place","zip":"18702","city":null,"area":null,"county":"Luzerne County","state":"PA","country":"USA","formatted_address":"2150 market place, Wilkes-Barre, PA, USA","place_id":"openstreetmap:address:node:1687459276","datatype":"openstreetmap"},{"latitude":42.625836,"longitude":-83.00964,"name":"BABIES R US - STERLING HEIGHTS [9247]","address":"12050 HALL ROAD\r\nSTERLING HEIGHTS, MI 48313","phone":"(586)997-2929","street_number":"11800","street_name":"Hall Rd","zip":"48313","city":"Sterling Heights","area":null,"county":"Macomb County","state":"MI","country":"USA","formatted_address":"11800 Hall Rd, Sterling Heights, MI, USA","place_id":"openaddresses:address:us\/mi\/macomb:7abc24d07a9bdea1","datatype":"openaddresses"},{"latitude":39.763484,"longitude":-84.052849,"name":"TOYS R US\/BABIES R US - BEAVERCREEK [8931]","address":"2500 N. FAIRFIELD ROAD\r\nBEAVERCREEK, OH 45431","phone":"(937)429-4415","street_number":"2496","street_name":"N Fairfield Rd","zip":"45431","city":"Beavercreek","area":null,"county":"Greene County","state":"OH","country":"USA","formatted_address":"2496 N Fairfield Rd, Beavercreek, OH, USA","place_id":"openaddresses:address:us\/oh\/greene:5f28de6a9ce96413","datatype":"openaddresses"},{"latitude":40.761777,"longitude":-84.147005,"name":"TOYS R US\/BABIES R US - LIMA [8919]","address":"2292 ELIDA ROAD\r\nLIMA, OH 45805","phone":"(419)229-1014","street_number":"2193","street_name":"Elida Rd","zip":"45805","city":"Lima","area":null,"county":"Allen County","state":"OH","country":"USA","formatted_address":"2193 Elida Rd, Lima, OH, USA","place_id":"openaddresses:address:us\/oh\/allen:32483d184c0af589","datatype":"openaddresses"},{"latitude":40.021102,"longitude":-75.623881,"name":"BABIES R US - EXTON [6454]","address":"104 BARTLETT AVENUE\r\nEXTON, PA 19341","phone":"(610)524-5369","street_number":"430","street_name":"Walkertown Rd","zip":"19341","city":"Exton","area":null,"county":"Chester County","state":"PA","country":"USA","formatted_address":"430 Walkertown Rd, Exton, PA, USA","place_id":"openaddresses:address:us\/pa\/chester:516599ba2ad0a766","datatype":"openaddresses"},{"latitude":37.652001,"longitude":-77.622924,"name":"TOYS R US\/BABIES R US - RICHMOND [8353]","address":"11861 WEST BROAD STREET\r\nRICHMOND, VA 23233","phone":"(804)364-2520","street_number":"11861","street_name":"W Broad St","zip":"23233","city":"Short Pump","area":null,"county":"Henrico County","state":"VA","country":"USA","formatted_address":"11861 W Broad St, Short Pump, VA, USA","place_id":"openaddresses:address:us\/va\/statewide:d4050dac8b1f9104","datatype":"openaddresses"},{"latitude":39.692368,"longitude":-75.666649,"name":"BABIES R US - NEWARK [6376]","address":"1317 NEW CHURCHMANS ROAD\r\nNEWARK, DE 19713","phone":"(302)266-8194","street_number":"1325","street_name":"Churchmans Rd","zip":"19713","city":null,"area":null,"county":"New Castle County","state":"DE","country":"USA","formatted_address":"1325 Churchmans Rd, New Castle County, DE, USA","place_id":"openaddresses:address:us\/de\/new_castle:e3e912079e358e11","datatype":"openaddresses"},{"latitude":42.434769,"longitude":-83.433681,"name":"BABIES R US - NORTHVILLE [9249]","address":"20111 HAGGERTY ROAD\r\nNORTHVILLE, MI 48167","phone":"(248)735-0365","street_number":"20175","street_name":"Haggerty Rd","zip":"48167","city":"Livonia","area":null,"county":"Wayne County","state":"MI","country":"USA","formatted_address":"20175 Haggerty Rd, Northville, MI, USA","place_id":"openaddresses:address:us\/mi\/semcog:70ecd6f4f23357e9","datatype":"openaddresses"},{"latitude":40.632106,"longitude":-75.477147,"name":"BABIES R US - WHITEHALL [6387]","address":"600 LEHIGH VALLEY MALL\r\nWHITEHALL, PA 18052","phone":"(610)231-0481","street_number":"829","street_name":"Saint Paul St","zip":"18052","city":"Fullerton","area":null,"county":"Lehigh County","state":"PA","country":"USA","formatted_address":"829 Saint Paul St, Fullerton, PA, USA","place_id":"openaddresses:address:us\/pa\/lehigh:3729e5c218a9a263","datatype":"openaddresses"},{"latitude":41.462389,"longitude":-75.654847,"name":"TOYS R US\/BABIES R US - SCRANTON [6362]","address":"409 SCRANTON CARBONDALE\r\nSCRANTON, PA 18508","phone":"(570)963-8987","street_number":"409","street_name":"Scranton Carbondale Hwy","zip":"18508","city":"Dickson City","area":null,"county":"Lackawanna County","state":"PA","country":"USA","formatted_address":"409 Scranton Carbondale Hwy, Dickson City, PA, USA","place_id":"openaddresses:address:us\/pa\/lackawanna:00f95a646ef62b35","datatype":"openaddresses"},{"latitude":42.234608,"longitude":-83.680173,"name":"BABIES R US - YPSILANTI [6442]","address":"3725 CARPENTER ROAD\r\nYPSILANTI, MI 48197","phone":"(734)477-0943","street_number":"3811","street_name":"Carpenter Rd","zip":"48197","city":null,"area":null,"county":"Washtenaw County","state":"MI","country":"USA","formatted_address":"3811 Carpenter Rd, Pittsfield, MI, USA","place_id":"openaddresses:address:us\/mi\/washtenaw:19f6a2494f95f4be","datatype":"openaddresses"},{"latitude":39.63676,"longitude":-84.219092,"name":"BABIES R US - DAYTON [9240]","address":"2661 MIAMISBURG-CENTERV\r\nDAYTON, OH 45459","phone":"(937)438-5552","street_number":"2765","street_name":"Miamisburg Centerville Rd","zip":"45459","city":null,"area":null,"county":"Montgomery County","state":"OH","country":"USA","formatted_address":"2765 Miamisburg Centerville Rd, Miami, OH, USA","place_id":"openaddresses:address:us\/oh\/montgomery:6c1aa7861acee67b","datatype":"openaddresses"},{"latitude":42.115631,"longitude":-75.958809,"name":"TOYS R US\/BABIES R US - JOHNSON CITY [6364]","address":"416 HARRY L DRIVE\r\nJOHNSON CITY, NY 13790","phone":"(607)770-9300","street_number":"332","street_name":"Main St","zip":"13790","city":"Johnson City","area":null,"county":"Broome County","state":"NY","country":"USA","formatted_address":"332 Main St, Johnson City, NY, USA","place_id":"openaddresses:address:us\/ny\/broome:d203ebc367a622e1","datatype":"openaddresses"},{"latitude":42.708324,"longitude":-83.307239,"name":"BABIES R US - ORION [9280]","address":"4936 BALDWIN ROAD\r\nORION, MI 48359","phone":"(248)391-3367","street_number":"4950","street_name":"Baldwin Road","zip":"48359","city":null,"area":null,"county":"Oakland County","state":"MI","country":"USA","formatted_address":"4950 Baldwin Road, Orion, MI, USA","place_id":"openstreetmap:address:way:372927737","datatype":"openstreetmap"},{"latitude":39.913616,"longitude":-75.435457,"name":"TOYS R US\/BABIES R US - MEDIA [8312]","address":"1154 WEST\r\nMEDIA, PA 19063","phone":"(610)566-0100","street_number":null,"street_name":null,"zip":null,"city":null,"area":null,"county":null,"state":null,"country":null,"formatted_address":null,"place_id":null,"datatype":null},{"latitude":40.090514,"longitude":-75.394327,"name":"TOYS R US\/BABIES R US - KING OF PRUSSIA [8303]","address":"250 MALL BOULEVARD\r\nKING OF PRUSSIA, PA 19406","phone":"(610)962-7820","street_number":"160","street_name":"Mall Boulevard","zip":"19406","city":"King of Prussia","area":null,"county":"Montgomery County","state":"PA","country":"USA","formatted_address":"160 Mall Boulevard, King of Prussia, PA, USA","place_id":"openstreetmap:address:way:368956262","datatype":"openstreetmap"},{"latitude":37.414434,"longitude":-77.64057,"name":"BABIES R US - MIDLOTHIAN [6570]","address":"13315 RITTENHOUSE DRIVE\r\nMIDLOTHIAN, VA 23112","phone":"(804)744-2595","street_number":"13315","street_name":"Rittenhouse Dr","zip":"23112","city":"Brandermill","area":null,"county":"Chesterfield County","state":"VA","country":"USA","formatted_address":"13315 Rittenhouse Dr, Brandermill, VA, USA","place_id":"openaddresses:address:us\/va\/statewide:2d1d0614258cb967","datatype":"openaddresses"},{"latitude":39.918121,"longitude":-75.330631,"name":"BABIES R US - SPRINGFIELD [6449]","address":"770 BALTIMORE PIKE\r\nSPRINGFIELD, PA 19064","phone":"(610)544-9207","street_number":"795","street_name":"Baltimore Pike, Springfield, PA","zip":"19064","city":null,"area":null,"county":"Delaware County","state":"PA","country":"USA","formatted_address":"795 Baltimore Pike, Springfield, PA, Springfield, PA, USA","place_id":"openstreetmap:address:node:1712066143","datatype":"openstreetmap"},{"latitude":40.224469,"longitude":-75.233604,"name":"BABIES R US - MONTGOMERYVILLE [6462]","address":"980 BETHLEHEM PIKE\r\nMONTGOMERYVILLE, PA 18936","phone":"(215)699-8762","street_number":"978","street_name":"Bethlehem Pike","zip":"18936","city":"Montgomeryville","area":null,"county":"Montgomery County","state":"PA","country":"USA","formatted_address":"978 Bethlehem Pike, Montgomeryville, PA, USA","place_id":"openstreetmap:address:way:308589930","datatype":"openstreetmap"},{"latitude":40.680469,"longitude":-75.147877,"name":"TOYS R US\/BABIES R US - PHILLIPSBURG [6382]","address":"1280 ROUTE 22 &\r\nPHILLIPSBURG, NJ 08865","phone":"(908)859-8600","street_number":"603","street_name":"Saint James Avenue","zip":"08865","city":"Upper Pohatcong","area":null,"county":"Warren County","state":"NJ","country":"USA","formatted_address":"603 Saint James Avenue, Pohatcong, NJ, USA","place_id":"openaddresses:address:us\/nj\/statewide:49d66984534664b6","datatype":"openaddresses"},{"latitude":40.156981,"longitude":-75.143226,"name":"TOYS R US\/BABIES R US - HORSHAM [8322]","address":"100 WELSH ROAD\r\nHORSHAM, PA 19044","phone":"(215)784-1900","street_number":null,"street_name":null,"zip":null,"city":null,"area":null,"county":null,"state":null,"country":null,"formatted_address":null,"place_id":null,"datatype":null},{"latitude":39.19929,"longitude":-84.37945,"name":"TOYS R US\/BABIES R US - CINCINNATI [8930]","address":"7800 MONTGOMERY ROAD\r\nCINCINNATI, OH 45236","phone":"(513)791-8697","street_number":null,"street_name":null,"zip":null,"city":null,"area":null,"county":null,"state":null,"country":null,"formatted_address":null,"place_id":null,"datatype":null},{"latitude":39.990555,"longitude":-75.100317,"name":"TOYS R US\/BABIES R US - PHILADELPHIA [8305]","address":"3401 ARAMINGO AVENUE\r\nPHILADELPHIA, PA 19134","phone":"(215)423-2680","street_number":"3400","street_name":"Gaul St","zip":"19134","city":"Philadelphia","area":null,"county":"Philadelphia County","state":"PA","country":"USA","formatted_address":"3400 Gaul St, Philadelphia, PA, USA","place_id":"openaddresses:address:us\/pa\/philadelphia:150f0d6f472b9325","datatype":"openaddresses"},{"latitude":39.836873,"longitude":-75.088021,"name":"BABIES R US - DEPTFORD [6370]","address":"1120 HURFFVILLE ROAD\r\nDEPTFORD, NJ 08096","phone":"(856)384-3788","street_number":"1121","street_name":"Hurffville Road","zip":"08096","city":null,"area":null,"county":"Gloucester County","state":"NJ","country":"USA","formatted_address":"1121 Hurffville Road, Deptford, NJ, USA","place_id":"openaddresses:address:us\/nj\/statewide:893fbd3dda448986","datatype":"openaddresses"},{"latitude":39.301251,"longitude":-84.517385,"name":"BABIES R US - CINCINNATI [9244]","address":"925 CINCINNATI MILLS DR\r\nCINCINNATI, OH 45240","phone":"(513)671-2430","street_number":"300","street_name":"Cincinnati Mills Dr","zip":"45240","city":"Forest Park","area":null,"county":"Hamilton County","state":"OH","country":"USA","formatted_address":"300 Cincinnati Mills Dr, Forest Park, OH, USA","place_id":"openstreetmap:address:node:2613009964","datatype":"openstreetmap"},{"latitude":39.937662,"longitude":-75.047315,"name":"TOYS R US\/BABIES R US - CHERRY HILL [8307]","address":"500 NJ-38\r\nCHERRY HILL, NJ 08034","phone":"(856)665-8339","street_number":"500","street_name":"State Highway 38","zip":"08002","city":"Golden Triangle","area":null,"county":"Camden County","state":"NJ","country":"USA","formatted_address":"500 State Highway 38, Golden Triangle, NJ, USA","place_id":"openaddresses:address:us\/nj\/statewide:9281554d4fd0b97d","datatype":"openaddresses"},{"latitude":39.938783,"longitude":-75.024976,"name":"BABIES R US - CHERRY HILL [6379]","address":"2137 NJ-38\r\nCHERRY HILL, NJ 08002","phone":"(856)317-1559","street_number":"2131","street_name":"State Highway 38","zip":"08002","city":"Cherry Hill Mall","area":null,"county":"Camden County","state":"NJ","country":"USA","formatted_address":"2131 State Highway 38, Cherry Hill Mall, NJ, USA","place_id":"openaddresses:address:us\/nj\/statewide:367832ca4933dd22","datatype":"openaddresses"},{"latitude":40.072541,"longitude":-74.964452,"name":"BABIES R US - BENSALEM [6371]","address":"1336 BRISTOL PIKE\r\nBENSALEM, PA 19020","phone":"(215)633-6990","street_number":"1301","street_name":"Bristol","zip":null,"city":null,"area":null,"county":"Bucks County","state":"PA","country":"USA","formatted_address":"1301 Bristol, Bensalem, PA, USA","place_id":"openaddresses:address:us\/pa\/bucks:cacf6bf59f98c881","datatype":"openaddresses"},{"latitude":40.18562,"longitude":-74.86751,"name":"BABIES R US - FAIRLESS HILLS [6372]","address":"330 COMMERCE BOULEVARD\r\nFAIRLESS HILLS, PA 19030","phone":"(215)269-0100","street_number":"610","street_name":"Commerce Blvd","zip":null,"city":null,"area":null,"county":"Bucks County","state":"PA","country":"USA","formatted_address":"610 Commerce Blvd, Falls, PA, USA","place_id":"openaddresses:address:us\/pa\/bucks:aad48741f2015467","datatype":"openaddresses"},{"latitude":43.072086,"longitude":-76.167032,"name":"BABIES R US - SYRACUSE [9291]","address":"2027 PARK STREET\r\nSYRACUSE, NY 13208","phone":"(315)424-3998","street_number":"2024","street_name":"Park Street","zip":"13208","city":"Syracuse","area":null,"county":"Onondaga County","state":"NY","country":"USA","formatted_address":"2024 Park Street, Syracuse, NY, USA","place_id":"openaddresses:address:us\/ny\/statewide:d98ccb6a27021723","datatype":"openaddresses"},{"latitude":39.431829,"longitude":-75.040284,"name":"TOYS R US\/BABIES R US - VINELAND [8330]","address":"100 CUMBERLAND MALL\r\nVINELAND, NJ 08360","phone":"(856)327-0800","street_number":"3816","street_name":"Delsea Drive","zip":"08360","city":"Vineland","area":null,"county":"Cumberland County","state":"NJ","country":"USA","formatted_address":"3816 Delsea Drive, Vineland, NJ, USA","place_id":"openaddresses:address:us\/nj\/statewide:ac1727eb30087e59","datatype":"openaddresses"},{"latitude":42.980531,"longitude":-83.772125,"name":"BABIES R US - FLINT [9255]","address":"G-3274 SOUTH LINDEN ROA\r\nFLINT, MI 48507","phone":"(810)732-8021","street_number":"3170","street_name":"S Linden Rd","zip":"48507","city":null,"area":null,"county":"Genesee County","state":"MI","country":"USA","formatted_address":"3170 S Linden Rd, Flint, MI, USA","place_id":"openaddresses:address:us\/mi\/genesee:3f804478c45d8d9c","datatype":"openaddresses"},{"latitude":38.373067,"longitude":-75.588844,"name":"TOYS R US\/BABIES R US - SALISBURY [8385]","address":"500 EAST NAYLOR MILL ROAD\r\nSALISBURY, MD 21804","phone":"(443)260-2388","street_number":"401","street_name":"Naylor St","zip":"21804","city":"Salisbury","area":null,"county":"Wicomico County","state":"MD","country":"USA","formatted_address":"401 Naylor St, Salisbury, MD, USA","place_id":"openaddresses:address:us\/md\/statewide:2b991f0f118352ac","datatype":"openaddresses"},{"latitude":39.013512,"longitude":-84.640189,"name":"BABIES R US - FLORENCE [6575]","address":"4999 HOUSTON ROAD\r\nFLORENCE, KY 41042","phone":"(859)282-8921","street_number":null,"street_name":null,"zip":null,"city":null,"area":null,"county":null,"state":null,"country":null,"formatted_address":null,"place_id":null,"datatype":null},{"latitude":40.883314,"longitude":-74.7044,"name":"BABIES R US - FLANDERS [6479]","address":"50 INTERNATIONAL DR. S\r\nFLANDERS, NJ 07836","phone":"(973)691-5939","street_number":"30","street_name":"International Drive","zip":"07836","city":null,"area":null,"county":"Morris County","state":"NJ","country":"USA","formatted_address":"30 International Drive, Mount Olive, NJ, USA","place_id":"openaddresses:address:us\/nj\/statewide:e042879b051a0b9b","datatype":"openaddresses"},{"latitude":40.303259,"longitude":-74.680783,"name":"BABIES R US - WEST WINDSOR [6533]","address":"700 NASSAU PARK BOULEVARD\r\nWEST WINDSOR, NJ 08550","phone":"(609)987-1751","street_number":"251","street_name":"Nassau Park Blvd","zip":"08540","city":null,"area":null,"county":"Mercer County","state":"NJ","country":"USA","formatted_address":"251 Nassau Park Blvd, West Windsor, NJ, USA","place_id":"openstreetmap:address:way:161490601","datatype":"openstreetmap"},{"latitude":40.578158,"longitude":-74.633358,"name":"TOYS R US\/BABIES R US - RARITAN [6334]","address":"451 ROUTE 28\r\nRARITAN, NJ 08869","phone":"(908)526-2755","street_number":"575","street_name":"State Highway 28","zip":"08869","city":"Raritan","area":null,"county":"Somerset County","state":"NJ","country":"USA","formatted_address":"575 State Highway 28, Raritan, NJ, USA","place_id":"openaddresses:address:us\/nj\/statewide:7ba4404b66c2cc6c","datatype":"openaddresses"},{"latitude":41.11457,"longitude":-85.134905,"name":"BABIES R US - FORT WAYNE [9290]","address":"4140 COLDWATER ROAD\r\nFORT WAYNE, IN 46805","phone":"(260)482-5254","street_number":"4040","street_name":"Coldwater Rd","zip":"46805","city":"Fort Wayne","area":null,"county":"Allen County","state":"IN","country":"USA","formatted_address":"4040 Coldwater Rd, Fort Wayne, IN, USA","place_id":"openaddresses:address:us\/in\/allen:b6f140f672765a73","datatype":"openaddresses"},{"latitude":40.561412,"longitude":-74.55454,"name":"BABIES R US - BRIDGEWATER [6375]","address":"100 PROMENADE BOULEVARD\r\nBRIDGEWATER, NJ 08807","phone":"(732)302-3590","street_number":"200","street_name":"Promenade Boulevard","zip":"08807","city":"Finderne","area":null,"county":"Somerset County","state":"NJ","country":"USA","formatted_address":"200 Promenade Boulevard, Finderne, NJ, USA","place_id":"openaddresses:address:us\/nj\/statewide:7c5b6d3091491cf8","datatype":"openaddresses"},{"latitude":40.90121,"longitude":-74.514323,"name":"TOYS R US\/BABIES R US - ROCKAWAY [6335]","address":"ROCKAWAY AVENUE\r\nROCKAWAY, NJ 07866","phone":"(973)366-3126","street_number":"11","street_name":"Wall St","zip":"07866","city":"Rockaway","area":null,"county":"Morris County","state":"NJ","country":"USA","formatted_address":"11 Wall St, Rockaway, NJ, USA","place_id":"openaddresses:address:us\/nj\/morris:45ebbd5a3c8a6de4","datatype":"openaddresses"},{"latitude":40.461318,"longitude":-74.460333,"name":"BABIES R US - NORTH BRUNSWICK [6369]","address":"909 US HIGHWAY 1 SOUTH\r\nNORTH BRUNSWICK, NJ 08902","phone":"(732)220-1900","street_number":"871","street_name":"US 1 (Brunswick Pike)","zip":"08902","city":null,"area":null,"county":"Middlesex County","state":"NJ","country":"USA","formatted_address":"871 US 1 (Brunswick Pike), North Brunswick, NJ, USA","place_id":"openstreetmap:address:node:4066151788","datatype":"openstreetmap"},{"latitude":40.612187,"longitude":-74.460834,"name":"TOYS R US\/BABIES R US - WATCHUNG [6307]","address":"1701-45 US HIGHWAY 22\r\nWATCHUNG, NJ 07069","phone":"(908)322-6065","street_number":"1290","street_name":"US 22","zip":"07060","city":"North Plainfield","area":null,"county":"Somerset County","state":"NJ","country":"USA","formatted_address":"1290 US 22, North Plainfield, NJ, USA","place_id":"openstreetmap:address:node:2727913134","datatype":"openstreetmap"},{"latitude":39.451337,"longitude":-74.637092,"name":"BABIES R US - MAYS LANDING [6373]","address":"130 CONSUMERS SQUARE\r\nMAYS LANDING, NJ 08330","phone":"(609)484-1177","street_number":"2200","street_name":"Wrangleboro Road Pomona Road","zip":null,"city":null,"area":null,"county":"Atlantic County","state":"NJ","country":"USA","formatted_address":"2200 Wrangleboro Road Pomona Road, Hamilton, NJ, USA","place_id":"openaddresses:address:us\/nj\/statewide:84d002e2be3d4751","datatype":"openaddresses"},{"latitude":40.465283,"longitude":-74.405749,"name":"TOYS R US\/BABIES R US - EAST BRUNSWICK [6305]","address":"581 NJ-18\r\nEAST BRUNSWICK, NJ 08816","phone":"(732)257-2251","street_number":"234","street_name":"State Highway 18","zip":"08816","city":null,"area":null,"county":"Middlesex County","state":"NJ","country":"USA","formatted_address":"234 State Highway 18, East Brunswick, NJ, USA","place_id":"openaddresses:address:us\/nj\/statewide:b90ebb7cfcdc52ae","datatype":"openaddresses"},{"latitude":40.810985,"longitude":-74.3852,"name":"BABIES R US - EAST HANOVER [6503]","address":"98 NJ-10\r\nEAST HANOVER, NJ 07936","phone":"(973)503-1411","street_number":"84","street_name":"Rt 10 East","zip":"07936","city":null,"area":null,"county":"Morris County","state":"NJ","country":"USA","formatted_address":"84 Rt 10 East, East Hanover, NJ, USA","place_id":"openaddresses:address:us\/nj\/statewide:4dc2cf7bfc5946e5","datatype":"openaddresses"},{"latitude":42.741041,"longitude":-84.633301,"name":"BABIES R US - LANSING [6543]","address":"5900 W. SAGINAW HIGHWAY\r\nLANSING, MI 48917","phone":"(517)391-5122","street_number":"5800","street_name":"W Saginaw Hwy","zip":"48917","city":"Waverly","area":null,"county":"Eaton County","state":"MI","country":"USA","formatted_address":"5800 W Saginaw Hwy, Waverly, MI, USA","place_id":"openaddresses:address:us\/mi\/eaton:6f8c4bb3664a7be1","datatype":"openaddresses"},{"latitude":38.024955,"longitude":-84.4199,"name":"BABIES R US - LEXINGTON [9257]","address":"1965 STAR SHOOT PARKWAY\r\nLEXINGTON, KY 40509","phone":"(859)263-8598","street_number":"1949","street_name":"Star Shoot Parkway","zip":null,"city":"Lexington-Fayette","area":null,"county":"Fayette County","state":"KY","country":"USA","formatted_address":"1949 Star Shoot Parkway, Lexington-Fayette, KY, USA","place_id":"openstreetmap:address:way:242779697","datatype":"openstreetmap"},{"latitude":37.106614,"longitude":-76.4951,"name":"BABIES R US - NEWPORT NEWS [6439]","address":"12153 JEFFERSON AVENUE\r\nNEWPORT NEWS, VA 23602","phone":"(757)269-0140","street_number":"12122","street_name":"Jefferson Ave","zip":"23602","city":"Newport News","area":null,"county":"Newport News city","state":"VA","country":"USA","formatted_address":"12122 Jefferson Ave, Newport News, VA, USA","place_id":"openaddresses:address:us\/va\/statewide:40dea255ff8f7448","datatype":"openaddresses"},{"latitude":40.688294,"longitude":-74.307814,"name":"BABIES R US - UNION [6377]","address":"2700 ROUTE 22 EAST\r\nUNION, NJ 07083","phone":"(908)810-9300","street_number":"2702","street_name":"Us Highway 22","zip":"07083","city":null,"area":null,"county":"Union County","state":"NJ","country":"USA","formatted_address":"2702 Us Highway 22, Union, NJ, USA","place_id":"openaddresses:address:us\/nj\/statewide:b5f297e358bcb205","datatype":"openaddresses"},{"latitude":40.557109,"longitude":-74.308558,"name":"TOYS R US\/BABIES R US - ISELIN [6318]","address":"675 ROUTE 1 SOUTH\r\nISELIN, NJ 08830","phone":"(732)636-2723","street_number":"517","street_name":"Us Highway 1","zip":"08830","city":"Iselin","area":null,"county":"Middlesex County","state":"NJ","country":"USA","formatted_address":"517 Us Highway 1, Iselin, NJ, USA","place_id":"openaddresses:address:us\/nj\/statewide:46fbb84129720272","datatype":"openaddresses"},{"latitude":40.28839,"longitude":-74.295706,"name":"BABIES R US - MANALAPAN [6481]","address":"17 US ROUTE NINE SOUTH\r\nMANALAPAN, NJ 07726","phone":"(732)845-2861","street_number":"3","street_name":"Us Highway 9 South","zip":"07726","city":null,"area":null,"county":"Monmouth County","state":"NJ","country":"USA","formatted_address":"3 Us Highway 9 South, Manalapan, NJ, USA","place_id":"openaddresses:address:us\/nj\/statewide:63678d74ea681404","datatype":"openaddresses"},{"latitude":41.450368,"longitude":-74.380614,"name":"BABIES R US - MIDDLETOWN [6509]","address":"88 DUNNING ROAD\r\nMIDDLETOWN, NY 10940","phone":"(845)956-4050","street_number":"33","street_name":"Trust Way","zip":"10940","city":"Mechanicstown","area":null,"county":"Orange County","state":"NY","country":"USA","formatted_address":"33 Trust Way, Mechanicstown, NY, USA","place_id":"openaddresses:address:us\/ny\/orange:1eb7327a3be13b1a","datatype":"openaddresses"},{"latitude":40.693242,"longitude":-74.256989,"name":"TOYS R US\/BABIES R US - UNION [6329]","address":"1701 MORRIS AVENUE\r\nUNION, NJ 07083","phone":"(908)851-9695","street_number":"1751","street_name":"Morris Avenue","zip":"07083","city":null,"area":null,"county":"Union County","state":"NJ","country":"USA","formatted_address":"1751 Morris Avenue, Union, NJ, USA","place_id":"openaddresses:address:us\/nj\/statewide:64577a96029281d7","datatype":"openaddresses"},{"latitude":43.480099,"longitude":-83.981967,"name":"BABIES R US - SAGINAW [6486]","address":"3321 TITTABAWASSEE ROAD\r\nSAGINAW, MI 48604","phone":"(989)790-5961","street_number":"3311","street_name":"Tittabawassee Road","zip":"48604","city":null,"area":null,"county":"Saginaw County","state":"MI","country":"USA","formatted_address":"3311 Tittabawassee Road, Saginaw, MI, USA","place_id":"openstreetmap:address:way:453620819","datatype":"openstreetmap"},{"latitude":40.89456,"longitude":-74.232929,"name":"BABIES R US - TOTOWA [6539]","address":"465 US HIGHWAY 46 WEST\r\nTOTOWA, NJ 07512","phone":"(973)256-2566","street_number":"420","street_name":"Us Highway 46","zip":"07512","city":"Totowa","area":null,"county":"Passaic County","state":"NJ","country":"USA","formatted_address":"420 Us Highway 46, Totowa, NJ, USA","place_id":"openaddresses:address:us\/nj\/statewide:cf92667a8d558f90","datatype":"openaddresses"},{"latitude":37.992581,"longitude":-84.523,"name":"TOYS R US\/BABIES R US - LEXINGTON [8917]","address":"3220 NICHOLASVILLE ROAD\r\nLEXINGTON, KY 40503","phone":"(859)271-6374","street_number":"101","street_name":"Lexington Green Cir","zip":"40503","city":"Lexington-Fayette","area":null,"county":"Fayette County","state":"KY","country":"USA","formatted_address":"101 Lexington Green Cir, Lexington-Fayette, KY, USA","place_id":"openaddresses:address:us\/ky\/lexington-fayette:3c6b0a1073bdd45f","datatype":"openaddresses"},{"latitude":43.08809,"longitude":-75.312266,"name":"TOYS R US\/BABIES R US - NEW HARTFORD [7518]","address":"4505 COMMERCIAL DRIVE\r\nNEW HARTFORD, NY 13413","phone":"(315)736-1815","street_number":"4642","street_name":"Commercial Drive","zip":"13413","city":null,"area":null,"county":"Oneida County","state":"NY","country":"USA","formatted_address":"4642 Commercial Drive, New Hartford, NY, USA","place_id":"openaddresses:address:us\/ny\/statewide:363899a0c763b941","datatype":"openaddresses"},{"latitude":40.582199,"longitude":-74.168969,"name":"BABIES R US - STATEN ISLAND [6444]","address":"2655 RICHMOND AVENUE\r\nSTATEN ISLAND, NY 10314","phone":"(718)370-2734","street_number":"2655","street_name":"Richmond Ave","zip":"10314","city":"New York","area":null,"county":"Richmond County","state":"NY","country":"USA","formatted_address":"2655 Richmond Ave, Staten Island, New York, NY, USA","place_id":"openaddresses:address:us\/ny\/city_of_new_york:1135cba4663adbc6","datatype":"openaddresses"},{"latitude":40.671869,"longitude":-74.171108,"name":"TOYS R US\/BABIES R US - ELIZABETH [6365]","address":"900 IKEA DR\r\nELIZABETH, NJ 07201","phone":"(908)527-0100","street_number":"1000","street_name":"Ikea Drive","zip":"07201","city":"Elizabeth","area":null,"county":"Union County","state":"NJ","country":"USA","formatted_address":"1000 Ikea Drive, Elizabeth, NJ, USA","place_id":"openstreetmap:address:way:29416243","datatype":"openstreetmap"},{"latitude":36.065302,"longitude":-80.31379,"name":"BABIES R US - WINSTON-SALEM [6426]","address":"975 HANES MALL BOULEVARD\r\nWINSTON-SALEM, NC 27103","phone":"(336)765-5600","street_number":"945","street_name":"Hanes Mall Blvd","zip":"27103","city":"Winston-Salem","area":null,"county":"Forsyth County","state":"NC","country":"USA","formatted_address":"945 Hanes Mall Blvd, Winston-Salem, NC, USA","place_id":"openaddresses:address:us\/nc\/forsyth:468c8aa4c636942e","datatype":"openaddresses"},{"latitude":36.042,"longitude":-79.9018,"name":"BABIES R US - GREENSBORO [8894]","address":"1214 BRIDFORD PARKWAY\r\nGREENSBORO, NC 27407","phone":"(336)547-9050","street_number":"1521","street_name":"Bridford Parkway","zip":"27407","city":"Greensboro","area":null,"county":"Guilford County","state":"NC","country":"USA","formatted_address":"1521 Bridford Parkway, Greensboro, NC, USA","place_id":"openaddresses:address:us\/nc\/statewide:d34005cdeca8b507","datatype":"openaddresses"},{"latitude":39.981372,"longitude":-74.181452,"name":"BABIES R US - TOMS RIVER [6508]","address":"1220 HOOPER AVENUE\r\nTOMS RIVER, NJ 08753","phone":"(732)244-8880","street_number":"1218","street_name":"Hooper Avenue","zip":"08753","city":"Toms River","area":null,"county":"Ocean County","state":"NJ","country":"USA","formatted_address":"1218 Hooper Avenue, Toms River, NJ, USA","place_id":"openaddresses:address:us\/nj\/statewide:f978b8839ea78970","datatype":"openaddresses"},{"latitude":40.719164,"longitude":-74.093877,"name":"TOYS R US\/BABIES R US - JERSEY CITY [6315]","address":"641 ROUTE 440\r\nJERSEY CITY, NJ 07304","phone":"(201)433-8550","street_number":"650","street_name":"State Highway 440","zip":"07304","city":"Jersey City","area":null,"county":"Hudson County","state":"NJ","country":"USA","formatted_address":"650 State Highway 440, Jersey City, NJ, USA","place_id":"openaddresses:address:us\/nj\/statewide:1c26916d9611e792","datatype":"openaddresses"},{"latitude":40.957665,"longitude":-74.075167,"name":"BABIES R US - PARAMUS [6386]","address":"545 HIGHWAY 17 SOUTH\r\nPARAMUS, NJ 07652","phone":"(201)251-3191","street_number":"545","street_name":"State Highway 17","zip":"07652","city":"Paramus","area":null,"county":"Bergen County","state":"NJ","country":"USA","formatted_address":"545 State Highway 17, Paramus, NJ, USA","place_id":"openaddresses:address:us\/nj\/statewide:8dace1099756a943","datatype":"openaddresses"},{"latitude":40.790207,"longitude":-74.052276,"name":"TOYS R US\/BABIES R US - SECAUCUS [6623]","address":"3 MILL CREEK DRIVE\r\nSECAUCUS, NJ 07094","phone":"(201)558-4750","street_number":null,"street_name":null,"zip":null,"city":null,"area":null,"county":null,"state":null,"country":null,"formatted_address":null,"place_id":null,"datatype":null},{"latitude":40.293354,"longitude":-74.034567,"name":"BABIES R US - EATONTOWN [6358]","address":"70 US HIGHWAY 36\r\nEATONTOWN, NJ 07724","phone":"(732)935-9366","street_number":"300","street_name":"State Highway 36","zip":"07724","city":"West Long Branch","area":null,"county":"Monmouth County","state":"NJ","country":"USA","formatted_address":"300 State Highway 36, West Long Branch, NJ, USA","place_id":"openaddresses:address:us\/nj\/statewide:657a91f289b5b7c1","datatype":"openaddresses"},{"latitude":40.595661,"longitude":-74.000107,"name":"TOYS R US\/BABIES R US - BROOKLYN [6323]","address":"8973-95 BAY PARKWAY\r\nBROOKLYN, NY 11214","phone":"(718)372-4646","street_number":"1602","street_name":"Shore Pkwy","zip":"11214","city":"New York","area":null,"county":"Kings County","state":"NY","country":"USA","formatted_address":"1602 Shore Pkwy, Brooklyn, New York, NY, USA","place_id":"openaddresses:address:us\/ny\/city_of_new_york:b00ad01b7e256353","datatype":"openaddresses"},{"latitude":40.735523,"longitude":-73.989778,"name":"BABIES R US - NEW YORK [6538]","address":"24-30 UNION SQUARE EAST\r\nNEW YORK, NY 10003","phone":"(212)798-9905","street_number":"20","street_name":"Union Sq E","zip":"10003","city":"New York","area":null,"county":"New York County","state":"NY","country":"USA","formatted_address":"20 Union Sq E, Manhattan, New York, NY, USA","place_id":"openaddresses:address:us\/ny\/city_of_new_york:42f63e9003ee4992","datatype":"openaddresses"},{"latitude":41.09463,"longitude":-74.004901,"name":"BABIES R US - NANUET [6410]","address":"250 EAST ROUTE 59\r\nNANUET, NY 10954","phone":"(845)627-6636","street_number":"4","street_name":"Avenue C","zip":"10954","city":"Nanuet","area":null,"county":"Rockland County","state":"NY","country":"USA","formatted_address":"4 Avenue C, Nanuet, NY, USA","place_id":"openstreetmap:address:node:2696722219","datatype":"openstreetmap"},{"latitude":36.337376,"longitude":-82.373486,"name":"TOYS R US\/BABIES R US - JOHNSON CITY [8371]","address":"1910 N. ROAN STREET\r\nJOHNSON CITY, TN 37601-3116","phone":"(423)283-4219","street_number":"1907","street_name":"North Roan Street","zip":"37601","city":"Johnson City","area":null,"county":"Washington County","state":"TN","country":"USA","formatted_address":"1907 North Roan Street, Johnson City, TN, USA","place_id":"openstreetmap:address:way:444923152","datatype":"openstreetmap"},{"latitude":40.816027,"longitude":-73.931198,"name":"TOYS R US\/BABIES R US - BRONX [6629]","address":"610 EXTERIOR STREET\r\nBRONX, NY 10451","phone":"(718)292-5857","street_number":"325","street_name":"Exterior St","zip":"10451","city":"New York","area":null,"county":"Bronx County","state":"NY","country":"USA","formatted_address":"325 Exterior St, The Bronx, New York, NY, USA","place_id":"openaddresses:address:us\/ny\/city_of_new_york:cb217f4f6c886a8b","datatype":"openaddresses"},{"latitude":40.651417,"longitude":-73.87006,"name":"BABIES R US - BROOKLYN [6455]","address":"395 GATEWAY DRIVE\r\nBROOKLYN, NY 11239","phone":"(718)277-3400","street_number":"455","street_name":"Gateway Drive","zip":"11239","city":"New York","area":null,"county":"Kings County","state":"NY","country":"USA","formatted_address":"455 Gateway Drive, Brooklyn, New York, NY, USA","place_id":"openstreetmap:address:way:247445658","datatype":"openstreetmap"},{"latitude":35.902087,"longitude":-78.939434,"name":"BABIES R US - DURHAM [6562]","address":"7001 FAYETTVILLE ROAD\r\nDURHAM, NC 27713-9643","phone":"(919)544-9024","street_number":"7011","street_name":"Fayetteville Road","zip":"27713","city":"Durham","area":null,"county":"Durham County","state":"NC","country":"USA","formatted_address":"7011 Fayetteville Road, Durham, NC, USA","place_id":"openaddresses:address:us\/nc\/statewide:7bf5d5746372ec56","datatype":"openaddresses"},{"latitude":40.731311,"longitude":-73.862104,"name":"TOYS R US\/BABIES R US - REGO PARK [6753]","address":"61-35 JUNCTION BOULEVARD\r\nREGO PARK, NY 11374","phone":"(718)595-0023","street_number":"96-05","street_name":"63rd Road","zip":"11374","city":"New York","area":null,"county":"Queens County","state":"NY","country":"USA","formatted_address":"96-05 63rd Road, Queens, New York, NY, USA","place_id":"openstreetmap:address:node:2569979021","datatype":"openstreetmap"},{"latitude":40.825217,"longitude":-73.859204,"name":"TOYS R US\/BABIES R US - BRONX [6352]","address":"970 WHITE PLAINS ROAD\r\nBRONX, NY 10473","phone":"(718)904-8697","street_number":"1890","street_name":"Bruckner Boulevard","zip":"10473","city":"New York","area":null,"county":"Bronx County","state":"NY","country":"USA","formatted_address":"1890 Bruckner Boulevard, The Bronx, New York, NY, USA","place_id":"openstreetmap:address:way:282072191","datatype":"openstreetmap"},{"latitude":40.781706,"longitude":-73.82909,"name":"BABIES R US - COLLEGE POINT [6389]","address":"139-19 20TH AVENUE\r\nCOLLEGE POINT, NY 11356","phone":"(718)321-8166","street_number":"139-15","street_name":"20 Ave","zip":"11356","city":"New York","area":null,"county":"Queens County","state":"NY","country":"USA","formatted_address":"139-15 20 Ave, Queens, New York, NY, USA","place_id":"openaddresses:address:us\/ny\/city_of_new_york:4c6a4a06b3c0b4b6","datatype":"openaddresses"},{"latitude":40.983607,"longitude":-73.827238,"name":"BABIES R US - YONKERS [6411]","address":"2700 CENTRAL PARK AVENUE\r\nYONKERS, NY 10710","phone":"(914)722-4500","street_number":"2548","street_name":"Central Park Avenue","zip":"10710","city":"Yonkers","area":null,"county":"Westchester County","state":"NY","country":"USA","formatted_address":"2548 Central Park Avenue, Yonkers, NY, USA","place_id":"openstreetmap:address:way:232194703","datatype":"openstreetmap"},{"latitude":40.866596,"longitude":-73.83066,"name":"TOYS R US\/BABIES R US - BRONX [6336]","address":"350 BAY CHESTER AVENUE\r\nBRONX, NY 10475","phone":"(718)862-2240","street_number":"300","street_name":"Baychester Ave","zip":"10475","city":"New York","area":null,"county":"Bronx County","state":"NY","country":"USA","formatted_address":"300 Baychester Ave, The Bronx, New York, NY, USA","place_id":"openaddresses:address:us\/ny\/city_of_new_york:1acf4d03ad44d8d8","datatype":"openaddresses"},{"latitude":36.774391,"longitude":-76.22967,"name":"BABIES R US - CHESAPEAKE [8882]","address":"1336 GREENBRIER PARKWAY\r\nCHESAPEAKE, VA 23320","phone":"(757)548-2255","street_number":"1312","street_name":"Greenbrier Parkway","zip":"23320","city":"Chesapeake","area":null,"county":"Chesapeake city","state":"VA","country":"USA","formatted_address":"1312 Greenbrier Parkway, Chesapeake, VA, USA","place_id":"openstreetmap:address:way:312669301","datatype":"openstreetmap"},{"latitude":40.998225,"longitude":-73.816269,"name":"TOYS R US\/BABIES R US - YONKERS [6320]","address":"1000 CENTRAL PARK AVENUE\r\nYONKERS, NY 10704","phone":"(914)423-7070","street_number":null,"street_name":null,"zip":null,"city":null,"area":null,"county":null,"state":null,"country":null,"formatted_address":null,"place_id":null,"datatype":null},{"latitude":42.231447,"longitude":-85.589493,"name":"BABIES R US - PORTAGE [6469]","address":"5890 S. WESTNEDGE AVENUE\r\nPORTAGE, MI 49024","phone":"(269)382-2187","street_number":"5970","street_name":"South Westnedge Avenue","zip":"49002","city":"Portage","area":null,"county":"Kalamazoo County","state":"MI","country":"USA","formatted_address":"5970 South Westnedge Avenue, Portage, MI, USA","place_id":"openstreetmap:address:way:258674995","datatype":"openstreetmap"},{"latitude":41.611961,"longitude":-73.912441,"name":"BABIES R US - WAPPINGERS FALLS [6480]","address":"1822 SOUTH ROAD\r\nWAPPINGERS FALLS, NY 12590","phone":"(845)297-4579","street_number":"1794","street_name":"South Road","zip":"12590","city":null,"area":null,"county":"Dutchess County","state":"NY","country":"USA","formatted_address":"1794 South Road, Poughkeepsie, NY, USA","place_id":"openaddresses:address:us\/ny\/statewide:d4963bb34a718de2","datatype":"openaddresses"},{"latitude":35.864239,"longitude":-78.569161,"name":"TOYS R US\/BABIES R US - RALEIGH [8889]","address":"7810 POYNER POND CIRCLE\r\nRALEIGH, NC 27616","phone":"(919)713-4334","street_number":"5901","street_name":"Poyner Anchor Lane","zip":"27616","city":"Raleigh","area":null,"county":"Wake County","state":"NC","country":"USA","formatted_address":"5901 Poyner Anchor Lane, Raleigh, NC, USA","place_id":"openaddresses:address:us\/nc\/statewide:f472135323304a96","datatype":"openaddresses"},{"latitude":41.332274,"longitude":-73.809015,"name":"TOYS R US\/BABIES R US - JEFFERSON VALLEY [6339]","address":"621 BANK STREET\r\nJEFFERSON VALLEY, NY 10535","phone":"(914)962-6878","street_number":"650","street_name":"Lee Boulevard","zip":"10598","city":"Jefferson Valley-Yorktown","area":null,"county":"Westchester County","state":"NY","country":"USA","formatted_address":"650 Lee Boulevard, Jefferson Valley-Yorktown, NY, USA","place_id":"openstreetmap:address:way:500113355","datatype":"openstreetmap"},{"latitude":36.820621,"longitude":-76.068242,"name":"TOYS R US\/BABIES R US - VIRGINIA BEACH [8357]","address":"2701 N. MALL DRIVE\r\nVIRGINIA BEACH, VA 23452","phone":"(757)498-8271","street_number":"2708","street_name":"North Mall Drive","zip":"23452","city":"Virginia Beach","area":null,"county":"Virginia Beach city","state":"VA","country":"USA","formatted_address":"2708 North Mall Drive, Virginia Beach, VA, USA","place_id":"openstreetmap:address:way:402507341","datatype":"openstreetmap"},{"latitude":41.032907,"longitude":-73.764921,"name":"TOYS R US\/BABIES R US - WHITE PLAINS [6347]","address":"7 CITY PLACE\r\nWHITE PLAINS, NY 10601","phone":"(914)686-8071","street_number":null,"street_name":null,"zip":null,"city":null,"area":null,"county":null,"state":null,"country":null,"formatted_address":null,"place_id":null,"datatype":null},{"latitude":40.663494,"longitude":-73.713894,"name":"TOYS R US\/BABIES R US - VALLEY STREAM [6310]","address":"300 WEST SUNRISE HIGHWA\r\nVALLEY STREAM, NY 11580","phone":"(516)791-1270","street_number":null,"street_name":null,"zip":null,"city":null,"area":null,"county":null,"state":null,"country":null,"formatted_address":null,"place_id":null,"datatype":null},{"latitude":35.761151,"longitude":-78.740931,"name":"TOYS R US\/BABIES R US - CARY [8379]","address":"201 CROSSROAD BOULEVARD\r\nCARY, NC 27518","phone":"(919)859-1971","street_number":"200","street_name":"Crossroads Blvd","zip":"27518","city":"Cary","area":null,"county":"Wake County","state":"NC","country":"USA","formatted_address":"200 Crossroads Blvd, Cary, NC, USA","place_id":"openaddresses:address:us\/nc\/cary:e7fb5405737c0f5b","datatype":"openaddresses"},{"latitude":39.90733,"longitude":-86.070211,"name":"TOYS R US\/BABIES R US - INDIANAPOLIS [8902]","address":"8250 CASTLETON CORNER\r\nINDIANAPOLIS, IN 46250","phone":"(317)841-9334","street_number":"6020","street_name":"E 82nd St","zip":"46250","city":"Indianapolis","area":null,"county":"Marion County","state":"IN","country":"USA","formatted_address":"6020 E 82nd St, Indianapolis, IN, USA","place_id":"openaddresses:address:us\/in\/statewide:07c9f582cba17f6d","datatype":"openaddresses"},{"latitude":39.908456,"longitude":-86.100082,"name":"BABIES R US - INDIANAPOLIS [9243]","address":"3928 EAST 82ND STREET\r\nINDIANAPOLIS, IN 46240","phone":"(317)577-2200","street_number":"3916","street_name":"E 82nd St","zip":"46240","city":"Indianapolis","area":null,"county":"Marion County","state":"IN","country":"USA","formatted_address":"3916 E 82nd St, Indianapolis, IN, USA","place_id":"openaddresses:address:us\/in\/statewide:7599d21d59b4223e","datatype":"openaddresses"},{"latitude":40.743381,"longitude":-73.588088,"name":"BABIES R US - WESTBURY [6357]","address":"1350 CORPORATE DRIVE\r\nWESTBURY, NY 11590","phone":"(516)227-2629","street_number":null,"street_name":null,"zip":null,"city":null,"area":null,"county":null,"state":null,"country":null,"formatted_address":null,"place_id":null,"datatype":null},{"latitude":39.638149,"longitude":-86.128816,"name":"BABIES R US - INDIANAPOLIS [9237]","address":"8800 US ROUTE 31 SOUTH\r\nINDIANAPOLIS, IN 46227","phone":"(317)885-7700","street_number":"8800","street_name":"Us 31","zip":"46227","city":"Indianapolis","area":null,"county":"Marion County","state":"IN","country":"USA","formatted_address":"8800 Us 31, Indianapolis, IN, USA","place_id":"openaddresses:address:us\/in\/statewide:2a0e7d931d3331b2","datatype":"openaddresses"},{"latitude":35.703663,"longitude":-81.311881,"name":"BABIES R US - HICKORY [6448]","address":"1856 CATAWBA VLY BOULEVARD\r\nHICKORY, NC 28602-4145","phone":"(828)304-6300","street_number":"1756","street_name":"Catawba Valley Boulevard Southeast","zip":"28602","city":"Hickory","area":null,"county":"Catawba County","state":"NC","country":"USA","formatted_address":"1756 Catawba Valley Boulevard Southeast, Hickory, NC, USA","place_id":"openaddresses:address:us\/nc\/statewide:0ba2dcadf515c6cd","datatype":"openaddresses"},{"latitude":42.912611,"longitude":-85.546175,"name":"BABIES R US - GRAND RAPIDS [9260]","address":"4923 28TH STREET S.E.\r\nGRAND RAPIDS, MI 49512","phone":"(616)977-9623","street_number":"4955","street_name":"28th St Se","zip":"MI","city":null,"area":null,"county":"Kent County","state":"MI","country":"USA","formatted_address":"4955 28th St Se, Cascade, MI, USA","place_id":"openaddresses:address:us\/mi\/kent:febefe2d6488e8da","datatype":"openaddresses"},{"latitude":40.678249,"longitude":-73.439738,"name":"BABIES R US - MASSAPEQUA PARK [6424]","address":"5214 SUNRISE HIGHWAY\r\nMASSAPEQUA PARK, NY 11762","phone":"(516)795-4314","street_number":null,"street_name":null,"zip":null,"city":null,"area":null,"county":null,"state":null,"country":null,"formatted_address":null,"place_id":null,"datatype":null},{"latitude":41.7157,"longitude":-86.1703,"name":"BABIES R US - GRANGER [6464]","address":"435 E. UNIVERSITY DRIVE\r\nGRANGER, IN 46530","phone":"(574)247-3024","street_number":"6030","street_name":"Mission Trl","zip":"46530","city":"Mishawaka","area":null,"county":"St. Joseph County","state":"IN","country":"USA","formatted_address":"6030 Mission Trl, Mishawaka, IN, USA","place_id":"openaddresses:address:us\/in\/statewide:5a4261479551c77b","datatype":"openaddresses"},{"latitude":41.375295,"longitude":-73.486684,"name":"BABIES R US - DANBURY [6518]","address":"19 BACKUS AVENUE\r\nDANBURY, CT 06810","phone":"(203)790-8898","street_number":"36","street_name":"Backus Ave","zip":"06810","city":"Danbury","area":null,"county":"Fairfield County","state":"CT","country":"USA","formatted_address":"36 Backus Ave, Danbury, CT, USA","place_id":"openaddresses:address:us\/ct\/statewide:afca8416a47a9858","datatype":"openaddresses"},{"latitude":38.25077,"longitude":-85.629244,"name":"BABIES R US - LOUISVILLE [9245]","address":"4623 SHELBYVILLE ROAD\r\nLOUISVILLE, KY 40207","phone":"(502)896-9994","street_number":"4600","street_name":"Shelbyville Rd","zip":"40207","city":"St. Matthews","area":null,"county":"Jefferson County","state":"KY","country":"USA","formatted_address":"4600 Shelbyville Rd, St. Matthews, KY, USA","place_id":"openaddresses:address:us\/ky\/jefferson:af1679d6d709a1ce","datatype":"openaddresses"},{"latitude":41.143635,"longitude":-73.406884,"name":"TOYS R US\/BABIES R US - NORWALK [6353]","address":"59 CONNECTICUT AVENUE\r\nNORWALK, CT 06851","phone":"(203)852-6988","street_number":"154","street_name":"E Rocks Rd","zip":"06851","city":"Norwalk","area":null,"county":"Fairfield County","state":"CT","country":"USA","formatted_address":"154 E Rocks Rd, Norwalk, CT, USA","place_id":"openaddresses:address:us\/ct\/statewide:aa29f01a10a2ae26","datatype":"openaddresses"},{"latitude":40.8386,"longitude":-73.28554,"name":"TOYS R US\/BABIES R US - COMMACK [6378]","address":"108 VETERANS MEMORIAL\r\nCOMMACK, NY 11725","phone":"(631)462-6300","street_number":"114","street_name":"Veterans Memorial Highway","zip":"11725","city":"Commack","area":null,"county":"Suffolk County","state":"NY","country":"USA","formatted_address":"114 Veterans Memorial Highway, Commack, NY, USA","place_id":"openaddresses:address:us\/ny\/statewide:e034d6a87e88b1eb","datatype":"openaddresses"},{"latitude":40.738401,"longitude":-73.236441,"name":"TOYS R US\/BABIES R US - BAY SHORE [6324]","address":"1851 SUNRISE HIGHWAY\r\nBAY SHORE, NY 11706","phone":"(631)666-6611","street_number":"1905","street_name":"Sunrise Highway","zip":"11706","city":"Bay Shore","area":null,"county":"Suffolk County","state":"NY","country":"USA","formatted_address":"1905 Sunrise Highway, Bay Shore, NY, USA","place_id":"openstreetmap:address:way:340320127","datatype":"openstreetmap"},{"latitude":35.370801,"longitude":-80.717062,"name":"BABIES R US - CONCORD [8881]","address":"8062 CONCORD MILLS BOULEVARD\r\nCONCORD, NC 28027","phone":"(704)979-0840","street_number":"8018","street_name":"Concord Mills Blvd","zip":"28027","city":"Concord","area":null,"county":"Cabarrus County","state":"NC","country":"USA","formatted_address":"8018 Concord Mills Blvd, Concord, NC, USA","place_id":"openaddresses:address:us\/nc\/cabarrus:7b3388361ed7392b","datatype":"openaddresses"},{"latitude":42.711484,"longitude":-73.817775,"name":"TOYS R US\/BABIES R US - ALBANY [6314]","address":"38 WOLF ROAD\r\nALBANY, NY 12205","phone":"(518)459-5561","street_number":"34","street_name":"Wolf Road","zip":"12205","city":"Colonie","area":null,"county":"Albany County","state":"NY","country":"USA","formatted_address":"34 Wolf Road, Colonie, NY, USA","place_id":"openaddresses:address:us\/ny\/statewide:0cf70044341d36f9","datatype":"openaddresses"},{"latitude":42.759949,"longitude":-73.780871,"name":"BABIES R US - LATHAM [6494]","address":"221 WADE ROAD EXTENSION\r\nLATHAM, NY 12110","phone":"(518)783-0632","street_number":"9","street_name":"Audrey Road","zip":"12110","city":null,"area":null,"county":"Albany County","state":"NY","country":"USA","formatted_address":"9 Audrey Road, Colonie, NY, USA","place_id":"openaddresses:address:us\/ny\/statewide:58074fa476e81097","datatype":"openaddresses"},{"latitude":40.864613,"longitude":-73.125796,"name":"TOYS R US\/BABIES R US - LAKE GROVE [6317]","address":"3250 MIDDLE COUNTRY ROAD\r\nLAKE GROVE, NY 11755","phone":"(631)585-0173","street_number":"20","street_name":"Vivian Lane","zip":"11755","city":"Lake Grove","area":null,"county":"Suffolk County","state":"NY","country":"USA","formatted_address":"20 Vivian Lane, Lake Grove, NY, USA","place_id":"openaddresses:address:us\/ny\/statewide:e73f3a6df7ddeb14","datatype":"openaddresses"},{"latitude":40.763331,"longitude":-73.091811,"name":"BABIES R US - BOHEMIA [6374]","address":"5181 SUNRISE HIGHWAY\r\nBOHEMIA, NY 11716","phone":"(631)218-9101","street_number":"5131","street_name":"Sunrise Highway Westbound Service Road","zip":"11716","city":"Bohemia","area":null,"county":"Suffolk County","state":"NY","country":"USA","formatted_address":"5131 Sunrise Highway Westbound Service Road, Bohemia, NY, USA","place_id":"openaddresses:address:us\/ny\/statewide:11aa936de7575f51","datatype":"openaddresses"},{"latitude":35.57526,"longitude":-77.384259,"name":"TOYS R US\/BABIES R US - GREENVILLE [8378]","address":"228 S.W. GREENVILLE BLV\r\nGREENVILLE, NC 27834","phone":"(252)355-1700","street_number":null,"street_name":null,"zip":null,"city":null,"area":null,"county":null,"state":null,"country":null,"formatted_address":null,"place_id":null,"datatype":null},{"latitude":41.244196,"longitude":-73.029225,"name":"BABIES R US - MILFORD [6441]","address":"1522-24 BOSTON POST ROAD\r\nMILFORD, CT 06460","phone":"(203)876-9979","street_number":"1546","street_name":"Boston Post Road","zip":"06460","city":"Milford","area":null,"county":"New Haven County","state":"CT","country":"USA","formatted_address":"1546 Boston Post Road, Milford, CT, USA","place_id":"openstreetmap:address:way:208094770","datatype":"openstreetmap"},{"latitude":35.261554,"longitude":-81.129561,"name":"TOYS R US\/BABIES R US - GASTONIA [8834]","address":"2830 EAST FRANKLIN BOULEVARD\r\nGASTONIA, NC 28056","phone":"(704)833-0084","street_number":"2830","street_name":"East Franklin Boulevard","zip":"28056","city":"Gastonia","area":null,"county":"Gaston County","state":"NC","country":"USA","formatted_address":"2830 East Franklin Boulevard, Gastonia, NC, USA","place_id":"openaddresses:address:us\/nc\/statewide:b2b799c5e32a8c65","datatype":"openaddresses"},{"latitude":35.569506,"longitude":-82.505349,"name":"BABIES R US - ASHEVILLE [8816]","address":"801 FAIRVIEW ROAD\r\nASHEVILLE, NC 28803","phone":"(828)298-2229","street_number":"800","street_name":"Fairview Rd","zip":"28803","city":"Asheville","area":null,"county":"Buncombe County","state":"NC","country":"USA","formatted_address":"800 Fairview Rd, Asheville, NC, USA","place_id":"openaddresses:address:us\/nc\/buncombe:db160139fc4cc6dc","datatype":"openaddresses"},{"latitude":41.551875,"longitude":-73.032572,"name":"TOYS R US\/BABIES R US - WATERBURY [7509]","address":"275 UNION ST\r\nWATERBURY, CT 06706","phone":"(203)574-4457","street_number":"235","street_name":"Union St","zip":"06706","city":"Waterbury","area":null,"county":"New Haven County","state":"CT","country":"USA","formatted_address":"235 Union St, Waterbury, CT, USA","place_id":"openaddresses:address:us\/ct\/statewide:157208534cf21422","datatype":"openaddresses"},{"latitude":35.10333,"longitude":-80.88069,"name":"BABIES R US - CHARLOTTE [8878]","address":"9575 SOUTH BOULEVARD\r\nCHARLOTTE, NC 28273","phone":"(704)643-2229","street_number":"9998","street_name":"South Boulevard","zip":"28273","city":"Charlotte","area":null,"county":"Mecklenburg County","state":"NC","country":"USA","formatted_address":"9998 South Boulevard, Charlotte, NC, USA","place_id":"openaddresses:address:us\/nc\/statewide:b24de5aa64999eb6","datatype":"openaddresses"},{"latitude":35.075641,"longitude":-78.961799,"name":"TOYS R US\/BABIES R US - FAYETTEVILLE [8374]","address":"1736 SKIBO ROAD\r\nFAYETTEVILLE, NC 28303","phone":"(910)864-2300","street_number":"562","street_name":"Cross Creek Mall","zip":"28303","city":"Fayetteville","area":null,"county":"Cumberland County","state":"NC","country":"USA","formatted_address":"562 Cross Creek Mall, Fayetteville, NC, USA","place_id":"openaddresses:address:us\/nc\/statewide:2667f6f0bf3ae488","datatype":"openaddresses"},{"latitude":41.34737,"longitude":-72.868748,"name":"TOYS R US\/BABIES R US - NORTH HAVEN [6366]","address":"376 UNIVERSAL DRIVE NTH\r\nNORTH HAVEN, CT 06473","phone":"(203)234-1164","street_number":"70","street_name":"Universal Dr","zip":"06473","city":"North Haven","area":null,"county":"New Haven County","state":"CT","country":"USA","formatted_address":"70 Universal Dr, North Haven, CT, USA","place_id":"openaddresses:address:us\/ct\/statewide:3524b72ad4d4711b","datatype":"openaddresses"},{"latitude":41.719321,"longitude":-72.761874,"name":"BABIES R US - WEST HARTFORD [6392]","address":"1559 NEW BRITAIN AVENUE\r\nWEST HARTFORD, CT 06110","phone":"(860)561-0329","street_number":"1559","street_name":"New Britain Ave","zip":"06110","city":"West Hartford","area":null,"county":"Hartford County","state":"CT","country":"USA","formatted_address":"1559 New Britain Ave, West Hartford, CT, USA","place_id":"openaddresses:address:us\/ct\/statewide:112ef0e66d7442a6","datatype":"openaddresses"},{"latitude":35.908258,"longitude":-84.104071,"name":"BABIES R US - KNOXVILLE [8863]","address":"9626 KINGSTON PIKE\r\nKNOXVILLE, TN 37922","phone":"(865)769-9911","street_number":null,"street_name":null,"zip":null,"city":null,"area":null,"county":null,"state":null,"country":null,"formatted_address":null,"place_id":null,"datatype":null},{"latitude":41.811135,"longitude":-72.531582,"name":"BABIES R US - MANCHESTER [6429]","address":"169 HALE ROAD\r\nMANCHESTER, CT 06040","phone":"(860)644-6084","street_number":"169","street_name":"Hale Rd","zip":"06042","city":null,"area":null,"county":"Hartford County","state":"CT","country":"USA","formatted_address":"169 Hale Rd, Manchester, CT, USA","place_id":"openaddresses:address:us\/ct\/city_of_manchester:6aa32fac7263d9a7","datatype":"openaddresses"},{"latitude":41.474564,"longitude":-87.32114,"name":"BABIES R US - MERRILLVILLE [9294]","address":"1335 EAST 79TH STREET\r\nMERRILLVILLE, IN 46410","phone":"(219)736-1028","street_number":"1310","street_name":"East 80th Avenue","zip":"46410","city":"Merrillville","area":null,"county":"Lake County","state":"IN","country":"USA","formatted_address":"1310 East 80th Avenue, Merrillville, IN, USA","place_id":"openstreetmap:address:node:4247111589","datatype":"openstreetmap"},{"latitude":34.949567,"longitude":-81.932048,"name":"TOYS R US\/BABIES R US - SPARTANBURG [8823]","address":"1508B WO EZELL BOULEVARD\r\nSPARTANBURG, SC 29301","phone":"(864)574-9525","street_number":"115","street_name":"West Main Street","zip":"29306","city":"Spartanburg","area":null,"county":"Spartanburg County","state":"SC","country":"USA","formatted_address":"115 West Main Street, Spartanburg, SC, USA","place_id":"openstreetmap:address:node:4882337982","datatype":"openstreetmap"},{"latitude":42.18,"longitude":-72.6311,"name":"BABIES R US - HOLYOKE [6555]","address":"50 HOLYOKE STREET\r\nHOLYOKE, MA 01040","phone":"(413)315-2000","street_number":"1045","street_name":"Main Street","zip":"01013","city":"Holyoke","area":null,"county":"Hampden County","state":"MA","country":"USA","formatted_address":"1045 Main Street, Holyoke, MA, USA","place_id":"openaddresses:address:us\/ma\/statewide:a4ec158b7b53c151","datatype":"openaddresses"},{"latitude":42.14406,"longitude":-72.486727,"name":"TOYS R US\/BABIES R US - SPRINGFIELD [7508]","address":"1686 BOSTON ROAD\r\nSPRINGFIELD, MA 01129","phone":"(413)543-6555","street_number":"1724","street_name":"Boston Road","zip":"01129","city":"Springfield","area":null,"county":"Hampden County","state":"MA","country":"USA","formatted_address":"1724 Boston Road, Springfield, MA, USA","place_id":"openaddresses:address:us\/ma\/statewide:b3a4ac7d86bd4cc9","datatype":"openaddresses"},{"latitude":39.4269,"longitude":-87.4166,"name":"TOYS R US\/BABIES R US - TERRE HAUTE [8925]","address":"55 W. HONEYCREEK PARKWAY\r\nTERRE HAUTE, IN 47802","phone":"(812)234-2197","street_number":"3387","street_name":"S Us Hwy 41","zip":"47802","city":"Terre Haute","area":null,"county":"Vigo County","state":"IN","country":"USA","formatted_address":"3387 S Us Hwy 41, Terre Haute, IN, USA","place_id":"openaddresses:address:us\/in\/statewide:7a075fdeca2de055","datatype":"openaddresses"},{"latitude":34.833798,"longitude":-82.306815,"name":"TOYS R US\/BABIES R US - GREENVILLE [8822]","address":"1025 WOODRUFF ROAD\r\nGREENVILLE, SC 29605","phone":"(864)213-2022","street_number":"1025","street_name":"Woodruff Road","zip":"29607","city":"Greenville","area":null,"county":"Greenville County","state":"SC","country":"USA","formatted_address":"1025 Woodruff Road, Greenville, SC, USA","place_id":"openstreetmap:address:way:302745468","datatype":"openstreetmap"},{"latitude":41.381507,"longitude":-72.153273,"name":"BABIES R US - WATERFORD [6491]","address":"915 HARTFORD TPKE\r\nWATERFORD, CT 06385","phone":"(860)447-4589","street_number":null,"street_name":null,"zip":null,"city":null,"area":null,"county":null,"state":null,"country":null,"formatted_address":null,"place_id":null,"datatype":null},{"latitude":34.787381,"longitude":-77.40219,"name":"TOYS R US\/BABIES R US - JACKSONVILLE [9591]","address":"1370 WESTERN BOULEVARD\r\nJACKSONVILLE, NC 28541","phone":"(910)347-9839","street_number":"1365","street_name":"Western Boulevard","zip":"28546","city":"Jacksonville","area":null,"county":"Onslow County","state":"NC","country":"USA","formatted_address":"1365 Western Boulevard, Jacksonville, NC, USA","place_id":"openaddresses:address:us\/nc\/statewide:5ef69b5383f32661","datatype":"openaddresses"},{"latitude":41.94168,"longitude":-87.688231,"name":"TOYS R US\/BABIES R US - CHICAGO [6019]","address":"3300 N WESTERN AVENUE\r\nCHICAGO, IL 60618","phone":"(773)525-1690","street_number":"3309-3311","street_name":"North Western Avenue","zip":"60618","city":"Chicago","area":null,"county":"Cook County","state":"IL","country":"USA","formatted_address":"3309-3311 North Western Avenue, North Side, Chicago, IL, USA","place_id":"openstreetmap:address:way:209464889","datatype":"openstreetmap"},{"latitude":41.751663,"longitude":-87.741355,"name":"BABIES R US - BURBANK [9246]","address":"7750 SOUTH CICERO AVENU\r\nBURBANK, IL 60459","phone":"(708)424-8755","street_number":"7733","street_name":"South Cicero Avenue","zip":"60652","city":"Chicago","area":null,"county":"Cook County","state":"IL","country":"USA","formatted_address":"7733 South Cicero Avenue, South Side, Chicago, IL, USA","place_id":"openaddresses:address:us\/il\/cook:8aa57ae1f7a54186","datatype":"openaddresses"},{"latitude":41.603777,"longitude":-87.848029,"name":"BABIES R US - ORLAND PARK [9248]","address":"15820 94TH AVENUE\r\nORLAND PARK, IL 60462-4725","phone":"(708)873-9634","street_number":"9352","street_name":"159th Street","zip":"60462","city":"Orland Park","area":null,"county":"Cook County","state":"IL","country":"USA","formatted_address":"9352 159th Street, Orland Park, IL, USA","place_id":"openaddresses:address:us\/il\/cook:3e27d076c1b0cd81","datatype":"openaddresses"},{"latitude":41.923671,"longitude":-87.787191,"name":"BABIES R US - CHICAGO [6544]","address":"6420 W. FULLERTON\r\nCHICAGO, IL 60707","phone":"(773)413-5005","street_number":"6431","street_name":"West Fullerton Avenue","zip":"60707","city":"Chicago","area":null,"county":"Cook County","state":"IL","country":"USA","formatted_address":"6431 West Fullerton Avenue, North Side, Chicago, IL, USA","place_id":"openaddresses:address:us\/il\/cook:d33b4b77ff8c281c","datatype":"openaddresses"},{"latitude":42.01195,"longitude":-87.769116,"name":"BABIES R US - NILES [9285]","address":"5660 TOUHY AVENUE\r\nNILES, IL 60714","phone":"(847)588-2081","street_number":"5640","street_name":"West Touhy Avenue","zip":"60714","city":"Niles","area":null,"county":"Cook County","state":"IL","country":"USA","formatted_address":"5640 West Touhy Avenue, Niles, IL, USA","place_id":"openaddresses:address:us\/il\/cook:79fb9558586cb511","datatype":"openaddresses"},{"latitude":41.85031,"longitude":-87.80843,"name":"TOYS R US\/BABIES R US - NORTH RIVERSIDE [6016]","address":"7451 WEST CERMAK ROAD\r\nNORTH RIVERSIDE, IL 60546","phone":"(708)442-5155","street_number":"7513","street_name":"Cermak Road","zip":"60546","city":"North Riverside","area":null,"county":"Cook County","state":"IL","country":"USA","formatted_address":"7513 Cermak Road, North Riverside, IL, USA","place_id":"openaddresses:address:us\/il\/cook:b2ad6004272d30aa","datatype":"openaddresses"},{"latitude":36.944436,"longitude":-86.422545,"name":"TOYS R US\/BABIES R US - BOWLING GREEN [8923]","address":"3000 SCOTTSVILLE ROAD\r\nBOWLING GREEN, KY 42101","phone":"(270)843-9936","street_number":"2925","street_name":"Scottsville Rd","zip":"37801","city":"Bowling Green","area":null,"county":"Warren County","state":"KY","country":"USA","formatted_address":"2925 Scottsville Rd, Bowling Green, KY, USA","place_id":"openaddresses:address:us\/ky\/warren:782b4710796923d0","datatype":"openaddresses"},{"latitude":42.05349,"longitude":-87.83708,"name":"TOYS R US\/BABIES R US - NILES [6006]","address":"9555 N. MILWAUKEE AVENUE\r\nNILES, IL 60714","phone":"(847)967-9000","street_number":"9519","street_name":"North Milwaukee Avenue","zip":"60714","city":"Niles","area":null,"county":"Cook County","state":"IL","country":"USA","formatted_address":"9519 North Milwaukee Avenue, Niles, IL, USA","place_id":"openaddresses:address:us\/il\/cook:38b3f1ecdc31c749","datatype":"openaddresses"},{"latitude":42.24387,"longitude":-87.956304,"name":"BABIES R US - VERNON HILLS [9293]","address":"295 CENTER DRIVE\r\nVERNON HILLS, IL 60061","phone":"(847)573-1447","street_number":"285","street_name":"Center Dr","zip":"60061","city":"Vernon Hills","area":null,"county":"Lake County","state":"IL","country":"USA","formatted_address":"285 Center Dr, Vernon Hills, IL, USA","place_id":"openaddresses:address:us\/il\/lake:487db424f9ee7946","datatype":"openaddresses"},{"latitude":42.196212,"longitude":-71.775675,"name":"BABIES R US - MILLBURY [6468]","address":"70 WORCESTER PROVIDENCE\r\nMILLBURY, MA 01527","phone":"(508)865-9868","street_number":"70","street_name":"Worcester-providence Turnpike","zip":"01527","city":null,"area":null,"county":"Worcester County","state":"MA","country":"USA","formatted_address":"70 Worcester-providence Turnpike, Millbury, MA, USA","place_id":"openaddresses:address:us\/ma\/statewide:59d39d3b3dd94939","datatype":"openaddresses"},{"latitude":37.976385,"longitude":-87.473132,"name":"BABIES R US - EVANSVILLE [6471]","address":"6501 E. LLOYD EXPRESSWY\r\nEVANSVILLE, IN 47715","phone":"(812)402-4300","street_number":"1","street_name":"N Burkhardt Rd","zip":"47715","city":"Evansville","area":null,"county":"Vanderburgh County","state":"IN","country":"USA","formatted_address":"1 N Burkhardt Rd, Evansville, IN, USA","place_id":"openaddresses:address:us\/in\/city_of_evansville:4250108f6f7a83ca","datatype":"openaddresses"},{"latitude":42.385,"longitude":-87.954316,"name":"TOYS R US\/BABIES R US - GURNEE [6054]","address":"6050 GURNEE MILLS CIR E\r\nGURNEE, IL 60031","phone":"(847)855-8697","street_number":"6040","street_name":"Gurnee Mills Cir E","zip":"60031","city":"Gurnee","area":null,"county":"Lake County","state":"IL","country":"USA","formatted_address":"6040 Gurnee Mills Cir E, Gurnee, IL, USA","place_id":"openaddresses:address:us\/il\/lake:f62a7d0e5f2272e2","datatype":"openaddresses"},{"latitude":42.049298,"longitude":-88.079029,"name":"BABIES R US - SCHAUMBURG [9236]","address":"16 EAST GOLF ROAD\r\nSCHAUMBURG, IL 60173-3700","phone":"(847)781-8889","street_number":"5","street_name":"East Golf Road","zip":"60169","city":"Hoffman Estates","area":null,"county":"Cook County","state":"IL","country":"USA","formatted_address":"5 East Golf Road, Hoffman Estates, IL, USA","place_id":"openaddresses:address:us\/il\/cook:31d402cb3196a3d9","datatype":"openaddresses"},{"latitude":41.536049,"longitude":-88.199199,"name":"BABIES R US - SHOREWOOD [6576]","address":"994 BROOK FOREST AVENUE\r\nSHOREWOOD, IL 60404","phone":"(815)439-3676","street_number":"910","street_name":"Brookforest Ave","zip":"60404","city":"Shorewood","area":null,"county":"Will County","state":"IL","country":"USA","formatted_address":"910 Brookforest Ave, Shorewood, IL, USA","place_id":"openaddresses:address:us\/il\/will:fdd866881867191f","datatype":"openaddresses"},{"latitude":40.135876,"longitude":-88.242006,"name":"TOYS R US\/BABIES R US - CHAMPAIGN [6057]","address":"40 EAST ANTHONY DRIVE\r\nCHAMPAIGN, IL 61820","phone":"(217)356-8697","street_number":"14","street_name":"E Anthony Dr","zip":"61820","city":"Champaign","area":null,"county":"Champaign County","state":"IL","country":"USA","formatted_address":"14 E Anthony Dr, Champaign, IL, USA","place_id":"openaddresses:address:us\/il\/champaign:e8cd0a21791b03f7","datatype":"openaddresses"},{"latitude":42.703942,"longitude":-87.85179,"name":"TOYS R US\/BABIES R US - RACINE [6051]","address":"2433 S GREEN BAY ROAD\r\nRACINE, WI 53406","phone":"(262)637-8697","street_number":"5815","street_name":"21st Street","zip":null,"city":"Racine","area":null,"county":"Racine County","state":"WI","country":"USA","formatted_address":"5815 21st Street, Racine, WI, USA","place_id":"openstreetmap:address:way:375393450","datatype":"openstreetmap"},{"latitude":41.77257,"longitude":-88.203637,"name":"BABIES R US - NAPERVILLE [9238]","address":"1955 GLACIER PARK AVENUE\r\nNAPERVILLE, IL 60540","phone":"(630)416-2225","street_number":"1911","street_name":"Glacier Park Av","zip":"60540","city":"Naperville","area":null,"county":"DuPage County","state":"IL","country":"USA","formatted_address":"1911 Glacier Park Av, Naperville, IL, USA","place_id":"openaddresses:address:us\/il\/city_of_naperville:3cc5d6c27ea4db85","datatype":"openaddresses"},{"latitude":44.443705,"longitude":-73.113988,"name":"TOYS R US\/BABIES R US - WILLISTON [7537]","address":"244 RETAIL WAY\r\nWILLISTON, VT 05495-7271","phone":"(802)872-8787","street_number":"244","street_name":"Retail Way","zip":"05452","city":null,"area":null,"county":"Chittenden County","state":"VT","country":"USA","formatted_address":"244 Retail Way, Williston, VT, USA","place_id":"openstreetmap:address:node:3247547927","datatype":"openstreetmap"},{"latitude":34.072122,"longitude":-81.15978,"name":"BABIES R US - COLUMBIA [8890]","address":"254 HARBISON BOULEVARD\r\nCOLUMBIA, SC 29212","phone":"(803)407-4782","street_number":"274","street_name":"Harbison Boulevard","zip":"29212","city":"Columbia","area":null,"county":"Lexington County","state":"SC","country":"USA","formatted_address":"274 Harbison Boulevard, Columbia, SC, USA","place_id":"openstreetmap:address:way:438162885","datatype":"openstreetmap"},{"latitude":41.687785,"longitude":-71.501003,"name":"BABIES R US - WARWICK [6385]","address":"300 QUAKER LANE\r\nWARWICK, RI 02886","phone":"(401)827-9920","street_number":"305","street_name":"Quaker Ln","zip":"02893","city":"Warwick","area":null,"county":"Kent County","state":"RI","country":"USA","formatted_address":"305 Quaker Ln, West Warwick, RI, USA","place_id":"openaddresses:address:us\/ri\/statewide:e27d53f4e654250e","datatype":"openaddresses"},{"latitude":42.290226,"longitude":-71.672798,"name":"TOYS R US\/BABIES R US - NORTHBOROUGH [9008]","address":"6110 SHOPS WAY\r\nNORTHBOROUGH, MA 01532","phone":"(508)393-2811","street_number":"1106","street_name":"Shops Way","zip":"01532","city":null,"area":null,"county":"Worcester County","state":"MA","country":"USA","formatted_address":"1106 Shops Way, Northborough, MA, USA","place_id":"openaddresses:address:us\/ma\/statewide:e9e0863cc2e72d9d","datatype":"openaddresses"},{"latitude":42.525726,"longitude":-71.737868,"name":"TOYS R US\/BABIES R US - LEOMINSTER [7527]","address":"118 COMMERCIAL ROAD\r\nLEOMINSTER, MA 01453","phone":"(978)534-4300","street_number":"34","street_name":"Mohawk Drive","zip":"01453","city":"Leominster","area":null,"county":"Worcester County","state":"MA","country":"USA","formatted_address":"34 Mohawk Drive, Leominster, MA, USA","place_id":"openaddresses:address:us\/ma\/statewide:72069034afa370e5","datatype":"openaddresses"},{"latitude":41.978144,"longitude":-88.343369,"name":"TOYS R US\/BABIES R US - SOUTH ELGIN [6063]","address":"486 RANDALL ROAD\r\nSOUTH ELGIN, IL 60177","phone":"(847)888-0235","street_number":"488","street_name":"S Randall Rd","zip":"60177","city":"South Elgin","area":null,"county":"Kane County","state":"IL","country":"USA","formatted_address":"488 S Randall Rd, South Elgin, IL, USA","place_id":"openaddresses:address:us\/il\/kane:185654","datatype":"openaddresses"},{"latitude":42.165173,"longitude":-88.335404,"name":"TOYS R US\/BABIES R US - ALGONQUIN [6022]","address":"826 S. RANDALL ROAD\r\nALGONQUIN, IL 60102","phone":"(847)458-0439","street_number":"600","street_name":"South Randall Road","zip":null,"city":"Algonquin","area":null,"county":"McHenry County","state":"IL","country":"USA","formatted_address":"600 South Randall Road, Algonquin, IL, USA","place_id":"openstreetmap:address:node:1276350076","datatype":"openstreetmap"},{"latitude":41.939824,"longitude":-71.349353,"name":"BABIES R US - NORTH ATTLEBORO [6388]","address":"1255 SO. WASHINGTON ST\r\nNORTH ATTLEBORO, MA 02760","phone":"(508)699-8218","street_number":"1250","street_name":"South Washington Street","zip":"02760","city":null,"area":null,"county":"Bristol County","state":"MA","country":"USA","formatted_address":"1250 South Washington Street, North Attleborough, MA, USA","place_id":"openaddresses:address:us\/ma\/statewide:077ac347e3e3d153","datatype":"openaddresses"},{"latitude":42.299394,"longitude":-71.393858,"name":"BABIES R US - FRAMINGHAM [6450]","address":"1 WORCESTER ROAD\r\nFRAMINGHAM, MA 01701","phone":"(508)872-9358","street_number":"1","street_name":"Worcester Road","zip":"01701","city":"Framingham","area":null,"county":"Middlesex County","state":"MA","country":"USA","formatted_address":"1 Worcester Road, Framingham, MA, USA","place_id":"openstreetmap:address:way:469236992","datatype":"openstreetmap"},{"latitude":43.036561,"longitude":-88.141721,"name":"BABIES R US - BROOKFIELD [6547]","address":"18550 W. BLUEMOUND ROAD\r\nBROOKFIELD, WI 53045","phone":"(262)782-7520","street_number":"18340","street_name":"W Bluemound Rd","zip":"53045","city":"Brookfield","area":null,"county":"Waukesha County","state":"WI","country":"USA","formatted_address":"18340 W Bluemound Rd, Brookfield, WI, USA","place_id":"openaddresses:address:us\/wi\/waukesha:5620826b41a9aa27","datatype":"openaddresses"},{"latitude":42.767305,"longitude":-71.495837,"name":"BABIES R US - NASHUA [6492]","address":"10 COLISEUM AVENUE\r\nNASHUA, NH 03063","phone":"(603)881-4306","street_number":"160","street_name":"Broad St","zip":"03063","city":"Nashua","area":null,"county":"Hillsborough County","state":"NH","country":"USA","formatted_address":"160 Broad St, Nashua, NH, USA","place_id":"openaddresses:address:us\/nh\/statewide:0ceece240c337741","datatype":"openaddresses"},{"latitude":42.707077,"longitude":-71.441323,"name":"TOYS R US\/BABIES R US - NASHUA [7521]","address":"272 DANIEL WEBSTER HIGHWAY\r\nNASHUA, NH 03060","phone":"(603)888-9444","street_number":"269","street_name":"Daniel Webster Hwy","zip":"03060","city":"Nashua","area":null,"county":"Hillsborough County","state":"NH","country":"USA","formatted_address":"269 Daniel Webster Hwy, Nashua, NH, USA","place_id":"openaddresses:address:us\/nh\/statewide:aae28b5363e09560","datatype":"openaddresses"},{"latitude":36.30534,"longitude":-86.688036,"name":"BABIES R US - MADISON [6563]","address":"2205 GALLATIN PIKE NORT\r\nMADISON, TN 37115","phone":"(615)855-3773","street_number":"2225","street_name":"Gallatin Pike N","zip":"37115","city":"Nashville","area":null,"county":"Davidson County","state":"TN","country":"USA","formatted_address":"2225 Gallatin Pike N, Nashville, TN, USA","place_id":"openaddresses:address:us\/tn\/city_of_nashville:91a2f8a6898c715a","datatype":"openaddresses"},{"latitude":42.25849,"longitude":-71.170075,"name":"TOYS R US\/BABIES R US - DEDHAM [7507]","address":"302 PROVIDENCE\r\nDEDHAM, MA 02026","phone":"","street_number":"186","street_name":"Providence Highway","zip":"02026","city":"Dedham","area":null,"county":"Norfolk County","state":"MA","country":"USA","formatted_address":"186 Providence Highway, Dedham, MA, USA","place_id":"openaddresses:address:us\/ma\/statewide:8425faf8573af870","datatype":"openaddresses"},{"latitude":42.954337,"longitude":-71.441209,"name":"TOYS R US\/BABIES R US - MANCHESTER [7511]","address":"2 KELLER STREET\r\nMANCHESTER, NH 03103","phone":"(603)623-8077","street_number":"150","street_name":"Kaye St","zip":"03103","city":"Manchester","area":null,"county":"Hillsborough County","state":"NH","country":"USA","formatted_address":"150 Kaye St, Manchester, NH, USA","place_id":"openaddresses:address:us\/nh\/statewide:2ba0a01289b7c369","datatype":"openaddresses"},{"latitude":35.032281,"longitude":-85.15441,"name":"BABIES R US - CHATTANOOGA [8880]","address":"2020 GUNBARREL ROAD\r\nCHATTANOOGA, TN 37421","phone":"(423)894-7277","street_number":"2111","street_name":"Gunbarrel Rd","zip":"37421","city":"Chattanooga","area":null,"county":"Hamilton County","state":"TN","country":"USA","formatted_address":"2111 Gunbarrel Rd, Chattanooga, TN, USA","place_id":"openaddresses:address:us\/tn\/city_of_chattanooga:609f3a08bf0d1316","datatype":"openaddresses"},{"latitude":41.640927,"longitude":-71.005793,"name":"TOYS R US\/BABIES R US - NORTH DARTMOUTH [7534]","address":"492 STATE ROAD\r\nNORTH DARTMOUTH, MA 02747","phone":"(508)992-6240","street_number":"483","street_name":"State Road","zip":"02747","city":"Smith Mills","area":null,"county":"Bristol County","state":"MA","country":"USA","formatted_address":"483 State Road, Smith Mills, MA, USA","place_id":"openaddresses:address:us\/ma\/statewide:c7fa9d5ad0ff3e50","datatype":"openaddresses"},{"latitude":43.226896,"longitude":-71.485355,"name":"TOYS R US\/BABIES R US - CONCORD [7528]","address":"310 LOUDON ROAD\r\nCONCORD, NH 03301","phone":"(603)228-5508","street_number":"297","street_name":"Loudon Road","zip":"03301","city":"Concord","area":null,"county":"Merrimack County","state":"NH","country":"USA","formatted_address":"297 Loudon Road, Concord, NH, USA","place_id":"openstreetmap:address:way:159114667","datatype":"openstreetmap"},{"latitude":42.460582,"longitude":-71.165378,"name":"TOYS R US\/BABIES R US - WOBURN [7506]","address":"366 CAMBRIDGE STREET\r\nWOBURN, MA 01801","phone":"(781)935-7654","street_number":"293","street_name":"Cambridge Road","zip":"01801","city":"Woburn","area":null,"county":"Middlesex County","state":"MA","country":"USA","formatted_address":"293 Cambridge Road, Woburn, MA, USA","place_id":"openaddresses:address:us\/ma\/statewide:d3a9af46c3705847","datatype":"openaddresses"},{"latitude":35.846587,"longitude":-86.428666,"name":"TOYS R US\/BABIES R US - MURFREESBORO [8872]","address":"2075 OLD FORT PARKWAY\r\nMURFREESBORO, TN 37129","phone":"(615)217-3306","street_number":"2091","street_name":"Old Fort Pkwy","zip":"37129","city":"Murfreesboro","area":null,"county":"Rutherford County","state":"TN","country":"USA","formatted_address":"2091 Old Fort Pkwy, Murfreesboro, TN, USA","place_id":"openaddresses:address:us\/tn\/city_of_murfreesboro:14450","datatype":"openaddresses"},{"latitude":42.400983,"longitude":-71.071106,"name":"BABIES R US - EVERETT [6443]","address":"12 MYSTIC VIEW ROAD\r\nEVERETT, MA 02149","phone":"(617)381-1537","street_number":"27","street_name":"Mystic View Road","zip":"02149","city":"Everett","area":null,"county":"Middlesex County","state":"MA","country":"USA","formatted_address":"27 Mystic View Road, Everett, MA, USA","place_id":"openstreetmap:address:node:1975534702","datatype":"openstreetmap"},{"latitude":42.74719,"longitude":-71.202628,"name":"BABIES R US - SALEM [6459]","address":"447 SOUTH BROADWAY\r\nSALEM, NH 03079","phone":"(603)893-2614","street_number":"442","street_name":"S Broadway","zip":"03079","city":null,"area":null,"county":"Rockingham County","state":"NH","country":"USA","formatted_address":"442 S Broadway, Salem, NH, USA","place_id":"openaddresses:address:us\/nh\/statewide:1892ce120c05b010","datatype":"openaddresses"},{"latitude":40.487989,"longitude":-88.950925,"name":"TOYS R US\/BABIES R US - BLOOMINGTON [6008]","address":"1703 EAST EMPIRE\r\nBLOOMINGTON, IL 61701","phone":"(309)662-6464","street_number":"508","street_name":"Iaa Drive","zip":"61701","city":"Bloomington","area":null,"county":"McLean County","state":"IL","country":"USA","formatted_address":"508 Iaa Drive, Bloomington, IL, USA","place_id":"openstreetmap:address:node:2790349941","datatype":"openstreetmap"},{"latitude":42.212369,"longitude":-70.998939,"name":"BABIES R US - BRAINTREE [6383]","address":"450 GROSSMAN DRIVE\r\nBRAINTREE, MA 02184","phone":"(781)356-0475","street_number":"150","street_name":"Grossman Drive","zip":"02184","city":"Braintree Town","area":null,"county":"Norfolk County","state":"MA","country":"USA","formatted_address":"150 Grossman Drive, Braintree Town, MA, USA","place_id":"openaddresses:address:us\/ma\/statewide:b901de0b3a093452","datatype":"openaddresses"},