[{"name":"bareMinerals - Bridgewater Commons","code":null,"latitude":40.5858409,"longitude":-74.6194948,"address":"400 Common Way, Bridgewater NJ","chain_name":null,"distance":0,"street_number":"400","street_name":"Commons Way","zip":"NJ 08807","city":"Bridgewater Township","area":null,"county":"Somerset County","state":"New Jersey","country":"us","formatted_address":"Bridgewater Commons, 400, Commons Way, Bridgewater Township, Somerset County, New Jersey, NJ 08807, United States of America","place_id":"118147373","datatype":"locationiq"},{"name":"bareMinerals - The Mall at Short Hills","code":null,"latitude":40.7396366,"longitude":-74.3656369,"address":"1200 Morris Turnpike, Short Hills NJ","chain_name":null,"distance":0,"street_number":null,"street_name":"John F. Kennedy Parkway","zip":"07078","city":"Millburn","area":null,"county":"Essex County","state":"New Jersey","country":"us","formatted_address":"John F. Kennedy Parkway, Millburn, Essex County, New Jersey, 07078, United States of America","place_id":"76982397","datatype":"locationiq"},{"name":"bareMinerals - Plaza West Covina","code":null,"latitude":34.0712893,"longitude":-117.934639,"address":"112 Plaza Drive, West Covina CA","chain_name":null,"distance":0,"street_number":"1209","street_name":"West West Covina Parkway","zip":"91790","city":"West Covina","area":null,"county":"Los Angeles County","state":"California","country":"us","formatted_address":"Sears, 1209, West West Covina Parkway, West Covina, Los Angeles County, California, 91790, United States of America","place_id":"54413947","datatype":"locationiq"},{"name":"bareMinerals - Southpark Mall","code":null,"latitude":41.3085096,"longitude":-81.8203334,"address":"500 Southpark Center, Strongsville OH","chain_name":null,"distance":0,"street_number":"500","street_name":"Sunset Drive","zip":"44136","city":null,"area":null,"county":"Cuyahoga County","state":"Ohio","country":"us","formatted_address":"SouthPark Mall, 500, Sunset Drive, Strongsville, Cuyahoga County, Ohio, 44136, United States of America","place_id":"129922570","datatype":"locationiq"},{"name":"bareMinerals - Crabtree Valley Mall","code":null,"latitude":35.8377024,"longitude":-78.6758944,"address":"4325 Glenwood Avenue, Raleigh NC","chain_name":null,"distance":0,"street_number":null,"street_name":"Blue Ridge Road","zip":"27612","city":"Raleigh","area":null,"county":"Wake County","state":"North Carolina","country":"us","formatted_address":"Best Buy, Blue Ridge Road, Crabtree Valley, Raleigh, Wake County, North Carolina, 27612, United States of America","place_id":"14541680","datatype":"locationiq"},{"name":"bareMinerals - Stamford Town Center","code":null,"latitude":41.0530773,"longitude":-73.5371438,"address":"100 Greyrock Place, Stamford CT","chain_name":null,"distance":0,"street_number":null,"street_name":"Edith Sherman Drive","zip":"06901","city":"Stamford","area":null,"county":"Fairfield County","state":"Connecticut","country":"us","formatted_address":"Stamford Town Center, Edith Sherman Drive, Stamford, Fairfield County, Connecticut, 06901, United States of America","place_id":"150887763","datatype":"locationiq"},{"name":"bareMinerals - Town Center at Cobb","code":null,"latitude":34.018009,"longitude":-84.5642654,"address":"400 Ernest W. Barrett Pkwy, Kennesaw GA","chain_name":null,"distance":0,"street_number":null,"street_name":"Ring Road","zip":"30066","city":null,"area":null,"county":"Cobb County","state":"Georgia","country":"us","formatted_address":"Town Center at Cobb, Ring Road, Elizabeth, Cobb County, Georgia, 30066, United States of America","place_id":"98163334","datatype":"locationiq"},{"name":"bareMinerals - Northshore Mall","code":null,"latitude":42.5411972,"longitude":-70.9408048,"address":"210 Andover Street, Peabody MA","chain_name":null,"distance":0,"street_number":null,"street_name":"Andover Street","zip":"01960","city":null,"area":null,"county":"Essex County","state":"Massachusetts","country":"us","formatted_address":"North Shore Mall @ Legal Seafood, Andover Street, Peabody, Essex County, Massachusetts, 01960, United States of America","place_id":"16002317","datatype":"locationiq"},{"name":"bareMinerals - The Fashion Centre @ Pentagon City","code":null,"latitude":38.8633646,"longitude":-77.0604807,"address":"1100 South Hayes Street, Arlington VA","chain_name":null,"distance":0,"street_number":null,"street_name":"South Hayes Street","zip":"22202","city":null,"area":null,"county":"Arlington County","state":"Virginia","country":"us","formatted_address":"Pentagon City Mall, South Hayes Street, Fort Barnard Heights, Arlington, Arlington County, Virginia, 22202, United States of America","place_id":"78635666","datatype":"locationiq"},{"name":"bareMinerals - Roosevelt Field","code":null,"latitude":40.7399709,"longitude":-73.6135758,"address":"630 Old Country Road, Garden City NY","chain_name":null,"distance":0,"street_number":null,"street_name":"Ring Road North","zip":"11514","city":null,"area":null,"county":"Nassau","state":"New York","country":"us","formatted_address":"Ring Road North, Roosevelt Field Mall, East Garden City, Nassau, New York, 11514, United States of America","place_id":"73508894","datatype":"locationiq"},{"name":"bareMinerals - Mohegan Sun","code":null,"latitude":41.4917338,"longitude":-72.0909173,"address":"1 Mohegan Sun Boulevard, Uncasville CT","chain_name":null,"distance":0,"street_number":null,"street_name":"Mary Story Way","zip":"06382","city":null,"area":null,"county":"New London County","state":"Connecticut","country":"us","formatted_address":"Mohegan Sun, Mary Story Way, Thamesville, New London County, Connecticut, 06382, United States of America","place_id":"74846951","datatype":"locationiq"},{"name":"bareMinerals - Willowbrook","code":null,"latitude":40.8900807,"longitude":-74.2615039,"address":"1400 Willowbrook Blvd, Wayne NJ","chain_name":null,"distance":0,"street_number":null,"street_name":"Willowbrook Boulevard","zip":"07470","city":"Wayne","area":null,"county":"Passaic County","state":"New Jersey","country":"us","formatted_address":"Sears, Willowbrook Boulevard, Wayne, Passaic County, New Jersey, 07470, United States of America","place_id":"24544894","datatype":"locationiq"},{"name":"bareMinerals - Spotsylvania Town Centre","code":null,"latitude":38.2926613,"longitude":-77.5132444,"address":"137 Spotsylvania Mall, Fredericksburg VA","chain_name":null,"distance":0,"street_number":null,"street_name":"Spotsylvania Mall Drive","zip":"22402","city":null,"area":null,"county":"Spotsylvania County","state":"Virginia","country":"us","formatted_address":"Spotsylvania Mall Drive, Spotsylvania Town Centre, Waverly Village, Spotsylvania County, Virginia, 22402, United States of America","place_id":"71725372","datatype":"locationiq"},{"name":"bareMinerals - Westfield Annapolis","code":null,"latitude":38.9895932,"longitude":-76.5485963,"address":"1845 Annapolis Mall, Annapolis MD","chain_name":null,"distance":0,"street_number":"2131","street_name":"Generals Highway","zip":"21401","city":null,"area":null,"county":"Anne Arundel County","state":"Maryland","country":"us","formatted_address":"2131, Generals Highway, Crownsville, Anne Arundel County, Maryland, 21401, United States of America","place_id":"189627560","datatype":"locationiq"},{"name":"bareMinerals - Tysons Corner Center","code":null,"latitude":38.9169969,"longitude":-77.2211551,"address":"7995 Tysons Corner Center, McLean VA","chain_name":null,"distance":0,"street_number":"8075","street_name":"Tysons Boulevard","zip":"22102","city":null,"area":"Howard","county":"Fairfax County","state":"Virginia","country":"us","formatted_address":"Nordstrom, 8075, Tysons Boulevard, Howard, Madrillon Farms, Fairfax County, Virginia, 22102, United States of America","place_id":"21911201","datatype":"locationiq"},{"name":"bareMinerals - Valley View Mall","code":null,"latitude":37.30403,"longitude":-79.964281,"address":"4802 Valley View Blvd, Roanoke VA","chain_name":null,"distance":0,"street_number":null,"street_name":"Ring Road Northwest","zip":"24012","city":"Roanoke","area":null,"county":null,"state":"Virginia","country":"us","formatted_address":"Valley View Mall, Ring Road Northwest, Villa Heights, Fairland, Roanoke, Virginia, 24012, United States of America","place_id":"82184124","datatype":"locationiq"},{"name":"bareMinerals - Cherryvale Mall Boutique","code":null,"latitude":42.2460425,"longitude":-88.9756194,"address":"7200 Harrison Avenue, Rockford IL","chain_name":null,"distance":0,"street_number":"7200","street_name":"Harrison Avenue","zip":"61112","city":null,"area":null,"county":"Winnebago County","state":"Illinois","country":"us","formatted_address":"Cherryvale Mall, 7200, Harrison Avenue, Cherry Valley, Winnebago County, Illinois, 61112, United States of America","place_id":"116323323","datatype":"locationiq"},{"name":"bareMinerals - Perimeter Mall","code":null,"latitude":33.9232565,"longitude":-84.3400292,"address":"4400 Ashford-Dunwoody Road, Atlanta GA","chain_name":null,"distance":0,"street_number":"4400","street_name":"Ashford Dunwoody Road Northeast","zip":"30346","city":null,"area":"Valley View","county":"DeKalb County","state":"Georgia","country":"us","formatted_address":"Perimeter Mall, 4400, Ashford Dunwoody Road Northeast, Valley View, Springfield, DeKalb County, Georgia, 30346, United States of America","place_id":"80293677","datatype":"locationiq"},{"name":"bareMinerals - University Park","code":null,"latitude":41.71949,"longitude":-86.1910124,"address":"6501 N Grape Road, Mishawaka IN","chain_name":null,"distance":0,"street_number":"6501","street_name":"Grape Road","zip":"46545","city":"Mishawaka","area":null,"county":"Saint Joseph County","state":"Indiana","country":"us","formatted_address":"University Park Mall, 6501, Grape Road, Mishawaka, Saint Joseph County, Indiana, 46545, United States of America","place_id":"79792083","datatype":"locationiq"},{"name":"bareMinerals - West Acres Shopping Center","code":null,"latitude":46.8591805,"longitude":-96.8465205,"address":"3902 13th Avenue South, Fargo ND","chain_name":null,"distance":0,"street_number":null,"street_name":"40th Street South","zip":"58104","city":"Fargo","area":null,"county":"Cass County","state":"North Dakota","country":"us","formatted_address":"40th Street South, West Acres, Fargo, Cass County, North Dakota, 58104, United States of America","place_id":"64426107","datatype":"locationiq"},{"name":"bareMinerals - South Shore Plaza","code":null,"latitude":42.2200925,"longitude":-71.0226617,"address":"250 Granite Street, Braintree MA","chain_name":null,"distance":0,"street_number":null,"street_name":"South Shore Plaza Road","zip":"02184","city":null,"area":null,"county":"Norfolk County","state":"Massachusetts","country":"us","formatted_address":"South Shore Plaza Road, South Shore Plaza, Braintree, Norfolk County, Massachusetts, 02184, United States of America","place_id":"80972401","datatype":"locationiq"},{"name":"bareMinerals - The Patios at Valencia Town Center","code":null,"latitude":34.4156215,"longitude":-118.5572612,"address":"24201 West Valencia Boulevard, Santa Clarita CA","chain_name":null,"distance":0,"street_number":"24201","street_name":"Town Center Drive","zip":"91355","city":"Santa Clarita","area":null,"county":"Los Angeles County","state":"California","country":"us","formatted_address":"24201, Town Center Drive, Valencia Town Center, Valencia, Santa Clarita, Los Angeles County, California, 91355, United States of America","place_id":"114490088","datatype":"locationiq"},{"name":"bareMinerals - Westfarms","code":null,"latitude":41.7220986,"longitude":-72.7627144,"address":"340 Westfarms Mall, Farmington CT","chain_name":null,"distance":0,"street_number":null,"street_name":"New Britain Avenue","zip":"06110","city":null,"area":null,"county":"Hartford County","state":"Connecticut","country":"us","formatted_address":"New Britain Avenue, Town of West Hartford, Hartford County, Connecticut, 06110, United States of America","place_id":"77149737","datatype":"locationiq"},{"name":"bareMinerals - South Hills Village","code":null,"latitude":40.3417607,"longitude":-80.0560026,"address":"301 South Hills Village, Bethel Park PA","chain_name":null,"distance":0,"street_number":null,"street_name":"Village Drive","zip":"15241","city":"Bethel Park","area":null,"county":"Allegheny County","state":"Pennsylvania","country":"us","formatted_address":"South Hills Village Mall, Village Drive, Bethel Park, Allegheny County, Pennsylvania, 15241, United States of America","place_id":"80219045","datatype":"locationiq"},{"name":"bareMinerals - Haywood Mall","code":null,"latitude":34.8499171,"longitude":-82.3335876,"address":"700 Haywood Road, Greenville SC","chain_name":null,"distance":0,"street_number":null,"street_name":"Woods Crossing Road","zip":"29607","city":"Greenville","area":null,"county":"Greenville County","state":"South Carolina","country":"us","formatted_address":"Haywood Mall, Woods Crossing Road, Greenville, Greenville County, South Carolina, 29607, United States of America","place_id":"79991221","datatype":"locationiq"},{"name":"bareMinerals - North Point Mall","code":null,"latitude":34.0509223,"longitude":-84.2945545,"address":"1192 North Point Circle, Alpharetta GA","chain_name":null,"distance":0,"street_number":null,"street_name":"Georgia 400","zip":"30009","city":"Alpharetta","area":"Alpha Park","county":"Fulton County","state":"Georgia","country":"us","formatted_address":"Georgia 400, Alpha Park, Alpharetta, Fulton County, Georgia, 30009, United States of America","place_id":"174074935","datatype":"locationiq"},{"name":"bareMinerals - Pheasant Lane Mall","code":null,"latitude":42.701605,"longitude":-71.43679,"address":"310 Daniel Webster Highway, Nashua NH","chain_name":null,"distance":0,"street_number":"310","street_name":"Daniel Webster Highway","zip":"03060","city":"Nashua","area":null,"county":"Hillsborough County","state":"New Hampshire","country":"us","formatted_address":"310, Daniel Webster Highway, South Nashua, Ward 7, Nashua, Hillsborough County, New Hampshire, 03060, United States of America","place_id":"76551766","datatype":"locationiq"},{"name":"bareMinerals - Freehold Raceway Mall","code":null,"latitude":40.2532995,"longitude":-74.3002341,"address":"3710 Route 9 South, Freehold NJ","chain_name":null,"distance":0,"street_number":null,"street_name":"Winners Circle","zip":"07728","city":"Freehold Township","area":null,"county":"Monmouth County","state":"New Jersey","country":"us","formatted_address":"Freehold Raceway Mall, Winners Circle, Freehold Raceway Mall, Freehold Township, Monmouth County, New Jersey, 07728, United States of America","place_id":"156963253","datatype":"locationiq"},{"name":"bareMinerals - Park City Center","code":null,"latitude":40.0652397,"longitude":-76.3367808,"address":"419 Park City Center, Lancaster PA","chain_name":null,"distance":0,"street_number":"674","street_name":"Ring Road","zip":"17601","city":"Lancaster","area":null,"county":"Lancaster County","state":"Pennsylvania","country":"us","formatted_address":"674, Ring Road, Lancaster, Lancaster County, Pennsylvania, 17601, United States of America","place_id":"201919677","datatype":"locationiq"},{"name":"bareMinerals - First Colony Mall","code":null,"latitude":29.5929163,"longitude":-95.6230478,"address":"16535 Southwest Freeway, Sugar Land TX","chain_name":null,"distance":0,"street_number":null,"street_name":"Town Center Boulevard","zip":"77478","city":"Sugar Land","area":null,"county":"Fort Bend County","state":"Texas","country":"us","formatted_address":"Town Center Boulevard, Sugar Land, Fort Bend County, Texas, 77478, United States of America","place_id":"112606172","datatype":"locationiq"},{"name":"bareMinerals - Solomon Pond Mall","code":null,"latitude":42.3550944,"longitude":-71.6132072,"address":"601 Donald Lynch Boulevard, Marlborough MA","chain_name":null,"distance":0,"street_number":"601","street_name":"Donald J. Lynch Boulevard","zip":"01503","city":null,"area":null,"county":"Middlesex County","state":"Massachusetts","country":"us","formatted_address":"Bertucci's, 601, Donald J. Lynch Boulevard, Marlborough, Middlesex County, Massachusetts, 01503, United States of America","place_id":"23414826","datatype":"locationiq"},{"name":"bareMinerals - The Mall at Green Hills","code":null,"latitude":36.1085772,"longitude":-86.8133432,"address":"2126 Abbott Martin Road, Nashville TN","chain_name":null,"distance":0,"street_number":null,"street_name":"Green Hills Village Drive","zip":"37215","city":"Nashville-Davidson","area":null,"county":"Davidson County","state":"Tennessee","country":"us","formatted_address":"Green Hills Village Drive, Nashville-Davidson, Davidson County, Tennessee, 37215, United States of America","place_id":"116114102","datatype":"locationiq"},{"name":"bareMinerals - Dulles Town Center","code":null,"latitude":39.0325202,"longitude":-77.4236818,"address":"21100 Dulles Town Circle, Dulles VA","chain_name":null,"distance":0,"street_number":null,"street_name":"Dulles Town Circle","zip":"20166","city":null,"area":null,"county":"Loudoun County","state":"Virginia","country":"us","formatted_address":"Dulles Town Center, Dulles Town Circle, Dulles Town Center, Loudoun County, Virginia, 20166, United States of America","place_id":"80418378","datatype":"locationiq"},{"name":"bareMinerals - Westfield Garden State Plaza","code":null,"latitude":40.914763,"longitude":-74.075323,"address":"1 Garden State Plaza, Paramus NJ","chain_name":null,"distance":0,"street_number":null,"street_name":"Garden State Plaza Boulevard","zip":"07652","city":"Rochelle Park","area":null,"county":"Bergen County","state":"New Jersey","country":"us","formatted_address":"Best Buy, Garden State Plaza Boulevard, Rochelle Park, Bergen County, New Jersey, 07652, United States of America","place_id":"122891576","datatype":"locationiq"},{"name":"bareMinerals - Polaris Fashion Place","code":null,"latitude":40.1414554,"longitude":-82.9789514,"address":"1500 Polaris Parkway, Columbus OH","chain_name":null,"distance":0,"street_number":"9117","street_name":"Polaris Parkway","zip":"43240","city":"Columbus","area":null,"county":"Delaware County","state":"Ohio","country":"us","formatted_address":"9117, Polaris Parkway, Columbus, Delaware County, Ohio, 43240, United States of America","place_id":"199076008","datatype":"locationiq"},{"name":"bareMinerals - Jordan Creek Town Center","code":null,"latitude":41.5702624,"longitude":-93.8070392,"address":"101 Jordan Creek Parkway, West Des Moines IA","chain_name":null,"distance":0,"street_number":"101","street_name":"South Jordan Creek Parkway","zip":"50266","city":"West Des Moines","area":null,"county":"Dallas County","state":"Iowa","country":"us","formatted_address":"Younkers, 101, South Jordan Creek Parkway, Plaza at Jordan Creek, West Des Moines, Dallas County, Iowa, 50266, United States of America","place_id":"94251345","datatype":"locationiq"},{"name":"bareMinerals - Westfield Franklin Park","code":null,"latitude":41.6944462,"longitude":-83.6407737,"address":"5001 Monroe Street, Toledo OH","chain_name":null,"distance":0,"street_number":null,"street_name":"Royer Road","zip":"43623","city":"Toledo","area":"Franklin Park","county":"Lucas County","state":"Ohio","country":"us","formatted_address":"Royer Road, Franklin Park, Toledo, Lucas County, Ohio, 43623, United States of America","place_id":"64255902","datatype":"locationiq"},{"name":"bareMinerals - Palisades Center","code":null,"latitude":41.0980374,"longitude":-73.9567637,"address":"1000 Palisades Center Drive, West Nyack NY","chain_name":null,"distance":0,"street_number":null,"street_name":"Palisades Center Drive","zip":"10994","city":null,"area":null,"county":"Rockland County","state":"New York","country":"us","formatted_address":"Palisades Center, Palisades Center Drive, West Nyack, Town of Clarkstown, Rockland County, New York, 10994, United States of America","place_id":"76737915","datatype":"locationiq"},{"name":"bareMinerals - The Mall at Rockingham Park","code":null,"latitude":42.7661196,"longitude":-71.2303197,"address":"99 Rockingham Park Boulevard, Salem NH","chain_name":null,"distance":0,"street_number":null,"street_name":"Pleasant Street","zip":"03079","city":null,"area":null,"county":"Rockingham County","state":"New Hampshire","country":"us","formatted_address":"Pleasant Street, Salem, Rockingham County, New Hampshire, 03079, United States of America","place_id":"102030476","datatype":"locationiq"},{"name":"bareMinerals - Lenox Square","code":null,"latitude":33.8466715,"longitude":-84.3619433,"address":"3393 Peachtree Road NE, Atlanta GA","chain_name":null,"distance":0,"street_number":null,"street_name":"Peachtree Road Northeast","zip":"30305","city":"Atlanta","area":null,"county":"Fulton County","state":"Georgia","country":"us","formatted_address":"Peachtree Road Northeast, Buckhead, Atlanta, Fulton County, Georgia, 30305, United States of America","place_id":"89861130","datatype":"locationiq"},{"name":"bareMinerals - The Florida Mall","code":null,"latitude":28.4454035,"longitude":-81.3954344,"address":"8001 South Orange Blossom Trail, Orlando FL","chain_name":null,"distance":0,"street_number":null,"street_name":"Florida Mall Avenue","zip":"32809","city":"Orlando","area":null,"county":"Orange County","state":"Florida","country":"us","formatted_address":"Florida Hotel, Florida Mall Avenue, The Florida Mall, Orlando, Orange County, Florida, 32809, United States of America","place_id":"144406","datatype":"locationiq"},{"name":"bareMinerals - Boca Town Center","code":null,"latitude":26.3659017,"longitude":-80.1343467,"address":"6000 Glades Road, Boca Raton FL","chain_name":null,"distance":0,"street_number":null,"street_name":"Town Center Road","zip":"33486","city":null,"area":null,"county":"Palm Beach County","state":"Florida","country":"us","formatted_address":"Town Center Road, Paradise Palms, Palm Beach County, Florida, 33486, United States of America","place_id":"66497030","datatype":"locationiq"},{"name":"bareMinerals - The Mall at Partridge Creek","code":null,"latitude":42.6257316,"longitude":-82.9469451,"address":"17370 Hall Road, Clinton Township MI","chain_name":null,"distance":0,"street_number":null,"street_name":"Hall Road","zip":"48038","city":null,"area":null,"county":"Macomb County","state":"Michigan","country":"us","formatted_address":"Hall Road, Clinton Township, Macomb County, Michigan, 48038, United States of America","place_id":"172889401","datatype":"locationiq"},{"name":"bareMinerals - Ross Park Mall","code":null,"latitude":40.5445585,"longitude":-80.0087394,"address":"1000 Ross Park Mall Drive, Pittsburgh PA","chain_name":null,"distance":0,"street_number":null,"street_name":"Ross Park Mall Drive","zip":"15237","city":null,"area":null,"county":"Allegheny County","state":"Pennsylvania","country":"us","formatted_address":"Nordstrom, Ross Park Mall Drive, Ross Township, Allegheny County, Pennsylvania, 15237, United States of America","place_id":"126502595","datatype":"locationiq"},{"name":"bareMinerals - Kenwood Towne Center","code":null,"latitude":39.2025027,"longitude":-84.3770223,"address":"7875 Montgomery Road, Cincinnati OH","chain_name":null,"distance":0,"street_number":null,"street_name":"Montgomery Road","zip":"45236-4202","city":null,"area":null,"county":"Hamilton County","state":"Ohio","country":"us","formatted_address":"Kenwood Towne Centre, Montgomery Road, Harewood Acres, Sycamore Township, Hamilton County, Ohio, 45236-4202, United States of America","place_id":"77325537","datatype":"locationiq"},{"name":"bareMinerals - Hamilton Place","code":null,"latitude":35.0352025,"longitude":-85.1582859,"address":"2100 Hamilton Place Boulevard, Chattanooga TN","chain_name":null,"distance":0,"street_number":null,"street_name":"Hamilton Place Boulevard","zip":"37421","city":"Chattanooga","area":null,"county":"Hamilton County","state":"Tennessee","country":"us","formatted_address":"Red Robin Gourmet Burgers, Hamilton Place Boulevard, Chattanooga, Hamilton County, Tennessee, 37421, United States of America","place_id":"10403775","datatype":"locationiq"},{"name":"bareMinerals - The Mall at Wellington Green","code":null,"latitude":26.6510986,"longitude":-80.2088178,"address":"10300 West Forest Hill Boulevard, Wellington FL","chain_name":null,"distance":0,"street_number":"10226","street_name":"Forest Hill Boulevard","zip":"33414","city":null,"area":null,"county":"Palm Beach County","state":"Florida","country":"us","formatted_address":"10226, Forest Hill Boulevard, Wellington, Palm Beach County, Florida, 33414, United States of America","place_id":"182841757","datatype":"locationiq"},{"name":"bareMinerals - Somerset Collection","code":null,"latitude":42.5627151,"longitude":-83.1840415,"address":"2800 West Big Beaver Road, Troy MI","chain_name":null,"distance":0,"street_number":null,"street_name":"West Big Beaver Road","zip":"48304","city":"Troy","area":null,"county":"Oakland County","state":"Michigan","country":"us","formatted_address":"Somerset Collection North, West Big Beaver Road, Troy, Oakland County, Michigan, 48304, United States of America","place_id":"79712946","datatype":"locationiq"},{"name":"bareMinerals - The Street at SouthPoint + Main Street","code":null,"latitude":35.903599,"longitude":-78.941906,"address":"6910 Fayetteville Road, Durham NC","chain_name":null,"distance":0,"street_number":"6910","street_name":"Fayetteville Road","zip":"27713","city":"Durham","area":null,"county":"Durham County","state":"North Carolina","country":"us","formatted_address":"REEDS Jewelers - The Streets at Southpoint, 6910, Fayetteville Road, Durham, Durham County, North Carolina, 27713, United States of America","place_id":"135300736","datatype":"locationiq"},{"name":"bareMinerals - Westfield Topanga","code":null,"latitude":34.1900772,"longitude":-118.6042674,"address":"6600 Topanga Canyon Boulevard, Canoga Park CA","chain_name":null,"distance":0,"street_number":null,"street_name":"Canyon Creek Drive","zip":"91303","city":"Los Angeles","area":null,"county":"Los Angeles County","state":"California","country":"us","formatted_address":"Canyon Creek Drive, Topanga Plaza, Warner Center, Los Angeles, Los Angeles County, California, 91303, United States of America","place_id":"100906155","datatype":"locationiq"},{"name":"bareMinerals - Charlottesville Fashion Square","code":null,"latitude":38.0777655,"longitude":-78.4745036,"address":"1600 East Rio Road, Charlottesville VA","chain_name":null,"distance":0,"street_number":null,"street_name":"East Rio Road","zip":"22901","city":null,"area":null,"county":"Albemarle County","state":"Virginia","country":"us","formatted_address":"East Rio Road, Squire Hill, Albemarle County, Virginia, 22901, United States of America","place_id":"149390145","datatype":"locationiq"},{"name":"bareMinerals - Towson Town Center","code":null,"latitude":39.4038642,"longitude":-76.5987395,"address":"825 Dulaney Valley Road, Towson MD","chain_name":null,"distance":0,"street_number":"825","street_name":"Dulaney Valley Road","zip":"21204","city":"Towson","area":"Towson Park","county":"Baltimore County","state":"Maryland","country":"us","formatted_address":"Towson Town Center, 825, Dulaney Valley Road, Towson Park, Towson, Baltimore County, Maryland, 21204, United States of America","place_id":"104926319","datatype":"locationiq"},{"name":"bareMinerals - Fayette Mall","code":null,"latitude":37.99027,"longitude":-84.524191,"address":"3401 Nicholasville Road, Lexington KY","chain_name":null,"distance":0,"street_number":"100","street_name":"Brigadoon Parkway","zip":"40517","city":null,"area":"Brigadoon","county":"Fayette County","state":"Kentucky","country":"us","formatted_address":"100, Brigadoon Parkway, Brigadoon, Blueberry Hill, Fayette County, Kentucky, 40517, United States of America","place_id":"157235346","datatype":"locationiq"},{"name":"bareMinerals - Rockaway Townsquare","code":null,"latitude":40.9006225,"longitude":-74.5461549,"address":"301 Mount Hope Ave., Rockaway NJ","chain_name":null,"distance":0,"street_number":null,"street_name":"Mount Hope Avenue","zip":"07801","city":"Rockaway Township","area":null,"county":"Morris County","state":"New Jersey","country":"us","formatted_address":"Clark Pond, Mount Hope Avenue, Rockaway Township, Morris County, New Jersey, 07801, United States of America","place_id":"168843670","datatype":"locationiq"},{"name":"bareMinerals - Crossgates Mall","code":null,"latitude":42.688374,"longitude":-73.845376,"address":"One Crossgates Mall Road, Albany NY","chain_name":null,"distance":0,"street_number":null,"street_name":"Crossgates Mall Road","zip":"12203","city":null,"area":null,"county":"Albany County","state":"New York","country":"us","formatted_address":"Crossgates Mall Road, Crossgates Mall, Westmere, Town of Guilderland, Albany County, New York, 12203, United States of America","place_id":"138051551","datatype":"locationiq"},{"name":"bareMinerals - Providence Place","code":null,"latitude":41.8273894,"longitude":-71.4167233,"address":"One Providence Place, Providence RI","chain_name":null,"distance":0,"street_number":null,"street_name":null,"zip":"02903","city":"Providence","area":null,"county":"Providence County","state":"Rhode Island","country":"us","formatted_address":"Providence Place Mall, Woonasquatucket Greenway Ramp, Providence, Providence County, Rhode Island, 02903, United States of America","place_id":"174650869","datatype":"locationiq"},{"name":"bareMinerals - Lynnhaven Mall Boutique","code":null,"latitude":36.817418,"longitude":-76.0708957,"address":"701 Lynnhaven Parkway, Virginia Beach VA","chain_name":null,"distance":0,"street_number":"701","street_name":"Lynnhaven Parkway","zip":"23452","city":"Virginia Beach","area":null,"county":null,"state":"Virginia","country":"us","formatted_address":"Far East Trading Company, 701, Lynnhaven Parkway, Lynnhaven Crossing, Lynnhaven, Mapleton, Virginia Beach, Virginia, 23452, United States of America","place_id":"47024248","datatype":"locationiq"},{"name":"bareMinerals - Westfield Trumbull","code":null,"latitude":41.2293858,"longitude":-73.2269313,"address":"5065 Main Street, Trumbull CT","chain_name":null,"distance":0,"street_number":null,"street_name":"Lealand Street","zip":"06606","city":"Bridgeport","area":null,"county":"Fairfield County","state":"Connecticut","country":"us","formatted_address":"Westfield Trumbull, Lealand Street, Bridgeport, Fairfield County, Connecticut, 06606, United States of America","place_id":"84360379","datatype":"locationiq"},{"name":"bareMinerals - The Mall at Tuttle Crossing","code":null,"latitude":40.0732776,"longitude":-83.1323201,"address":"5043 Tuttle Crossing Boulevard, Dublin OH","chain_name":null,"distance":0,"street_number":null,"street_name":"West Outerbelt; Jack Nicklaus Freeway","zip":"43016","city":"Dublin","area":null,"county":"Franklin County","state":"Ohio","country":"us","formatted_address":"Macy's at Tuttle Crossing, West Outerbelt; Jack Nicklaus Freeway, Dublin, Franklin County, Ohio, 43016, United States of America","place_id":"78744020","datatype":"locationiq"},{"name":"bareMinerals - King of Prussia Mall","code":null,"latitude":40.0879055,"longitude":-75.3897629,"address":"160 North Gulph Road, King of Prussia PA","chain_name":null,"distance":0,"street_number":null,"street_name":"Court Boulevard","zip":"19406","city":"Upper Merion Township","area":null,"county":"Montgomery County","state":"Pennsylvania","country":"us","formatted_address":"Neiman Marcus, Court Boulevard, King of Prussia Mall, Upper Merion Township, Montgomery County, Pennsylvania, 19406, United States of America","place_id":"174704088","datatype":"locationiq"},{"name":"bareMinerals - Poughkeepsie Galleria","code":null,"latitude":41.6262842,"longitude":-73.9206668,"address":"2001 South Road, Poughkeepsie NY","chain_name":null,"distance":0,"street_number":null,"street_name":"Sheafe Road","zip":"12537","city":null,"area":null,"county":"Dutchess County","state":"New York","country":"us","formatted_address":"Sheafe Road, Howland, Town of Poughkeepsie, Dutchess County, New York, 12537, United States of America","place_id":"73521529","datatype":"locationiq"},{"name":"bareMinerals - Natick Collection","code":null,"latitude":42.3019258,"longitude":-71.3843794,"address":"1245 Worcester Street, Natick MA","chain_name":null,"distance":0,"street_number":null,"street_name":"Natick Mall Road","zip":"01760","city":null,"area":null,"county":"Middlesex County","state":"Massachusetts","country":"us","formatted_address":"Natick Mall Road, Natick Mall, Natick, Middlesex County, Massachusetts, 01760, United States of America","place_id":"101842993","datatype":"locationiq"},{"name":"bareMinerals - Holyoke Mall","code":null,"latitude":42.167247,"longitude":-72.641327,"address":"50 Holyoke Street, Holyoke MA","chain_name":null,"distance":0,"street_number":null,"street_name":"Mall Drive","zip":"01013","city":null,"area":null,"county":"Hampden County","state":"Massachusetts","country":"us","formatted_address":"Holyoke Mall, Mall Drive, Holyoke, Hampden County, Massachusetts, 01013, United States of America","place_id":"77533491","datatype":"locationiq"},{"name":"bareMinerals - Bayshore Town Center","code":null,"latitude":43.0680198,"longitude":-87.9841669,"address":"5676 North Center Parkway, Glendale WI","chain_name":null,"distance":0,"street_number":"5698","street_name":"West Center Street","zip":"53210","city":"Milwaukee","area":"St. Joseph's","county":"Milwaukee County","state":"Wisconsin","country":"us","formatted_address":"5698, West Center Street, St. Joseph's, Milwaukee, Milwaukee County, Wisconsin, 53210, United States of America","place_id":"209505322","datatype":"locationiq"},{"name":"bareMinerals - South Park Mall","code":null,"latitude":35.1523852,"longitude":-80.8321253,"address":"4400 Sharon Road, Charlotte NC","chain_name":null,"distance":0,"street_number":null,"street_name":"South Park Drive","zip":"28211","city":"Charlotte","area":null,"county":"Mecklenburg County","state":"North Carolina","country":"us","formatted_address":"Southpark Mall, South Park Drive, South Park Mall, Charlotte, Mecklenburg County, North Carolina, 28211, United States of America","place_id":"174988106","datatype":"locationiq"},{"name":"bareMinerals - West Towne Mall","code":null,"latitude":43.0570899,"longitude":-89.5093181,"address":"11 West Towne, Madison WI","chain_name":null,"distance":0,"street_number":null,"street_name":"West Towne Mall","zip":"53717","city":"Madison","area":null,"county":"Dane County","state":"Wisconsin","country":"us","formatted_address":"West Towne Mall, Madison, Dane County, Wisconsin, 53717, United States of America","place_id":"63199267","datatype":"locationiq"},{"name":"bareMinerals - Stony Point Fashion Park","code":null,"latitude":37.5497797,"longitude":-77.5716507,"address":"9200 Stony Point Parkway, Richmond VA","chain_name":null,"distance":0,"street_number":null,"street_name":"Stony Point Parkway","zip":"23235","city":"Richmond City","area":null,"county":null,"state":"Virginia","country":"us","formatted_address":"ALDO, Stony Point Parkway, Stony Point Fashion Park, Richmond, Richmond City, Virginia, 23235, United States of America","place_id":"41539528","datatype":"locationiq"},{"name":"bareMinerals - West Town Mall","code":null,"latitude":35.9230111,"longitude":-84.0412354,"address":"7600 Kingston Pike, Knoxville TN","chain_name":null,"distance":0,"street_number":null,"street_name":"Montvue Road","zip":"37909","city":"Knoxville","area":null,"county":"Knox County","state":"Tennessee","country":"us","formatted_address":"Montvue Road, Knoxville, Knox County, Tennessee, 37909, United States of America","place_id":"158988786","datatype":"locationiq"},{"name":"bareMinerals - Danbury Fair","code":null,"latitude":41.3800517,"longitude":-73.4817327,"address":"7 Backus Avenue, Danbury CT","chain_name":null,"distance":0,"street_number":"7","street_name":"Backus Avenue","zip":"06810","city":"Danbury","area":null,"county":"Fairfield County","state":"Connecticut","country":"us","formatted_address":"Danbury Fair Mall, 7, Backus Avenue, Danbury, Fairfield County, Connecticut, 06810, United States of America","place_id":"113870807","datatype":"locationiq"},{"name":"bareMinerals - Beachwood Place","code":null,"latitude":41.4981065,"longitude":-81.4942281,"address":"26300 Cedar Road, Beachwood OH","chain_name":null,"distance":0,"street_number":null,"street_name":"George Zeiger Drive","zip":"44122","city":null,"area":"Elizabeth B Blossom Subdivision Historic District","county":"Cuyahoga County","state":"Ohio","country":"us","formatted_address":"Beachwood Place, George Zeiger Drive, Elizabeth B Blossom Subdivision Historic District, Beachwood, Cuyahoga County, Ohio, 44122, United States of America","place_id":"75975494","datatype":"locationiq"},{"name":"bareMinerals - Woodfield Mall","code":null,"latitude":42.0454357,"longitude":-88.0368575,"address":"5 Woodfield Mall, Schaumburg IL","chain_name":null,"distance":0,"street_number":"G126","street_name":"Perimeter Drive","zip":"60173","city":null,"area":null,"county":"Cook County","state":"Illinois","country":"us","formatted_address":"Avis Nails, G126, Perimeter Drive, Schaumburg, Cook County, Illinois, 60173, United States of America","place_id":"56543572","datatype":"locationiq"},{"name":"bareMinerals - The Mall in Columbia","code":null,"latitude":39.2153109,"longitude":-76.8612159,"address":"10300 Little Patuxent Parkway, Columbia MD","chain_name":null,"distance":0,"street_number":null,"street_name":"Mall Access Road","zip":"21044","city":"Columbia","area":"Bryant Woods","county":"Howard County","state":"Maryland","country":"us","formatted_address":"Zo\u00ebs Kitchen, Mall Access Road, Bryant Woods, Columbia Town Center, Columbia, Howard County, Maryland, 21044, United States of America","place_id":"37682664","datatype":"locationiq"},{"name":"bareMinerals - Christiana Mall","code":null,"latitude":39.6785149,"longitude":-75.6521237,"address":"132 Christiana Mall, Newark DE","chain_name":null,"distance":0,"street_number":"132","street_name":"Mall Road","zip":"19702","city":null,"area":null,"county":"New Castle County","state":"Delaware","country":"us","formatted_address":"Christiana Mall, 132, Mall Road, Cavaliers Country Club Apartments, New Castle County, Delaware, 19702, United States of America","place_id":"101922710","datatype":"locationiq"},{"name":"bareMinerals - Smith Haven Mall","code":null,"latitude":40.8636861,"longitude":-73.1299238,"address":"313 Smith Haven Mall, Lake Grove NY","chain_name":null,"distance":0,"street_number":null,"street_name":"Smith Haven Mall","zip":"null","city":null,"area":null,"county":"Suffolk County","state":"New York","country":"us","formatted_address":"Food Court, Smith Haven Mall, Lake Grove, Suffolk County, New York, null, United States of America","place_id":"49291139","datatype":"locationiq"},{"name":"bareMinerals - The Greene Town Center","code":null,"latitude":39.6941431,"longitude":-84.1021055,"address":"4417 Cedar Park Drive, Beavercreek OH","chain_name":null,"distance":0,"street_number":"4419","street_name":"Cedar Park Drive","zip":"45440","city":"Beavercreek","area":null,"county":"Greene County","state":"Ohio","country":"us","formatted_address":"4419, Cedar Park Drive, The Greene Town Center, Beavercreek, Greene County, Ohio, 45440, United States of America","place_id":"199235240","datatype":"locationiq"},{"name":"bareMinerals - Empire Mall Boutique","code":null,"latitude":43.5118966,"longitude":-96.7745923,"address":"4001 West 41st Street, Sioux Falls SD","chain_name":null,"distance":0,"street_number":"5000","street_name":"West Empire Place","zip":"57106","city":"Sioux Falls","area":null,"county":"Minnehaha County","state":"South Dakota","country":"us","formatted_address":"Joseph A. Bank, 5000, West Empire Place, The Empire Mall, Sioux Falls, Minnehaha County, South Dakota, 57106, United States of America","place_id":"41911868","datatype":"locationiq"},{"name":"bareMinerals - Orland Square","code":null,"latitude":41.6197257,"longitude":-87.8482465,"address":"288 Orland Square, Orland Park IL","chain_name":null,"distance":0,"street_number":null,"street_name":"Orland Square Drive","zip":"60462","city":null,"area":null,"county":"Cook County","state":"Illinois","country":"us","formatted_address":"Orland Square Mall, Orland Square Drive, Orland Park, Cook County, Illinois, 60462, United States of America","place_id":"132399457","datatype":"locationiq"},{"name":"bareMinerals - Twelve Oaks Mall","code":null,"latitude":42.4885388,"longitude":-83.4758523,"address":"27340 Novi Road, Novi MI","chain_name":null,"distance":0,"street_number":null,"street_name":"Novi Road","zip":"48377","city":"Novi","area":null,"county":"Oakland County","state":"Michigan","country":"us","formatted_address":"Novi Road, Novi, Oakland County, Michigan, 48377, United States of America","place_id":"149935552","datatype":"locationiq"},{"name":"bareMinerals - Mall of Georgia","code":null,"latitude":34.0642698,"longitude":-83.982806,"address":"3333 Buford Drive, Buford GA","chain_name":null,"distance":0,"street_number":null,"street_name":"Mall of Georgia Boulevard","zip":"30519","city":null,"area":null,"county":"Gwinnett County","state":"Georgia","country":"us","formatted_address":"P.F. Chang's China Bistro, Mall of Georgia Boulevard, Mall of Georgia, Gravel Springs, Gwinnett County, Georgia, 30519, United States of America","place_id":"52101770","datatype":"locationiq"},{"name":"bareMinerals - Columbiana Centre","code":null,"latitude":34.0783578,"longitude":-81.1586677,"address":"100 Columbiana Circle, Columbia SC","chain_name":null,"distance":0,"street_number":null,"street_name":"Columbiana Circle","zip":"29215","city":"Columbia","area":null,"county":"Lexington County","state":"South Carolina","country":"us","formatted_address":"Columbiana Circle, Columbia, Lexington County, South Carolina, 29215, United States of America","place_id":"80512216","datatype":"locationiq"},{"name":"bareMinerals - CoolSprings Galleria","code":null,"latitude":35.957118,"longitude":-86.8135382,"address":"1800 Galleria Boulevard, Franklin TN","chain_name":null,"distance":0,"street_number":null,"street_name":"Galleria Boulevard","zip":"37027","city":"Franklin","area":null,"county":"Williamson County","state":"Tennessee","country":"us","formatted_address":"Coolsprings Galleria, Galleria Boulevard, Franklin, Williamson County, Tennessee, 37027, United States of America","place_id":"128138577","datatype":"locationiq"},{"name":"bareMinerals - Huntington Mall","code":null,"latitude":38.4186231,"longitude":-82.2618374,"address":"500 Mall Road & I-64, Barboursville WV","chain_name":null,"distance":0,"street_number":"700","street_name":"E Mall Road","zip":"25504","city":null,"area":null,"county":"Cabell County","state":"West Virginia","country":"us","formatted_address":"700, E Mall Road, Barboursville, Cabell County, West Virginia, 25504, United States of America","place_id":"208993349","datatype":"locationiq"},{"name":"bareMinerals - Cherry Hill","code":null,"latitude":39.9423869,"longitude":-75.025193,"address":"2000 Route 38, Cherry Hill NJ","chain_name":null,"distance":0,"street_number":"1","street_name":"Cherry Hill Mall Drive","zip":"08002","city":"Cherry Hill Township","area":null,"county":"Camden County","state":"New Jersey","country":"us","formatted_address":"1, Cherry Hill Mall Drive, Cherry Hill Mall, Cherry Hill Township, Camden County, New Jersey, 08002, United States of America","place_id":"76108326","datatype":"locationiq"},{"name":"bareMinerals - Lehigh Valley Mall","code":null,"latitude":40.6295971,"longitude":-75.4843688,"address":"175 Lehigh Valley Mall, Whitehall PA","chain_name":null,"distance":0,"street_number":null,"street_name":"MacArthur Road","zip":"18052","city":"Whitehall","area":null,"county":"Lehigh County","state":"Pennsylvania","country":"us","formatted_address":"MacArthur Road, Whitehall, Lehigh County, Pennsylvania, 18052, United States of America","place_id":"133105413","datatype":"locationiq"},{"name":"bareMinerals - Burlington Mall","code":null,"latitude":42.481127,"longitude":-71.216752,"address":"75 Middlesex Turnpike, Burlington MA","chain_name":null,"distance":0,"street_number":null,"street_name":"Middlesex Turnpike","zip":"01805","city":null,"area":null,"county":"Middlesex County","state":"Massachusetts","country":"us","formatted_address":"Middlesex Turnpike, Burlington, Middlesex County, Massachusetts, 01805, United States of America","place_id":"108055958","datatype":"locationiq"},{"name":"bareMinerals - Mayfair Mall","code":null,"latitude":43.0638475,"longitude":-88.0456476,"address":"2500 North Mayfair Road, Wauwatosa WI","chain_name":null,"distance":0,"street_number":null,"street_name":"North Mayfair Road","zip":"53222","city":"Wauwatosa","area":null,"county":"Milwaukee County","state":"Wisconsin","country":"us","formatted_address":"Crate & Barrel, North Mayfair Road, Wauwatosa, Milwaukee County, Wisconsin, 53222, United States of America","place_id":"92484396","datatype":"locationiq"}]