[{"name":"Bruegger's Bagel Bakery","code":null,"latitude":44.98763,"longitude":-93.2574,"address":"228 E Hennepin Avenue, Minneapolis MN","chain_name":null,"distance":0,"street_number":null,"street_name":"East Hennepin Avenue","zip":"55413","city":"Minneapolis","area":"St Anthony West","county":"Hennepin County","state":"Minnesota","country":"us","formatted_address":"2 St NE (Ortman), East Hennepin Avenue, St Anthony West, Northeast, Minneapolis, Hennepin County, Minnesota, 55413, United States of America","place_id":"6801220","datatype":"locationiq"},{"name":"Bruegger's Bagel Bakery","code":null,"latitude":44.97366,"longitude":-93.2283,"address":"720 Washington Avenue Southeast, Minneapolis MN","chain_name":null,"distance":0,"street_number":"301","street_name":"Southeast Walnut Street","zip":"55414","city":"Minneapolis","area":null,"county":"Hennepin County","state":"Minnesota","country":"us","formatted_address":"301, Southeast Walnut Street, Longfellow, Minneapolis, Hennepin County, Minnesota, 55414, United States of America","place_id":"123890216","datatype":"locationiq"},{"name":"Bruegger's Bagel Bakery","code":null,"latitude":43.25302,"longitude":-77.6996,"address":"3177 Latta Road, Rochester NY","chain_name":null,"distance":0,"street_number":null,"street_name":"Latta Road","zip":"14626","city":null,"area":null,"county":"Monroe County","state":"New York","country":"us","formatted_address":"Latta Road, North Greece, Greece Town, Monroe County, New York, 14626, United States of America","place_id":"173994215","datatype":"locationiq"},{"name":"Bruegger's Bagel Bakery","code":null,"latitude":41.38066,"longitude":-81.4692,"address":"6573 Cochran Road # Op, Solon OH","chain_name":null,"distance":0,"street_number":"6569","street_name":"Cochran Road","zip":"44139","city":null,"area":null,"county":"Cuyahoga County","state":"Ohio","country":"us","formatted_address":"6569, Cochran Road, Glenwillow, Cuyahoga County, Ohio, 44139, United States of America","place_id":"199013234","datatype":"locationiq"},{"name":"Bruegger's Bagel Bakery","code":null,"latitude":36.1316,"longitude":-79.7965,"address":"431 Pisgah Church Road, Greensboro NC","chain_name":null,"distance":0,"street_number":"425","street_name":"Pisgah Church Road","zip":"27455","city":"Greensboro","area":null,"county":"Guilford County","state":"North Carolina","country":"us","formatted_address":"425, Pisgah Church Road, Greensboro, Guilford County, North Carolina, 27455, United States of America","place_id":"197667227","datatype":"locationiq"},{"name":"Bruegger's Bagels","code":null,"latitude":40.28389,"longitude":-80.121,"address":"3527 Washington Road, Canonsburg PA","chain_name":null,"distance":0,"street_number":null,"street_name":"Washington Road","zip":"15317","city":null,"area":null,"county":"Washington County","state":"Pennsylvania","country":"us","formatted_address":"Arby's, Washington Road, Thompsonville, Washington County, Pennsylvania, 15317, United States of America","place_id":"26120690","datatype":"locationiq"},{"name":"Brueggers Bagel Bakery","code":null,"latitude":35.2043,"longitude":-81.3716,"address":"105 McCarter Drive, Kings Mountain NC","chain_name":null,"distance":0,"street_number":null,"street_name":"Dixon School Road","zip":"28086","city":null,"area":null,"county":"Cleveland County","state":"North Carolina","country":"us","formatted_address":"Dixon School Road, Midpine, Cleveland County, North Carolina, 28086, United States of America","place_id":"79039941","datatype":"locationiq"},{"name":"Bruegger's Bagel Bakery","code":null,"latitude":41.9264,"longitude":-91.7007,"address":"Cedar Rapids IA","chain_name":null,"distance":0,"street_number":null,"street_name":"Waconia Avenue Southwest","zip":"52404","city":"Cedar Rapids","area":null,"county":"Linn County","state":"Iowa","country":"us","formatted_address":"Waconia Avenue Southwest, Cedar Rapids, Linn County, Iowa, 52404, United States of America","place_id":"155745925","datatype":"locationiq"},{"name":"Bruegger's Bagel Bakery","code":null,"latitude":44.8368,"longitude":-93.401,"address":"9641 Anderson Lakes Parkway, Eden Prairie MN","chain_name":null,"distance":0,"street_number":null,"street_name":"Crane Dance Trail","zip":"55348","city":"Eden Prairie","area":null,"county":"Hennepin County","state":"Minnesota","country":"us","formatted_address":"Hyland-Bush-Anderson Lakes Park, Crane Dance Trail, Eden Prairie, Hennepin County, Minnesota, 55348, United States of America","place_id":"80771170","datatype":"locationiq"},{"name":"Bruegger's Bagel Bakery","code":null,"latitude":43.17674,"longitude":-87.9124,"address":"383 W Brown Deer Road # 20, Milwaukee WI","chain_name":null,"distance":0,"street_number":"383","street_name":"West Brown Deer Road","zip":"53092","city":null,"area":null,"county":"Milwaukee County","state":"Wisconsin","country":"us","formatted_address":"Bruegger's Bagels, 383, West Brown Deer Road, Bayside, Milwaukee County, Wisconsin, 53092, United States of America","place_id":"51516164","datatype":"locationiq"},{"name":"Bruegger's Bagel Bakery","code":null,"latitude":36.09249,"longitude":-80.2805,"address":"205 S Stratford Road # 88-0665, Winston Salem NC","chain_name":null,"distance":0,"street_number":null,"street_name":"South Stratford Road","zip":"27103","city":"Winston-Salem","area":null,"county":"Forsyth County","state":"North Carolina","country":"us","formatted_address":"Jimmy John's Gourmet Sandwiches, South Stratford Road, Winston-Salem, Forsyth County, North Carolina, 27103, United States of America","place_id":"36457028","datatype":"locationiq"},{"name":"Bruegger's Bagel Bakery","code":null,"latitude":41.0312,"longitude":-73.767,"address":"167 Martine Avenue, White Plains NY","chain_name":null,"distance":0,"street_number":"172","street_name":"Martine Avenue","zip":"10601","city":"White Plains","area":null,"county":"Westchester County","state":"New York","country":"us","formatted_address":"172, Martine Avenue, White Plains, Westchester County, New York, 10601, United States of America","place_id":"197120202","datatype":"locationiq"},{"name":"Bruegger's Bagel Bakery","code":null,"latitude":35.85712,"longitude":-78.7037,"address":"6274 Glenwood Avenue # 100, Raleigh NC","chain_name":null,"distance":0,"street_number":"6282-105","street_name":"Glenwood Avenue","zip":"27612","city":"Raleigh","area":null,"county":"Wake County","state":"North Carolina","country":"us","formatted_address":"HealthyBack, 6282-105, Glenwood Avenue, Crabtree Valley, Raleigh, Wake County, North Carolina, 27612, United States of America","place_id":"138152076","datatype":"locationiq"},{"name":"Bruegger's Bagel Bakery","code":null,"latitude":32.23522,"longitude":-110.9438,"address":"1064 N Campbell Avenue, Tucson AZ","chain_name":null,"distance":0,"street_number":null,"street_name":"North Campbell Avenue","zip":"85724","city":"Tucson","area":"Sam Hughes","county":"Pima County","state":"Arizona","country":"us","formatted_address":"Miss Saigon, North Campbell Avenue, Sam Hughes, Tucson, Pima County, Arizona, 85724, United States of America","place_id":"124600879","datatype":"locationiq"},{"name":"Bruegger's Bagel Bakery","code":null,"latitude":44.73193,"longitude":-93.2226,"address":"7745 150th Street West, Saint Paul MN","chain_name":null,"distance":0,"street_number":null,"street_name":"150th Street West","zip":"55068","city":"Apple Valley","area":null,"county":"Dakota County","state":"Minnesota","country":"us","formatted_address":"Pennock Ln, 150th Street West, Apple Valley, Dakota County, Minnesota, 55068, United States of America","place_id":"6571568","datatype":"locationiq"},{"name":"Bruegger's Bagel Bakery","code":null,"latitude":43.08659,"longitude":-77.637,"address":"3333 W Henrietta Road, Rochester NY","chain_name":null,"distance":0,"street_number":"3328","street_name":"West Henrietta Road","zip":"14623","city":null,"area":null,"county":"Monroe County","state":"New York","country":"us","formatted_address":"3328, West Henrietta Road, Mortimer, Henrietta Town, Monroe County, New York, 14623, United States of America","place_id":"196454448","datatype":"locationiq"},{"name":"Bruegger's Bagel Bakery","code":null,"latitude":35.9131,"longitude":-79.0558,"address":"104 W Franklin Street, Chapel Hill NC","chain_name":null,"distance":0,"street_number":null,"street_name":"West Franklin Street","zip":"27516","city":null,"area":null,"county":"Orange County","state":"North Carolina","country":"us","formatted_address":"Jasmin Mediterranean, West Franklin Street, Chapel Hill, Orange County, North Carolina, 27516, United States of America","place_id":"58390579","datatype":"locationiq"},{"name":"Bruegger's Bagels","code":null,"latitude":40.50479,"longitude":-80.2084,"address":"1134 Thorn Run Road, Coraopolis PA","chain_name":null,"distance":0,"street_number":null,"street_name":"Thorn Run Road","zip":"15108","city":null,"area":null,"county":"Allegheny County","state":"Pennsylvania","country":"us","formatted_address":"Moon Police Department, Thorn Run Road, Moon Township, Allegheny County, Pennsylvania, 15108, United States of America","place_id":"3713316","datatype":"locationiq"},{"name":"Brueggers Bagel Bakery","code":null,"latitude":39.67995,"longitude":-104.9593,"address":"2000 S University Boulevard, Denver CO","chain_name":null,"distance":0,"street_number":null,"street_name":"South University Boulevard","zip":"80210","city":"Denver","area":"Platt Park","county":"Denver County","state":"Colorado","country":"us","formatted_address":"Crimson and Gold, South University Boulevard, Platt Park, Denver, Denver County, Colorado, 80210, United States of America","place_id":"29001069","datatype":"locationiq"},{"name":"Bruegger's Bagel Bakery","code":null,"latitude":41.5015,"longitude":-81.5196,"address":"14483 Cedar Road, Cleveland OH","chain_name":null,"distance":0,"street_number":null,"street_name":"Cedar Road","zip":"44040","city":null,"area":null,"county":"Cuyahoga County","state":"Ohio","country":"us","formatted_address":"CVS\/Pharmacy, Cedar Road, University Heights, Cuyahoga County, Ohio, 44040, United States of America","place_id":"12844829","datatype":"locationiq"},{"name":"Bruegger's Bagels","code":null,"latitude":40.42875,"longitude":-79.9803,"address":"1801 East Carson Street, Pittsburgh PA","chain_name":null,"distance":0,"street_number":"1801","street_name":"East Carson Street","zip":"15203","city":"Pittsburgh","area":"South Side Flats","county":"Allegheny County","state":"Pennsylvania","country":"us","formatted_address":"Bruegger's Bagels, 1801, East Carson Street, South Side Flats, Pittsburgh, Allegheny County, Pennsylvania, 15203, United States of America","place_id":"116933426","datatype":"locationiq"},{"name":"Bruegger's Bagel Bakery","code":null,"latitude":41.46446,"longitude":-81.5077,"address":"24215 Chagrin Boulevard, Beachwood OH","chain_name":null,"distance":0,"street_number":null,"street_name":"Chagrin Boulevard","zip":"44124","city":null,"area":null,"county":"Cuyahoga County","state":"Ohio","country":"us","formatted_address":"Ruby Tuesday, Chagrin Boulevard, Beachwood, Cuyahoga County, Ohio, 44124, United States of America","place_id":"138396511","datatype":"locationiq"},{"name":"Bruegger's Bagel Bakery","code":null,"latitude":43.32755,"longitude":-73.6676,"address":"711 Upper Glen Street, Queensbury NY","chain_name":null,"distance":0,"street_number":"773","street_name":"Upper Glen Street","zip":"12804","city":null,"area":"Dixon Heights","county":"Warren County","state":"New York","country":"us","formatted_address":"773, Upper Glen Street, Dixon Heights, Queensbury, Warren County, New York, 12804, United States of America","place_id":"197049147","datatype":"locationiq"},{"name":"Bruegger's Bagel Bakery","code":null,"latitude":32.22166,"longitude":-110.9102,"address":"3843 E Broadway Boulevard, Tucson AZ","chain_name":null,"distance":0,"street_number":"600","street_name":"South Alvernon Way","zip":"AZ 85711","city":"Tucson","area":null,"county":"Pima County","state":"Arizona","country":"us","formatted_address":"600, South Alvernon Way, Tucson, Pima County, Arizona, AZ 85711, United States of America","place_id":"25369140","datatype":"locationiq"},{"name":"Bruegger's Bagels","code":null,"latitude":40.44093,"longitude":-80.0023,"address":"26 Market Square, Pittsburgh PA","chain_name":null,"distance":0,"street_number":"21","street_name":"Market Street","zip":"15222","city":"Pittsburgh","area":null,"county":"Allegheny County","state":"Pennsylvania","country":"us","formatted_address":"21, Market Street, Downtown, Pittsburgh, Allegheny County, Pennsylvania, 15222, United States of America","place_id":"116443027","datatype":"locationiq"},{"name":"Bruegger's Bagel Bakery","code":null,"latitude":44.91816,"longitude":-93.503,"address":"4719 County Road 101, Minnetonka MN","chain_name":null,"distance":0,"street_number":null,"street_name":"County Road 101","zip":"55345","city":"Minnetonka","area":null,"county":"Hennepin County","state":"Minnesota","country":"us","formatted_address":"Dairy Queen, County Road 101, Minnetonka, Hennepin County, Minnesota, 55345, United States of America","place_id":"8767518","datatype":"locationiq"},{"name":"Bruegger's Bagel Bakery","code":null,"latitude":39.09997,"longitude":-84.5124,"address":"2 E 4th Street, Cincinnati OH","chain_name":null,"distance":0,"street_number":null,"street_name":"Ogden Alley","zip":"45202","city":"Cincinnati","area":"Lytle Park Historic District","county":"Hamilton County","state":"Ohio","country":"us","formatted_address":"National City Tower, Ogden Alley, Lytle Park Historic District, Over-The-Rhine, Cincinnati, Hamilton County, Ohio, 45202, United States of America","place_id":"81116441","datatype":"locationiq"},{"name":"Brueggers Bagel Bakery","code":null,"latitude":39.74689,"longitude":-104.9919,"address":"817 17th Street, Denver CO","chain_name":null,"distance":0,"street_number":"817","street_name":"17th Street","zip":"80202","city":"Denver","area":"Upper Downtown","county":"Denver County","state":"Colorado","country":"us","formatted_address":"Bank Lofts, 817, 17th Street, Upper Downtown, Denver, Denver County, Colorado, 80202, United States of America","place_id":"98131360","datatype":"locationiq"},{"name":"Bruegger's Bagel Bakery","code":null,"latitude":32.40896,"longitude":-110.9958,"address":"11165 N La Canada Drive, Tucson AZ","chain_name":null,"distance":0,"street_number":"11151","street_name":"North La Canada Drive","zip":"85737","city":null,"area":null,"county":"Pima County","state":"Arizona","country":"us","formatted_address":"11151, North La Canada Drive, Tortolita, Pima County, Arizona, 85737, United States of America","place_id":"177407404","datatype":"locationiq"},{"name":"Bruegger's Bagel Bakery","code":null,"latitude":42.59876,"longitude":-73.7099,"address":"Route 4 & Highway 20, East Greenbush NY","chain_name":null,"distance":0,"street_number":null,"street_name":"Columbia Turnpike","zip":"12061","city":null,"area":null,"county":"Rensselaer County","state":"New York","country":"us","formatted_address":"Subway, Columbia Turnpike, East Greenbush, Town of East Greenbush, Rensselaer County, New York, 12061, United States of America","place_id":"105889174","datatype":"locationiq"},{"name":"Bruegger's Bagel Bakery","code":null,"latitude":35.08857,"longitude":-80.8672,"address":"8706 Pineville Matthews Road, Charlotte NC","chain_name":null,"distance":0,"street_number":null,"street_name":"Pineville-Matthews Road","zip":"28226","city":null,"area":null,"county":"Mecklenburg County","state":"North Carolina","country":"us","formatted_address":"Bruegger\u2019s Bagel, Pineville-Matthews Road, Tower Place Festival Shopping Center, Pineville, Mecklenburg County, North Carolina, 28226, United States of America","place_id":"45782601","datatype":"locationiq"},{"name":"Brueggers","code":null,"latitude":42.35389,"longitude":-71.0583,"address":"91 Summer Street, Boston MA","chain_name":null,"distance":0,"street_number":null,"street_name":"Summer Street","zip":"02110-1301","city":"Boston","area":"Church Green","county":"Suffolk County","state":"Massachusetts","country":"us","formatted_address":"Financial District\/Downtown, Summer Street, Church Green, Financial District, Boston, Suffolk County, Massachusetts, 02110-1301, United States of America","place_id":"174635028","datatype":"locationiq"},{"name":"Brueggers","code":null,"latitude":35.7514,"longitude":-78.7437,"address":"8204 Tryon Woods Drive, Cary NC","chain_name":null,"distance":0,"street_number":"5147","street_name":"Underwood Arbor Place","zip":"27518","city":null,"area":null,"county":"Wake County","state":"North Carolina","country":"us","formatted_address":"5147, Underwood Arbor Place, Cary, Wake County, North Carolina, 27518, United States of America","place_id":"198369441","datatype":"locationiq"},{"name":"Brueggers Bagel Bakery","code":null,"latitude":40.0975,"longitude":-83.0924,"address":"4425 West Dublin Granville Road, Dublin OH","chain_name":null,"distance":0,"street_number":null,"street_name":"Dublin \u2013 Granville Road","zip":"43017","city":"Dublin","area":null,"county":"Franklin County","state":"Ohio","country":"us","formatted_address":"Dublin \u2013 Granville Road, Sun Center, Dublin, Franklin County, Ohio, 43017, United States of America","place_id":"98247383","datatype":"locationiq"},{"name":"Bruegger's Bagel Bakery","code":null,"latitude":40.45061,"longitude":-79.9354,"address":"806 S Aiken Avenue, Pittsburgh PA","chain_name":null,"distance":0,"street_number":"811","street_name":"South Aiken Avenue","zip":"15232","city":"Pittsburgh","area":null,"county":"Allegheny County","state":"Pennsylvania","country":"us","formatted_address":"Schiller's Pharmacy, 811, South Aiken Avenue, Shadyside, Pittsburgh, Allegheny County, Pennsylvania, 15232, United States of America","place_id":"111622741","datatype":"locationiq"},{"name":"Brueggers Bagel Bakery","code":null,"latitude":33.57232,"longitude":-117.7233,"address":"26921 Aliso Creek Road, Aliso Viejo CA","chain_name":null,"distance":0,"street_number":null,"street_name":"Town Center","zip":"92656","city":"Aliso Viejo","area":null,"county":"Orange County","state":"California","country":"us","formatted_address":"Circle K, Town Center, Aliso Viejo Town Center, Aliso Viejo, Orange County, California, 92656, United States of America","place_id":"80594448","datatype":"locationiq"},{"name":"Bruegger's Bagels","code":null,"latitude":45.02599,"longitude":-93.3802,"address":"3858 Winnetka Avenue North, Minneapolis MN","chain_name":null,"distance":0,"street_number":null,"street_name":"Winnetka Avenue North","zip":"55428","city":"New Hope","area":null,"county":"Hennepin County","state":"Minnesota","country":"us","formatted_address":"38 1\/2 Av N, Winnetka Avenue North, New Hope, Hennepin County, Minnesota, 55428, United States of America","place_id":"6806176","datatype":"locationiq"},{"name":"Bruegger's Bagel Bakery","code":null,"latitude":33.30538,"longitude":-111.9269,"address":"4929 W Chandler Boulevard # 3, Chandler AZ","chain_name":null,"distance":0,"street_number":null,"street_name":"West Chandler Boulevard","zip":"85226-4880","city":"Chandler","area":null,"county":"Maricopa County","state":"Arizona","country":"us","formatted_address":"West Chandler Boulevard, Chandler, Maricopa County, Arizona, 85226-4880, United States of America","place_id":"164384949","datatype":"locationiq"},{"name":"Bruegger's Bagel Bakery","code":null,"latitude":42.27857,"longitude":-83.7401,"address":"709 N University Avenue, Ann Arbor MI","chain_name":null,"distance":0,"street_number":null,"street_name":"North University Avenue","zip":"48104","city":"Ann Arbor","area":null,"county":"Washtenaw County","state":"Michigan","country":"us","formatted_address":"Walgreens, North University Avenue, Ann Arbor, Washtenaw County, Michigan, 48104, United States of America","place_id":"104404275","datatype":"locationiq"},{"name":"Bruegger's Bagel Bakery","code":null,"latitude":42.72803,"longitude":-73.7602,"address":"594 New Loudon Road # 13, Latham NY","chain_name":null,"distance":0,"street_number":null,"street_name":"New Loudon Road","zip":"12128","city":null,"area":null,"county":"Albany County","state":"New York","country":"us","formatted_address":"Newton Plaza, New Loudon Road, Newtonville, Town of Colonie, Albany County, New York, 12128, United States of America","place_id":"84296277","datatype":"locationiq"},{"name":"Bruegger's Bagels","code":null,"latitude":44.94697,"longitude":-93.0974,"address":"1 7th Place West, Saint Paul MN","chain_name":null,"distance":0,"street_number":"33","street_name":null,"zip":"55102","city":"Saint Paul","area":null,"county":"Ramsey County","state":"Minnesota","country":"us","formatted_address":"Wild Tymes, 33, West 7th Place, Saint Paul, Ramsey County, Minnesota, 55102, United States of America","place_id":"56291477","datatype":"locationiq"},{"name":"Bruegger's","code":null,"latitude":34.15672,"longitude":-118.7561,"address":"5879 Kanan Road, Agoura Hills CA","chain_name":null,"distance":0,"street_number":"5865","street_name":"Kanan Road","zip":"91301","city":"Agoura Hills","area":null,"county":"Los Angeles County","state":"California","country":"us","formatted_address":"5865, Kanan Road, Agoura Hills, Los Angeles County, California, 91301, United States of America","place_id":"178920920","datatype":"locationiq"},{"name":"Bruegger's Bagel Bakery","code":null,"latitude":39.31917,"longitude":-84.3141,"address":"8220 Arbor Square Drive, Mason OH","chain_name":null,"distance":0,"street_number":null,"street_name":"Arbor Square Drive","zip":"45040","city":null,"area":null,"county":"Warren County","state":"Ohio","country":"us","formatted_address":"Arbor Square Drive, Arbor Square, Socialville, Warren County, Ohio, 45040, United States of America","place_id":"78592043","datatype":"locationiq"},{"name":"Bruegger's Bagel Bakery","code":null,"latitude":35.08929,"longitude":-80.8718,"address":"9015 Pineville Matthews Road, Pineville NC","chain_name":null,"distance":0,"street_number":null,"street_name":"Pineville-Matthews Road","zip":"28226","city":null,"area":null,"county":"Mecklenburg County","state":"North Carolina","country":"us","formatted_address":"Starbucks, Pineville-Matthews Road, Pineville, Mecklenburg County, North Carolina, 28226, United States of America","place_id":"142607930","datatype":"locationiq"},{"name":"Bruegger's Bagels","code":null,"latitude":40.4372,"longitude":-79.9229,"address":"1717 Murray Avenue, Pittsburgh PA","chain_name":null,"distance":0,"street_number":null,"street_name":"Murray Avenue","zip":"15217","city":"Pittsburgh","area":null,"county":"Allegheny County","state":"Pennsylvania","country":"us","formatted_address":"Murray Ave. Grill, Murray Avenue, Squirrel Hill South, Pittsburgh, Allegheny County, Pennsylvania, 15217, United States of America","place_id":"15841167","datatype":"locationiq"},{"name":"Bruegger's Bagel Bakery","code":null,"latitude":35.8693,"longitude":-78.621,"address":"6325 Falls Of Neuse Road # 33, Raleigh NC","chain_name":null,"distance":0,"street_number":null,"street_name":"Falls of Neuse Road","zip":"27615","city":"Raleigh","area":null,"county":"Wake County","state":"North Carolina","country":"us","formatted_address":"PDQ, Falls of Neuse Road, Millbrook, Raleigh, Wake County, North Carolina, 27615, United States of America","place_id":"174788749","datatype":"locationiq"},{"name":"Brueggers Bagel Bakery","code":null,"latitude":33.46805,"longitude":-112.0884,"address":"1801 Palmcroft Way Northeast, Phoenix AZ","chain_name":null,"distance":0,"street_number":"1819","street_name":"Palmcroft Way Northeast","zip":"85007","city":"Phoenix","area":null,"county":"Maricopa County","state":"Arizona","country":"us","formatted_address":"1819, Palmcroft Way Northeast, Encanto-Palmcroft, Encanto, Phoenix, Maricopa County, Arizona, 85007, United States of America","place_id":"177059421","datatype":"locationiq"},{"name":"Bruegger's Bagel Bakery","code":null,"latitude":42.72789,"longitude":-73.8445,"address":"1770 Central Avenue # 17, Albany NY","chain_name":null,"distance":0,"street_number":"1762","street_name":"Central Avenue","zip":"12205","city":null,"area":null,"county":"Albany County","state":"New York","country":"us","formatted_address":"1762, Central Avenue, Colonie, Town of Colonie, Albany County, New York, 12205, United States of America","place_id":"87903893","datatype":"locationiq"},{"name":"Brueggers","code":null,"latitude":34.82791,"longitude":-82.3986,"address":"1726 Augusta Street, Greenville SC","chain_name":null,"distance":0,"street_number":"1714","street_name":"Augusta Street","zip":"29605","city":"Greenville","area":"West End","county":"Greenville County","state":"South Carolina","country":"us","formatted_address":"Wells Fargo, 1714, Augusta Street, West End, Greenville, Greenville County, South Carolina, 29605, United States of America","place_id":"166298888","datatype":"locationiq"},{"name":"Bruegger's Bagel Bakery","code":null,"latitude":35.20025,"longitude":-80.8423,"address":"1531 East Boulevard, Charlotte NC","chain_name":null,"distance":0,"street_number":"1524","street_name":"East Boulevard","zip":"28203","city":"Charlotte","area":"Myers Park","county":"Mecklenburg County","state":"North Carolina","country":"us","formatted_address":"Lebowski's Neighborhood Grill, 1524, East Boulevard, Myers Park, Charlotte, Mecklenburg County, North Carolina, 28203, United States of America","place_id":"163398836","datatype":"locationiq"},{"name":"Bruegger's","code":null,"latitude":41.45259,"longitude":-97.0545,"address":"510 E 16th Street, Schuyler NE","chain_name":null,"distance":0,"street_number":"594","street_name":"East 16th Street","zip":"68661","city":"Schuyler","area":null,"county":"Colfax County","state":"Nebraska","country":"us","formatted_address":"594, East 16th Street, Schuyler, Colfax County, Nebraska, 68661, United States of America","place_id":"194485569","datatype":"locationiq"},{"name":"Bruegger's Bagel Bakery","code":null,"latitude":40.44141,"longitude":-79.9571,"address":"3714 Forbes Avenue, Pittsburgh PA","chain_name":null,"distance":0,"street_number":null,"street_name":"Forbes Avenue","zip":"15213","city":"Pittsburgh","area":"Oakland","county":"Allegheny County","state":"Pennsylvania","country":"us","formatted_address":"Brugger's Bakery Cafe, Forbes Avenue, Oakland, Central Oakland, Pittsburgh, Allegheny County, Pennsylvania, 15213, United States of America","place_id":"29097598","datatype":"locationiq"},{"name":"Bruegger's Bagel Bakery","code":null,"latitude":44.96631,"longitude":-93.3494,"address":"1650 Park Place Boulevard, Minneapolis MN","chain_name":null,"distance":0,"street_number":"1673","street_name":"Park Place Boulevard","zip":"55416","city":"St. Louis Park","area":null,"county":"Hennepin County","state":"Minnesota","country":"us","formatted_address":"Wedding Day Diamonds, 1673, Park Place Boulevard, The Shops at West End, St. Louis Park, Hennepin County, Minnesota, 55416, United States of America","place_id":"22393126","datatype":"locationiq"},{"name":"Bruegger's Bagel Bakery","code":null,"latitude":42.3906,"longitude":-82.9148,"address":"17144 Kercheval Avenue, Grosse Pointe MI","chain_name":null,"distance":0,"street_number":null,"street_name":"Kercheval Street","zip":"48230","city":"Grosse Pointe","area":null,"county":"Wayne County","state":"Michigan","country":"us","formatted_address":"Kercheval Street, Grosse Pointe, Wayne County, Michigan, 48230, United States of America","place_id":"172906257","datatype":"locationiq"},{"name":"Bruegger's Bagel Bakery","code":null,"latitude":42.71583,"longitude":-73.8108,"address":"98 Wolf Road # 12, Albany NY","chain_name":null,"distance":0,"street_number":"95","street_name":"Wolf Road","zip":"12205","city":null,"area":null,"county":"Albany County","state":"New York","country":"us","formatted_address":"HSBC, 95, Wolf Road, Colonie, Town of Colonie, Albany County, New York, 12205, United States of America","place_id":"88710945","datatype":"locationiq"},{"name":"Brueggers Bagel Bakery","code":null,"latitude":39.2185,"longitude":-76.0877,"address":"Po Box 462, Chestertown MD","chain_name":null,"distance":0,"street_number":null,"street_name":"Chestertown Road","zip":"21620","city":null,"area":null,"county":"Kent County","state":"Maryland","country":"us","formatted_address":"Chestertown Road, Langford Acres, Kent County, Maryland, 21620, United States of America","place_id":"69926310","datatype":"locationiq"},{"name":"Bruegger's Bagel Bakery","code":null,"latitude":36.1191,"longitude":-79.841,"address":"3211 Battleground Avenue, Greensboro NC","chain_name":null,"distance":0,"street_number":null,"street_name":null,"zip":"27410","city":"Greensboro","area":null,"county":"Guilford County","state":"North Carolina","country":"us","formatted_address":"Applebee's, Atlantic and Yadkin Greenway, Greensboro, Guilford County, North Carolina, 27410, United States of America","place_id":"143291718","datatype":"locationiq"},{"name":"Bruegger's Bagels","code":null,"latitude":40.34764,"longitude":-80.0536,"address":"1720 Washington Road, Pittsburgh PA","chain_name":null,"distance":0,"street_number":"1730","street_name":"Washington Road","zip":"15228","city":null,"area":null,"county":"Allegheny County","state":"Pennsylvania","country":"us","formatted_address":"1730, Washington Road, Mount Lebanon, Allegheny County, Pennsylvania, 15228, United States of America","place_id":"36194015","datatype":"locationiq"},{"name":"Bruegger's Bagels","code":null,"latitude":40.45061,"longitude":-79.9354,"address":"806 South Aiken Avenue, Pittsburgh PA","chain_name":null,"distance":0,"street_number":"811","street_name":"South Aiken Avenue","zip":"15232","city":"Pittsburgh","area":null,"county":"Allegheny County","state":"Pennsylvania","country":"us","formatted_address":"Schiller's Pharmacy, 811, South Aiken Avenue, Shadyside, Pittsburgh, Allegheny County, Pennsylvania, 15232, United States of America","place_id":"111622741","datatype":"locationiq"},{"name":"Bruegger's - Tempe","code":null,"latitude":33.41894,"longitude":-111.9399,"address":"1038 South Mill Avenue, Tempe AZ","chain_name":null,"distance":0,"street_number":null,"street_name":"East 10th Street","zip":"85281","city":null,"area":null,"county":"Maricopa County","state":"Arizona","country":"us","formatted_address":"Nelson Fine Arts Center, East 10th Street, Tempe Junction, Maricopa County, Arizona, 85281, United States of America","place_id":"3755017","datatype":"locationiq"},{"name":"Bruegger's Bagel Bakery","code":null,"latitude":41.4633,"longitude":-81.9544,"address":"30155 Detroit Road, Westlake OH","chain_name":null,"distance":0,"street_number":null,"street_name":"Detroit Road","zip":"44145","city":null,"area":null,"county":"Cuyahoga County","state":"Ohio","country":"us","formatted_address":"McDonald's, Detroit Road, Westlake, Cuyahoga County, Ohio, 44145, United States of America","place_id":"158923757","datatype":"locationiq"},{"name":"Bruegger's Bagel Bakery","code":null,"latitude":41.13539,"longitude":-81.5549,"address":"1821 Merriman Road, Akron OH","chain_name":null,"distance":0,"street_number":null,"street_name":"Merriman Road","zip":"44313","city":"Akron","area":"Waters Edge","county":"Summit County","state":"Ohio","country":"us","formatted_address":"McDonald's, Merriman Road, Waters Edge, Merriman Valley, Akron, Summit County, Ohio, 44313, United States of America","place_id":"143344153","datatype":"locationiq"},{"name":"Brueggers","code":null,"latitude":34.7302,"longitude":-86.5885,"address":"100 Church Street Southwest Suite 150, Huntsville AL","chain_name":null,"distance":0,"street_number":null,"street_name":"Clinton Avenue West","zip":"35801","city":"Huntsville","area":null,"county":"Madison County","state":"Alabama","country":"us","formatted_address":"Bench, Clinton Avenue West, Huntsville, Madison County, Alabama, 35801, United States of America","place_id":"8297647","datatype":"locationiq"},{"name":"Bruegger's Bagel Bakery","code":null,"latitude":39.14701,"longitude":-84.4289,"address":"3842 Paxton Avenue, Cincinnati OH","chain_name":null,"distance":0,"street_number":"3920","street_name":"Paxton Avenue","zip":"45209","city":"Cincinnati","area":null,"county":"Hamilton County","state":"Ohio","country":"us","formatted_address":"3920, Paxton Avenue, Hyde Park Plaza, Oakley, Cincinnati, Hamilton County, Ohio, 45209, United States of America","place_id":"199295158","datatype":"locationiq"},{"name":"Bruegger's Bagel Bakery","code":null,"latitude":32.22189,"longitude":-110.9712,"address":"1 W Congress Street, Tucson AZ","chain_name":null,"distance":0,"street_number":"32","street_name":"North Stone Avenue","zip":"85701","city":"Tucson","area":"El Presidio","county":"Pima County","state":"Arizona","country":"us","formatted_address":"Pima County Legal Services Building, 32, North Stone Avenue, El Presidio, Tucson, Pima County, Arizona, 85701, United States of America","place_id":"77764787","datatype":"locationiq"},{"name":"Bruegger's Bagel Bakery","code":null,"latitude":42.8605,"longitude":-73.7809,"address":"19 Clifton Country Road # 7, Clifton Park NY","chain_name":null,"distance":0,"street_number":null,"street_name":"Southside Drive","zip":"12065","city":null,"area":null,"county":"Saratoga County","state":"New York","country":"us","formatted_address":"Trustco Bank, Southside Drive, Village Plaza, Clifton Park, Town of Clifton Park, Saratoga County, New York, 12065, United States of America","place_id":"17518234","datatype":"locationiq"},{"name":"Brueggers Bagel Bakery","code":null,"latitude":33.08608,"longitude":-117.2686,"address":"7680 El Camino Real, Carlsbad CA","chain_name":null,"distance":0,"street_number":"7690","street_name":"El Camino Real","zip":"92009","city":"Carlsbad","area":null,"county":"San Diego County","state":"California","country":"us","formatted_address":"Opus Bank, 7690, El Camino Real, Carlsbad, San Diego County, California, 92009, United States of America","place_id":"11246114","datatype":"locationiq"},{"name":"Bruegger's Bagel Bakery","code":null,"latitude":41.45991,"longitude":-81.859,"address":"21619 Center Ridge Road, Rocky River OH","chain_name":null,"distance":0,"street_number":"21629","street_name":"Center Ridge Road","zip":"44116","city":null,"area":null,"county":"Cuyahoga County","state":"Ohio","country":"us","formatted_address":"21629, Center Ridge Road, Westlake, Cuyahoga County, Ohio, 44116, United States of America","place_id":"199023796","datatype":"locationiq"},{"name":"Bruegger's Bagel Bakery","code":null,"latitude":45.02133,"longitude":-93.1688,"address":"2712 Lincoln Drive, Saint Paul MN","chain_name":null,"distance":0,"street_number":null,"street_name":"Lincoln Drive","zip":"55113","city":"Roseville","area":null,"county":"Ramsey County","state":"Minnesota","country":"us","formatted_address":"Lincoln Drive, Roseville, Ramsey County, Minnesota, 55113, United States of America","place_id":"70127432","datatype":"locationiq"},{"name":"Bruegger's Bagels","code":null,"latitude":40.4399,"longitude":-79.9965,"address":"531 Grant Street, Pittsburgh PA","chain_name":null,"distance":0,"street_number":"501","street_name":"Grant Street","zip":"15222","city":"Pittsburgh","area":null,"county":"Allegheny County","state":"Pennsylvania","country":"us","formatted_address":"Union Trust Building, 501, Grant Street, Downtown, Pittsburgh, Allegheny County, Pennsylvania, 15222, United States of America","place_id":"96301413","datatype":"locationiq"},{"name":"Bruegger's Bagel Bakery","code":null,"latitude":35.3126,"longitude":-80.7432,"address":"9211 N Tryon Street, Charlotte NC","chain_name":null,"distance":0,"street_number":null,"street_name":"Grove Crest Lane","zip":"28262","city":"Charlotte","area":null,"county":"Mecklenburg County","state":"North Carolina","country":"us","formatted_address":"Chipotle, Grove Crest Lane, Charlotte, Mecklenburg County, North Carolina, 28262, United States of America","place_id":"51431504","datatype":"locationiq"},{"name":"Brueggers Bagel Bakery","code":null,"latitude":36.09812,"longitude":-80.2471,"address":"310 West 4th Street, Winston Salem NC","chain_name":null,"distance":0,"street_number":"295","street_name":"West 4th Street","zip":"27101","city":"Winston-Salem","area":null,"county":"Forsyth County","state":"North Carolina","country":"us","formatted_address":"Jimmy John's, 295, West 4th Street, Winston-Salem, Forsyth County, North Carolina, 27101, United States of America","place_id":"156469413","datatype":"locationiq"},{"name":"Bruegger's Bagels","code":null,"latitude":40.51506,"longitude":-79.8435,"address":"333 Allegheny Avenue, Oakmont PA","chain_name":null,"distance":0,"street_number":"291","street_name":"Allegheny Avenue","zip":"15139","city":"Oakmont","area":null,"county":"Allegheny County","state":"Pennsylvania","country":"us","formatted_address":"291, Allegheny Avenue, River's Edge, Oakmont, Allegheny County, Pennsylvania, 15139, United States of America","place_id":"201226640","datatype":"locationiq"},{"name":"Bruegger's Bagel Bakery","code":null,"latitude":43.20972,"longitude":-77.6949,"address":"2496 Ridge Road West, Rochester NY","chain_name":null,"distance":0,"street_number":"2497","street_name":"Ridge Road West","zip":"14626","city":null,"area":null,"county":"Monroe County","state":"New York","country":"us","formatted_address":"2497, Ridge Road West, Greece, Greece Town, Monroe County, New York, 14626, United States of America","place_id":"196444302","datatype":"locationiq"},{"name":"Bruegger's Bagel Bakery","code":null,"latitude":42.4888,"longitude":-83.1442,"address":"201 S Main Street, Royal Oak MI","chain_name":null,"distance":0,"street_number":null,"street_name":"East 2nd Street","zip":"48067","city":"Royal Oak","area":null,"county":"Oakland County","state":"Michigan","country":"us","formatted_address":"Bruegger's Bagels, East 2nd Street, Royal Oak, Oakland County, Michigan, 48067, United States of America","place_id":"4369987","datatype":"locationiq"},{"name":"Bruegger's Bagel Bakery","code":null,"latitude":39.18837,"longitude":-84.3632,"address":"7005 Miami Avenue, Cincinnati OH","chain_name":null,"distance":0,"street_number":null,"street_name":"Miami Avenue","zip":"45243","city":"Madeira","area":null,"county":"Hamilton County","state":"Ohio","country":"us","formatted_address":"Starbucks, Miami Avenue, Madeira, Hamilton County, Ohio, 45243, United States of America","place_id":"40128154","datatype":"locationiq"},{"name":"Bruegger's Bagel","code":null,"latitude":40.50479,"longitude":-80.2084,"address":"1134 Thorn Run Road, Moon Township PA","chain_name":null,"distance":0,"street_number":null,"street_name":"Thorn Run Road","zip":"15108","city":null,"area":null,"county":"Allegheny County","state":"Pennsylvania","country":"us","formatted_address":"Moon Police Department, Thorn Run Road, Moon Township, Allegheny County, Pennsylvania, 15108, United States of America","place_id":"3713316","datatype":"locationiq"},{"name":"Brueggers Bagel","code":null,"latitude":42.31917,"longitude":-72.6303,"address":"96 Main Street, Northampton MA","chain_name":null,"distance":0,"street_number":null,"street_name":"Main Street","zip":"01060","city":null,"area":null,"county":"Hampshire County","state":"Massachusetts","country":"us","formatted_address":"Park, Main Street, Northampton, Hampshire County, Massachusetts, 01060, United States of America","place_id":"76934019","datatype":"locationiq"},{"name":"Bruegger's Bagel Bakery","code":null,"latitude":32.30938,"longitude":-110.8926,"address":"5665 N Swan Road, Tucson AZ","chain_name":null,"distance":0,"street_number":"5640","street_name":"North Swan Road","zip":"85718-4525","city":"Tucson","area":"Skyline Bel Aire Estates","county":"Pima County","state":"Arizona","country":"us","formatted_address":"McDonald's, 5640, North Swan Road, Skyline Bel Aire Estates, Catalina Foothills, Tucson, Pima County, Arizona, 85718-4525, United States of America","place_id":"61932605","datatype":"locationiq"},{"name":"Bruegger's Bagel Bakery","code":null,"latitude":35.73802,"longitude":-78.8646,"address":"760 W Williams Street, Apex NC","chain_name":null,"distance":0,"street_number":"790","street_name":"West Williams Street","zip":"27502","city":null,"area":null,"county":"Wake County","state":"North Carolina","country":"us","formatted_address":"Wendy's, 790, West Williams Street, Apex, Wake County, North Carolina, 27502, United States of America","place_id":"131044705","datatype":"locationiq"},{"name":"Bruegger's Bagel Bakery","code":null,"latitude":36.00681,"longitude":-78.9222,"address":"626 9th Street, Durham NC","chain_name":null,"distance":0,"street_number":"1922","street_name":"West Main Street","zip":"27705","city":"Durham","area":"Old West Durham","county":"Durham County","state":"North Carolina","country":"us","formatted_address":"West Durham Bp #450, 1922, West Main Street, Old West Durham, Durham, Durham County, North Carolina, 27705, United States of America","place_id":"75257165","datatype":"locationiq"},{"name":"Bruegger's Bagel Bakery","code":null,"latitude":43.19839,"longitude":-77.9424,"address":"6510 Brockport Spencerport Road, Brockport NY","chain_name":null,"distance":0,"street_number":"6566","street_name":"Brockport Spencerport Road","zip":"14420","city":null,"area":null,"county":"Monroe County","state":"New York","country":"us","formatted_address":"6566, Brockport Spencerport Road, Sweden Center, Sweden Town, Monroe County, New York, 14420, United States of America","place_id":"196468344","datatype":"locationiq"},{"name":"Bruegger's Bagel Bakery","code":null,"latitude":42.73386,"longitude":-84.4785,"address":"505 E Grand River Avenue, East Lansing MI","chain_name":null,"distance":0,"street_number":null,"street_name":"Grand River Avenue","zip":"48824","city":"East Lansing","area":null,"county":"Ingham County","state":"Michigan","country":"us","formatted_address":"USPS, Grand River Avenue, East Lansing, Ingham County, Michigan, 48824, United States of America","place_id":"55694393","datatype":"locationiq"},{"name":"Bruegger's Bagels","code":null,"latitude":40.54079,"longitude":-80.181,"address":"422 Beaver Street, Sewickley PA","chain_name":null,"distance":0,"street_number":null,"street_name":"Locust Place","zip":"15143","city":"Sewickley","area":null,"county":"Allegheny County","state":"Pennsylvania","country":"us","formatted_address":"Nickelodeon Mall, Locust Place, Sewickley, Allegheny County, Pennsylvania, 15143, United States of America","place_id":"163288916","datatype":"locationiq"},{"name":"Bruegger's Bagels","code":null,"latitude":40.43832,"longitude":-79.9985,"address":"429 4th Avenue, Pittsburgh PA","chain_name":null,"distance":0,"street_number":"301","street_name":"Grant Street","zip":"15219","city":"Pittsburgh","area":null,"county":"Allegheny County","state":"Pennsylvania","country":"us","formatted_address":"One Oxford Center, 301, Grant Street, Downtown, Pittsburgh, Allegheny County, Pennsylvania, 15219, United States of America","place_id":"116756618","datatype":"locationiq"},{"name":"Bruegger's Bagel Bakery","code":null,"latitude":39.23307,"longitude":-84.5096,"address":"9172 Winton Road, Cincinnati OH","chain_name":null,"distance":0,"street_number":null,"street_name":"Winton Road","zip":"45218","city":null,"area":null,"county":"Hamilton County","state":"Ohio","country":"us","formatted_address":"Springfield Township Administrative Building, Winton Road, Compton Park, Springfield Township, Hamilton County, Ohio, 45218, United States of America","place_id":"89348684","datatype":"locationiq"},{"name":"Bruegger's Bagel Bakery","code":null,"latitude":45.07966,"longitude":-93.1143,"address":"111 Village Center Drive, Saint Paul MN","chain_name":null,"distance":0,"street_number":null,"street_name":"Village Center Drive","zip":"55126","city":"Shoreview","area":null,"county":"Ramsey County","state":"Minnesota","country":"us","formatted_address":"Bruegger's, Village Center Drive, Shoreview, Ramsey County, Minnesota, 55126, United States of America","place_id":"14641744","datatype":"locationiq"},{"name":"Brueggers bagel","code":null,"latitude":38.80248,"longitude":-77.0619,"address":"500 John Carlyle Street, Alexandria VA","chain_name":null,"distance":0,"street_number":null,"street_name":"Ballenger Avenue","zip":"22314","city":"Alexandria","area":"Lyles-Crouch","county":"Alexandria City","state":"Virginia","country":"us","formatted_address":"Starbucks, Ballenger Avenue, Lyles-Crouch, Alexandria, Alexandria City, Virginia, 22314, United States of America","place_id":"7966123","datatype":"locationiq"},{"name":"Brueggers Bagel Bakery","code":null,"latitude":41.13539,"longitude":-81.5549,"address":"1821 Merriman Road, Akron OH","chain_name":null,"distance":0,"street_number":null,"street_name":"Merriman Road","zip":"44313","city":"Akron","area":"Waters Edge","county":"Summit County","state":"Ohio","country":"us","formatted_address":"McDonald's, Merriman Road, Waters Edge, Merriman Valley, Akron, Summit County, Ohio, 44313, United States of America","place_id":"143344153","datatype":"locationiq"},{"name":"Bruegger's Bagel & Bakery","code":null,"latitude":41.13597,"longitude":-81.6325,"address":"3737 West Market Street, Akron OH","chain_name":null,"distance":0,"street_number":null,"street_name":"West Market Street","zip":"44333","city":"Fairlawn","area":null,"county":"Summit County","state":"Ohio","country":"us","formatted_address":"Best Cuts, West Market Street, Fairlawn, Bath Township, Summit County, Ohio, 44333, United States of America","place_id":"44089814","datatype":"locationiq"},{"name":"Bruegger's Bagel Bakery","code":null,"latitude":44.86143,"longitude":-93.3017,"address":"7801 Southtown Centre, Minneapolis MN","chain_name":null,"distance":0,"street_number":null,"street_name":"Southtown Drive","zip":"55431","city":"Bloomington","area":null,"county":"Hennepin County","state":"Minnesota","country":"us","formatted_address":"Southtown Drive, Bloomington, Hennepin County, Minnesota, 55431, United States of America","place_id":"62909439","datatype":"locationiq"},{"name":"Bruegger's Bagel Bakery","code":null,"latitude":42.5133,"longitude":-83.3593,"address":"29433 Orchard Lake Road, Farmington MI","chain_name":null,"distance":0,"street_number":null,"street_name":"West 13 Mile Road","zip":"48334","city":"Farmington Hills","area":null,"county":"Oakland County","state":"Michigan","country":"us","formatted_address":"BP, West 13 Mile Road, Farmington Hills, Oakland County, Michigan, 48334, United States of America","place_id":"131463537","datatype":"locationiq"},{"name":"Brueggers Bagel","code":null,"latitude":34.73934,"longitude":-86.63,"address":"1317 Putman Drive Northwest, Huntsville AL","chain_name":null,"distance":0,"street_number":"1393","street_name":"Putman Drive Northwest","zip":"35816","city":"Huntsville","area":null,"county":"Madison County","state":"Alabama","country":"us","formatted_address":"1393, Putman Drive Northwest, Huntsville, Madison County, Alabama, 35816, United States of America","place_id":"176501967","datatype":"locationiq"},{"name":"Bruegger's Bagel Bakery","code":null,"latitude":36.10095,"longitude":-86.8708,"address":"5311 Harding Pike, Nashville TN","chain_name":null,"distance":0,"street_number":"5301","street_name":"Harding Pike","zip":"37205","city":"Belle Meade","area":null,"county":"Davidson County","state":"Tennessee","country":"us","formatted_address":"Walgreens, 5301, Harding Pike, Belle Meade, Davidson County, Tennessee, 37205, United States of America","place_id":"171558006","datatype":"locationiq"},{"name":"Bruegger's Bagels","code":null,"latitude":40.44265,"longitude":-79.9961,"address":"411 7th Avenue, Pittsburgh PA","chain_name":null,"distance":0,"street_number":null,"street_name":"Seventh Avenue","zip":"15219","city":"Pittsburgh","area":null,"county":"Allegheny County","state":"Pennsylvania","country":"us","formatted_address":"Chamber of Commerce Building, Seventh Avenue, Downtown, Pittsburgh, Allegheny County, Pennsylvania, 15219, United States of America","place_id":"109545815","datatype":"locationiq"},{"name":"Bruegger's Bagel Bakery","code":null,"latitude":43.05559,"longitude":-76.0853,"address":"3065 Erie Boulevard East, Syracuse NY","chain_name":null,"distance":0,"street_number":null,"street_name":"Headson Drive","zip":"13214","city":"Syracuse","area":"Salt Springs","county":"Onondaga County","state":"New York","country":"us","formatted_address":"Erie Place, Headson Drive, Salt Springs, Syracuse, Town of DeWitt, Onondaga County, New York, 13214, United States of America","place_id":"105785134","datatype":"locationiq"},{"name":"Bruegger's Bagel Bakery","code":null,"latitude":40.43787,"longitude":-79.9229,"address":"1719 Murray Avenue, Pittsburgh PA","chain_name":null,"distance":0,"street_number":null,"street_name":"Forbes Avenue","zip":"15221","city":"Pittsburgh","area":null,"county":"Allegheny County","state":"Pennsylvania","country":"us","formatted_address":"Coldstone Creamery, Forbes Avenue, Squirrel Hill South, Pittsburgh, Allegheny County, Pennsylvania, 15221, United States of America","place_id":"16134451","datatype":"locationiq"},{"name":"Brueggers Bagel Bakeries","code":null,"latitude":44.96631,"longitude":-93.3494,"address":"1650 Park Place Boulevard, Minneapolis MN","chain_name":null,"distance":0,"street_number":"1673","street_name":"Park Place Boulevard","zip":"55416","city":"St. Louis Park","area":null,"county":"Hennepin County","state":"Minnesota","country":"us","formatted_address":"Wedding Day Diamonds, 1673, Park Place Boulevard, The Shops at West End, St. Louis Park, Hennepin County, Minnesota, 55416, United States of America","place_id":"22393126","datatype":"locationiq"},{"name":"Bruegger's Bagel Bakery","code":null,"latitude":35.90984,"longitude":-78.7844,"address":"8211 Brier Creek Parkway, Raleigh NC","chain_name":null,"distance":0,"street_number":null,"street_name":"Brier Creek Parkway","zip":"27617","city":"Raleigh","area":null,"county":"Wake County","state":"North Carolina","country":"us","formatted_address":"Longhorn Steakhouse, Brier Creek Parkway, Brier Creek, Raleigh, Wake County, North Carolina, 27617, United States of America","place_id":"94974037","datatype":"locationiq"},{"name":"Bruegger's Bagel Bakery","code":null,"latitude":42.65637,"longitude":-71.1404,"address":"10 Main St, Andover MA","chain_name":null,"distance":0,"street_number":null,"street_name":"Park Street","zip":"01810","city":null,"area":"Frye Circle (Andover Housing Authority)","county":"Essex County","state":"Massachusetts","country":"us","formatted_address":"Starbucks, Park Street, Frye Circle (Andover Housing Authority), Andover, Essex County, Massachusetts, 01810, United States of America","place_id":"1608062","datatype":"locationiq"},{"name":"Bruegger's Bagel Bakery","code":null,"latitude":43.12205,"longitude":-76.1569,"address":"5198 W Taft Road, Syracuse NY","chain_name":null,"distance":0,"street_number":null,"street_name":"West Taft Road","zip":"13212","city":null,"area":null,"county":"Onondaga County","state":"New York","country":"us","formatted_address":"West Taft Road, Town of Clay, Onondaga County, New York, 13212, United States of America","place_id":"146913734","datatype":"locationiq"},{"name":"Bruegger's Bagel Bakery","code":null,"latitude":41.30626,"longitude":-81.8352,"address":"15035 Pearl Road, Strongsville OH","chain_name":null,"distance":0,"street_number":"15029","street_name":"Pearl Road","zip":"44136","city":null,"area":null,"county":"Cuyahoga County","state":"Ohio","country":"us","formatted_address":"Chipotle, 15029, Pearl Road, Strongsville, Cuyahoga County, Ohio, 44136, United States of America","place_id":"39412344","datatype":"locationiq"},{"name":"Bruegger's Bagel Bakery","code":null,"latitude":42.2529,"longitude":-83.7498,"address":"2260 S Main Street, Ann Arbor MI","chain_name":null,"distance":0,"street_number":null,"street_name":"South Main Street","zip":"48103","city":"Ann Arbor","area":null,"county":"Washtenaw County","state":"Michigan","country":"us","formatted_address":"#24, South Main Street, Ann Arbor, Washtenaw County, Michigan, 48103, United States of America","place_id":"56130707","datatype":"locationiq"},{"name":"Bruegger's Bagel Bakery","code":null,"latitude":43.19178,"longitude":-77.5028,"address":"1950 Empire Boulevard # 53, Webster NY","chain_name":null,"distance":0,"street_number":"1876","street_name":"Empire Boulevard","zip":"14580","city":null,"area":null,"county":"Monroe County","state":"New York","country":"us","formatted_address":"1876, Empire Boulevard, West Webster, Webster Town, Monroe County, New York, 14580, United States of America","place_id":"196432484","datatype":"locationiq"},{"name":"Bruegger's Bagels","code":null,"latitude":40.34394,"longitude":-79.9713,"address":"5217 Clairton Boulevard, Pittsburgh PA","chain_name":null,"distance":0,"street_number":null,"street_name":"Clairton Boulevard","zip":"15025","city":"Whitehall","area":null,"county":"Allegheny County","state":"Pennsylvania","country":"us","formatted_address":"Brueger's Bagels, Clairton Boulevard, Whitehall, Allegheny County, Pennsylvania, 15025, United States of America","place_id":"13913168","datatype":"locationiq"},{"name":"Brueggers Bagel Bakery","code":null,"latitude":41.30626,"longitude":-81.8352,"address":"15035 Pearl Road, Strongsville OH","chain_name":null,"distance":0,"street_number":"15029","street_name":"Pearl Road","zip":"44136","city":null,"area":null,"county":"Cuyahoga County","state":"Ohio","country":"us","formatted_address":"Chipotle, 15029, Pearl Road, Strongsville, Cuyahoga County, Ohio, 44136, United States of America","place_id":"39412344","datatype":"locationiq"},{"name":"Bruegger's Bagel Bakery","code":null,"latitude":39.71196,"longitude":-105.133,"address":"180 S Union Boulevard, Denver CO","chain_name":null,"distance":0,"street_number":null,"street_name":"West Cedar Drive","zip":"80225","city":"Lakewood","area":"Green Mountain Village","county":"Jefferson County","state":"Colorado","country":"us","formatted_address":"Loaf 'n Jug, West Cedar Drive, Green Mountain Village, Lakewood, Jefferson County, Colorado, 80225, United States of America","place_id":"7467879","datatype":"locationiq"},{"name":"Bruegger's Bagel Bakery","code":null,"latitude":35.83768,"longitude":-78.6412,"address":"4261 Six Forks Road, Raleigh NC","chain_name":null,"distance":0,"street_number":"4242","street_name":"Six Forks Road","zip":"27609","city":"Raleigh","area":null,"county":"Wake County","state":"North Carolina","country":"us","formatted_address":"Bank of America Tower, 4242, Six Forks Road, Five Points, Raleigh, Wake County, North Carolina, 27609, United States of America","place_id":"167009136","datatype":"locationiq"},{"name":"Bruegger's Bagel Bakery","code":null,"latitude":44.9752,"longitude":-93.2714,"address":"121 S 8th Street # 205, Minneapolis MN","chain_name":null,"distance":0,"street_number":"801","street_name":"Marquette Avenue South","zip":"55401","city":"Minneapolis","area":"St Anthony West","county":"Hennepin County","state":"Minnesota","country":"us","formatted_address":"TCF Bank Building, 801, Marquette Avenue South, St Anthony West, Phillips, Minneapolis, Hennepin County, Minnesota, 55401, United States of America","place_id":"147678964","datatype":"locationiq"},{"name":"Bruegger's Bagel Bakery","code":null,"latitude":42.29886,"longitude":-71.3957,"address":"1 Worcester Road # 109, Framingham MA","chain_name":null,"distance":0,"street_number":"1","street_name":"Worcester Road","zip":"01701","city":null,"area":null,"county":"Middlesex County","state":"Massachusetts","country":"us","formatted_address":"TGI Fridays, 1, Worcester Road, Framingham, Middlesex County, Massachusetts, 01701, United States of America","place_id":"169203025","datatype":"locationiq"},{"name":"Brueggers Bagel Bakeries","code":null,"latitude":44.04119,"longitude":-92.4646,"address":"102 Elton Hills Lane Northwest, Rochester MN","chain_name":null,"distance":0,"street_number":null,"street_name":"Elton Hills Lane Northwest","zip":"55901","city":"Rochester","area":null,"county":"Olmsted County","state":"Minnesota","country":"us","formatted_address":"Bluestem Center, Elton Hills Lane Northwest, Rochester, Olmsted County, Minnesota, 55901, United States of America","place_id":"101140990","datatype":"locationiq"},{"name":"Bruegger's Bagels","code":null,"latitude":36.11424,"longitude":-79.8344,"address":"2959 Battleground Avenue, Greensboro NC","chain_name":null,"distance":0,"street_number":null,"street_name":null,"zip":"27410","city":"Greensboro","area":null,"county":"Guilford County","state":"North Carolina","country":"us","formatted_address":"Happy Tails Emergency Vet Clinic, Atlantic and Yadkin Greenway, Greensboro, Guilford County, North Carolina, 27410, United States of America","place_id":"143492073","datatype":"locationiq"},{"name":"Bruegger's Bagel Bakery","code":null,"latitude":35.77738,"longitude":-78.6782,"address":"2231 Avent Ferry Road, Raleigh NC","chain_name":null,"distance":0,"street_number":null,"street_name":"Centennial Parkway","zip":"27606","city":"Raleigh","area":null,"county":"Wake County","state":"North Carolina","country":"us","formatted_address":"Burger King, Centennial Parkway, Mission Valley Shopping Center, West Raleigh, Raleigh, Wake County, North Carolina, 27606, United States of America","place_id":"81168041","datatype":"locationiq"},{"name":"Bruegger's Bagel Bakery","code":null,"latitude":32.22158,"longitude":-110.86,"address":"6165 E Broadway Boulevard, Tucson AZ","chain_name":null,"distance":0,"street_number":null,"street_name":"East Broadway Boulevard","zip":"85711","city":"Tucson","area":"El Gheko","county":"Pima County","state":"Arizona","country":"us","formatted_address":"Sweet Tomatoes, East Broadway Boulevard, El Gheko, Tucson, Pima County, Arizona, 85711, United States of America","place_id":"123818473","datatype":"locationiq"},{"name":"Bruegger's Bagel Bakery","code":null,"latitude":41.71144,"longitude":-83.6804,"address":"5829 Monroe Street, Sylvania OH","chain_name":null,"distance":0,"street_number":"5812","street_name":"Monroe Street","zip":"43560","city":"Sylvania","area":"Franklin Park","county":"Lucas County","state":"Ohio","country":"us","formatted_address":"5812, Monroe Street, Franklin Park, Sylvania, Lucas County, Ohio, 43560, United States of America","place_id":"199519590","datatype":"locationiq"},{"name":"Bruegger's Bagel Bakery","code":null,"latitude":42.24917,"longitude":-70.9065,"address":"211 Lincoln Street, Hingham MA","chain_name":null,"distance":0,"street_number":"231","street_name":"Lincoln Street","zip":"02043","city":null,"area":null,"county":"Plymouth County","state":"Massachusetts","country":"us","formatted_address":"231, Lincoln Street, Hingham Shipyard, Hingham, Plymouth County, Massachusetts, 02043, United States of America","place_id":"190480728","datatype":"locationiq"},{"name":"Bruegger's Bagel Bakery","code":null,"latitude":41.13582,"longitude":-81.6346,"address":"3737 W Market Street # Centre, Akron OH","chain_name":null,"distance":0,"street_number":null,"street_name":"West Market Street","zip":"44333","city":"Fairlawn","area":null,"county":"Summit County","state":"Ohio","country":"us","formatted_address":"Fidelity Investments, West Market Street, Fairlawn, Bath Township, Summit County, Ohio, 44333, United States of America","place_id":"139851524","datatype":"locationiq"},{"name":"Bruegger's Bagel Bakery","code":null,"latitude":33.36311,"longitude":-111.8418,"address":"721 N Arizona Avenue # 1, Gilbert AZ","chain_name":null,"distance":0,"street_number":null,"street_name":"South Country Club Drive","zip":"85210","city":null,"area":null,"county":"Maricopa County","state":"Arizona","country":"us","formatted_address":"South Country Club Drive, New Horizons, Maricopa County, Arizona, 85210, United States of America","place_id":"163890766","datatype":"locationiq"},{"name":"Bruegger's Bagel Bakery","code":null,"latitude":42.68924,"longitude":-73.8526,"address":"1475 Wern Avenue, Albany NY","chain_name":null,"distance":0,"street_number":null,"street_name":"Crossgates Mall Road","zip":"12203","city":null,"area":null,"county":"Albany County","state":"New York","country":"us","formatted_address":"Crossgates Mall Road, Crossgates Mall, Westmere, Town of Guilderland, Albany County, New York, 12203, United States of America","place_id":"78728820","datatype":"locationiq"},{"name":"Bruegger's Bagel Bakery","code":null,"latitude":42.25922,"longitude":-71.0418,"address":"360 Granite Avenue, Milton MA","chain_name":null,"distance":0,"street_number":null,"street_name":"Granite Avenue","zip":"02171","city":null,"area":"East Milton","county":"Norfolk County","state":"Massachusetts","country":"us","formatted_address":"Granite Ave @ Bassett St, Granite Avenue, East Milton, Milton, Norfolk County, Massachusetts, 02171, United States of America","place_id":"16147960","datatype":"locationiq"},{"name":"Bruegger's Bagel Bakery","code":null,"latitude":35.9019,"longitude":-78.6574,"address":"9704 Strickland Road, Raleigh NC","chain_name":null,"distance":0,"street_number":null,"street_name":"Strickland Road","zip":"27615","city":"Raleigh","area":null,"county":"Wake County","state":"North Carolina","country":"us","formatted_address":"Bruegger's Bagels, Strickland Road, Harvest Plaza, Six Forks, Raleigh, Wake County, North Carolina, 27615, United States of America","place_id":"81473793","datatype":"locationiq"},{"name":"Brueggers Bagel Bakery","code":null,"latitude":41.67729,"longitude":-81.3092,"address":"9210 Mentor Avenue, Mentor OH","chain_name":null,"distance":0,"street_number":"9371","street_name":"Mentor Avenue","zip":"44077","city":"Willoughby","area":null,"county":"Lake County","state":"Ohio","country":"us","formatted_address":"9371, Mentor Avenue, Willoughby, Lake County, Ohio, 44077, United States of America","place_id":"199414459","datatype":"locationiq"},{"name":"Bruegger's Bagel Bakery","code":null,"latitude":32.3405,"longitude":-111.0126,"address":"7320 N La Cholla Boulevard # 124, Tucson AZ","chain_name":null,"distance":0,"street_number":"7402","street_name":"North la Cholla Boulevard","zip":"85741","city":"Tucson","area":"Tucson National Estates","county":"Pima County","state":"Arizona","country":"us","formatted_address":"7402, North la Cholla Boulevard, Tucson National Estates, Flowing Wells, Tucson, Pima County, Arizona, 85741, United States of America","place_id":"177387375","datatype":"locationiq"},{"name":"Bruegger's Bagel Bakery","code":null,"latitude":40.42875,"longitude":-79.9803,"address":"1801 E Carson Street, Pittsburgh PA","chain_name":null,"distance":0,"street_number":"1801","street_name":"East Carson Street","zip":"15203","city":"Pittsburgh","area":"South Side Flats","county":"Allegheny County","state":"Pennsylvania","country":"us","formatted_address":"Bruegger's Bagels, 1801, East Carson Street, South Side Flats, Pittsburgh, Allegheny County, Pennsylvania, 15203, United States of America","place_id":"116933426","datatype":"locationiq"},{"name":"Bruegger's Bagel Bakery","code":null,"latitude":32.25085,"longitude":-110.8398,"address":"7127 E Tanque Verde Road, Tucson AZ","chain_name":null,"distance":0,"street_number":"7137","street_name":"East Tanque Verde Road","zip":"85715","city":"Tucson","area":null,"county":"Pima County","state":"Arizona","country":"us","formatted_address":"7137, East Tanque Verde Road, Tucson, Pima County, Arizona, 85715, United States of America","place_id":"177381847","datatype":"locationiq"},{"name":"Brueggers Bagel Bakeries","code":null,"latitude":33.6286,"longitude":-117.9089,"address":"488 East 17th Street, Costa Mesa CA","chain_name":null,"distance":0,"street_number":null,"street_name":"East 17th Street","zip":"92667","city":"Newport Beach","area":null,"county":"Orange County","state":"California","country":"us","formatted_address":"East 17th Street, Balboa Island, Newport Beach, Orange County, California, 92667, United States of America","place_id":"156976730","datatype":"locationiq"},{"name":"Bruegger's Bagel Bakery","code":null,"latitude":44.8833,"longitude":-93.3086,"address":"6600 Penn Avenue South, Minneapolis MN","chain_name":null,"distance":0,"street_number":null,"street_name":"Penn Avenue South","zip":"55431","city":null,"area":null,"county":"Hennepin County","state":"Minnesota","country":"us","formatted_address":"66 St W, Penn Avenue South, Richfield, Hennepin County, Minnesota, 55431, United States of America","place_id":"6813651","datatype":"locationiq"},{"name":"Bruegger's Bagel Bakery","code":null,"latitude":42.85094,"longitude":-72.5574,"address":"14 Main Street, Brattleboro VT","chain_name":null,"distance":0,"street_number":null,"street_name":"Canal Street","zip":"05304","city":null,"area":null,"county":"Windham County","state":"Vermont","country":"us","formatted_address":"Food Co-Op, Canal Street, Brattleboro, Windham County, Vermont, 05304, United States of America","place_id":"56548511","datatype":"locationiq"},{"name":"Bruegger's Bagel Bakery","code":null,"latitude":36.14577,"longitude":-86.7995,"address":"422 21st. Avenue South, Nashville TN","chain_name":null,"distance":0,"street_number":null,"street_name":"21st Avenue South","zip":"37232","city":"Nashville-Davidson","area":null,"county":"Davidson County","state":"Tennessee","country":"us","formatted_address":"CVS Pharmacy, 21st Avenue South, East Nashville, Nashville-Davidson, Davidson County, Tennessee, 37232, United States of America","place_id":"20219545","datatype":"locationiq"},{"name":"Bruegger's Bagel Bakery","code":null,"latitude":42.68155,"longitude":-83.1575,"address":"1398 Walton Boulevard, Rochester MI","chain_name":null,"distance":0,"street_number":"1306","street_name":"Walton Boulevard","zip":"48309","city":"Rochester Hills","area":null,"county":"Oakland County","state":"Michigan","country":"us","formatted_address":"1306, Walton Boulevard, Rochester Hills, Oakland County, Michigan, 48309, United States of America","place_id":"191400944","datatype":"locationiq"},{"name":"Bruegger's Bagels","code":null,"latitude":39.0474,"longitude":-84.6702,"address":"3013 Terminal Drive, Cincinnati OH","chain_name":null,"distance":0,"street_number":null,"street_name":"Youell Road","zip":"41048","city":null,"area":null,"county":"Boone County","state":"Kentucky","country":"us","formatted_address":"K, Youell Road, Limaburg, Boone County, Kentucky, 41048, United States of America","place_id":"73130884","datatype":"locationiq"},{"name":"Brueggers Bagel Bakery","code":null,"latitude":42.68155,"longitude":-83.1575,"address":"1398 Walton Boulevard, Rochester MI","chain_name":null,"distance":0,"street_number":"1306","street_name":"Walton Boulevard","zip":"48309","city":"Rochester Hills","area":null,"county":"Oakland County","state":"Michigan","country":"us","formatted_address":"1306, Walton Boulevard, Rochester Hills, Oakland County, Michigan, 48309, United States of America","place_id":"191400944","datatype":"locationiq"},{"name":"Bruegger's Bagel Bakery","code":null,"latitude":42.29592,"longitude":-71.2982,"address":"97 Central Street, Wellesley MA","chain_name":null,"distance":0,"street_number":null,"street_name":"Central Street","zip":"02482","city":null,"area":null,"county":"Norfolk County","state":"Massachusetts","country":"us","formatted_address":"Wellesley Fire Department, Central Street, Wellesley, Norfolk County, Massachusetts, 02482, United States of America","place_id":"719154","datatype":"locationiq"},{"name":"Bruegger's Bagel Bakery","code":null,"latitude":32.29703,"longitude":-110.9739,"address":"98 W River Road, Tucson AZ","chain_name":null,"distance":0,"street_number":"98","street_name":"West River Road","zip":"85704","city":"Tucson","area":null,"county":"Pima County","state":"Arizona","country":"us","formatted_address":"Starbucks, 98, West River Road, Stockham, Tucson, Pima County, Arizona, 85704, United States of America","place_id":"18180617","datatype":"locationiq"},{"name":"Bruegger's Bagel Bakery","code":null,"latitude":44.9773,"longitude":-93.2718,"address":"651 Nicollet Mall, Minneapolis MN","chain_name":null,"distance":0,"street_number":null,"street_name":null,"zip":"55402","city":"Minneapolis","area":"St Anthony West","county":"Hennepin County","state":"Minnesota","country":"us","formatted_address":"Gaviidae Common, Minneapolis Skyway, St Anthony West, Phillips, Minneapolis, Hennepin County, Minnesota, 55402, United States of America","place_id":"174498716","datatype":"locationiq"},{"name":"Bruegger's Bagel Bakery","code":null,"latitude":42.80441,"longitude":-73.9036,"address":"1634 Union Street, Schenectady NY","chain_name":null,"distance":0,"street_number":"1673","street_name":"Union Street","zip":"12309","city":"City of Schenectady","area":null,"county":"Schenectady County","state":"New York","country":"us","formatted_address":"McDonald's, 1673, Union Street, City of Schenectady, Town of Niskayuna, Schenectady County, New York, 12309, United States of America","place_id":"83353162","datatype":"locationiq"},{"name":"Bruegger's Bagel Bakery","code":null,"latitude":36.02699,"longitude":-86.7922,"address":"330 Franklin Road, Brentwood TN","chain_name":null,"distance":0,"street_number":"394","street_name":"Franklin Road","zip":"37027","city":"Brentwood","area":null,"county":"Williamson County","state":"Tennessee","country":"us","formatted_address":"394, Franklin Road, Brentwood, Williamson County, Tennessee, 37027, United States of America","place_id":"204280007","datatype":"locationiq"},{"name":"Bruegger's Bagels","code":null,"latitude":32.95944,"longitude":-117.2651,"address":"1435 Camino Del Mar, Del Mar CA","chain_name":null,"distance":0,"street_number":null,"street_name":"Camino del Mar","zip":"92014","city":"Del Mar","area":null,"county":"San Diego County","state":"California","country":"us","formatted_address":"Del Mar Flower Co., Camino del Mar, Del Mar, San Diego County, California, 92014, United States of America","place_id":"121484926","datatype":"locationiq"},{"name":"Brueggers Bagel Bakery","code":null,"latitude":42.5133,"longitude":-83.3593,"address":"29433 Orchard Lake Road, Farmington MI","chain_name":null,"distance":0,"street_number":null,"street_name":"West 13 Mile Road","zip":"48334","city":"Farmington Hills","area":null,"county":"Oakland County","state":"Michigan","country":"us","formatted_address":"BP, West 13 Mile Road, Farmington Hills, Oakland County, Michigan, 48334, United States of America","place_id":"131463537","datatype":"locationiq"},{"name":"Bruegger's Bagel Bakery","code":null,"latitude":42.72887,"longitude":-73.6915,"address":"55 Congress Street, Troy NY","chain_name":null,"distance":0,"street_number":"55","street_name":"Congress Street","zip":"12180","city":"Troy","area":null,"county":"Rensselaer County","state":"New York","country":"us","formatted_address":"Bruegger's Bagels, 55, Congress Street, Troy, Rensselaer County, New York, 12180, United States of America","place_id":"53670911","datatype":"locationiq"},{"name":"Brueggers Bagel Bakery","code":null,"latitude":38.90375,"longitude":-77.0471,"address":"2101 L Street Northwest, Washington DC","chain_name":null,"distance":0,"street_number":"2101","street_name":"L Street Northwest","zip":"20037","city":"Washington","area":"Golden Triangle","county":null,"state":"District of Columbia","country":"us","formatted_address":"2101 L Street, 2101, L Street Northwest, Golden Triangle, Foggy Bottom, Washington, District of Columbia, 20037, United States of America","place_id":"84492324","datatype":"locationiq"},{"name":"Bruegger's Bagel Bakery","code":null,"latitude":35.56391,"longitude":-82.5424,"address":"160 Hendersonville Road, Asheville NC","chain_name":null,"distance":0,"street_number":null,"street_name":"Lula Street","zip":"28802","city":"Asheville","area":null,"county":"Buncombe County","state":"North Carolina","country":"us","formatted_address":"Lula Street, Asheville, Buncombe County, North Carolina, 28802, United States of America","place_id":"69071787","datatype":"locationiq"},{"name":"Bruegger's Bagel Bakery","code":null,"latitude":41.26868,"longitude":-73.1294,"address":"811 Bridgeport Avenue, Shelton CT","chain_name":null,"distance":0,"street_number":"842","street_name":"Bridgeport Avenue","zip":"06484","city":"Shelton","area":null,"county":"Fairfield County","state":"Connecticut","country":"us","formatted_address":"842, Bridgeport Avenue, Shelton, Fairfield County, Connecticut, 06484, United States of America","place_id":"181259719","datatype":"locationiq"},{"name":"Brueggers Bagel Bakery","code":null,"latitude":42.3906,"longitude":-82.9148,"address":"17144 Kercheval Avenue, Grosse Pointe MI","chain_name":null,"distance":0,"street_number":null,"street_name":"Kercheval Street","zip":"48230","city":"Grosse Pointe","area":null,"county":"Wayne County","state":"Michigan","country":"us","formatted_address":"Kercheval Street, Grosse Pointe, Wayne County, Michigan, 48230, United States of America","place_id":"172906257","datatype":"locationiq"},{"name":"Bruegger's Bagel Bakery","code":null,"latitude":42.34145,"longitude":-71.121,"address":"253 Harvard Street, Brookline MA","chain_name":null,"distance":0,"street_number":null,"street_name":"Longwood Avenue","zip":"02446","city":null,"area":"Coolidge Corner","county":"Suffolk County","state":"Massachusetts","country":"us","formatted_address":"Bruegger's Bagels, Longwood Avenue, Coolidge Corner, Brookline, Suffolk County, Massachusetts, 02446, United States of America","place_id":"25646184","datatype":"locationiq"},{"name":"Bruegger's Bagel Bakery","code":null,"latitude":44.97117,"longitude":-93.4996,"address":"1179 Wayzata Boulevard East, Wayzata MN","chain_name":null,"distance":0,"street_number":null,"street_name":"Wayzata Blvd W","zip":"55391","city":"Wayzata","area":null,"county":"Hennepin County","state":"Minnesota","country":"us","formatted_address":"Wayzata Blvd W, Wayzata, Hennepin County, Minnesota, 55391, United States of America","place_id":"145536406","datatype":"locationiq"},{"name":"Brueggers Bagel Bakery","code":null,"latitude":30.50109,"longitude":-90.4699,"address":"912 West Morris Avenue, Hammond LA","chain_name":null,"distance":0,"street_number":"998","street_name":"West Morris Avenue","zip":"70403","city":"Hammond","area":null,"county":"Tangipahoa Parish","state":"Louisiana","country":"us","formatted_address":"998, West Morris Avenue, Hammond, Tangipahoa Parish, Louisiana, 70403, United States of America","place_id":"189311139","datatype":"locationiq"},{"name":"Bruegger's Bagel Bakery","code":null,"latitude":41.67729,"longitude":-81.3092,"address":"9210 Mentor Avenue, Mentor OH","chain_name":null,"distance":0,"street_number":"9371","street_name":"Mentor Avenue","zip":"44077","city":"Willoughby","area":null,"county":"Lake County","state":"Ohio","country":"us","formatted_address":"9371, Mentor Avenue, Willoughby, Lake County, Ohio, 44077, United States of America","place_id":"199414459","datatype":"locationiq"},{"name":"Bruegger's Bagel Bakery","code":null,"latitude":44.41259,"longitude":-73.2145,"address":"2989 Shelburne Road, Shelburne VT","chain_name":null,"distance":0,"street_number":null,"street_name":"Shelburne Road","zip":"05482","city":"South Burlington","area":null,"county":"Chittenden County","state":"Vermont","country":"us","formatted_address":"Shelburne Road, South Burlington, Chittenden County, Vermont, 05482, United States of America","place_id":"127531798","datatype":"locationiq"},{"name":"Bruegger's Bagels","code":null,"latitude":33.63789,"longitude":-117.5897,"address":"22361 Antonio Parkway, Rancho Santa Margari CA","chain_name":null,"distance":0,"street_number":"22371","street_name":"Antonio Parkway","zip":"92688","city":"Rancho Santa Margarita","area":null,"county":"Orange County","state":"California","country":"us","formatted_address":"Wells Fargo, 22371, Antonio Parkway, Robinson Ranch, Rancho Santa Margarita, Orange County, California, 92688, United States of America","place_id":"162630952","datatype":"locationiq"},{"name":"Brueggers Bagel Bakery","code":null,"latitude":38.89615,"longitude":-77.0239,"address":"505 9th Street Northwest, Washington DC","chain_name":null,"distance":0,"street_number":null,"street_name":"E Street Northwest","zip":"20535","city":"Washington","area":null,"county":null,"state":"District of Columbia","country":"us","formatted_address":"Penn Camera, E Street Northwest, Penn Quarter, Washington, District of Columbia, 20535, United States of America","place_id":"7352255","datatype":"locationiq"},{"name":"Bruegger's Bagel Bakery","code":null,"latitude":43.2311,"longitude":-77.4543,"address":"Webster NY","chain_name":null,"distance":0,"street_number":"1040","street_name":"Klem Road","zip":"14580","city":null,"area":null,"county":"Monroe County","state":"New York","country":"us","formatted_address":"1040, Klem Road, Oklahoma Beach, Webster Town, Monroe County, New York, 14580, United States of America","place_id":"196460934","datatype":"locationiq"},{"name":"Bruegger's Bagel Bakery","code":null,"latitude":32.71564,"longitude":-117.1687,"address":"655 W Broadway, San Diego CA","chain_name":null,"distance":0,"street_number":"655","street_name":"West Broadway","zip":"92101","city":"San Diego","area":null,"county":"San Diego County","state":"California","country":"us","formatted_address":"655, West Broadway, Uptown, San Diego, San Diego County, California, 92101, United States of America","place_id":"2741941","datatype":"locationiq"},{"name":"Bruegger's Bagel Bakery","code":null,"latitude":41.4882,"longitude":-72.8095,"address":"970 N Colony Road # G, Wallingford CT","chain_name":null,"distance":0,"street_number":null,"street_name":"North Colony Road","zip":"06492","city":null,"area":null,"county":"New Haven County","state":"Connecticut","country":"us","formatted_address":"North Colony Road, Tracy, New Haven County, Connecticut, 06492, United States of America","place_id":"96537362","datatype":"locationiq"},{"name":"Bruegger's Bagel Bakery","code":null,"latitude":35.79048,"longitude":-78.8267,"address":"4212 Northwest Cary Parkway, Cary NC","chain_name":null,"distance":0,"street_number":"4212","street_name":"Northwest Cary Parkway","zip":"27513-8446","city":null,"area":null,"county":"Wake County","state":"North Carolina","country":"us","formatted_address":"Bruegger's Bagel Bakery, 4212, Northwest Cary Parkway, Preston Professional Center, Cary, Wake County, North Carolina, 27513-8446, United States of America","place_id":"23185648","datatype":"locationiq"},{"name":"Bruegger's Bagel Bakery","code":null,"latitude":45.0377,"longitude":-92.8409,"address":"1970 Market Drive, Stillwater MN","chain_name":null,"distance":0,"street_number":"1861","street_name":"Market Drive","zip":"55082","city":"Stillwater","area":null,"county":"Washington County","state":"Minnesota","country":"us","formatted_address":"1861, Market Drive, Stillwater, Washington County, Minnesota, 55082, United States of America","place_id":"192653654","datatype":"locationiq"},{"name":"Brueggers Bagel Bakery","code":null,"latitude":44.8833,"longitude":-93.3087,"address":"6600 Penn Avenue South, Minneapolis MN","chain_name":null,"distance":0,"street_number":null,"street_name":"Penn Avenue South","zip":"55431","city":null,"area":null,"county":"Hennepin County","state":"Minnesota","country":"us","formatted_address":"66 St W, Penn Avenue South, Richfield, Hennepin County, Minnesota, 55431, United States of America","place_id":"6813646","datatype":"locationiq"},{"name":"Brueggers Bagel Bakery","code":null,"latitude":39.6145,"longitude":-105.0716,"address":"Littleton CO","chain_name":null,"distance":0,"street_number":"6741","street_name":"West Dorado Drive","zip":"80123","city":"Denver","area":null,"county":"Denver County","state":"Colorado","country":"us","formatted_address":"6741, West Dorado Drive, Denver, Denver County, Colorado, 80123, United States of America","place_id":"180732709","datatype":"locationiq"},{"name":"Bruegger's Bagel Bakery","code":null,"latitude":41.60726,"longitude":-81.4397,"address":"5900 Som Center Road, Willoughby OH","chain_name":null,"distance":0,"street_number":null,"street_name":"S.O.M Center Road","zip":"44095","city":"Willoughby","area":null,"county":"Lake County","state":"Ohio","country":"us","formatted_address":"BP, S.O.M Center Road, Willoughby, Lake County, Ohio, 44095, United States of America","place_id":"77198109","datatype":"locationiq"},{"name":"Bruegger's Bagel Bakery","code":null,"latitude":42.3975,"longitude":-71.1753,"address":"41 Leonard Street, Belmont MA","chain_name":null,"distance":0,"street_number":null,"street_name":"Leonard Street","zip":"02478","city":null,"area":"Cushing Square","county":"Middlesex County","state":"Massachusetts","country":"us","formatted_address":"CVS, Leonard Street, Cushing Square, Belmont, Middlesex County, Massachusetts, 02478, United States of America","place_id":"75955049","datatype":"locationiq"},{"name":"Brueggers Bagel Bakery","code":null,"latitude":43.07153,"longitude":-77.4423,"address":"585 Moseley Rd, Fairport NY","chain_name":null,"distance":0,"street_number":null,"street_name":"Moseley Road","zip":"14564","city":null,"area":"The Glen at Perinton Hills","county":"Monroe County","state":"New York","country":"us","formatted_address":"Canandaigua National Bank & Trust, Moseley Road, The Glen at Perinton Hills, Hannans Corner, Perinton Town, Monroe County, New York, 14564, United States of America","place_id":"16128852","datatype":"locationiq"},{"name":"Bruegger's Bagel Bakery","code":null,"latitude":33.60115,"longitude":-117.8727,"address":"2743 E Coast Highway, Corona Del Mar CA","chain_name":null,"distance":0,"street_number":null,"street_name":"East Coast Highway","zip":"92625","city":"Newport Beach","area":null,"county":"Orange County","state":"California","country":"us","formatted_address":"OCTA, East Coast Highway, Corona del Mar, Newport Beach, Orange County, California, 92625, United States of America","place_id":"7625658","datatype":"locationiq"},{"name":"Bruegger's Bagels","code":null,"latitude":43.06086,"longitude":-89.4855,"address":"6150 Mineral Point Road, Madison WI","chain_name":null,"distance":0,"street_number":null,"street_name":"Mineral Point Road","zip":"53705","city":"Madison","area":"Hill Farms","county":"Dane County","state":"Wisconsin","country":"us","formatted_address":"Jimmy John's, Mineral Point Road, Hill Farms, Madison, Dane County, Wisconsin, 53705, United States of America","place_id":"48025067","datatype":"locationiq"},{"name":"Bruegger's Bagel Bakery","code":null,"latitude":35.93657,"longitude":-79.0265,"address":"1800 E Franklin Street, Chapel Hill NC","chain_name":null,"distance":0,"street_number":null,"street_name":null,"zip":"27514-2885","city":null,"area":null,"county":"Orange County","state":"North Carolina","country":"us","formatted_address":"D, Lower Booker Creek Trail, Chapel Hill, Orange County, North Carolina, 27514-2885, United States of America","place_id":"7383602","datatype":"locationiq"},{"name":"Bruegger's Bagel Bakery","code":null,"latitude":43.1567,"longitude":-77.6047,"address":"133 Midtown Plaza, Rochester NY","chain_name":null,"distance":0,"street_number":null,"street_name":"Cortland Street","zip":"14604","city":"Rochester","area":null,"county":"Monroe County","state":"New York","country":"us","formatted_address":"Midtown Commons, Cortland Street, Rochester, Monroe County, New York, 14604, United States of America","place_id":"153141151","datatype":"locationiq"},{"name":"Bruegger's Bagel Bakery","code":null,"latitude":42.33973,"longitude":-71.1086,"address":"375 Longwood Avenue, Cambridge MA","chain_name":null,"distance":0,"street_number":null,"street_name":"Longwood Avenue","zip":"02215","city":"Boston","area":null,"county":"Suffolk County","state":"Massachusetts","country":"us","formatted_address":"MASCO Building, Longwood Avenue, Fenway, Boston, Suffolk County, Massachusetts, 02215, United States of America","place_id":"75942270","datatype":"locationiq"},{"name":"Bruegger's Bagel Bakery","code":null,"latitude":41.23997,"longitude":-81.4448,"address":"84 W Streetsboro Street, Hudson OH","chain_name":null,"distance":0,"street_number":null,"street_name":"West Streetsboro Street","zip":"44236","city":"Hudson","area":null,"county":"Summit County","state":"Ohio","country":"us","formatted_address":"Wireless Zone, West Streetsboro Street, Hudson, Summit County, Ohio, 44236, United States of America","place_id":"58401100","datatype":"locationiq"},{"name":"Bruegger's Bagel Bakery","code":null,"latitude":44.87401,"longitude":-93.3288,"address":"7101 France Avenue South, Minneapolis MN","chain_name":null,"distance":0,"street_number":null,"street_name":"France Avenue South","zip":"55431","city":null,"area":null,"county":"Hennepin County","state":"Minnesota","country":"us","formatted_address":"Hazelton Rd, France Avenue South, Southdale, Edina, Hennepin County, Minnesota, 55431, United States of America","place_id":"6667990","datatype":"locationiq"},{"name":"Bruegger's Bagel Bakery","code":null,"latitude":41.71919,"longitude":-72.6137,"address":"2801 Main Street, Glastonbury CT","chain_name":null,"distance":0,"street_number":"2790","street_name":"Main Street","zip":"06118","city":null,"area":null,"county":"Hartford County","state":"Connecticut","country":"us","formatted_address":"2790, Main Street, Town of East Hartford, Hartford County, Connecticut, 06118, United States of America","place_id":"4109434","datatype":"locationiq"},{"name":"Brueggers Bagel Bakery","code":null,"latitude":43.08707,"longitude":-77.5971,"address":"Bushnell Basin, Rochester NY","chain_name":null,"distance":0,"street_number":null,"street_name":"Jefferson Road","zip":"14692","city":null,"area":null,"county":"Monroe County","state":"New York","country":"us","formatted_address":"Yellow Freight, Jefferson Road, Ridgeland, Henrietta Town, Monroe County, New York, 14692, United States of America","place_id":"12422553","datatype":"locationiq"},{"name":"Bruegger's Bagel Bakery","code":null,"latitude":32.93715,"longitude":-117.0989,"address":"10625 Scripps Poway Parkway, San Diego CA","chain_name":null,"distance":0,"street_number":"10605","street_name":"Scripps Poway Parkway","zip":"92131","city":"San Diego","area":null,"county":"San Diego County","state":"California","country":"us","formatted_address":"10605, Scripps Poway Parkway, Mira Mesa, San Diego, San Diego County, California, 92131, United States of America","place_id":"6540020","datatype":"locationiq"},{"name":"Brueggers Bagel Bakery","code":null,"latitude":42.10464,"longitude":-87.849,"address":"2743 Pfingsten Road, Glenview IL","chain_name":null,"distance":0,"street_number":"2824","street_name":"Pfingsten Road","zip":"60026","city":null,"area":null,"county":"Cook County","state":"Illinois","country":"us","formatted_address":"2824, Pfingsten Road, Glenview, Cook County, Illinois, 60026, United States of America","place_id":"184986840","datatype":"locationiq"},{"name":"Bruegger's Bagel Bakery","code":null,"latitude":45.02185,"longitude":-93.3803,"address":"3558 Winnetka Avenue North, Minneapolis MN","chain_name":null,"distance":0,"street_number":null,"street_name":"Winnetka Avenue North","zip":"55428","city":"New Hope","area":null,"county":"Hennepin County","state":"Minnesota","country":"us","formatted_address":"36 Av N, Winnetka Avenue North, New Hope, Hennepin County, Minnesota, 55428, United States of America","place_id":"6881521","datatype":"locationiq"},{"name":"Bruegger's Bagels","code":null,"latitude":41.23399,"longitude":-96.1168,"address":"12989 W Center Road, Omaha NE","chain_name":null,"distance":0,"street_number":"12985","street_name":"West Center Road","zip":"68144","city":"Omaha","area":null,"county":"Douglas County","state":"Nebraska","country":"us","formatted_address":"12985, West Center Road, Millard, Omaha, Douglas County, Nebraska, 68144, United States of America","place_id":"194539900","datatype":"locationiq"},{"name":"Bruegger's Bagel Bakery","code":null,"latitude":33.20686,"longitude":-117.2861,"address":"4171 Oceanside Boulevard # 109, Oceanside CA","chain_name":null,"distance":0,"street_number":"4181","street_name":"Oceanside Boulevard","zip":"92056","city":"Oceanside","area":null,"county":"San Diego County","state":"California","country":"us","formatted_address":"4181, Oceanside Boulevard, Oceanside, San Diego County, California, 92056, United States of America","place_id":"6319744","datatype":"locationiq"},{"name":"Bruegger's Bagel Bakery","code":null,"latitude":44.47775,"longitude":-73.2125,"address":"93 Church Street, Burlington VT","chain_name":null,"distance":0,"street_number":"96","street_name":null,"zip":"05401","city":"Burlington","area":null,"county":"Chittenden County","state":"Vermont","country":"us","formatted_address":"Stella Mae, 96, Church Street, Church Street Marketplace, Burlington, Chittenden County, Vermont, 05401, United States of America","place_id":"174567403","datatype":"locationiq"},{"name":"Bruegger's Bagel Bakery","code":null,"latitude":34.70865,"longitude":-86.7419,"address":"347 Hughes Road, Madison AL","chain_name":null,"distance":0,"street_number":null,"street_name":"Hughes Road","zip":"35758","city":"Madison","area":null,"county":"Madison County","state":"Alabama","country":"us","formatted_address":"Burger King, Hughes Road, Madison, Madison County, Alabama, 35758, United States of America","place_id":"7951651","datatype":"locationiq"},{"name":"Bruegger's Bagel Bakery","code":null,"latitude":41.32001,"longitude":-81.6267,"address":"7322 Chippewa Road, Brecksville OH","chain_name":null,"distance":0,"street_number":null,"street_name":"Chippewa Road","zip":"44141","city":null,"area":null,"county":"Cuyahoga County","state":"Ohio","country":"us","formatted_address":"750ml Wine Bar, Chippewa Road, Brecksville, Cuyahoga County, Ohio, 44141, United States of America","place_id":"170617294","datatype":"locationiq"},{"name":"Bruegger's Bagel Bakery","code":null,"latitude":42.45368,"longitude":-71.1374,"address":"600 Main Street, Winchester MA","chain_name":null,"distance":0,"street_number":"584","street_name":"Main Street","zip":"01890","city":null,"area":"Wedgemere Historic District","county":"Middlesex County","state":"Massachusetts","country":"us","formatted_address":"584, Main Street, Wedgemere Historic District, Winchester, Middlesex County, Massachusetts, 01890, United States of America","place_id":"190318652","datatype":"locationiq"},{"name":"Bruegger's Bagel Bakery","code":null,"latitude":44.96493,"longitude":-93.2361,"address":"815 25th Avenue South, Minneapolis MN","chain_name":null,"distance":0,"street_number":null,"street_name":"Butler Place","zip":"55454","city":"Minneapolis","area":null,"county":"Hennepin County","state":"Minnesota","country":"us","formatted_address":"Starbucks, Butler Place, Phillips, Minneapolis, Hennepin County, Minnesota, 55454, United States of America","place_id":"1554686","datatype":"locationiq"},{"name":"Bruegger's Bagel Bakery","code":null,"latitude":42.62893,"longitude":-73.8117,"address":"180 Delaware Avenue, Delmar NY","chain_name":null,"distance":0,"street_number":null,"street_name":"Delaware Avenue","zip":"12054","city":null,"area":null,"county":"Albany County","state":"New York","country":"us","formatted_address":"Delaware Avenue, Delmar, Town of Bethlehem, Albany County, New York, 12054, United States of America","place_id":"95127386","datatype":"locationiq"},{"name":"Brueggers Bagel Bakery","code":null,"latitude":40.43545,"longitude":-80.232,"address":"402 High Tech Drive, Oakdale PA","chain_name":null,"distance":0,"street_number":"184","street_name":"Bateman Road","zip":"15071","city":null,"area":null,"county":"Allegheny County","state":"Pennsylvania","country":"us","formatted_address":"184, Bateman Road, North Fayette Township, Allegheny County, Pennsylvania, 15071, United States of America","place_id":"201267034","datatype":"locationiq"},{"name":"Bruegger's Bagel Bakery","code":null,"latitude":35.96086,"longitude":-78.9588,"address":"1831 Martin Luther King Parkway, Durham NC","chain_name":null,"distance":0,"street_number":"1841","street_name":"Martin Luther King Jr Parkway","zip":"27707","city":"Durham","area":null,"county":"Durham County","state":"North Carolina","country":"us","formatted_address":"1841, Martin Luther King Jr Parkway, Durham, Durham County, North Carolina, 27707, United States of America","place_id":"197503384","datatype":"locationiq"},{"name":"Bruegger's Bagel Bakery","code":null,"latitude":33.65432,"longitude":-117.7378,"address":"15346 Alton Parkway, Irvine CA","chain_name":null,"distance":0,"street_number":"30","street_name":"Technology Drive","zip":"92618","city":"Irvine","area":null,"county":"Orange County","state":"California","country":"us","formatted_address":"30, Technology Drive, Irvine, Orange County, California, 92618, United States of America","place_id":"147982940","datatype":"locationiq"},{"name":"Bruegger's Bagel Bakery","code":null,"latitude":44.47817,"longitude":-73.2134,"address":"159 Bank Street, Burlington VT","chain_name":null,"distance":0,"street_number":null,"street_name":"Bank Street","zip":"05401","city":"Burlington","area":null,"county":"Chittenden County","state":"Vermont","country":"us","formatted_address":"Henry's Diner, Bank Street, Church Street Marketplace, Burlington, Chittenden County, Vermont, 05401, United States of America","place_id":"75334608","datatype":"locationiq"},{"name":"Bruegger's Bagels","code":null,"latitude":40.81582,"longitude":-96.7039,"address":"1205 Q Street, Lincoln NE","chain_name":null,"distance":0,"street_number":"1201","street_name":"Q Street","zip":"68503","city":"Lincoln","area":null,"county":"Lancaster County","state":"Nebraska","country":"us","formatted_address":"1201, Q Street, West Lincoln, Lincoln, Lancaster County, Nebraska, 68503, United States of America","place_id":"194688252","datatype":"locationiq"},{"name":"Bruegger's Bagel Bakery","code":null,"latitude":39.40829,"longitude":-76.9491,"address":"1311 Londontown Boulevard, Sykesville MD","chain_name":null,"distance":0,"street_number":null,"street_name":"Londontown Boulevard","zip":"21784","city":null,"area":null,"county":"Carroll County","state":"Maryland","country":"us","formatted_address":"KFC, Londontown Boulevard, Eldersburg, Carroll County, Maryland, 21784, United States of America","place_id":"93357676","datatype":"locationiq"},{"name":"Bruegger's Bagel Bakery","code":null,"latitude":42.33973,"longitude":-71.1086,"address":"375 Longwood Avenue, Boston MA","chain_name":null,"distance":0,"street_number":null,"street_name":"Longwood Avenue","zip":"02215","city":"Boston","area":null,"county":"Suffolk County","state":"Massachusetts","country":"us","formatted_address":"MASCO Building, Longwood Avenue, Fenway, Boston, Suffolk County, Massachusetts, 02215, United States of America","place_id":"75942270","datatype":"locationiq"},{"name":"Bruegger's Bagel Bakery","code":null,"latitude":39.35712,"longitude":-84.3796,"address":"7739 Tylers Place Boulevard, West Chester OH","chain_name":null,"distance":0,"street_number":"7723","street_name":"Tylers Place Boulevard","zip":"45069","city":null,"area":null,"county":"Butler County","state":"Ohio","country":"us","formatted_address":"Aqua Technology Group LLC, 7723, Tylers Place Boulevard, The Fairways at Wetherington, Wetherington, West Chester Township, Butler County, Ohio, 45069, United States of America","place_id":"28760466","datatype":"locationiq"},{"name":"Bruegger's Bagel Bakery","code":null,"latitude":32.92143,"longitude":-117.2152,"address":"4645 Carmel Mountain Road # 101, San Diego CA","chain_name":null,"distance":0,"street_number":"11203","street_name":"Corte Belleza","zip":"92130","city":"San Diego","area":null,"county":"San Diego County","state":"California","country":"us","formatted_address":"11203, Corte Belleza, Carmel Valley, San Diego, San Diego County, California, 92130, United States of America","place_id":"5721872","datatype":"locationiq"},{"name":"Bruegger's Bagel Bakery","code":null,"latitude":30.46353,"longitude":-84.3126,"address":"1625 W Tharpe Street, Tallahassee FL","chain_name":null,"distance":0,"street_number":"1545","street_name":"West Tharpe Street","zip":"32303","city":"Tallahassee","area":null,"county":"Leon County","state":"Florida","country":"us","formatted_address":"1545, West Tharpe Street, Tallahassee, Leon County, Florida, 32303, United States of America","place_id":"182364885","datatype":"locationiq"},{"name":"Brueggers Bagel Bakery","code":null,"latitude":40.01368,"longitude":-75.3025,"address":"396 West Lancaster Avenue, Haverford PA","chain_name":null,"distance":0,"street_number":null,"street_name":"Lancaster Avenue","zip":"19041; 19010","city":"Lower Merion Township","area":null,"county":"Delaware County","state":"Pennsylvania","country":"us","formatted_address":"Haverford Post Office, Lancaster Avenue, Wynnewood, Lower Merion Township, Delaware County, Pennsylvania, 19041; 19010, United States of America","place_id":"3137458","datatype":"locationiq"},{"name":"Bruegger's Bagel Bakery","code":null,"latitude":43.12253,"longitude":-77.6185,"address":"1400 Mount Hope Avenue, Rochester NY","chain_name":null,"distance":0,"street_number":"1400","street_name":"Mount Hope Avenue","zip":"14620","city":"Rochester","area":null,"county":"Monroe County","state":"New York","country":"us","formatted_address":"Bruegger's Bagels, 1400, Mount Hope Avenue, Rochester, Monroe County, New York, 14620, United States of America","place_id":"158834094","datatype":"locationiq"},{"name":"Bruegger's Bagel Bakery","code":null,"latitude":41.67371,"longitude":-83.7164,"address":"7225 W Central Avenue, Toledo OH","chain_name":null,"distance":0,"street_number":null,"street_name":"Spring Water Drive","zip":"43617","city":null,"area":null,"county":"Lucas County","state":"Ohio","country":"us","formatted_address":"Chipotle, Spring Water Drive, Silica, Lucas County, Ohio, 43617, United States of America","place_id":"40040935","datatype":"locationiq"},{"name":"Bruegger's Bagel Bakery","code":null,"latitude":44.92204,"longitude":-93.329,"address":"4412 France Avenue South, Minneapolis MN","chain_name":null,"distance":0,"street_number":null,"street_name":"France Avenue South","zip":"55431","city":null,"area":null,"county":"Hennepin County","state":"Minnesota","country":"us","formatted_address":"Sunnyside Av, France Avenue South, 44th and France, Fulton, Edina, Hennepin County, Minnesota, 55431, United States of America","place_id":"6814460","datatype":"locationiq"},{"name":"Bruegger's Bagel Bakery","code":null,"latitude":42.50993,"longitude":-71.1422,"address":"10 Roessler Road, Woburn MA","chain_name":null,"distance":0,"street_number":"7","street_name":"Roessler Road","zip":"01801","city":null,"area":null,"county":"Middlesex County","state":"Massachusetts","country":"us","formatted_address":"7, Roessler Road, Woburn, Middlesex County, Massachusetts, 01801, United States of America","place_id":"75943302","datatype":"locationiq"},{"name":"Bruegger's Bagel Bakery","code":null,"latitude":40.34764,"longitude":-80.0536,"address":"1720 Washington Road, Pittsburgh PA","chain_name":null,"distance":0,"street_number":"1730","street_name":"Washington Road","zip":"15228","city":null,"area":null,"county":"Allegheny County","state":"Pennsylvania","country":"us","formatted_address":"1730, Washington Road, Mount Lebanon, Allegheny County, Pennsylvania, 15228, United States of America","place_id":"36194015","datatype":"locationiq"},{"name":"Bruegger's Bagels","code":null,"latitude":41.25982,"longitude":-96.091,"address":"228 N 114th Street, Omaha NE","chain_name":null,"distance":0,"street_number":"222-262","street_name":"North 114th Street","zip":"68154","city":"Omaha","area":null,"county":"Douglas County","state":"Nebraska","country":"us","formatted_address":"222-262, North 114th Street, Omaha, Douglas County, Nebraska, 68154, United States of America","place_id":"158663567","datatype":"locationiq"},{"name":"Bruegger's Bagel Bakery","code":null,"latitude":41.37679,"longitude":-72.915,"address":"2425 Dixwell Avenue, Hamden CT","chain_name":null,"distance":0,"street_number":null,"street_name":"Dixwell Avenue","zip":"06514","city":null,"area":null,"county":"New Haven County","state":"Connecticut","country":"us","formatted_address":"Dixwell Avenue, Hamden, New Haven County, Connecticut, 06514, United States of America","place_id":"89532835","datatype":"locationiq"},{"name":"Brueggers Bagel Bakery","code":null,"latitude":45.19754,"longitude":-93.2376,"address":"12525 Ulysses Street Northeast, Blaine MN","chain_name":null,"distance":0,"street_number":"12500","street_name":"Ulysses Street Northeast","zip":"55434","city":"Blaine","area":null,"county":"Anoka County","state":"Minnesota","country":"us","formatted_address":"12500, Ulysses Street Northeast, Blaine, Anoka County, Minnesota, 55434, United States of America","place_id":"191798581","datatype":"locationiq"},{"name":"Bruegger's Bagel Bakery","code":null,"latitude":43.02862,"longitude":-76.1115,"address":"333 Nottingham Road, Syracuse NY","chain_name":null,"distance":0,"street_number":"316","street_name":"Nottingham Road","zip":"13210","city":"Syracuse","area":"University Neighborhood","county":"Onondaga County","state":"New York","country":"us","formatted_address":"316, Nottingham Road, University Neighborhood, Syracuse, Town of DeWitt, Onondaga County, New York, 13210, United States of America","place_id":"120435714","datatype":"locationiq"},{"name":"Bruegger's Bagel Bakery","code":null,"latitude":33.54659,"longitude":-117.1426,"address":"39584 Winchester Road # A, Temecula CA","chain_name":null,"distance":0,"street_number":null,"street_name":"Winchester Road","zip":"92591","city":"Temecula","area":"FountainGlen","county":"Riverside County","state":"California","country":"us","formatted_address":"Winchester Road, FountainGlen, Temecula, Riverside County, California, 92591, United States of America","place_id":"83136524","datatype":"locationiq"},{"name":"Bruegger's Bagel Bakery","code":null,"latitude":41.1999,"longitude":-81.4404,"address":"4963 Darrow Road, Stow OH","chain_name":null,"distance":0,"street_number":"4983","street_name":"Darrow Road","zip":"44224","city":"Stow","area":null,"county":"Summit County","state":"Ohio","country":"us","formatted_address":"Keystone Animal Hospital, 4983, Darrow Road, Stonebridge Crossing, Stow, Summit County, Ohio, 44224, United States of America","place_id":"173782748","datatype":"locationiq"},{"name":"Brueggers Bagel Bakery","code":null,"latitude":38.80477,"longitude":-77.0459,"address":"606 King Street, Alexandria VA","chain_name":null,"distance":0,"street_number":"600","street_name":"King Street","zip":"22314","city":"Alexandria","area":"Jefferson Houston","county":"Alexandria City","state":"Virginia","country":"us","formatted_address":"600, King Street, Jefferson Houston, Alexandria, Alexandria City, Virginia, 22314, United States of America","place_id":"116853464","datatype":"locationiq"},{"name":"Bruegger's Bagel Bakery","code":null,"latitude":42.66635,"longitude":-73.792,"address":"1116 Madison Avenue # 1, Albany NY","chain_name":null,"distance":0,"street_number":null,"street_name":"South Allen Street","zip":"12208-9998","city":"Albany","area":"New Scotland","county":"Albany County","state":"New York","country":"us","formatted_address":"Bruegger's, South Allen Street, New Scotland, Albany, Albany County, New York, 12208-9998, United States of America","place_id":"15816634","datatype":"locationiq"},{"name":"Bruegger's Bagel Bakery","code":null,"latitude":42.37821,"longitude":-72.5199,"address":"170 N Pleasant Street, Amherst MA","chain_name":null,"distance":0,"street_number":"187","street_name":"North Pleasant Street","zip":"01002","city":null,"area":null,"county":"Hampshire County","state":"Massachusetts","country":"us","formatted_address":"Zanna, 187, North Pleasant Street, Amherst, Hampshire County, Massachusetts, 01002, United States of America","place_id":"48218698","datatype":"locationiq"},{"name":"Bruegger's Bagel Bakery","code":null,"latitude":32.84024,"longitude":-117.2735,"address":"905 Pearl Street, La Jolla CA","chain_name":null,"distance":0,"street_number":"7475","street_name":"Fay Avenue","zip":"92037","city":"San Diego","area":null,"county":"San Diego County","state":"California","country":"us","formatted_address":"Bruegger's Bagels, 7475, Fay Avenue, La Jolla, San Diego, San Diego County, California, 92037, United States of America","place_id":"3622834","datatype":"locationiq"},{"name":"Bruegger's Bagel Bakery","code":null,"latitude":30.45561,"longitude":-84.2806,"address":"1216 N Monroe Street, Tallahassee FL","chain_name":null,"distance":0,"street_number":"1218","street_name":"North Monroe Street","zip":"32303","city":"Tallahassee","area":null,"county":"Leon County","state":"Florida","country":"us","formatted_address":"FedEx, 1218, North Monroe Street, Tallahassee, Leon County, Florida, 32303, United States of America","place_id":"136452915","datatype":"locationiq"},{"name":"Bruegger's Bagel Bakery","code":null,"latitude":44.04119,"longitude":-92.4646,"address":"102 Elton Hills Lane NW, Rochester MN","chain_name":null,"distance":0,"street_number":null,"street_name":"Elton Hills Lane Northwest","zip":"55901","city":"Rochester","area":null,"county":"Olmsted County","state":"Minnesota","country":"us","formatted_address":"Bluestem Center, Elton Hills Lane Northwest, Rochester, Olmsted County, Minnesota, 55901, United States of America","place_id":"101140990","datatype":"locationiq"},{"name":"Bruegger's Bagel Bakery","code":null,"latitude":43.13832,"longitude":-76.2264,"address":"7601 Oswego Road, Liverpool NY","chain_name":null,"distance":0,"street_number":"7590","street_name":"Oswego Road","zip":"13090","city":null,"area":null,"county":"Onondaga County","state":"New York","country":"us","formatted_address":"7590, Oswego Road, Bayberry, Town of Clay, Onondaga County, New York, 13090, United States of America","place_id":"196629711","datatype":"locationiq"},{"name":"Bruegger's Bagels","code":null,"latitude":43.07524,"longitude":-89.4445,"address":"3310 University Avenue, Madison WI","chain_name":null,"distance":0,"street_number":null,"street_name":"University Avenue","zip":"53705","city":"Madison","area":null,"county":"Dane County","state":"Wisconsin","country":"us","formatted_address":"Whole Foods, University Avenue, Rocky Bluff, Madison, Dane County, Wisconsin, 53705, United States of America","place_id":"78544015","datatype":"locationiq"},{"name":"Bruegger's Bagel Bakery","code":null,"latitude":32.66209,"longitude":-116.9701,"address":"2322 Proctor Valley Road # D101, Chula Vista CA","chain_name":null,"distance":0,"street_number":"2318","street_name":"Proctor Valley Road","zip":"91914","city":"Chula Vista","area":null,"county":"San Diego County","state":"California","country":"us","formatted_address":"2318, Proctor Valley Road, Chula Vista, San Diego County, California, 91914, United States of America","place_id":"5859608","datatype":"locationiq"},{"name":"Bruegger's Bagel Bakery","code":null,"latitude":41.24474,"longitude":-73.1964,"address":"900 White Plains Road, Trumbull CT","chain_name":null,"distance":0,"street_number":"3115","street_name":"Reservoir Avenue","zip":"06611","city":"Bridgeport","area":null,"county":"Fairfield County","state":"Connecticut","country":"us","formatted_address":"Trumbull Congregational Church, 3115, Reservoir Avenue, Bridgeport, Fairfield County, Connecticut, 06611, United States of America","place_id":"3681488","datatype":"locationiq"},{"name":"Bruegger's Bagel Bakery","code":null,"latitude":35.62166,"longitude":-82.5545,"address":"671 Merrimon Avenue, Asheville NC","chain_name":null,"distance":0,"street_number":"660","street_name":"Merrimon Avenue","zip":"28804","city":"Asheville","area":null,"county":"Buncombe County","state":"North Carolina","country":"us","formatted_address":"Asheville Growler, 660, Merrimon Avenue, Asheville, Buncombe County, North Carolina, 28804, United States of America","place_id":"28098999","datatype":"locationiq"},{"name":"Bruegger's Bagel Bakery","code":null,"latitude":42.15653,"longitude":-70.85,"address":"2100 Washington Street, Hanover MA","chain_name":null,"distance":0,"street_number":"2002","street_name":"Washington Street","zip":"02339","city":null,"area":null,"county":"Plymouth County","state":"Massachusetts","country":"us","formatted_address":"2002, Washington Street, Norwell, Plymouth County, Massachusetts, 02339, United States of America","place_id":"190484385","datatype":"locationiq"},{"name":"Bruegger's Bagels","code":null,"latitude":43.03605,"longitude":-88.0171,"address":"8340 W Bluemound Road, Wauwatosa WI","chain_name":null,"distance":0,"street_number":"8384","street_name":"West Bluemound Road","zip":"53213","city":"Wauwatosa","area":"Cannon Park","county":"Milwaukee County","state":"Wisconsin","country":"us","formatted_address":"8384, West Bluemound Road, Cannon Park, Wauwatosa, Milwaukee County, Wisconsin, 53213, United States of America","place_id":"209500201","datatype":"locationiq"},{"name":"Bruegger's Bagel Bakery","code":null,"latitude":40.44084,"longitude":-80.0024,"address":"25 Market Square, Pittsburgh PA","chain_name":null,"distance":0,"street_number":"21","street_name":"Market Street","zip":"15222","city":"Pittsburgh","area":null,"county":"Allegheny County","state":"Pennsylvania","country":"us","formatted_address":"21, Market Street, Downtown, Pittsburgh, Allegheny County, Pennsylvania, 15222, United States of America","place_id":"116443027","datatype":"locationiq"},{"name":"Brueggers Bagel Bakery","code":null,"latitude":35.20323,"longitude":-80.7435,"address":"6003 Albemarle Road, Charlotte NC","chain_name":null,"distance":0,"street_number":"6021","street_name":"Albemarle Road","zip":"28212","city":"Charlotte","area":null,"county":"Mecklenburg County","state":"North Carolina","country":"us","formatted_address":"6021, Albemarle Road, Charlotte, Mecklenburg County, North Carolina, 28212, United States of America","place_id":"197939260","datatype":"locationiq"},{"name":"Bruegger's Bagel Bakery","code":null,"latitude":43.08268,"longitude":-73.7849,"address":"453 Broadway, Saratoga Springs NY","chain_name":null,"distance":0,"street_number":"458","street_name":"Broadway","zip":"12866","city":"City of Saratoga Springs","area":null,"county":"Saratoga County","state":"New York","country":"us","formatted_address":"Saratoga Gelato, 458, Broadway, City of Saratoga Springs, Saratoga County, New York, 12866, United States of America","place_id":"51656025","datatype":"locationiq"},{"name":"Bruegger's Bagel Bakery","code":null,"latitude":44.94836,"longitude":-93.301,"address":"1500 W Lake Street, Minneapolis MN","chain_name":null,"distance":0,"street_number":"1500","street_name":"West Lake Street","zip":"55408","city":"Minneapolis","area":null,"county":"Hennepin County","state":"Minnesota","country":"us","formatted_address":"1500, West Lake Street, East Calhoun, Minneapolis, Hennepin County, Minnesota, 55408, United States of America","place_id":"155068089","datatype":"locationiq"},{"name":"Bruegger's Bagel Bakery","code":null,"latitude":42.43521,"longitude":-71.2344,"address":"413 Waltham Street, Lexington MA","chain_name":null,"distance":0,"street_number":null,"street_name":"Waltham Street","zip":"02421","city":null,"area":null,"county":"Middlesex County","state":"Massachusetts","country":"us","formatted_address":"Waltham Street @ Farmcrest Avenue, Waltham Street, Lexington, Middlesex County, Massachusetts, 02421, United States of America","place_id":"16113549","datatype":"locationiq"},{"name":"Bruegger's Bagel Bakery","code":null,"latitude":42.6609,"longitude":-73.7432,"address":"32 Learned Street, Albany NY","chain_name":null,"distance":0,"street_number":null,"street_name":"Thatcher Street","zip":"12207","city":"Albany","area":"Warehouse District","county":"Albany County","state":"New York","country":"us","formatted_address":"Thatcher Street Pub, Thatcher Street, Warehouse District, Albany, Albany County, New York, 12207, United States of America","place_id":"7179535","datatype":"locationiq"},{"name":"Bruegger's Bagel Bakery","code":null,"latitude":45.02818,"longitude":-93.4547,"address":"4000 Annapolis Lane N # 109, Minneapolis MN","chain_name":null,"distance":0,"street_number":null,"street_name":"Annapolis Lane North","zip":"55446","city":"Plymouth","area":null,"county":"Hennepin County","state":"Minnesota","country":"us","formatted_address":"#4000, Annapolis Lane North, Plymouth, Hennepin County, Minnesota, 55446, United States of America","place_id":"6820511","datatype":"locationiq"},{"name":"Bruegger's Bagels","code":null,"latitude":41.25964,"longitude":-95.9741,"address":"4015 Dodge Street, Omaha NE","chain_name":null,"distance":0,"street_number":null,"street_name":"Dodge Street","zip":"68198","city":"Omaha","area":null,"county":"Douglas County","state":"Nebraska","country":"us","formatted_address":"Bruegger's Bagels, Dodge Street, Omaha, Douglas County, Nebraska, 68198, United States of America","place_id":"112634259","datatype":"locationiq"},{"name":"Bruegger's Bagel Bakery","code":null,"latitude":40.75537,"longitude":-73.9837,"address":"1115 Avenue Of The Americas, New York NY","chain_name":null,"distance":0,"street_number":"1100","street_name":"6th Avenue","zip":"10019","city":"New York City","area":"Diamond District","county":"New York County","state":"New York","country":"us","formatted_address":"HBO Headquarters, 1100, 6th Avenue, Diamond District, Manhattan, New York County, New York City, New York, 10019, United States of America","place_id":"106068788","datatype":"locationiq"},{"name":"Bruegger's Bagel Bakery","code":null,"latitude":44.81062,"longitude":-93.3286,"address":"3809 W Old Shakopee Road, Minneapolis MN","chain_name":null,"distance":0,"street_number":null,"street_name":"West Old Shakopee Road","zip":"55431","city":"Bloomington","area":null,"county":"Hennepin County","state":"Minnesota","country":"us","formatted_address":"France Av S, West Old Shakopee Road, Bloomington, Hennepin County, Minnesota, 55431, United States of America","place_id":"6705926","datatype":"locationiq"},{"name":"Bruegger's Bagel Bakery","code":null,"latitude":33.08608,"longitude":-117.2686,"address":"7680 El Camino Real, Carlsbad CA","chain_name":null,"distance":0,"street_number":"7690","street_name":"El Camino Real","zip":"92009","city":"Carlsbad","area":null,"county":"San Diego County","state":"California","country":"us","formatted_address":"Opus Bank, 7690, El Camino Real, Carlsbad, San Diego County, California, 92009, United States of America","place_id":"11246114","datatype":"locationiq"},{"name":"Bruegger's Bagel Bakery","code":null,"latitude":38.98735,"longitude":-84.7698,"address":"3013 Terminal Drive, Burlington KY","chain_name":null,"distance":0,"street_number":null,"street_name":"Greene Road","zip":"41005","city":null,"area":null,"county":"Boone County","state":"Kentucky","country":"us","formatted_address":"Greene Road, Commissary Corner, Boone County, Kentucky, 41005, United States of America","place_id":"68803732","datatype":"locationiq"},{"name":"Bruegger's Bagel Bakery","code":null,"latitude":36.08335,"longitude":-79.8321,"address":"3116 W Friendly Avenue, Greensboro NC","chain_name":null,"distance":0,"street_number":"3123","street_name":"West Friendly Avenue","zip":"27408","city":"Greensboro","area":null,"county":"Guilford County","state":"North Carolina","country":"us","formatted_address":"3123, West Friendly Avenue, Greensboro, Guilford County, North Carolina, 27408, United States of America","place_id":"197652212","datatype":"locationiq"},{"name":"Bruegger's Bagel Bakery","code":null,"latitude":41.80812,"longitude":-72.8265,"address":"45 E Main Street, Avon CT","chain_name":null,"distance":0,"street_number":null,"street_name":"East Main Street","zip":"06001","city":null,"area":null,"county":"Hartford County","state":"Connecticut","country":"us","formatted_address":"Bruegger's Bagels, East Main Street, Avon, Town of Avon, Hartford County, Connecticut, 06001, United States of America","place_id":"16904814","datatype":"locationiq"},{"name":"Bruegger's Bagel Bakery","code":null,"latitude":42.4899,"longitude":-71.2742,"address":"170 Great Road, Bedford MA","chain_name":null,"distance":0,"street_number":"175","street_name":"The Great Road","zip":"01730","city":null,"area":null,"county":"Middlesex County","state":"Massachusetts","country":"us","formatted_address":"175, The Great Road, Bedford, Middlesex County, Massachusetts, 01730, United States of America","place_id":"118764846","datatype":"locationiq"},{"name":"Bruegger's Bagel Bakery","code":null,"latitude":40.33315,"longitude":-80.0238,"address":"5213 Library Road, Bethel Park PA","chain_name":null,"distance":0,"street_number":"5200","street_name":"Library Road","zip":"15102","city":"Bethel Park","area":null,"county":"Allegheny County","state":"Pennsylvania","country":"us","formatted_address":"Monro Muffler\/Brake, 5200, Library Road, Bethel Park, Allegheny County, Pennsylvania, 15102, United States of America","place_id":"139098904","datatype":"locationiq"},{"name":"Brueggers Bagel Bakery","code":null,"latitude":36.02699,"longitude":-86.7922,"address":"330 Franklin Road, Suite 138, Brentwood TN","chain_name":null,"distance":0,"street_number":"394","street_name":"Franklin Road","zip":"37027","city":"Brentwood","area":null,"county":"Williamson County","state":"Tennessee","country":"us","formatted_address":"394, Franklin Road, Brentwood, Williamson County, Tennessee, 37027, United States of America","place_id":"204280007","datatype":"locationiq"},{"name":"Bruegger's Bagel Bakery","code":null,"latitude":44.9743,"longitude":-93.1951,"address":"2233 Energy Park Drive # 100, Saint Paul MN","chain_name":null,"distance":0,"street_number":"2233","street_name":"Energy Park Drive","zip":"55108","city":"Saint Paul","area":null,"county":"Ramsey County","state":"Minnesota","country":"us","formatted_address":"Ph\u1edf 79, 2233, Energy Park Drive, Saint Paul, Ramsey County, Minnesota, 55108, United States of America","place_id":"16965856","datatype":"locationiq"},{"name":"Brueggers Bagel Bakery","code":null,"latitude":35.80112,"longitude":-78.6841,"address":"3510 Wade Avenue, Raleigh NC","chain_name":null,"distance":0,"street_number":"3595","street_name":"Wade Avenue","zip":"27607","city":"Raleigh","area":null,"county":"Wake County","state":"North Carolina","country":"us","formatted_address":"3595, Wade Avenue, Method, Raleigh, Wake County, North Carolina, 27607, United States of America","place_id":"198331214","datatype":"locationiq"},{"name":"Bruegger's Bagel Bakery","code":null,"latitude":39.7035,"longitude":-104.9992,"address":"730 S Jason Street, Denver CO","chain_name":null,"distance":0,"street_number":"753","street_name":"South Jason Street","zip":"80223","city":"Denver","area":"Athmar Park","county":"Denver County","state":"Colorado","country":"us","formatted_address":"753, South Jason Street, Athmar Park, Denver, Denver County, Colorado, 80223, United States of America","place_id":"180726655","datatype":"locationiq"},{"name":"Bruegger's Bagels","code":null,"latitude":43.09639,"longitude":-88.481,"address":"1043 E Summit, Oconomowoc WI","chain_name":null,"distance":0,"street_number":null,"street_name":"Summit Avenue","zip":"53066","city":"Oconomowoc","area":null,"county":"Waukesha County","state":"Wisconsin","country":"us","formatted_address":"Summit Avenue, Oconomowoc, Waukesha County, Wisconsin, 53066, United States of America","place_id":"128558054","datatype":"locationiq"},{"name":"Bruegger's Bagel Bakery","code":null,"latitude":32.68356,"longitude":-117.1787,"address":"1305 Orange Avenue, Coronado CA","chain_name":null,"distance":0,"street_number":"1301","street_name":"Orange Avenue","zip":"92118","city":"Coronado","area":null,"county":"San Diego County","state":"California","country":"us","formatted_address":"1301, Orange Avenue, Coronado, San Diego County, California, 92118, United States of America","place_id":"6293025","datatype":"locationiq"},{"name":"Bruegger's Bagel Bakery","code":null,"latitude":30.5046,"longitude":-84.2508,"address":"3425 Thomasville Road, Tallahassee FL","chain_name":null,"distance":0,"street_number":"3431","street_name":"Thomasville Road","zip":"32309","city":"Tallahassee","area":null,"county":"Leon County","state":"Florida","country":"us","formatted_address":"3431, Thomasville Road, Tallahassee, Leon County, Florida, 32309, United States of America","place_id":"182347387","datatype":"locationiq"},{"name":"Bruegger's Bagel Bakery","code":null,"latitude":41.52009,"longitude":-81.46,"address":"6075 Mayfield Road, Cleveland OH","chain_name":null,"distance":0,"street_number":"6075","street_name":"Mayfield Road","zip":"44124","city":null,"area":null,"county":"Cuyahoga County","state":"Ohio","country":"us","formatted_address":"6075, Mayfield Road, Mayfield Heights, Cuyahoga County, Ohio, 44124, United States of America","place_id":"199037022","datatype":"locationiq"},{"name":"Bruegger's Bagel Bakery","code":null,"latitude":43.00134,"longitude":-75.9788,"address":"112 E Seneca Street, Manlius NY","chain_name":null,"distance":0,"street_number":"109","street_name":"East Seneca Street","zip":"13104","city":null,"area":null,"county":"Onondaga County","state":"New York","country":"us","formatted_address":"109, East Seneca Street, Manlius, Town of Manlius, Onondaga County, New York, 13104, United States of America","place_id":"41130305","datatype":"locationiq"},{"name":"Bruegger's Bagel Bakery","code":null,"latitude":42.65069,"longitude":-73.7521,"address":"29 N Pearl Street, Albany NY","chain_name":null,"distance":0,"street_number":"40","street_name":"North Pearl Street","zip":"12204","city":"Albany","area":"Downtown","county":"Albany County","state":"New York","country":"us","formatted_address":"Ten Eyck State Office Building, 40, North Pearl Street, Downtown, Albany, Albany County, New York, 12204, United States of America","place_id":"88434151","datatype":"locationiq"},{"name":"Bruegger's Bagel Bakery","code":null,"latitude":34.67189,"longitude":-86.5391,"address":"2000 Cecil Ashbrn Drive, Huntsville AL","chain_name":null,"distance":0,"street_number":"2001","street_name":"Cecil Ashburn Drive Southeast","zip":"35802","city":"Huntsville","area":null,"county":"Madison County","state":"Alabama","country":"us","formatted_address":"2001, Cecil Ashburn Drive Southeast, Huntsville, Madison County, Alabama, 35802, United States of America","place_id":"176463400","datatype":"locationiq"},{"name":"Bruegger's Bagel Bakery","code":null,"latitude":41.50107,"longitude":-81.5928,"address":"12443 Cedar Road, Cleveland OH","chain_name":null,"distance":0,"street_number":null,"street_name":"Cedar Road","zip":"44106","city":null,"area":"Ambler Heights Historic District","county":"Cuyahoga County","state":"Ohio","country":"us","formatted_address":"Cedar-Grandview Building, Cedar Road, Ambler Heights Historic District, Ambler Heights, Cleveland Heights, Cuyahoga County, Ohio, 44106, United States of America","place_id":"109686249","datatype":"locationiq"},{"name":"Brueggers Bagel Bakery","code":null,"latitude":34.81939,"longitude":-82.2723,"address":"1717 Woodruff Road, Greenville SC","chain_name":null,"distance":0,"street_number":"1701","street_name":"Woodruff Road","zip":"29607","city":null,"area":null,"county":"Greenville County","state":"South Carolina","country":"us","formatted_address":"Children's Care Center, 1701, Woodruff Road, Kenwood, Greenville County, South Carolina, 29607, United States of America","place_id":"139383000","datatype":"locationiq"},{"name":"Bruegger's Bagel Bakery","code":null,"latitude":44.79027,"longitude":-93.2172,"address":"2149 Cliff Road, Saint Paul MN","chain_name":null,"distance":0,"street_number":null,"street_name":"CR 32","zip":"55122","city":"Eagan","area":null,"county":"Dakota County","state":"Minnesota","country":"us","formatted_address":"Nicols Rd, CR 32, Eagan, Dakota County, Minnesota, 55122, United States of America","place_id":"6665408","datatype":"locationiq"},{"name":"Bruegger's Bagels","code":null,"latitude":43.11843,"longitude":-87.9025,"address":"601 E Silver Spring Drive, Whitefish Bay WI","chain_name":null,"distance":0,"street_number":"629","street_name":"East Silver Spring Drive","zip":"53217","city":null,"area":null,"county":"Milwaukee County","state":"Wisconsin","country":"us","formatted_address":"Winkies, 629, East Silver Spring Drive, Whitefish Bay, Milwaukee County, Wisconsin, 53217, United States of America","place_id":"87776268","datatype":"locationiq"},{"name":"Bruegger's Bagel Bakery","code":null,"latitude":41.31068,"longitude":-72.9224,"address":"1 Whitney Avenue, New Haven CT","chain_name":null,"distance":0,"street_number":null,"street_name":"Whitney Avenue","zip":"06518","city":"New Haven","area":"Downtown","county":"New Haven County","state":"Connecticut","country":"us","formatted_address":"Costa Pizza, Whitney Avenue, Downtown, New Haven, New Haven County, Connecticut, 06518, United States of America","place_id":"24798939","datatype":"locationiq"},{"name":"Bruegger's Bagel Bakery","code":null,"latitude":44.93109,"longitude":-93.3476,"address":"5400 Excelsior Boulevard, Minneapolis MN","chain_name":null,"distance":0,"street_number":null,"street_name":"Excelsior Boulevard","zip":"55416","city":"St. Louis Park","area":null,"county":"Hennepin County","state":"Minnesota","country":"us","formatted_address":"Wooddale Av, Excelsior Boulevard, West Calhoun, St. Louis Park, Hennepin County, Minnesota, 55416, United States of America","place_id":"6573273","datatype":"locationiq"},{"name":"Bruegger's Bagel Bakery","code":null,"latitude":42.35472,"longitude":-71.0546,"address":"211 Congress Street # 2, Boston MA","chain_name":null,"distance":0,"street_number":"50","street_name":"Post Office Square","zip":"02110","city":"Boston","area":"Dock Square","county":"Suffolk County","state":"Massachusetts","country":"us","formatted_address":"50, Post Office Square, Dock Square, Financial District, Boston, Suffolk County, Massachusetts, 02110, United States of America","place_id":"75901052","datatype":"locationiq"},{"name":"Bruegger's Bagel Bakery","code":null,"latitude":43.04235,"longitude":-76.1366,"address":"731 S Crouse Avenue, Syracuse NY","chain_name":null,"distance":0,"street_number":null,"street_name":"East Adams Street","zip":"13210","city":"Syracuse","area":"University Hill","county":"Onondaga County","state":"New York","country":"us","formatted_address":"CIM Parking Garage, East Adams Street, University Hill, Syracuse, Onondaga County, New York, 13210, United States of America","place_id":"114834292","datatype":"locationiq"},{"name":"Brueggers Bagel Bakery","code":null,"latitude":41.98353,"longitude":-91.6458,"address":"1740 4th Avenue Southeast, Cedar Rapids IA","chain_name":null,"distance":0,"street_number":null,"street_name":"4th Avenue Southeast","zip":"52403","city":"Cedar Rapids","area":null,"county":"Linn County","state":"Iowa","country":"us","formatted_address":"Iowa Church of God in Christ, 4th Avenue Southeast, Cedar Rapids, Linn County, Iowa, 52403, United States of America","place_id":"2807552","datatype":"locationiq"},{"name":"Bruegger's Bagel Bakery","code":null,"latitude":32.95944,"longitude":-117.2651,"address":"1435 Camino Del Mar, Del Mar CA","chain_name":null,"distance":0,"street_number":null,"street_name":"Camino del Mar","zip":"92014","city":"Del Mar","area":null,"county":"San Diego County","state":"California","country":"us","formatted_address":"Del Mar Flower Co., Camino del Mar, Del Mar, San Diego County, California, 92014, United States of America","place_id":"121484926","datatype":"locationiq"},{"name":"Bruegger's Bagel Bakery","code":null,"latitude":35.17592,"longitude":-80.7983,"address":"106 S Sharon Amity Road, Charlotte NC","chain_name":null,"distance":0,"street_number":null,"street_name":"South Sharon Amity Road","zip":"28211","city":"Charlotte","area":null,"county":"Mecklenburg County","state":"North Carolina","country":"us","formatted_address":"Shell, South Sharon Amity Road, Charlotte, Mecklenburg County, North Carolina, 28211, United States of America","place_id":"46194900","datatype":"locationiq"},{"name":"Bruegger's Bagel Bakery","code":null,"latitude":42.29382,"longitude":-71.1612,"address":"659 Vfw Parkway, West Roxbury MA","chain_name":null,"distance":0,"street_number":"677","street_name":"Veterans Of Foreign Wars Parkway","zip":"02132","city":null,"area":null,"county":"Suffolk County","state":"Massachusetts","country":"us","formatted_address":"677, Veterans Of Foreign Wars Parkway, Brookline, Suffolk County, Massachusetts, 02132, United States of America","place_id":"190536849","datatype":"locationiq"},{"name":"Bruegger's Bagel Bakery","code":null,"latitude":40.28395,"longitude":-80.121,"address":"3527 Washington Road, Canonsburg PA","chain_name":null,"distance":0,"street_number":null,"street_name":"Washington Road","zip":"15317","city":null,"area":null,"county":"Washington County","state":"Pennsylvania","country":"us","formatted_address":"Arby's, Washington Road, Thompsonville, Washington County, Pennsylvania, 15317, United States of America","place_id":"26120690","datatype":"locationiq"},{"name":"Bruegger's Bagels","code":null,"latitude":43.07527,"longitude":-89.4476,"address":"3515 University Avenue, Madison WI","chain_name":null,"distance":0,"street_number":"3515","street_name":"University Avenue","zip":"53705","city":"Madison","area":null,"county":"Dane County","state":"Wisconsin","country":"us","formatted_address":"Starbucks Coffee, 3515, University Avenue, Rocky Bluff, Madison, Dane County, Wisconsin, 53705, United States of America","place_id":"15982395","datatype":"locationiq"},{"name":"Bruegger's Bagel Bakery","code":null,"latitude":41.76163,"longitude":-72.7422,"address":"1 S Main Street, West Hartford CT","chain_name":null,"distance":0,"street_number":null,"street_name":"North Main Street","zip":"06117","city":null,"area":null,"county":"Hartford County","state":"Connecticut","country":"us","formatted_address":"West Hartford Veterans Memorial Park, North Main Street, West Hartford, Town of West Hartford, Hartford County, Connecticut, 06117, United States of America","place_id":"104405281","datatype":"locationiq"},{"name":"Bruegger's Bagel Bakery","code":null,"latitude":33.72159,"longitude":-117.771,"address":"3991 Irvine Boulevard, Irvine CA","chain_name":null,"distance":0,"street_number":"3991","street_name":"Irvine Boulevard","zip":"92618:92705","city":"Irvine","area":null,"county":"Orange County","state":"California","country":"us","formatted_address":"3991, Irvine Boulevard, Lower Peters Canyon, Irvine, Orange County, California, 92618:92705, United States of America","place_id":"90458498","datatype":"locationiq"},{"name":"Bruegger's Bagel Bakery","code":null,"latitude":43.14606,"longitude":-77.5928,"address":"548 Monroe Avenue, Rochester NY","chain_name":null,"distance":0,"street_number":null,"street_name":"Monroe Avenue","zip":"14620","city":"Rochester","area":null,"county":"Monroe County","state":"New York","country":"us","formatted_address":"Bruegger's, Monroe Avenue, Rochester, Monroe County, New York, 14620, United States of America","place_id":"129128513","datatype":"locationiq"},{"name":"Bruegger's Bagel Bakery","code":null,"latitude":35.12413,"longitude":-80.708,"address":"1905 Matthews Township Parkway, Matthews NC","chain_name":null,"distance":0,"street_number":null,"street_name":"Matthews Township Parkway","zip":"28105","city":null,"area":null,"county":"Mecklenburg County","state":"North Carolina","country":"us","formatted_address":"Panera Bread, Matthews Township Parkway, Matthews, Mecklenburg County, North Carolina, 28105, United States of America","place_id":"46251366","datatype":"locationiq"},{"name":"Brueggers Bagel Bakery","code":null,"latitude":33.35032,"longitude":-111.8107,"address":"721 North Arizona Avenue, Gilbert AZ","chain_name":null,"distance":0,"street_number":"1","street_name":"North Ski Court","zip":"85233","city":null,"area":null,"county":"Maricopa County","state":"Arizona","country":"us","formatted_address":"1, North Ski Court, Gilbert, Maricopa County, Arizona, 85233, United States of America","place_id":"177124682","datatype":"locationiq"},{"name":"Bruegger's Bagels","code":null,"latitude":32.22189,"longitude":-110.9712,"address":"1 West Congress Street, Tucson AZ","chain_name":null,"distance":0,"street_number":"32","street_name":"North Stone Avenue","zip":"85701","city":"Tucson","area":"El Presidio","county":"Pima County","state":"Arizona","country":"us","formatted_address":"Pima County Legal Services Building, 32, North Stone Avenue, El Presidio, Tucson, Pima County, Arizona, 85701, United States of America","place_id":"77764787","datatype":"locationiq"},{"name":"Bruegger's Bagel Bakery","code":null,"latitude":35.48461,"longitude":-80.8776,"address":"20619 Torrence Chapel Road, Cornelius NC","chain_name":null,"distance":0,"street_number":null,"street_name":"Torrence Chapel Road","zip":"28031","city":null,"area":null,"county":"Mecklenburg County","state":"North Carolina","country":"us","formatted_address":"Torrence Chapel Road, Cornelius, Mecklenburg County, North Carolina, 28031, United States of America","place_id":"69262841","datatype":"locationiq"},{"name":"Bruegger's Bagels","code":null,"latitude":42.73386,"longitude":-84.4785,"address":"505 East Grand River Avenue, East Lansing MI","chain_name":null,"distance":0,"street_number":null,"street_name":"Grand River Avenue","zip":"48824","city":"East Lansing","area":null,"county":"Ingham County","state":"Michigan","country":"us","formatted_address":"USPS, Grand River Avenue, East Lansing, Ingham County, Michigan, 48824, United States of America","place_id":"55694393","datatype":"locationiq"},{"name":"Bruegger's Bagel Bakery","code":null,"latitude":42.36284,"longitude":-71.1378,"address":"370 Western Avenue, Brighton MA","chain_name":null,"distance":0,"street_number":"365","street_name":"Western Avenue","zip":"02135","city":"Boston","area":"North Brighton","county":"Suffolk County","state":"Massachusetts","country":"us","formatted_address":"Shield System Car Wash, 365, Western Avenue, North Brighton, Allston, Boston, Suffolk County, Massachusetts, 02135, United States of America","place_id":"75628735","datatype":"locationiq"},{"name":"Bruegger's Bagel Bakery","code":null,"latitude":41.1464,"longitude":-73.4932,"address":"11 South Avenue, New Canaan CT","chain_name":null,"distance":0,"street_number":null,"street_name":"Morse Court","zip":"06840","city":null,"area":null,"county":"Fairfield County","state":"Connecticut","country":"us","formatted_address":"MobiMart, Morse Court, New Canaan, Fairfield County, Connecticut, 06840, United States of America","place_id":"120587665","datatype":"locationiq"},{"name":"Bruegger's Bagel Bakery","code":null,"latitude":35.17306,"longitude":-80.8511,"address":"4327 Park Road, Charlotte NC","chain_name":null,"distance":0,"street_number":null,"street_name":"Park Road","zip":"28209","city":"Charlotte","area":null,"county":"Mecklenburg County","state":"North Carolina","country":"us","formatted_address":"Wendy's, Park Road, Park Road Shopping Center, Charlotte, Mecklenburg County, North Carolina, 28209, United States of America","place_id":"142637525","datatype":"locationiq"},{"name":"Bruegger's Bagel Bakery","code":null,"latitude":41.66127,"longitude":-91.5327,"address":"225 Iowa Avenue, Iowa City IA","chain_name":null,"distance":0,"street_number":"210","street_name":"Iowa Avenue","zip":"52242","city":"Iowa City","area":null,"county":"Johnson County","state":"Iowa","country":"us","formatted_address":"Biology Building East, 210, Iowa Avenue, Iowa City, Johnson County, Iowa, 52242, United States of America","place_id":"95962979","datatype":"locationiq"},{"name":"Bruegger's Bagel Bakery","code":null,"latitude":41.75544,"longitude":-72.6762,"address":"1 Main Street, Hartford CT","chain_name":null,"distance":0,"street_number":"99","street_name":"Congress Street","zip":"06114","city":"City of Hartford","area":"Little Italy","county":"Hartford County","state":"Connecticut","country":"us","formatted_address":"99, Congress Street, Little Italy, City of Hartford, Hartford County, Connecticut, 06114, United States of America","place_id":"181309550","datatype":"locationiq"},{"name":"Bruegger's Bagel Bakery","code":null,"latitude":43.17674,"longitude":-87.9124,"address":"383 W Brown Deer Road # 20, Milwaukee WI","chain_name":null,"distance":0,"street_number":"383","street_name":"West Brown Deer Road","zip":"53092","city":null,"area":null,"county":"Milwaukee County","state":"Wisconsin","country":"us","formatted_address":"Bruegger's Bagels, 383, West Brown Deer Road, Bayside, Milwaukee County, Wisconsin, 53092, United States of America","place_id":"51516164","datatype":"locationiq"},{"name":"Bruegger's Bagel Bakery","code":null,"latitude":40.34394,"longitude":-79.9713,"address":"5217 Clairton Boulevard, Pittsburgh PA","chain_name":null,"distance":0,"street_number":null,"street_name":"Clairton Boulevard","zip":"15025","city":"Whitehall","area":null,"county":"Allegheny County","state":"Pennsylvania","country":"us","formatted_address":"Brueger's Bagels, Clairton Boulevard, Whitehall, Allegheny County, Pennsylvania, 15025, United States of America","place_id":"13913168","datatype":"locationiq"},{"name":"Bruegger's Bagel Bakery","code":null,"latitude":43.15257,"longitude":-77.5739,"address":"1044 University Avenue, Rochester NY","chain_name":null,"distance":0,"street_number":"1044","street_name":"University Avenue","zip":"14607","city":"Rochester","area":null,"county":"Monroe County","state":"New York","country":"us","formatted_address":"1044, University Avenue, Rochester, Monroe County, New York, 14607, United States of America","place_id":"196451344","datatype":"locationiq"},{"name":"Brueggers Bagel Bakery","code":null,"latitude":42.33973,"longitude":-71.1086,"address":"375 Longwood Avenue, Boston MA","chain_name":null,"distance":0,"street_number":null,"street_name":"Longwood Avenue","zip":"02215","city":"Boston","area":null,"county":"Suffolk County","state":"Massachusetts","country":"us","formatted_address":"MASCO Building, Longwood Avenue, Fenway, Boston, Suffolk County, Massachusetts, 02215, United States of America","place_id":"75942270","datatype":"locationiq"},{"name":"Bruegger's Bagels - Clocktower","code":null,"latitude":40.78717,"longitude":-96.6971,"address":"70th & A, Lincoln NE","chain_name":null,"distance":0,"street_number":"1692","street_name":"Perkins Boulevard","zip":"68502","city":"Lincoln","area":"Woodsshire Neighborhood","county":"Lancaster County","state":"Nebraska","country":"us","formatted_address":"1692, Perkins Boulevard, Woodsshire Neighborhood, Lincoln, Lancaster County, Nebraska, 68502, United States of America","place_id":"194678709","datatype":"locationiq"},{"name":"Bruegger's Bagel Bakery","code":null,"latitude":42.3883,"longitude":-71.1194,"address":"1876 Massachusetts Avenue, Cambridge MA","chain_name":null,"distance":0,"street_number":null,"street_name":"Massachusetts Avenue","zip":"02140-2215","city":null,"area":"Porter Square","county":"Middlesex County","state":"Massachusetts","country":"us","formatted_address":"Porter Square, Massachusetts Avenue, Porter Square, Cambridge, Middlesex County, Massachusetts, 02140-2215, United States of America","place_id":"79120911","datatype":"locationiq"},{"name":"Bruegger's Bagel Bakery","code":null,"latitude":35.94251,"longitude":-78.5415,"address":"10750 Wakefield Commons Drive, Raleigh NC","chain_name":null,"distance":0,"street_number":"10812","street_name":"Wakefield Common Drive","zip":"27614","city":"Raleigh","area":null,"county":"Wake County","state":"North Carolina","country":"us","formatted_address":"10812, Wakefield Common Drive, Raleigh, Wake County, North Carolina, 27614, United States of America","place_id":"198386178","datatype":"locationiq"},{"name":"Bruegger's Bagel Bakery","code":null,"latitude":43.11843,"longitude":-87.9025,"address":"601 E Silver Spring Drive, Milwaukee WI","chain_name":null,"distance":0,"street_number":"629","street_name":"East Silver Spring Drive","zip":"53217","city":null,"area":null,"county":"Milwaukee County","state":"Wisconsin","country":"us","formatted_address":"Winkies, 629, East Silver Spring Drive, Whitefish Bay, Milwaukee County, Wisconsin, 53217, United States of America","place_id":"87776268","datatype":"locationiq"},{"name":"Bruegger's Bagel Bakery","code":null,"latitude":42.68138,"longitude":-73.7914,"address":"900 Central Avenue # 16, Albany NY","chain_name":null,"distance":0,"street_number":null,"street_name":"Central Avenue","zip":"12304","city":"Albany","area":"Melrose","county":"Albany County","state":"New York","country":"us","formatted_address":"Valvoline Instant Oil Change, Central Avenue, Melrose, Albany, Albany County, New York, 12304, United States of America","place_id":"93205571","datatype":"locationiq"},{"name":"Bruegger's Bagel Bakery","code":null,"latitude":39.2315,"longitude":-84.377,"address":"9590 Kenwood Road, Cincinnati OH","chain_name":null,"distance":0,"street_number":null,"street_name":"Kenwood Road","zip":"45242","city":"Blue Ash","area":null,"county":"Hamilton County","state":"Ohio","country":"us","formatted_address":"Blue Ash Chili, Kenwood Road, Keystone Plaza, Blue Ash, Hamilton County, Ohio, 45242, United States of America","place_id":"80031351","datatype":"locationiq"},{"name":"Bruegger's Bagel Bakery","code":null,"latitude":44.9514,"longitude":-93.0114,"address":"2133 Old Hudson Road, Saint Paul MN","chain_name":null,"distance":0,"street_number":"2131","street_name":"Old Hudson Road","zip":"55119","city":"Saint Paul","area":null,"county":"Ramsey County","state":"Minnesota","country":"us","formatted_address":"2131, Old Hudson Road, Saint Paul, Ramsey County, Minnesota, 55119, United States of America","place_id":"192438117","datatype":"locationiq"},{"name":"Bruegger's Bagel Bakery","code":null,"latitude":44.02192,"longitude":-92.4644,"address":"155 1st Avenue Southwest, Rochester MN","chain_name":null,"distance":0,"street_number":null,"street_name":null,"zip":"55906","city":"Rochester","area":null,"county":"Olmsted County","state":"Minnesota","country":"us","formatted_address":"Breckenridge Building, Skyway, US Bank Building, Rochester, Olmsted County, Minnesota, 55906, United States of America","place_id":"100754092","datatype":"locationiq"},{"name":"Bruegger's Bagel Bakery - Cleveland HTS","code":null,"latitude":41.50107,"longitude":-81.5928,"address":"12443 Cedar Road, Cleveland OH","chain_name":null,"distance":0,"street_number":null,"street_name":"Cedar Road","zip":"44106","city":null,"area":"Ambler Heights Historic District","county":"Cuyahoga County","state":"Ohio","country":"us","formatted_address":"Cedar-Grandview Building, Cedar Road, Ambler Heights Historic District, Ambler Heights, Cleveland Heights, Cuyahoga County, Ohio, 44106, United States of America","place_id":"109686249","datatype":"locationiq"},{"name":"Bruegger's Bagels - Downtown, Scott Township","code":null,"latitude":40.44084,"longitude":-80.0024,"address":"25 Market Square, Pittsburgh PA","chain_name":null,"distance":0,"street_number":"21","street_name":"Market Street","zip":"15222","city":"Pittsburgh","area":null,"county":"Allegheny County","state":"Pennsylvania","country":"us","formatted_address":"21, Market Street, Downtown, Pittsburgh, Allegheny County, Pennsylvania, 15222, United States of America","place_id":"116443027","datatype":"locationiq"},{"name":"Bruegger's Bagel Bakery","code":null,"latitude":42.45517,"longitude":-71.0652,"address":"496 Main Street, Melrose MA","chain_name":null,"distance":0,"street_number":"496","street_name":"Main Street","zip":"02176","city":null,"area":null,"county":"Middlesex County","state":"Massachusetts","country":"us","formatted_address":"Bruegger's Bagels and Jamba Juice, 496, Main Street, Melrose, Middlesex County, Massachusetts, 02176, United States of America","place_id":"75930704","datatype":"locationiq"},{"name":"Bruegger's Bagel Bakery","code":null,"latitude":40.52944,"longitude":-80.0087,"address":"4885 McKnight Road, Pittsburgh PA","chain_name":null,"distance":0,"street_number":"4861","street_name":"McKnight Road","zip":"15229","city":null,"area":null,"county":"Allegheny County","state":"Pennsylvania","country":"us","formatted_address":"Chipotle, 4861, McKnight Road, McKnight Siebert, Ross Township, Allegheny County, Pennsylvania, 15229, United States of America","place_id":"152717887","datatype":"locationiq"},{"name":"Brueggers Bagel Bakery","code":null,"latitude":42.35744,"longitude":-71.0585,"address":"7 School Street, Boston MA","chain_name":null,"distance":0,"street_number":null,"street_name":"Washington Street","zip":"02110-1301","city":"Boston","area":"Downtown Crossing","county":"Suffolk County","state":"Massachusetts","country":"us","formatted_address":"Irish Famine Memorial, Washington Street, Downtown Crossing, Financial District, Boston, Suffolk County, Massachusetts, 02110-1301, United States of America","place_id":"75948109","datatype":"locationiq"},{"name":"Bruegger's Bagel Bakery","code":null,"latitude":40.54079,"longitude":-80.181,"address":"422 Beaver Street, Sewickley PA","chain_name":null,"distance":0,"street_number":null,"street_name":"Locust Place","zip":"15143","city":"Sewickley","area":null,"county":"Allegheny County","state":"Pennsylvania","country":"us","formatted_address":"Nickelodeon Mall, Locust Place, Sewickley, Allegheny County, Pennsylvania, 15143, United States of America","place_id":"163288916","datatype":"locationiq"},{"name":"Bruegger's Bagel Bakery","code":null,"latitude":44.96274,"longitude":-93.2548,"address":"1433 E Franklin Avenue, Minneapolis MN","chain_name":null,"distance":0,"street_number":null,"street_name":"East Franklin Avenue","zip":"55404","city":"Minneapolis","area":null,"county":"Hennepin County","state":"Minnesota","country":"us","formatted_address":"Aldi, East Franklin Avenue, Phillips, Minneapolis, Hennepin County, Minnesota, 55404, United States of America","place_id":"84132931","datatype":"locationiq"},{"name":"Bruegger's Bagel Bakery","code":null,"latitude":43.0606,"longitude":-77.4755,"address":"707 Pittsford Victor Road, Pittsford NY","chain_name":null,"distance":0,"street_number":null,"street_name":"Kreag Road","zip":"14534","city":null,"area":null,"county":"Monroe County","state":"New York","country":"us","formatted_address":"Mobil, Kreag Road, Bushnell Basin, Perinton Town, Monroe County, New York, 14534, United States of America","place_id":"141339949","datatype":"locationiq"},{"name":"Bruegger's Bagels - Downtown, South Hills","code":null,"latitude":40.44255,"longitude":-79.9961,"address":"411 7th Avenue, Suite 1, Pittsburgh PA","chain_name":null,"distance":0,"street_number":"416","street_name":"Seventh Avenue","zip":"15219","city":"Pittsburgh","area":null,"county":"Allegheny County","state":"Pennsylvania","country":"us","formatted_address":"Verizon Building, 416, Seventh Avenue, Downtown, Pittsburgh, Allegheny County, Pennsylvania, 15219, United States of America","place_id":"149585867","datatype":"locationiq"},{"name":"Bruegger's Bagel Bakery","code":null,"latitude":41.41668,"longitude":-81.9218,"address":"27045 Lorain Road, North Olmsted OH","chain_name":null,"distance":0,"street_number":null,"street_name":"Lorain Road","zip":"44070","city":null,"area":null,"county":"Cuyahoga County","state":"Ohio","country":"us","formatted_address":"Bruegger's Bagels, Lorain Road, North Olmsted, Cuyahoga County, Ohio, 44070, United States of America","place_id":"40934404","datatype":"locationiq"},{"name":"Bruegger's Bagel Bakery","code":null,"latitude":32.78713,"longitude":-79.9537,"address":"221 Spring Street, Charleston SC","chain_name":null,"distance":0,"street_number":null,"street_name":"Savannah Highway","zip":"29425","city":"Charleston","area":null,"county":"Charleston County","state":"South Carolina","country":"us","formatted_address":"Bruegger's Bagels, Savannah Highway, Charleston, Charleston County, South Carolina, 29425, United States of America","place_id":"41753403","datatype":"locationiq"},{"name":"Bruegger's Bagel Bakery","code":null,"latitude":39.14187,"longitude":-84.5193,"address":"3317 Clifton Avenue, Cincinnati OH","chain_name":null,"distance":0,"street_number":"3350","street_name":"Clifton Avenue","zip":"45220","city":"Cincinnati","area":null,"county":"Hamilton County","state":"Ohio","country":"us","formatted_address":"3350, Clifton Avenue, Clifton Business District, Clifton, Cincinnati, Hamilton County, Ohio, 45220, United States of America","place_id":"199275679","datatype":"locationiq"},{"name":"Brueggers Bagel Bakery","code":null,"latitude":38.94189,"longitude":-90.2224,"address":"1710 Tomahawk Lane, Godfrey IL","chain_name":null,"distance":0,"street_number":"1777","street_name":"Tomahawk Lane","zip":"62035","city":null,"area":null,"county":"Madison County","state":"Illinois","country":"us","formatted_address":"1777, Tomahawk Lane, Godfrey, Madison County, Illinois, 62035, United States of America","place_id":"185531273","datatype":"locationiq"},{"name":"Bruegger's Bagel Bakery","code":null,"latitude":43.13512,"longitude":-77.4985,"address":"1601 Penfield Road # 287, Rochester NY","chain_name":null,"distance":0,"street_number":"1501","street_name":"Penfield Road","zip":"14625","city":null,"area":null,"county":"Monroe County","state":"New York","country":"us","formatted_address":"1501, Penfield Road, Penfield, Penfield Town, Monroe County, New York, 14625, United States of America","place_id":"196439060","datatype":"locationiq"},{"name":"Bruegger's Bagel Bakery","code":null,"latitude":35.88932,"longitude":-78.6797,"address":"7550 Creedmoor Road # 106, Raleigh NC","chain_name":null,"distance":0,"street_number":"7322","street_name":"Creedmoor Road","zip":"27613","city":"Raleigh","area":null,"county":"Wake County","state":"North Carolina","country":"us","formatted_address":"7322, Creedmoor Road, Crabtree Valley, Raleigh, Wake County, North Carolina, 27613, United States of America","place_id":"198313573","datatype":"locationiq"},{"name":"Bruegger's Bagel Bakery","code":null,"latitude":42.35744,"longitude":-71.0585,"address":"7 School Street, Boston MA","chain_name":null,"distance":0,"street_number":null,"street_name":"Washington Street","zip":"02110-1301","city":"Boston","area":"Downtown Crossing","county":"Suffolk County","state":"Massachusetts","country":"us","formatted_address":"Irish Famine Memorial, Washington Street, Downtown Crossing, Financial District, Boston, Suffolk County, Massachusetts, 02110-1301, United States of America","place_id":"75948109","datatype":"locationiq"},{"name":"Bruegger's Bagel Bakery","code":null,"latitude":40.61396,"longitude":-80.0548,"address":"10672 Perry Highway, Wexford PA","chain_name":null,"distance":0,"street_number":null,"street_name":"Perry Highway","zip":"15090","city":null,"area":null,"county":"Allegheny County","state":"Pennsylvania","country":"us","formatted_address":"Pizza Hut, Perry Highway, Pine, Allegheny County, Pennsylvania, 15090, United States of America","place_id":"123186440","datatype":"locationiq"},{"name":"Bruegger's Bagel Bakery","code":null,"latitude":42.36711,"longitude":-71.3006,"address":"31 Center Street, Weston MA","chain_name":null,"distance":0,"street_number":null,"street_name":"Center Street","zip":"02493","city":null,"area":null,"county":"Middlesex County","state":"Massachusetts","country":"us","formatted_address":"Weston Fire Department, Center Street, Weston, Middlesex County, Massachusetts, 02493, United States of America","place_id":"720536","datatype":"locationiq"},{"name":"Bruegger's Bagel Bakery - West Roxbury","code":null,"latitude":42.29579,"longitude":-71.1572,"address":"659 Vfw Parkway, Chestnut Hill MA","chain_name":null,"distance":0,"street_number":null,"street_name":"Veterans Of Foreign Wars Parkway","zip":"02132","city":null,"area":null,"county":"Suffolk County","state":"Massachusetts","country":"us","formatted_address":"UPS Store, Veterans Of Foreign Wars Parkway, Brookline, Suffolk County, Massachusetts, 02132, United States of America","place_id":"21586868","datatype":"locationiq"},{"name":"Bruegger's Bagels - Downtown, South Hills","code":null,"latitude":40.43834,"longitude":-79.9986,"address":"429 4th Avenue, Pittsburgh PA","chain_name":null,"distance":0,"street_number":"301","street_name":"Grant Street","zip":"15219","city":"Pittsburgh","area":null,"county":"Allegheny County","state":"Pennsylvania","country":"us","formatted_address":"One Oxford Center, 301, Grant Street, Downtown, Pittsburgh, Allegheny County, Pennsylvania, 15219, United States of America","place_id":"116756618","datatype":"locationiq"},{"name":"Bruegger's Bagel Bakery","code":null,"latitude":44.91255,"longitude":-93.3087,"address":"4953 Penn Avenue South, Minneapolis MN","chain_name":null,"distance":0,"street_number":null,"street_name":"West 50th Street","zip":"55424","city":"Minneapolis","area":null,"county":"Hennepin County","state":"Minnesota","country":"us","formatted_address":"Penn Av S, West 50th Street, Lynnhurst, Minneapolis, Hennepin County, Minnesota, 55424, United States of America","place_id":"6575593","datatype":"locationiq"},{"name":"Bruegger's Bagel Bakery","code":null,"latitude":43.04017,"longitude":-87.9093,"address":"753 N Water Street, Milwaukee WI","chain_name":null,"distance":0,"street_number":"770","street_name":"North Water Street","zip":"53202","city":"Milwaukee","area":null,"county":"Milwaukee County","state":"Wisconsin","country":"us","formatted_address":"BMO Harris Bank Building, 770, North Water Street, East Town, Milwaukee, Milwaukee County, Wisconsin, 53202, United States of America","place_id":"85107254","datatype":"locationiq"},{"name":"Bruegger's Bagel Commisary","code":null,"latitude":42.5101,"longitude":-71.1435,"address":"10 Roessler Road, Woburn MA","chain_name":null,"distance":0,"street_number":"165","street_name":"New Boston Street","zip":"01801","city":null,"area":null,"county":"Middlesex County","state":"Massachusetts","country":"us","formatted_address":"165, New Boston Street, Woburn, Middlesex County, Massachusetts, 01801, United States of America","place_id":"75542096","datatype":"locationiq"},{"name":"Brueggers Bagel Bakery","code":null,"latitude":44.91255,"longitude":-93.3087,"address":"4953 Penn Avenue South, Minneapolis MN","chain_name":null,"distance":0,"street_number":null,"street_name":"West 50th Street","zip":"55424","city":"Minneapolis","area":null,"county":"Hennepin County","state":"Minnesota","country":"us","formatted_address":"Penn Av S, West 50th Street, Lynnhurst, Minneapolis, Hennepin County, Minnesota, 55424, United States of America","place_id":"6575593","datatype":"locationiq"},{"name":"Bruegger's Bagel Bakery","code":null,"latitude":42.31917,"longitude":-72.6303,"address":"96 Main Street, Northampton MA","chain_name":null,"distance":0,"street_number":null,"street_name":"Main Street","zip":"01060","city":null,"area":null,"county":"Hampshire County","state":"Massachusetts","country":"us","formatted_address":"Park, Main Street, Northampton, Hampshire County, Massachusetts, 01060, United States of America","place_id":"76934019","datatype":"locationiq"},{"name":"Bruegger's Bagel Bakery","code":null,"latitude":38.83576,"longitude":-104.8234,"address":"132 N Tejon Street, Colorado Springs CO","chain_name":null,"distance":0,"street_number":"109","street_name":"North Tejon Street","zip":"80903","city":"Colorado Springs","area":"Lowell Neighborhood","county":"El Paso County","state":"Colorado","country":"us","formatted_address":"Venice Olive Oil Company, 109, North Tejon Street, Lowell Neighborhood, Colorado Springs, El Paso County, Colorado, 80903, United States of America","place_id":"139725200","datatype":"locationiq"},{"name":"Bruegger's Bagel Bakery","code":null,"latitude":43.13073,"longitude":-77.4396,"address":"2200 Penfield Road # 646, Penfield NY","chain_name":null,"distance":0,"street_number":"2212","street_name":"Penfield Road","zip":"14526","city":null,"area":null,"county":"Monroe County","state":"New York","country":"us","formatted_address":"2212, Penfield Road, East Penfield, Penfield Town, Monroe County, New York, 14526, United States of America","place_id":"196444882","datatype":"locationiq"},{"name":"Brueggers Bagel Bakery","code":null,"latitude":45.0377,"longitude":-92.8409,"address":"1970 Market Drive, Stillwater MN","chain_name":null,"distance":0,"street_number":"1861","street_name":"Market Drive","zip":"55082","city":"Stillwater","area":null,"county":"Washington County","state":"Minnesota","country":"us","formatted_address":"1861, Market Drive, Stillwater, Washington County, Minnesota, 55082, United States of America","place_id":"192653654","datatype":"locationiq"},{"name":"Bruegger's Bagel Bakery","code":null,"latitude":41.79585,"longitude":-88.0104,"address":"5002 Main Street, Downers Grove IL","chain_name":null,"distance":0,"street_number":null,"street_name":"Warren Avenue","zip":"60515","city":null,"area":null,"county":"DuPage County","state":"Illinois","country":"us","formatted_address":"RBK American Grill, Warren Avenue, Downers Grove, DuPage County, Illinois, 60515, United States of America","place_id":"58632989","datatype":"locationiq"},{"name":"Bruegger's Bagel Bakery","code":null,"latitude":44.94697,"longitude":-93.0974,"address":"1 7th Place West, Saint Paul MN","chain_name":null,"distance":0,"street_number":"33","street_name":null,"zip":"55102","city":"Saint Paul","area":null,"county":"Ramsey County","state":"Minnesota","country":"us","formatted_address":"Wild Tymes, 33, West 7th Place, Saint Paul, Ramsey County, Minnesota, 55102, United States of America","place_id":"56291477","datatype":"locationiq"},{"name":"Bruegger's Bagels","code":null,"latitude":30.42701,"longitude":-84.2325,"address":"2870 Apalachee Parkway, Tallahassee FL","chain_name":null,"distance":0,"street_number":"2849","street_name":"Apalachee Parkway","zip":"32301-3678","city":"Tallahassee","area":null,"county":"Leon County","state":"Florida","country":"us","formatted_address":"Circle K, 2849, Apalachee Parkway, Tallahassee, Leon County, Florida, 32301-3678, United States of America","place_id":"112064422","datatype":"locationiq"},{"name":"Bruegger's Bagels - Downtown, South Hills","code":null,"latitude":40.43974,"longitude":-79.9965,"address":"531 Grant Street, Pittsburgh PA","chain_name":null,"distance":0,"street_number":"500","street_name":"Grant Street","zip":"15219","city":"Pittsburgh","area":null,"county":"Allegheny County","state":"Pennsylvania","country":"us","formatted_address":"BNY Mellon Center, 500, Grant Street, Downtown, Pittsburgh, Allegheny County, Pennsylvania, 15219, United States of America","place_id":"96184898","datatype":"locationiq"},{"name":"Bruegger's Bagel Bakery","code":null,"latitude":40.39227,"longitude":-80.0618,"address":"1644 Cochran Road, Pittsburgh PA","chain_name":null,"distance":0,"street_number":"1672","street_name":"Cochran Road","zip":"15220","city":null,"area":null,"county":"Allegheny County","state":"Pennsylvania","country":"us","formatted_address":"1672, Cochran Road, Mount Lebanon, Allegheny County, Pennsylvania, 15220, United States of America","place_id":"201185763","datatype":"locationiq"},{"name":"Bruegger's Bagel Bakery","code":null,"latitude":42.29579,"longitude":-71.1572,"address":"659 Vfw Parkway, Chestnut Hill MA","chain_name":null,"distance":0,"street_number":null,"street_name":"Veterans Of Foreign Wars Parkway","zip":"02132","city":null,"area":null,"county":"Suffolk County","state":"Massachusetts","country":"us","formatted_address":"UPS Store, Veterans Of Foreign Wars Parkway, Brookline, Suffolk County, Massachusetts, 02132, United States of America","place_id":"21586868","datatype":"locationiq"},{"name":"Bruegger's Bagels - Highland Village, Retail Stores","code":null,"latitude":44.91785,"longitude":-93.1905,"address":"2136 Ford Parkway, Saint Paul MN","chain_name":null,"distance":0,"street_number":"2145","street_name":"Ford Parkway","zip":"55116","city":"Saint Paul","area":"Highland Village","county":"Ramsey County","state":"Minnesota","country":"us","formatted_address":"LifeTime Plaza, 2145, Ford Parkway, Highland Village, Saint Paul, Ramsey County, Minnesota, 55116, United States of America","place_id":"143087705","datatype":"locationiq"},{"name":"Bruegger's Bagel Bakery","code":null,"latitude":44.91786,"longitude":-93.1905,"address":"2136 Ford Parkway, Saint Paul MN","chain_name":null,"distance":0,"street_number":"2145","street_name":"Ford Parkway","zip":"55116","city":"Saint Paul","area":"Highland Village","county":"Ramsey County","state":"Minnesota","country":"us","formatted_address":"LifeTime Plaza, 2145, Ford Parkway, Highland Village, Saint Paul, Ramsey County, Minnesota, 55116, United States of America","place_id":"143087705","datatype":"locationiq"},{"name":"Bruegger's Bagel Bakery","code":null,"latitude":44.96274,"longitude":-93.2554,"address":"1311 E Franklin Avenue, Minneapolis MN","chain_name":null,"distance":0,"street_number":null,"street_name":"East Franklin Avenue","zip":"55404","city":"Minneapolis","area":null,"county":"Hennepin County","state":"Minnesota","country":"us","formatted_address":"Aldi, East Franklin Avenue, Phillips, Minneapolis, Hennepin County, Minnesota, 55404, United States of America","place_id":"84132931","datatype":"locationiq"},{"name":"Bruegger's Bagel Bakery","code":null,"latitude":44.94832,"longitude":-92.7303,"address":"131 Carmichael Road, Hudson WI","chain_name":null,"distance":0,"street_number":null,"street_name":"Carmichael Road","zip":"54016","city":"Hudson","area":null,"county":"Saint Croix County","state":"Wisconsin","country":"us","formatted_address":"Carmichael Road, Hudson, Saint Croix County, Wisconsin, 54016, United States of America","place_id":"166882620","datatype":"locationiq"},{"name":"Bruegger's Bagel Bakery","code":null,"latitude":40.44256,"longitude":-79.9961,"address":"411 7th Avenue, Pittsburgh PA","chain_name":null,"distance":0,"street_number":"416","street_name":"Seventh Avenue","zip":"15219","city":"Pittsburgh","area":null,"county":"Allegheny County","state":"Pennsylvania","country":"us","formatted_address":"Verizon Building, 416, Seventh Avenue, Downtown, Pittsburgh, Allegheny County, Pennsylvania, 15219, United States of America","place_id":"149585867","datatype":"locationiq"},{"name":"Brueggers Bagel Bakery","code":null,"latitude":40.44141,"longitude":-79.9571,"address":"3714 Forbes Avenue, Pittsburgh PA","chain_name":null,"distance":0,"street_number":null,"street_name":"Forbes Avenue","zip":"15213","city":"Pittsburgh","area":"Oakland","county":"Allegheny County","state":"Pennsylvania","country":"us","formatted_address":"Brugger's Bakery Cafe, Forbes Avenue, Oakland, Central Oakland, Pittsburgh, Allegheny County, Pennsylvania, 15213, United States of America","place_id":"29097598","datatype":"locationiq"},{"name":"Bruegger's Bagel Bakery","code":null,"latitude":44.92069,"longitude":-92.9368,"address":"8320 City Centre Drive, Saint Paul MN","chain_name":null,"distance":0,"street_number":"8343","street_name":"City Centre Drive","zip":"55125","city":"Woodbury","area":null,"county":"Washington County","state":"Minnesota","country":"us","formatted_address":"8343, City Centre Drive, Woodbury, Washington County, Minnesota, 55125, United States of America","place_id":"192644678","datatype":"locationiq"},{"name":"Bruegger's Bagel Bakery","code":null,"latitude":39.91512,"longitude":-105.0557,"address":"1275 E 1st Avenue, Broomfield CO","chain_name":null,"distance":0,"street_number":null,"street_name":"East 1st Avenue","zip":"80020","city":"Broomfield","area":null,"county":"City and County of Broomfield","state":"Colorado","country":"us","formatted_address":"Chiro Now!, East 1st Avenue, Broomfield Town Centre, Broomfield, City and County of Broomfield, Colorado, 80020, United States of America","place_id":"151455499","datatype":"locationiq"},{"name":"Bruegger's Bagel Bakery","code":null,"latitude":42.34917,"longitude":-71.0955,"address":"644 Beacon Street, Boston MA","chain_name":null,"distance":0,"street_number":null,"street_name":"Commonwealth Avenue","zip":"02115","city":"Boston","area":"Roxbury Crossing","county":"Suffolk County","state":"Massachusetts","country":"us","formatted_address":"Kenmore Station Busway, Commonwealth Avenue, Roxbury Crossing, Fenway, Boston, Suffolk County, Massachusetts, 02115, United States of America","place_id":"16249518","datatype":"locationiq"},{"name":"Bruegger's Bagels","code":null,"latitude":42.3656,"longitude":-71.0182,"address":"1 Logan Airport, East Boston MA","chain_name":null,"distance":0,"street_number":null,"street_name":"Airport Road - Arrivals Level","zip":"02128","city":"Boston","area":"Jeffries Point","county":"Suffolk County","state":"Massachusetts","country":"us","formatted_address":"Control Tower, Airport Road - Arrivals Level, Jeffries Point, East Boston, Boston, Suffolk County, Massachusetts, 02128, United States of America","place_id":"115224513","datatype":"locationiq"},{"name":"Brueggers Bagel Bakery","code":null,"latitude":44.98763,"longitude":-93.2574,"address":"228 East Hennepin Avenue, Minneapolis MN","chain_name":null,"distance":0,"street_number":null,"street_name":"East Hennepin Avenue","zip":"55413","city":"Minneapolis","area":"St Anthony West","county":"Hennepin County","state":"Minnesota","country":"us","formatted_address":"2 St NE (Ortman), East Hennepin Avenue, St Anthony West, Northeast, Minneapolis, Hennepin County, Minnesota, 55413, United States of America","place_id":"6801220","datatype":"locationiq"},{"name":"Bruegger's Bagels","code":null,"latitude":40.33315,"longitude":-80.0238,"address":"5213 Library Road, Bethel Park PA","chain_name":null,"distance":0,"street_number":"5200","street_name":"Library Road","zip":"15102","city":"Bethel Park","area":null,"county":"Allegheny County","state":"Pennsylvania","country":"us","formatted_address":"Monro Muffler\/Brake, 5200, Library Road, Bethel Park, Allegheny County, Pennsylvania, 15102, United States of America","place_id":"139098904","datatype":"locationiq"},{"name":"Bruegger's Bagels","code":null,"latitude":40.28389,"longitude":-80.121,"address":"3527 Washington Road, Canonsburg PA","chain_name":null,"distance":0,"street_number":null,"street_name":"Washington Road","zip":"15317","city":null,"area":null,"county":"Washington County","state":"Pennsylvania","country":"us","formatted_address":"Arby's, Washington Road, Thompsonville, Washington County, Pennsylvania, 15317, United States of America","place_id":"26120690","datatype":"locationiq"},{"name":"Bruegger's Bagels - New Hope, South Minneapolis, Edina, Retail Stores","code":null,"latitude":44.92204,"longitude":-93.329,"address":"4412 France Avenue South, Minneapolis MN","chain_name":null,"distance":0,"street_number":null,"street_name":"France Avenue South","zip":"55431","city":null,"area":null,"county":"Hennepin County","state":"Minnesota","country":"us","formatted_address":"Sunnyside Av, France Avenue South, 44th and France, Fulton, Edina, Hennepin County, Minnesota, 55431, United States of America","place_id":"6814460","datatype":"locationiq"},{"name":"Bruegger's Bagel Bakery","code":null,"latitude":41.58572,"longitude":-93.6253,"address":"655 Walnut Street # 236, Des Moines IA","chain_name":null,"distance":0,"street_number":"606","street_name":"Walnut Street","zip":"50309","city":"Des Moines","area":null,"county":"Polk County","state":"Iowa","country":"us","formatted_address":"Walgreens, 606, Walnut Street, Meredith Corporation, Des Moines, Polk County, Iowa, 50309, United States of America","place_id":"91413482","datatype":"locationiq"},{"name":"Bruegger's Bagel Bakery","code":null,"latitude":44.9797,"longitude":-93.2364,"address":"319 14th Avenue SE, Minneapolis MN","chain_name":null,"distance":0,"street_number":"313","street_name":"Southeast 14th Avenue","zip":"55414","city":"Minneapolis","area":"Marcy-Holmes","county":"Hennepin County","state":"Minnesota","country":"us","formatted_address":"Annie's Parlour, 313, Southeast 14th Avenue, Marcy-Holmes, Phillips, Minneapolis, Hennepin County, Minnesota, 55414, United States of America","place_id":"4595685","datatype":"locationiq"},{"name":"Bruegger's Bagel Bakery","code":null,"latitude":36.05594,"longitude":-79.8933,"address":"4401 W Wendover Avenue, Greensboro NC","chain_name":null,"distance":0,"street_number":"1101","street_name":"Lanada Road","zip":"2707","city":"Greensboro","area":null,"county":"Guilford County","state":"North Carolina","country":"us","formatted_address":"IHOP, 1101, Lanada Road, Greensboro, Guilford County, North Carolina, 2707, United States of America","place_id":"37135791","datatype":"locationiq"},{"name":"Bruegger's Bagels - North Oaks, Retail Stores, St Paul","code":null,"latitude":45.07966,"longitude":-93.1143,"address":"111 Village Center Drive, Saint Paul MN","chain_name":null,"distance":0,"street_number":null,"street_name":"Village Center Drive","zip":"55126","city":"Shoreview","area":null,"county":"Ramsey County","state":"Minnesota","country":"us","formatted_address":"Bruegger's, Village Center Drive, Shoreview, Ramsey County, Minnesota, 55126, United States of America","place_id":"14641744","datatype":"locationiq"},{"name":"Bruegger's Bagel Bakery","code":null,"latitude":40.43831,"longitude":-79.9985,"address":"429 4th Avenue, Pittsburgh PA","chain_name":null,"distance":0,"street_number":"301","street_name":"Grant Street","zip":"15219","city":"Pittsburgh","area":null,"county":"Allegheny County","state":"Pennsylvania","country":"us","formatted_address":"One Oxford Center, 301, Grant Street, Downtown, Pittsburgh, Allegheny County, Pennsylvania, 15219, United States of America","place_id":"116756618","datatype":"locationiq"},{"name":"Bruegger's Bagels - Retail Stores","code":null,"latitude":44.97117,"longitude":-93.4996,"address":"1179 Wayzata Boulevard East, Wayzata MN","chain_name":null,"distance":0,"street_number":null,"street_name":"Wayzata Blvd W","zip":"55391","city":"Wayzata","area":null,"county":"Hennepin County","state":"Minnesota","country":"us","formatted_address":"Wayzata Blvd W, Wayzata, Hennepin County, Minnesota, 55391, United States of America","place_id":"145536406","datatype":"locationiq"},{"name":"Bruegger's Bagel Bakery","code":null,"latitude":44.7464,"longitude":-93.2996,"address":"1601 County Road 42 West, Burnsville MN","chain_name":null,"distance":0,"street_number":null,"street_name":"Chancellor Manor","zip":"55306","city":"Burnsville","area":null,"county":"Dakota County","state":"Minnesota","country":"us","formatted_address":"Pier One Imports, Chancellor Manor, Burnsville, Dakota County, Minnesota, 55306, United States of America","place_id":"116402919","datatype":"locationiq"},{"name":"Bruegger's Bagel Bakery","code":null,"latitude":42.34759,"longitude":-71.2458,"address":"2050 Commonwealth Avenue, Auburndale MA","chain_name":null,"distance":0,"street_number":null,"street_name":"Commonwealth Avenue","zip":"02466","city":null,"area":"Lasell Village","county":"Middlesex County","state":"Massachusetts","country":"us","formatted_address":"Commonwealth Ave opp Pamella Ct, Commonwealth Avenue, Lasell Village, Nonantum, Newton, Middlesex County, Massachusetts, 02466, United States of America","place_id":"16147195","datatype":"locationiq"},{"name":"Bruegger's Bagel Bakery","code":null,"latitude":44.93994,"longitude":-93.1338,"address":"800 Grand Avenue, Saint Paul MN","chain_name":null,"distance":0,"street_number":null,"street_name":"Grand Avenue","zip":"55102:55105","city":"Saint Paul","area":null,"county":"Ramsey County","state":"Minnesota","country":"us","formatted_address":"Avon St, Grand Avenue, Saint Paul, Ramsey County, Minnesota, 55102:55105, United States of America","place_id":"6803464","datatype":"locationiq"},{"name":"Bruegger's Bagel Bakery","code":null,"latitude":41.67256,"longitude":-91.5655,"address":"404 1st Avenue, Coralville IA","chain_name":null,"distance":0,"street_number":"312","street_name":"1st Avenue","zip":"52241","city":null,"area":null,"county":"Johnson County","state":"Iowa","country":"us","formatted_address":"Lebeda Mattress Factory, 312, 1st Avenue, Iowa River Landing, Coralville, Johnson County, Iowa, 52241, United States of America","place_id":"23733874","datatype":"locationiq"},{"name":"Bruegger's Bagels - Retail Stores, Eagan","code":null,"latitude":44.79027,"longitude":-93.2172,"address":"2149 Cliff Road, Suite A, Saint Paul MN","chain_name":null,"distance":0,"street_number":null,"street_name":"CR 32","zip":"55122","city":"Eagan","area":null,"county":"Dakota County","state":"Minnesota","country":"us","formatted_address":"Nicols Rd, CR 32, Eagan, Dakota County, Minnesota, 55122, United States of America","place_id":"6665408","datatype":"locationiq"},{"name":"Brueggers Bagel Bakery","code":null,"latitude":37.23821,"longitude":-77.2573,"address":"5330 Ruffin Road, Prince George VA","chain_name":null,"distance":0,"street_number":null,"street_name":"Ruffin Road","zip":"23875","city":null,"area":null,"county":"Prince George County","state":"Virginia","country":"us","formatted_address":"Ruffin Road, Jordan Point Manor, Prince George County, Virginia, 23875, United States of America","place_id":"92954415","datatype":"locationiq"},{"name":"Bruegger's Bagel Bakery","code":null,"latitude":43.09027,"longitude":-77.5135,"address":"24 State Street, Pittsford NY","chain_name":null,"distance":0,"street_number":null,"street_name":"State Street","zip":"14534","city":null,"area":null,"county":"Monroe County","state":"New York","country":"us","formatted_address":"Pittsford Town Library, State Street, Pittsford, Pittsford Town, Monroe County, New York, 14534, United States of America","place_id":"12438336","datatype":"locationiq"},{"name":"Bruegger's Bagels - Retail Stores, Minnetonka","code":null,"latitude":44.96657,"longitude":-93.4426,"address":"1808 Plymouth Road, Minnetonka MN","chain_name":null,"distance":0,"street_number":null,"street_name":"Plymouth Road","zip":"55305","city":"Minnetonka","area":null,"county":"Hennepin County","state":"Minnesota","country":"us","formatted_address":"Caribou Coffee, Plymouth Road, Minnetonka, Hennepin County, Minnesota, 55305, United States of America","place_id":"43089866","datatype":"locationiq"},{"name":"Bruegger's Bagel Bakery","code":null,"latitude":42.69014,"longitude":-73.8662,"address":"1800 Western Avenue # 7, Albany NY","chain_name":null,"distance":0,"street_number":"1800","street_name":"Western Avenue","zip":"12203","city":null,"area":null,"county":"Albany County","state":"New York","country":"us","formatted_address":"1800, Western Avenue, Westmere, Town of Guilderland, Albany County, New York, 12203, United States of America","place_id":"196089939","datatype":"locationiq"},{"name":"Bruegger's Bagel Bakery","code":null,"latitude":36.10095,"longitude":-86.8708,"address":"5311 Harding Road, Nashville TN","chain_name":null,"distance":0,"street_number":"5301","street_name":"Harding Pike","zip":"37205","city":"Belle Meade","area":null,"county":"Davidson County","state":"Tennessee","country":"us","formatted_address":"Walgreens, 5301, Harding Pike, Belle Meade, Davidson County, Tennessee, 37205, United States of America","place_id":"171558006","datatype":"locationiq"},{"name":"Bruegger's Bagels - Retail Stores, Richfield","code":null,"latitude":44.8833,"longitude":-93.3086,"address":"6600 Penn Avenue South, Minneapolis MN","chain_name":null,"distance":0,"street_number":null,"street_name":"Penn Avenue South","zip":"55431","city":null,"area":null,"county":"Hennepin County","state":"Minnesota","country":"us","formatted_address":"66 St W, Penn Avenue South, Richfield, Hennepin County, Minnesota, 55431, United States of America","place_id":"6813651","datatype":"locationiq"},{"name":"Bruegger's Bagels - Retail Stores, Southtown","code":null,"latitude":44.86143,"longitude":-93.3017,"address":"7801 Southtown Centre, Minneapolis MN","chain_name":null,"distance":0,"street_number":null,"street_name":"Southtown Drive","zip":"55431","city":"Bloomington","area":null,"county":"Hennepin County","state":"Minnesota","country":"us","formatted_address":"Southtown Drive, Bloomington, Hennepin County, Minnesota, 55431, United States of America","place_id":"62909439","datatype":"locationiq"},{"name":"Bruegger's Bagels - Retail Stores, Woodbury","code":null,"latitude":44.92069,"longitude":-92.9368,"address":"8320 City Centre Drive, Saint Paul MN","chain_name":null,"distance":0,"street_number":"8343","street_name":"City Centre Drive","zip":"55125","city":"Woodbury","area":null,"county":"Washington County","state":"Minnesota","country":"us","formatted_address":"8343, City Centre Drive, Woodbury, Washington County, Minnesota, 55125, United States of America","place_id":"192644678","datatype":"locationiq"},{"name":"Bruegger's Bagel Bakery","code":null,"latitude":41.97686,"longitude":-91.6196,"address":"3310 Mount Vernon Road Southeast, Cedar Rapids IA","chain_name":null,"distance":0,"street_number":null,"street_name":"Mount Vernon Road Southeast","zip":"52403","city":"Cedar Rapids","area":null,"county":"Linn County","state":"Iowa","country":"us","formatted_address":"Pizza Hut, Mount Vernon Road Southeast, Cedar Rapids, Linn County, Iowa, 52403, United States of America","place_id":"8915565","datatype":"locationiq"},{"name":"Brueggers Bagel Bakery","code":null,"latitude":37.24452,"longitude":-77.2168,"address":"10611 Montclair Court, Prince George VA","chain_name":null,"distance":0,"street_number":"10667","street_name":"Montclair Court","zip":"23875","city":null,"area":null,"county":"Prince George County","state":"Virginia","country":"us","formatted_address":"10667, Montclair Court, Rivers Edge, Prince George County, Virginia, 23875, United States of America","place_id":"207750544","datatype":"locationiq"},{"name":"Bruegger's Bagel Bakery","code":null,"latitude":41.9767,"longitude":-91.6673,"address":"115 3rd Avenue Southeast, Cedar Rapids IA","chain_name":null,"distance":0,"street_number":"123","street_name":"3rd Avenue Southeast","zip":"52403","city":"Cedar Rapids","area":null,"county":"Linn County","state":"Iowa","country":"us","formatted_address":"Paramount Theatre, 123, 3rd Avenue Southeast, Cedar Rapids, Linn County, Iowa, 52403, United States of America","place_id":"28291116","datatype":"locationiq"},{"name":"Bruegger's Bagel Bakery","code":null,"latitude":43.1976,"longitude":-77.5842,"address":"1234 Ridge Road East, Rochester NY","chain_name":null,"distance":0,"street_number":"1229","street_name":"Ridge Road East","zip":"14621","city":null,"area":null,"county":"Monroe County","state":"New York","country":"us","formatted_address":"1229, Ridge Road East, Irondequoit, Irondequoit Town, Monroe County, New York, 14621, United States of America","place_id":"196467179","datatype":"locationiq"},{"name":"Bruegger's Bagel Bakery","code":null,"latitude":34.02021,"longitude":-80.9717,"address":"4699 Forest Drive, Columbia SC","chain_name":null,"distance":0,"street_number":null,"street_name":"Forest Drive","zip":"29204","city":"Forest Acres","area":null,"county":"Richland County","state":"South Carolina","country":"us","formatted_address":"Goodyear Auto Service Center, Forest Drive, Forest Acres, Richland County, South Carolina, 29204, United States of America","place_id":"130267363","datatype":"locationiq"},{"name":"Bruegger's Bagel Bakery","code":null,"latitude":41.60626,"longitude":-93.7362,"address":"1650 Nw 86th Street, Clive IA","chain_name":null,"distance":0,"street_number":null,"street_name":"University Boulevard","zip":"50325","city":"Clive","area":null,"county":"Polk County","state":"Iowa","country":"us","formatted_address":"Aasheim Plaza, University Boulevard, Plaza West, Clive, Polk County, Iowa, 50325, United States of America","place_id":"91845506","datatype":"locationiq"},{"name":"Brueggers Bagel Bakery","code":null,"latitude":44.8368,"longitude":-93.401,"address":"9641 Anderson Lakes Parkway, Eden Prairie MN","chain_name":null,"distance":0,"street_number":null,"street_name":"Crane Dance Trail","zip":"55348","city":"Eden Prairie","area":null,"county":"Hennepin County","state":"Minnesota","country":"us","formatted_address":"Hyland-Bush-Anderson Lakes Park, Crane Dance Trail, Eden Prairie, Hennepin County, Minnesota, 55348, United States of America","place_id":"80771170","datatype":"locationiq"},{"name":"Brueggers Bagel Bakery","code":null,"latitude":36.02707,"longitude":-86.7143,"address":"312 Burgandy Hill Trail, Nashville TN","chain_name":null,"distance":0,"street_number":"352","street_name":"Burgandy Hill Trail","zip":"37211","city":"Nashville-Davidson","area":null,"county":"Davidson County","state":"Tennessee","country":"us","formatted_address":"352, Burgandy Hill Trail, Nashville-Davidson, Davidson County, Tennessee, 37211, United States of America","place_id":"203613338","datatype":"locationiq"},{"name":"Bruegger's Bagel Bakery","code":null,"latitude":43.25302,"longitude":-77.6996,"address":"3177 Latta Road, Rochester NY","chain_name":null,"distance":0,"street_number":null,"street_name":"Latta Road","zip":"14626","city":null,"area":null,"county":"Monroe County","state":"New York","country":"us","formatted_address":"Latta Road, North Greece, Greece Town, Monroe County, New York, 14626, United States of America","place_id":"173994215","datatype":"locationiq"},{"name":"Bruegger's Bagel Bakery","code":null,"latitude":41.0312,"longitude":-73.767,"address":"167 Martine Avenue, White Plains NY","chain_name":null,"distance":0,"street_number":"172","street_name":"Martine Avenue","zip":"10601","city":"White Plains","area":null,"county":"Westchester County","state":"New York","country":"us","formatted_address":"172, Martine Avenue, White Plains, Westchester County, New York, 10601, United States of America","place_id":"197120202","datatype":"locationiq"},{"name":"Bruegger's Bagel Bakery","code":null,"latitude":43.08659,"longitude":-77.637,"address":"3333 W Henrietta Road, Rochester NY","chain_name":null,"distance":0,"street_number":"3328","street_name":"West Henrietta Road","zip":"14623","city":null,"area":null,"county":"Monroe County","state":"New York","country":"us","formatted_address":"3328, West Henrietta Road, Mortimer, Henrietta Town, Monroe County, New York, 14623, United States of America","place_id":"196454448","datatype":"locationiq"},{"name":"Brueggers Bagel Bakery","code":null,"latitude":35.2043,"longitude":-81.3716,"address":"105 McCarter Drive, Kings Mountain NC","chain_name":null,"distance":0,"street_number":null,"street_name":"Dixon School Road","zip":"28086","city":null,"area":null,"county":"Cleveland County","state":"North Carolina","country":"us","formatted_address":"Dixon School Road, Midpine, Cleveland County, North Carolina, 28086, United States of America","place_id":"79039941","datatype":"locationiq"},{"name":"Brueggers Bagel Bakery","code":null,"latitude":39.67995,"longitude":-104.9593,"address":"2000 S University Boulevard, Denver CO","chain_name":null,"distance":0,"street_number":null,"street_name":"South University Boulevard","zip":"80210","city":"Denver","area":"Platt Park","county":"Denver County","state":"Colorado","country":"us","formatted_address":"Crimson and Gold, South University Boulevard, Platt Park, Denver, Denver County, Colorado, 80210, United States of America","place_id":"29001069","datatype":"locationiq"},{"name":"Brueggers Bagel Bakery","code":null,"latitude":39.74689,"longitude":-104.9919,"address":"817 17th Street, Denver CO","chain_name":null,"distance":0,"street_number":"817","street_name":"17th Street","zip":"80202","city":"Denver","area":"Upper Downtown","county":"Denver County","state":"Colorado","country":"us","formatted_address":"Bank Lofts, 817, 17th Street, Upper Downtown, Denver, Denver County, Colorado, 80202, United States of America","place_id":"98131360","datatype":"locationiq"},{"name":"Brueggers Bagel Bakery","code":null,"latitude":40.0975,"longitude":-83.0924,"address":"4425 West Dublin Granville Road, Dublin OH","chain_name":null,"distance":0,"street_number":null,"street_name":"Dublin \u2013 Granville Road","zip":"43017","city":"Dublin","area":null,"county":"Franklin County","state":"Ohio","country":"us","formatted_address":"Dublin \u2013 Granville Road, Sun Center, Dublin, Franklin County, Ohio, 43017, United States of America","place_id":"98247383","datatype":"locationiq"}]