[{"latitude":" 40.72575","longitude":"-111.89904","name":" Chevron","address":" USA-(UT) Salt Lake City","street_number":null,"street_name":"2100 South","zip":"84115","city":"South Salt Lake","area":null,"county":"Salt Lake County","state":"Utah","country":"us","formatted_address":"Chevron, 2100 South, South Salt Lake, Salt Lake County, Utah, 84115, United States of America","place_id":"4904512","datatype":"locationiq"},{"latitude":" 36.04168","longitude":"-114.98347","name":" Chevron","address":" USA-(NV) Henderson","street_number":null,"street_name":"Curry Drive","zip":"89015","city":"Henderson","area":"Water Street District","county":"Clark County","state":"Nevada","country":"us","formatted_address":"Curry Drive, Water Street District, Downtown Henderson, Henderson, Clark County, Nevada, 89015, United States of America","place_id":"67978468","datatype":"locationiq"},{"latitude":" 36.80474","longitude":"-114.10924","name":" Chevron","address":" USA-(NV) Mesquite","street_number":null,"street_name":"Falcon Ridge Parkway","zip":"89034","city":null,"area":null,"county":"Clark County","state":"Nevada","country":"us","formatted_address":"Chevron, Falcon Ridge Parkway, Mesquite, Clark County, Nevada, 89034, United States of America","place_id":"42164570","datatype":"locationiq"},{"latitude":" 40.24473","longitude":"-111.66694","name":" Chevron","address":" USA-(UT) Provo","street_number":null,"street_name":"West 800 North","zip":"84601","city":"Provo","area":"Wyview Park","county":"Utah County","state":"Utah","country":"us","formatted_address":"Chevron, West 800 North, Wyview Park, Provo, Utah County, Utah, 84601, United States of America","place_id":"5590289","datatype":"locationiq"},{"latitude":" 39.53505","longitude":"-119.80297","name":" Chevron","address":" USA-(NV) Reno","street_number":null,"street_name":"East 6th Street","zip":"89512","city":"Reno","area":null,"county":"Washoe County","state":"Nevada","country":"us","formatted_address":"Chevron, East 6th Street, Midtown, Reno, Washoe County, Nevada, 89512, United States of America","place_id":"9508079","datatype":"locationiq"},{"latitude":" 40.62399","longitude":"-111.83469","name":" Chevron","address":" USA-(UT) Salt Lake City","street_number":null,"street_name":"Fort Union Boulevard","zip":"84121","city":"Cottonwood Heights","area":null,"county":"Salt Lake County","state":"Utah","country":"us","formatted_address":"Chevron, Fort Union Boulevard, Cottonwood Heights, Salt Lake County, Utah, 84121, United States of America","place_id":"19711920","datatype":"locationiq"},{"latitude":" 36.15935","longitude":"-115.06279","name":" Chevron","address":" USA-(NV) Las Vegas","street_number":null,"street_name":"East Charleston Boulevard","zip":"89110","city":null,"area":null,"county":"Clark County","state":"Nevada","country":"us","formatted_address":"Texaco, East Charleston Boulevard, Sunrise Manor, Clark County, Nevada, 89110, United States of America","place_id":"27313791","datatype":"locationiq"},{"latitude":" 36.02046","longitude":"-115.28502","name":" Chevron","address":" USA-(NV) Las Vegas","street_number":"8855","street_name":"Blue Diamond Road","zip":"89139","city":null,"area":null,"county":"Clark County","state":"Nevada","country":"us","formatted_address":"8855, Blue Diamond Road, Mountain's Edge, Enterprise, Arden, Clark County, Nevada, 89139, United States of America","place_id":"194880788","datatype":"locationiq"},{"latitude":" 40.58808","longitude":"-111.93915","name":" Chevron","address":" USA-(UT) West Jordan","street_number":null,"street_name":"Redwood Road","zip":"84084","city":"West Jordan","area":null,"county":"Salt Lake County","state":"Utah","country":"us","formatted_address":"University Federal Credit Union, Redwood Road, West Jordan, Salt Lake County, Utah, 84084, United States of America","place_id":"45170214","datatype":"locationiq"},{"latitude":" 36.07246","longitude":"-114.95696","name":" Chevron","address":" USA-(NV) Henderson","street_number":"901","street_name":"Olsen Street","zip":"89015","city":"Henderson","area":"Calico Ridge","county":"Clark County","state":"Nevada","country":"us","formatted_address":"901, Olsen Street, Calico Ridge, Foothills, Henderson, Clark County, Nevada, 89015, United States of America","place_id":"194888970","datatype":"locationiq"},{"latitude":" 39.52657","longitude":"-119.82685","name":" Chevron","address":" USA-(NV) Reno","street_number":"922","street_name":"West 4th Street","zip":"89503","city":"Reno","area":"Powning Addition","county":"Washoe County","state":"Nevada","country":"us","formatted_address":"922, West 4th Street, Powning Addition, Midtown, Reno, Washoe County, Nevada, 89503, United States of America","place_id":"195040783","datatype":"locationiq"},{"latitude":" 36.15944","longitude":"-115.23446","name":" Chevron","address":" USA-(NV) Las Vegas","street_number":"6394","street_name":"West Charleston Boulevard","zip":"89146","city":"Las Vegas","area":null,"county":"Clark County","state":"Nevada","country":"us","formatted_address":"6394, West Charleston Boulevard, Charleston Heights, Las Vegas, Clark County, Nevada, 89146, United States of America","place_id":"194920606","datatype":"locationiq"},{"latitude":" 36.02683","longitude":"-115.04803","name":" Chevron","address":" USA-(NV) Henderson","street_number":"1422","street_name":"Paseo Verde Parkway","zip":"89012","city":"Henderson","area":null,"county":"Clark County","state":"Nevada","country":"us","formatted_address":"1422, Paseo Verde Parkway, Macdonald Ranch, Henderson, Clark County, Nevada, 89012, United States of America","place_id":"194843972","datatype":"locationiq"},{"latitude":" 36.10039","longitude":"-115.18346","name":" Chevron","address":" USA-(NV) Las Vegas","street_number":null,"street_name":"West Tropicana Avenue","zip":"89103","city":null,"area":null,"county":"Clark County","state":"Nevada","country":"us","formatted_address":"Standard, West Tropicana Avenue, Chinatown, Paradise, Clark County, Nevada, 89103, United States of America","place_id":"54522537","datatype":"locationiq"},{"latitude":" 39.17063","longitude":"-119.76727","name":" Chevron","address":" USA-(NV) Carson City","street_number":"132","street_name":"West William Street","zip":"89703","city":"Carson City","area":null,"county":"Carson City","state":"Nevada","country":"us","formatted_address":"132, West William Street, Carson City, Nevada, 89703, United States of America","place_id":"195058237","datatype":"locationiq"},{"latitude":" 36.12522","longitude":"-115.22452","name":" Chevron","address":" USA-(NV) Las Vegas","street_number":"6073","street_name":"Spring Mountain Road","zip":"89146","city":null,"area":null,"county":"Clark County","state":"Nevada","country":"us","formatted_address":"6073, Spring Mountain Road, Spring Valley, Clark County, Nevada, 89146, United States of America","place_id":"194888329","datatype":"locationiq"},{"latitude":" 36.10130","longitude":"-115.13739","name":" Chevron","address":" USA-(NV) Las Vegas","street_number":"1198","street_name":"East Tropicana Avenue","zip":"89119","city":null,"area":null,"county":"Clark County","state":"Nevada","country":"us","formatted_address":"1198, East Tropicana Avenue, Midtown UNLV, Paradise, Clark County, Nevada, 89119, United States of America","place_id":"194904965","datatype":"locationiq"},{"latitude":" 39.09152","longitude":"-119.77619","name":" Chevron","address":" USA-(NV) Carson City","street_number":"933","street_name":"Mica Drive","zip":"89705","city":null,"area":null,"county":"Douglas County","state":"Nevada","country":"us","formatted_address":"933, Mica Drive, Indian Hills, Douglas County, Nevada, 89705, United States of America","place_id":"194987449","datatype":"locationiq"},{"latitude":" 36.11491","longitude":"-115.10138","name":" Chevron","address":" USA-(NV) Las Vegas","street_number":null,"street_name":"Pecos-McLeod Interconnect","zip":"89121","city":null,"area":null,"county":"Clark County","state":"Nevada","country":"us","formatted_address":"Chase, Pecos-McLeod Interconnect, Midtown UNLV, Paradise, Clark County, Nevada, 89121, United States of America","place_id":"27141229","datatype":"locationiq"},{"latitude":" 36.26327","longitude":"-115.11757","name":" Chevron","address":" USA-(NV) Las Vegas","street_number":"5641","street_name":"Losee Road","zip":"89081","city":"North Las Vegas","area":null,"county":"Clark County","state":"Nevada","country":"us","formatted_address":"5641, Losee Road, North Las Vegas, Clark County, Nevada, 89081, United States of America","place_id":"194952299","datatype":"locationiq"},{"latitude":" 38.24959","longitude":"-112.65262","name":" Chevron","address":" USA-(UT) Beaver","street_number":null,"street_name":"I 15 Business;UT 160","zip":"84713","city":null,"area":null,"county":"Beaver County","state":"Utah","country":"us","formatted_address":"Chevron, I 15 Business;UT 160, Beaver, Beaver County, Utah, 84713, United States of America","place_id":"52479747","datatype":"locationiq"},{"latitude":" 39.51781","longitude":"-119.88531","name":" Chevron","address":" USA-(NV) Reno","street_number":"6205","street_name":"Sharlands Avenue","zip":"89523","city":"Reno","area":null,"county":"Washoe County","state":"Nevada","country":"us","formatted_address":"6205, Sharlands Avenue, Reno, Washoe County, Nevada, 89523, United States of America","place_id":"195031189","datatype":"locationiq"},{"latitude":" 39.13699","longitude":"-111.81871","name":" Chevron","address":" USA-(UT) Centerfield","street_number":null,"street_name":"North Main Street","zip":"84622","city":null,"area":null,"county":"Sanpete County","state":"Utah","country":"us","formatted_address":"Chevron, North Main Street, Centerfield, Sanpete County, Utah, 84622, United States of America","place_id":"61579278","datatype":"locationiq"},{"latitude":" 40.66530","longitude":"-111.83946","name":" Chevron","address":" USA-(UT) Holladay","street_number":null,"street_name":"Highland Circle","zip":"84117","city":"Holladay","area":null,"county":"Salt Lake County","state":"Utah","country":"us","formatted_address":"Chevron, Highland Circle, Holladay, Salt Lake County, Utah, 84117, United States of America","place_id":"54072964","datatype":"locationiq"},{"latitude":" 35.99401","longitude":"-115.13384","name":" Chevron","address":" USA-(NV) Henderson","street_number":null,"street_name":null,"zip":"89052","city":"Henderson","area":null,"county":"Clark County","state":"Nevada","country":"us","formatted_address":"St Rose Trail, Seven Hills, Henderson, Clark County, Nevada, 89052, United States of America","place_id":"115722429","datatype":"locationiq"},{"latitude":" 36.13212","longitude":"-115.95806","name":" Chevron","address":" USA-(NV) Pahrump","street_number":"2974","street_name":"East Thousandaire Boulevard","zip":"89048","city":null,"area":"Burson Range","county":"Nye County","state":"Nevada","country":"us","formatted_address":"2974, East Thousandaire Boulevard, Burson Range, Pahrump, Nye County, Nevada, 89048, United States of America","place_id":"195009082","datatype":"locationiq"},{"latitude":" 40.25556","longitude":"-111.65651","name":" Chevron","address":" USA-(UT) Provo","street_number":null,"street_name":"East University Parkway","zip":"84602","city":"Provo","area":"Wyview Park","county":"Utah County","state":"Utah","country":"us","formatted_address":"Chevron, East University Parkway, Wyview Park, Provo, Utah County, Utah, 84602, United States of America","place_id":"3173762","datatype":"locationiq"},{"latitude":" 40.67486","longitude":"-111.90423","name":" Chevron","address":" USA-(UT) Murray","street_number":"460","street_name":"4500 South","zip":"84123","city":"Murray","area":"Misty Meadows","county":"Salt Lake County","state":"Utah","country":"us","formatted_address":"460, 4500 South, Misty Meadows, Murray, Salt Lake County, Utah, 84123, United States of America","place_id":"206812971","datatype":"locationiq"},{"latitude":" 40.75010","longitude":"-111.88783","name":" Chevron","address":" USA-(UT) Salt Lake City","street_number":null,"street_name":"900 South","zip":"84111","city":"Salt Lake City","area":"Central City \/ Liberty-Wells","county":"Salt Lake County","state":"Utah","country":"us","formatted_address":"Chevron, 900 South, Central City \/ Liberty-Wells, Capitol Hill, Salt Lake City, Salt Lake County, Utah, 84111, United States of America","place_id":"58321653","datatype":"locationiq"},{"latitude":" 37.83924","longitude":"-112.82782","name":" Chevron","address":" USA-(UT) Parowan","street_number":null,"street_name":"South Main Street","zip":"84761","city":"Parowan","area":null,"county":"Iron County","state":"Utah","country":"us","formatted_address":"Parowan Burtons, South Main Street, Parowan, Iron County, Utah, 84761, United States of America","place_id":"19801809","datatype":"locationiq"},{"latitude":" 40.58078","longitude":"-111.85278","name":" Chevron","address":" USA-(UT) Sandy","street_number":null,"street_name":"1300 East","zip":"UT 84094","city":"Sandy","area":null,"county":"Salt Lake County","state":"Utah","country":"us","formatted_address":"Jackson's, 1300 East, Sandy, Salt Lake County, Utah, UT 84094, United States of America","place_id":"24527803","datatype":"locationiq"},{"latitude":" 35.05146","longitude":"-114.58943","name":" Chevron","address":" USA-(NV) Bullhead City","street_number":"3685","street_name":"Topock-Davis Dam Road","zip":"86442","city":"Bullhead City","area":null,"county":"Mohave County","state":"Arizona","country":"us","formatted_address":"3685, Topock-Davis Dam Road, Riviera, Bullhead City, Mohave County, Arizona, 86442, United States of America","place_id":"177294718","datatype":"locationiq"},{"latitude":" 41.98674","longitude":"-114.67190","name":" Chevron","address":" USA-(NV) Jackpot","street_number":null,"street_name":"Great Basin Highway","zip":null,"city":null,"area":null,"county":"Elko County","state":"Idaho","country":"us","formatted_address":"Chevron, Great Basin Highway, Jackpot, Elko County, Idaho, United States of America","place_id":"49533288","datatype":"locationiq"},{"latitude":" 36.05593","longitude":"-115.22520","name":" Chevron","address":" USA-(NV) Las Vegas","street_number":"7317","street_name":"South Jones Boulevard","zip":"89139","city":null,"area":null,"county":"Clark County","state":"Nevada","country":"us","formatted_address":"7317, South Jones Boulevard, Enterprise, Clark County, Nevada, 89139, United States of America","place_id":"194887264","datatype":"locationiq"},{"latitude":" 41.48704","longitude":"-112.02769","name":" Chevron","address":" USA-(UT) Brigham City","street_number":null,"street_name":"Medical Drive","zip":"84302","city":"Brigham City","area":null,"county":"Box Elder County","state":"Utah","country":"us","formatted_address":"Medical Drive, Brigham City, Box Elder County, Utah, 84302, United States of America","place_id":"147725472","datatype":"locationiq"},{"latitude":" 38.98932","longitude":"-112.32368","name":" Chevron","address":" USA-(UT) Fillmore","street_number":null,"street_name":"North Main Street","zip":"UT 84631","city":null,"area":null,"county":"Millard County","state":"Utah","country":"us","formatted_address":"Chevron, North Main Street, Fillmore, Millard County, Utah, UT 84631, United States of America","place_id":"54736116","datatype":"locationiq"},{"latitude":" 38.77209","longitude":"-112.07104","name":" Chevron","address":" USA-(UT) Richfield","street_number":"910","street_name":"East 300 North","zip":"84701","city":null,"area":null,"county":"Sevier County","state":"Utah","country":"us","formatted_address":"910, East 300 North, Richfield, Sevier County, Utah, 84701, United States of America","place_id":"206868094","datatype":"locationiq"},{"latitude":" 36.17352","longitude":"-115.24397","name":" Chevron","address":" USA-(NV) Las Vegas","street_number":"197","street_name":"Rainbow Boulevard","zip":"89145","city":"Las Vegas","area":null,"county":"Clark County","state":"Nevada","country":"us","formatted_address":"197, Rainbow Boulevard, Charleston Heights, Las Vegas, Clark County, Nevada, 89145, United States of America","place_id":"194959230","datatype":"locationiq"},{"latitude":" 40.16146","longitude":"-111.61033","name":" Chevron","address":" USA-(UT) Springville","street_number":null,"street_name":"East 400 South Street","zip":"84663","city":"Springville","area":null,"county":"Utah County","state":"Utah","country":"us","formatted_address":"Little Ceasars Pizza, East 400 South Street, Springville, Utah County, Utah, 84663, United States of America","place_id":"103565082","datatype":"locationiq"},{"latitude":" 40.13942","longitude":"-111.59824","name":" Chevron","address":" USA-(UT) Mapleton","street_number":"1401","street_name":"North 1600 West Street","zip":"84664","city":"Mapleton","area":null,"county":"Utah County","state":"Utah","country":"us","formatted_address":"1401, North 1600 West Street, Mapleton, Utah County, Utah, 84664, United States of America","place_id":"206905257","datatype":"locationiq"},{"latitude":" 40.35209","longitude":"-111.73265","name":" Chevron","address":" USA-(UT) Lindon","street_number":"966","street_name":"East State Road","zip":"84062","city":"Pleasant Grove","area":null,"county":"Utah County","state":"Utah","country":"us","formatted_address":"966, East State Road, Pleasant Grove, Utah County, Utah, 84062, United States of America","place_id":"206885129","datatype":"locationiq"},{"latitude":" 36.19634","longitude":"-115.24161","name":" Chevron","address":" USA-(NV) Las Vegas","street_number":null,"street_name":"West Lake Mead Boulevard","zip":"89108-7049","city":"Las Vegas","area":null,"county":"Clark County","state":"Nevada","country":"us","formatted_address":"Terrible Herbst, West Lake Mead Boulevard, Inner Northwest, Las Vegas, Clark County, Nevada, 89108-7049, United States of America","place_id":"51090350","datatype":"locationiq"},{"latitude":" 40.68460","longitude":"-111.79573","name":" Chevron","address":" USA-(UT) Salt Lake City","street_number":null,"street_name":"Wasatch Boulevard","zip":"84109","city":null,"area":null,"county":"Salt Lake County","state":"Utah","country":"us","formatted_address":"Chevron, Wasatch Boulevard, Mount Olympus, Salt Lake County, Utah, 84109, United States of America","place_id":"4016640","datatype":"locationiq"},{"latitude":" 36.14387","longitude":"-115.22489","name":" Chevron","address":" USA-(NV) Las Vegas","street_number":"6079","street_name":"West Sahara Avenue","zip":"89146","city":null,"area":null,"county":"Clark County","state":"Nevada","country":"us","formatted_address":"6079, West Sahara Avenue, Flamingo Heights, Spring Valley, Clark County, Nevada, 89146, United States of America","place_id":"194977288","datatype":"locationiq"},{"latitude":" 36.02201","longitude":"-115.24394","name":" Chevron","address":" USA-(NV) Las Vegas","street_number":null,"street_name":"Blue Diamond Road","zip":"89178","city":null,"area":null,"county":"Clark County","state":"Nevada","country":"us","formatted_address":"Chevron, Blue Diamond Road, Mountain's Edge, Enterprise, Arden, Clark County, Nevada, 89178, United States of America","place_id":"56372742","datatype":"locationiq"},{"latitude":" 36.21828","longitude":"-115.23991","name":" Chevron","address":" USA-(NV) Las Vegas","street_number":null,"street_name":"West Cheyenne Avenue","zip":"89108","city":"Las Vegas","area":null,"county":"Clark County","state":"Nevada","country":"us","formatted_address":"Holy Spirit Lutheran Church, West Cheyenne Avenue, Inner Northwest, Las Vegas, Clark County, Nevada, 89108, United States of America","place_id":"3066828","datatype":"locationiq"},{"latitude":" 37.48900","longitude":"-112.51278","name":" Chevron","address":" USA-(UT) Alton","street_number":null,"street_name":"Markaguant High Plateau Scenic Byway","zip":"84762","city":null,"area":null,"county":"Kane County","state":"Utah","country":"us","formatted_address":"Long Valley Junction Tesoro, Markaguant High Plateau Scenic Byway, Long Valley Junction, Kane County, Utah, 84762, United States of America","place_id":"19801792","datatype":"locationiq"},{"latitude":" 40.72579","longitude":"-111.89439","name":" Chevron","address":" USA-(UT) Salt Lake City","street_number":"192","street_name":"2100 South","zip":"84115","city":"South Salt Lake","area":null,"county":"Salt Lake County","state":"Utah","country":"us","formatted_address":"192, 2100 South, South Salt Lake, Salt Lake County, Utah, 84115, United States of America","place_id":"206807542","datatype":"locationiq"},{"latitude":" 40.65278","longitude":"-111.96774","name":" Chevron","address":" USA-(UT) Taylorsville","street_number":null,"street_name":"3200 West","zip":"84129","city":"Taylorsville","area":null,"county":"Salt Lake County","state":"Utah","country":"us","formatted_address":"Holiday Oil, 3200 West, Taylorsville, Salt Lake County, Utah, 84129, United States of America","place_id":"59214462","datatype":"locationiq"},{"latitude":" 39.50229","longitude":"-119.99950","name":" Chevron","address":" USA-(NV) Verdi","street_number":null,"street_name":"3rd Street","zip":"89439","city":null,"area":null,"county":"Washoe County","state":"Nevada","country":"us","formatted_address":"3rd Street, Verdi-Mogul, Washoe County, Nevada, 89439, United States of America","place_id":"67885955","datatype":"locationiq"},{"latitude":" 39.63413","longitude":"-111.43987","name":" Chevron","address":" USA-(UT) Fairview","street_number":"67","street_name":"West 400 North Street","zip":"84629","city":"Fairview","area":null,"county":"Sanpete County","state":"Utah","country":"us","formatted_address":"67, West 400 North Street, Fairview, Sanpete County, Utah, 84629, United States of America","place_id":"206863967","datatype":"locationiq"},{"latitude":" 40.25966","longitude":"-111.67475","name":" Chevron","address":" USA-(UT) Provo","street_number":"1871","street_name":"North State Street","zip":"84604","city":"Provo","area":"Wyview Park","county":"Utah County","state":"Utah","country":"us","formatted_address":"1871, North State Street, Wyview Park, Provo, Utah County, Utah, 84604, United States of America","place_id":"206925113","datatype":"locationiq"},{"latitude":" 36.27697","longitude":"-115.28737","name":" Chevron","address":" USA-(NV) Las Vegas","street_number":"8780","street_name":"West Centennial Parkway","zip":"89130","city":"Las Vegas","area":null,"county":"Clark County","state":"Nevada","country":"us","formatted_address":"8780, West Centennial Parkway, Centennial Hills, Las Vegas, Clark County, Nevada, 89130, United States of America","place_id":"194891593","datatype":"locationiq"},{"latitude":" 40.62371","longitude":"-111.93921","name":" Chevron","address":" USA-(UT) West Jordan","street_number":null,"street_name":"7000 South","zip":"84084","city":"West Jordan","area":null,"county":"Salt Lake County","state":"Utah","country":"us","formatted_address":"Chevron, 7000 South, West Jordan, Salt Lake County, Utah, 84084, United States of America","place_id":"5221470","datatype":"locationiq"},{"latitude":" 36.11494","longitude":"-115.13734","name":" Chevron","address":" USA-(NV) Las Vegas","street_number":null,"street_name":"East Flamingo Road","zip":"89154","city":null,"area":null,"county":"Clark County","state":"Nevada","country":"us","formatted_address":"Chevron, East Flamingo Road, Midtown UNLV, Paradise, Clark County, Nevada, 89154, United States of America","place_id":"27137507","datatype":"locationiq"},{"latitude":" 40.54236","longitude":"-112.29871","name":" Chevron","address":" USA-(UT) Tooele","street_number":null,"street_name":"West 600 North","zip":"84074","city":"Tooele","area":null,"county":"Tooele County","state":"Utah","country":"us","formatted_address":"Chevron, West 600 North, Tooele, Tooele County, Utah, 84074, United States of America","place_id":"42316620","datatype":"locationiq"},{"latitude":" 38.07739","longitude":"-117.24742","name":" Chevron","address":" USA-(NV) Tonopah","street_number":null,"street_name":"Grand Army of the Republic Highway;Veterans Memorial Highway","zip":"89049","city":null,"area":null,"county":"Nye County","state":"Nevada","country":"us","formatted_address":"Burger King, Grand Army of the Republic Highway;Veterans Memorial Highway, Tonopah, Nye County, Nevada, 89049, United States of America","place_id":"13579912","datatype":"locationiq"},{"latitude":" 36.01196","longitude":"-114.99231","name":" Chevron","address":" USA-(NV) Henderson","street_number":null,"street_name":"West Horizon Ridge Parkway","zip":"89105","city":"Henderson","area":null,"county":"Clark County","state":"Nevada","country":"us","formatted_address":"Short Line Express Market, West Horizon Ridge Parkway, Downtown Henderson, Henderson, Clark County, Nevada, 89105, United States of America","place_id":"22627259","datatype":"locationiq"},{"latitude":" 40.71995","longitude":"-111.81113","name":" Chevron","address":" USA-(UT) Salt Lake City","street_number":null,"street_name":"Foothill Drive","zip":"84109","city":"Salt Lake City","area":"East Bench","county":"Salt Lake County","state":"Utah","country":"us","formatted_address":"Bjorn's Brew, Foothill Drive, East Bench, Salt Lake City, Salt Lake County, Utah, 84109, United States of America","place_id":"61494326","datatype":"locationiq"},{"latitude":" 36.22034","longitude":"-115.32937","name":" Chevron","address":" USA-(NV) Las Vegas","street_number":"3398","street_name":"Cliff Shadows Parkway","zip":"89129","city":"Las Vegas","area":null,"county":"Clark County","state":"Nevada","country":"us","formatted_address":"3398, Cliff Shadows Parkway, Sun City Summerlin, Las Vegas, Clark County, Nevada, 89129, United States of America","place_id":"194943070","datatype":"locationiq"},{"latitude":" 40.73581","longitude":"-114.07565","name":" Chevron","address":" USA-(NV) Wendover","street_number":"1763","street_name":"Butte Street","zip":"89883","city":"West Wendover","area":null,"county":"Elko County","state":"Nevada","country":"us","formatted_address":"1763, Butte Street, West Wendover, Elko County, Nevada, 89883, United States of America","place_id":"194993032","datatype":"locationiq"},{"latitude":" 40.59364","longitude":"-111.83171","name":" Chevron","address":" USA-(UT) Sandy","street_number":null,"street_name":"Highland Drive","zip":"84093","city":"Cottonwood Heights","area":null,"county":"Salt Lake County","state":"Utah","country":"us","formatted_address":"Chevron, Highland Drive, Cottonwood Heights, Salt Lake County, Utah, 84093, United States of America","place_id":"54738466","datatype":"locationiq"},{"latitude":" 40.21743","longitude":"-111.65941","name":" Chevron","address":" USA-(UT) Provo","street_number":null,"street_name":"West 1200 South","zip":"84601","city":"Provo","area":null,"county":"Utah County","state":"Utah","country":"us","formatted_address":"Chevron, West 1200 South, Provo, Utah County, Utah, 84601, United States of America","place_id":"147343524","datatype":"locationiq"},{"latitude":" 36.19567","longitude":"-115.25164","name":" Chevron","address":" USA-(NV) Las Vegas","street_number":"7309","street_name":"West Lake Mead Boulevard","zip":"89128","city":"Las Vegas","area":null,"county":"Clark County","state":"Nevada","country":"us","formatted_address":"7309, West Lake Mead Boulevard, The Hills, Las Vegas, Clark County, Nevada, 89128, United States of America","place_id":"194896858","datatype":"locationiq"},{"latitude":" 36.19966","longitude":"-115.28143","name":" Chevron","address":" USA-(NV) Las Vegas","street_number":"8432","street_name":"West Lake Mead Boulevard","zip":"89128","city":"Las Vegas","area":null,"county":"Clark County","state":"Nevada","country":"us","formatted_address":"8432, West Lake Mead Boulevard, The Hills, Las Vegas, Clark County, Nevada, 89128, United States of America","place_id":"194890527","datatype":"locationiq"},{"latitude":" 40.63830","longitude":"-112.00038","name":" Chevron","address":" USA-(UT) Salt Lake City","street_number":null,"street_name":"6200 South","zip":"84118","city":"West Jordan","area":null,"county":"Salt Lake County","state":"Utah","country":"us","formatted_address":"Chevron, 6200 South, West Jordan, Salt Lake County, Utah, 84118, United States of America","place_id":"23802324","datatype":"locationiq"},{"latitude":" 40.68735","longitude":"-111.82491","name":" Chevron","address":" USA-(UT) Salt Lake City","street_number":null,"street_name":"3900 South","zip":"84124","city":null,"area":null,"county":"Salt Lake County","state":"Utah","country":"us","formatted_address":"Arby's, 3900 South, East Millcreek, Salt Lake County, Utah, 84124, United States of America","place_id":"34296849","datatype":"locationiq"},{"latitude":" 36.19673","longitude":"-115.26091","name":" Chevron","address":" USA-(NV) Las Vegas","street_number":"2033","street_name":"Buffalo Drive","zip":"89128","city":"Las Vegas","area":null,"county":"Clark County","state":"Nevada","country":"us","formatted_address":"2033, Buffalo Drive, Desert Shores, Las Vegas, Clark County, Nevada, 89128, United States of America","place_id":"194841413","datatype":"locationiq"},{"latitude":" 40.56004","longitude":"-111.92028","name":" Chevron","address":" USA-(UT) South Jordan","street_number":"1033","street_name":"South Jordan Parkway","zip":"84095","city":"South Jordan","area":null,"county":"Salt Lake County","state":"Utah","country":"us","formatted_address":"1033, South Jordan Parkway, South Jordan, Salt Lake County, Utah, 84095, United States of America","place_id":"206818889","datatype":"locationiq"},{"latitude":" 36.23339","longitude":"-115.25121","name":" Chevron","address":" USA-(NV) Las Vegas","street_number":"4014","street_name":"North Tenaya Way","zip":"89129","city":"Las Vegas","area":null,"county":"Clark County","state":"Nevada","country":"us","formatted_address":"4014, North Tenaya Way, Desert Shores, Las Vegas, Clark County, Nevada, 89129, United States of America","place_id":"194979611","datatype":"locationiq"},{"latitude":" 40.96859","longitude":"-117.74070","name":" Chevron","address":" USA-(NV) Winnemucca","street_number":"685","street_name":"West Winnemucca Boulevard","zip":"89445","city":"Winnemucca","area":null,"county":"Humboldt County","state":"Nevada","country":"us","formatted_address":"G, 685, West Winnemucca Boulevard, Winnemucca, Humboldt County, Nevada, 89445, United States of America","place_id":"160307378","datatype":"locationiq"},{"latitude":" 40.92110","longitude":"-111.88869","name":" Chevron","address":" USA-(UT) Centerville","street_number":null,"street_name":"West Parrish Lane","zip":"84014","city":"Centerville","area":null,"county":"Davis County","state":"Utah","country":"us","formatted_address":"Chevron, West Parrish Lane, Centerville, Davis County, Utah, 84014, United States of America","place_id":"5044020","datatype":"locationiq"},{"latitude":" 39.16105","longitude":"-119.75060","name":" Chevron","address":" USA-(NV) Carson City","street_number":"1609","street_name":"East 5th Street","zip":"89701","city":"Carson City","area":null,"county":"Carson City","state":"Nevada","country":"us","formatted_address":"1609, East 5th Street, Carson City, Nevada, 89701, United States of America","place_id":"195058769","datatype":"locationiq"},{"latitude":" 36.01390","longitude":"-115.20695","name":" Chevron","address":" USA-(NV) Las Vegas","street_number":"4860","street_name":"West Silverado Ranch Boulevard","zip":"89139","city":null,"area":null,"county":"Clark County","state":"Nevada","country":"us","formatted_address":"4860, West Silverado Ranch Boulevard, Enterprise, Arden, Clark County, Nevada, 89139, United States of America","place_id":"194980891","datatype":"locationiq"},{"latitude":" 40.60692","longitude":"-111.99721","name":" Chevron","address":" USA-(UT) West Jordan","street_number":null,"street_name":"4570 West","zip":"84081","city":"West Jordan","area":null,"county":"Salt Lake County","state":"Utah","country":"us","formatted_address":"chevron, 4570 West, West Jordan, Salt Lake County, Utah, 84081, United States of America","place_id":"126745036","datatype":"locationiq"},{"latitude":" 35.61170","longitude":"-115.38745","name":" Chevron","address":" USA-(NV) Primm","street_number":null,"street_name":"South Las Vegas Boulevard","zip":"89019-7029","city":null,"area":null,"county":"Clark County","state":"Nevada","country":"us","formatted_address":"Chevron, South Las Vegas Boulevard, Primm, Clark County, Nevada, 89019-7029, United States of America","place_id":"10645482","datatype":"locationiq"},{"latitude":" 39.43965","longitude":"-119.75654","name":" Chevron","address":" USA-(NV) Reno","street_number":null,"street_name":"South Meadows Parkway","zip":"89521","city":"Reno","area":null,"county":"Washoe County","state":"Nevada","country":"us","formatted_address":"McDonald's, South Meadows Parkway, Reno, Washoe County, Nevada, 89521, United States of America","place_id":"21354182","datatype":"locationiq"},{"latitude":" 39.60136","longitude":"-110.82337","name":" Chevron","address":" USA-(UT) Price","street_number":null,"street_name":"West Price River Drive","zip":"84501","city":null,"area":null,"county":"Carbon County","state":"Utah","country":"us","formatted_address":"Chevron, West Price River Drive, Price, Carbon County, Utah, 84501, United States of America","place_id":"160952261","datatype":"locationiq"},{"latitude":" 37.68114","longitude":"-113.07771","name":" Chevron","address":" USA-(UT) Cedar City","street_number":null,"street_name":"West 200 North","zip":"84720","city":null,"area":null,"county":"Iron County","state":"Utah","country":"us","formatted_address":"Chevron, West 200 North, Cedar City, Iron County, Utah, 84720, United States of America","place_id":"54377431","datatype":"locationiq"},{"latitude":" 36.08668","longitude":"-115.18586","name":" Chevron","address":" USA-(NV) Las Vegas","street_number":null,"street_name":"Polaris Avenue","zip":"89103","city":null,"area":null,"county":"Clark County","state":"Nevada","country":"us","formatted_address":"Polaris Avenue, Chinatown, Paradise, Clark County, Nevada, 89103, United States of America","place_id":"67790338","datatype":"locationiq"},{"latitude":" 36.12555","longitude":"-115.27932","name":" Chevron","address":" USA-(NV) Las Vegas","street_number":"3515","street_name":"South Durango Drive","zip":"89147","city":null,"area":null,"county":"Clark County","state":"Nevada","country":"us","formatted_address":"3515, South Durango Drive, Spanish Hills, Spring Valley, Clark County, Nevada, 89147, United States of America","place_id":"194909907","datatype":"locationiq"},{"latitude":" 36.19602","longitude":"-115.02670","name":" Chevron","address":" USA-(NV) Las Vegas","street_number":null,"street_name":"East Lake Mead Boulevard","zip":"89156","city":null,"area":null,"county":"Clark County","state":"Nevada","country":"us","formatted_address":"McDonald's, East Lake Mead Boulevard, Sunrise Manor, Clark County, Nevada, 89156, United States of America","place_id":"59023750","datatype":"locationiq"},{"latitude":" 38.99425","longitude":"-112.32464","name":" Chevron","address":" USA-(UT) Fillmore","street_number":null,"street_name":"Frontage Road","zip":"84636","city":null,"area":null,"county":"Millard County","state":"Utah","country":"us","formatted_address":"Chevron, Frontage Road, Millard County, Utah, 84636, United States of America","place_id":"54673839","datatype":"locationiq"},{"latitude":" 41.71131","longitude":"-112.20188","name":" Chevron","address":" USA-(UT) Tremonton","street_number":null,"street_name":"West Main Street","zip":"84337","city":null,"area":null,"county":"Box Elder County","state":"Utah","country":"us","formatted_address":"Chevron, West Main Street, Tremonton, Box Elder County, Utah, 84337, United States of America","place_id":"110151115","datatype":"locationiq"},{"latitude":" 39.52115","longitude":"-119.74097","name":" Chevron","address":" USA-(NV) Sparks","street_number":"179","street_name":"East Greg Street","zip":"89431","city":null,"area":null,"county":"Washoe County","state":"Nevada","country":"us","formatted_address":"179, East Greg Street, Sparks, Washoe County, Nevada, 89431, United States of America","place_id":"195037646","datatype":"locationiq"},{"latitude":" 40.72033","longitude":"-116.10592","name":" Chevron","address":" USA-(NV) Carlin","street_number":"1074","street_name":"Fir Street","zip":"89822","city":"Carlin","area":null,"county":"Elko County","state":"Nevada","country":"us","formatted_address":"1074, Fir Street, Carlin, Elko County, Nevada, 89822, United States of America","place_id":"194993823","datatype":"locationiq"},{"latitude":" 36.01297","longitude":"-115.13418","name":" Chevron","address":" USA-(NV) Las Vegas","street_number":null,"street_name":"East Silverado Ranch Boulevard","zip":"89183","city":null,"area":null,"county":"Clark County","state":"Nevada","country":"us","formatted_address":"Kids Turf Academy II, East Silverado Ranch Boulevard, Paradise, Clark County, Nevada, 89183, United States of America","place_id":"3223355","datatype":"locationiq"},{"latitude":" 36.15846","longitude":"-115.31327","name":" Chevron","address":" USA-(NV) Las Vegas","street_number":"9967","street_name":"West Charleston Boulevard","zip":"89117","city":"Las Vegas","area":null,"county":"Clark County","state":"Nevada","country":"us","formatted_address":"9967, West Charleston Boulevard, Queensridge, Las Vegas, Clark County, Nevada, 89117, United States of America","place_id":"194963566","datatype":"locationiq"},{"latitude":" 40.74001","longitude":"-111.95756","name":" Chevron","address":" USA-(UT) Salt Lake City","street_number":"2591","street_name":"California Avenue","zip":"84104","city":"Salt Lake City","area":"Glendale","county":"Salt Lake County","state":"Utah","country":"us","formatted_address":"2591, California Avenue, Glendale, Salt Lake City, Salt Lake County, Utah, 84104, United States of America","place_id":"206776433","datatype":"locationiq"},{"latitude":" 40.30244","longitude":"-109.98377","name":" Chevron","address":" USA-(UT) Roosevelt","street_number":"599","street_name":"East 200 North","zip":"84066","city":null,"area":null,"county":"Duchesne County","state":"Utah","country":"us","formatted_address":"599, East 200 North, Roosevelt, Duchesne County, Utah, 84066, United States of America","place_id":"206754957","datatype":"locationiq"},{"latitude":" 39.55584","longitude":"-119.78251","name":" Chevron","address":" USA-(NV) Reno","street_number":null,"street_name":"North McCarran Boulevard","zip":"89512","city":"Reno","area":null,"county":"Washoe County","state":"Nevada","country":"us","formatted_address":"Wendy's, North McCarran Boulevard, Midtown, Reno, Washoe County, Nevada, 89512, United States of America","place_id":"145760632","datatype":"locationiq"},{"latitude":" 36.20248","longitude":"-115.19928","name":" Chevron","address":" USA-(NV) Las Vegas","street_number":"4503","street_name":"West Smoke Ranch Road","zip":"89108","city":"Las Vegas","area":null,"county":"Clark County","state":"Nevada","country":"us","formatted_address":"4503, West Smoke Ranch Road, Twin Lakes, Las Vegas, Clark County, Nevada, 89108, United States of America","place_id":"194937360","datatype":"locationiq"},{"latitude":" 40.29652","longitude":"-109.98855","name":" Chevron","address":" USA-(UT) Roosevelt","street_number":null,"street_name":"South 200 East","zip":"84066","city":null,"area":null,"county":"Duchesne County","state":"Utah","country":"us","formatted_address":"Western Grill, South 200 East, Roosevelt, Duchesne County, Utah, 84066, United States of America","place_id":"7708782","datatype":"locationiq"},{"latitude":" 40.95912","longitude":"-117.74709","name":" Chevron","address":" USA-(NV) Winnemucca","street_number":null,"street_name":"Fountain Way","zip":"89445","city":"Winnemucca","area":null,"county":"Humboldt County","state":"Nevada","country":"us","formatted_address":"Food Mart, Fountain Way, Winnemucca, Humboldt County, Nevada, 89445, United States of America","place_id":"160012874","datatype":"locationiq"},{"latitude":" 40.51193","longitude":"-111.47374","name":" Chevron","address":" USA-(UT) Midway","street_number":null,"street_name":"West Main Street","zip":"84049","city":"Midway","area":null,"county":"Wasatch County","state":"Utah","country":"us","formatted_address":"Chevron, West Main Street, Midway, Wasatch County, Utah, 84049, United States of America","place_id":"20028140","datatype":"locationiq"},{"latitude":" 40.31355","longitude":"-111.65869","name":" Chevron","address":" USA-(UT) Orem","street_number":null,"street_name":"North 1560 East","zip":"84097","city":"Orem","area":null,"county":"Utah County","state":"Utah","country":"us","formatted_address":"Texaco, North 1560 East, Orem, Utah County, Utah, 84097, United States of America","place_id":"4080479","datatype":"locationiq"},{"latitude":" 39.53531","longitude":"-119.78102","name":" Chevron","address":" USA-(NV) Reno","street_number":null,"street_name":"East 4th Street","zip":"89512","city":"Reno","area":null,"county":"Washoe County","state":"Nevada","country":"us","formatted_address":"Star Apts., East 4th Street, Midtown, Reno, Washoe County, Nevada, 89512, United States of America","place_id":"123593233","datatype":"locationiq"},{"latitude":" 40.77190","longitude":"-111.93976","name":" Chevron","address":" USA-(UT) Salt Lake City","street_number":"1704 West","street_name":"North Temple","zip":"84116","city":"Salt Lake City","area":"Jordan Meadows","county":"Salt Lake County","state":"Utah","country":"us","formatted_address":"Chevron, 1704 West, North Temple, Jordan Meadows, Rose Park, Salt Lake City, Salt Lake County, Utah, 84116, United States of America","place_id":"104534143","datatype":"locationiq"},{"latitude":" 40.66718","longitude":"-111.98707","name":" Chevron","address":" USA-(UT) Salt Lake City","street_number":null,"street_name":"4715 South","zip":"84118","city":null,"area":null,"county":"Salt Lake County","state":"Utah","country":"us","formatted_address":"Chevron, 4715 South, Kearns, Salt Lake County, Utah, 84118, United States of America","place_id":"59086669","datatype":"locationiq"},{"latitude":" 40.31150","longitude":"-111.70205","name":" Chevron","address":" USA-(UT) Orem","street_number":null,"street_name":"West Canyon Parkway","zip":"84057","city":"Orem","area":null,"county":"Utah County","state":"Utah","country":"us","formatted_address":"Jackson's, West Canyon Parkway, Orem, Utah County, Utah, 84057, United States of America","place_id":"168875021","datatype":"locationiq"},{"latitude":" 40.69630","longitude":"-111.96729","name":" Chevron","address":" USA-(UT) West Valley City","street_number":null,"street_name":"3500 South","zip":"84119","city":"West Valley City","area":null,"county":"Salt Lake County","state":"Utah","country":"us","formatted_address":"Wendy's, 3500 South, West Valley City, Salt Lake County, Utah, 84119, United States of America","place_id":"24305069","datatype":"locationiq"},{"latitude":" 40.86185","longitude":"-111.90006","name":" Chevron","address":" USA-(UT) Woods Cross","street_number":null,"street_name":"Wildcat Way","zip":"84054","city":"Woods Cross","area":null,"county":"Davis County","state":"Utah","country":"us","formatted_address":"Slim Olson's Chevron Woods Cross, Wildcat Way, Woods Cross, Davis County, Utah, 84054, United States of America","place_id":"77781597","datatype":"locationiq"},{"latitude":" 36.06559","longitude":"-115.01269","name":" Chevron","address":" USA-(NV) Henderson","street_number":null,"street_name":"Sunset Road","zip":"89016","city":"Henderson","area":null,"county":"Clark County","state":"Nevada","country":"us","formatted_address":"Chevron, Sunset Road, Whitney Ranch, Henderson, Clark County, Nevada, 89016, United States of America","place_id":"52987799","datatype":"locationiq"},{"latitude":" 40.78279","longitude":"-111.89927","name":" Chevron","address":" USA-(UT) Salt Lake City","street_number":"616","street_name":"300 West","zip":"84103","city":"Salt Lake City","area":"Marmalade District","county":"Salt Lake County","state":"Utah","country":"us","formatted_address":"616, 300 West, Marmalade District, Capitol Hill, Salt Lake City, Salt Lake County, Utah, 84103, United States of America","place_id":"206850294","datatype":"locationiq"},{"latitude":" 40.32701","longitude":"-111.70867","name":" Chevron","address":" USA-(UT) Orem","street_number":null,"street_name":"West 1600 North","zip":"84057","city":"Lindon","area":null,"county":"Utah County","state":"Utah","country":"us","formatted_address":"Chevron, West 1600 North, Lindon, Utah County, Utah, 84057, United States of America","place_id":"3697336","datatype":"locationiq"},{"latitude":" 40.89362","longitude":"-111.89300","name":" Chevron","address":" USA-(UT) Bountiful","street_number":null,"street_name":"West 400  North","zip":"84087","city":"West Bountiful","area":null,"county":"Davis County","state":"Utah","country":"us","formatted_address":"Chevron, West 400  North, West Bountiful, Davis County, Utah, 84087, United States of America","place_id":"78397690","datatype":"locationiq"},{"latitude":" 40.68171","longitude":"-112.00638","name":" Chevron","address":" USA-(UT) West Valley City","street_number":"4825","street_name":"4100 South","zip":"84120","city":"West Valley City","area":null,"county":"Salt Lake County","state":"Utah","country":"us","formatted_address":"4825, 4100 South, West Valley City, Salt Lake County, Utah, 84120, United States of America","place_id":"206828879","datatype":"locationiq"},{"latitude":" 36.26198","longitude":"-115.17940","name":" Chevron","address":" USA-(NV) Las Vegas","street_number":"2854","street_name":"West Ann Road","zip":"89031","city":"North Las Vegas","area":null,"county":"Clark County","state":"Nevada","country":"us","formatted_address":"2854, West Ann Road, North Las Vegas, Clark County, Nevada, 89031, United States of America","place_id":"194931200","datatype":"locationiq"},{"latitude":" 36.19610","longitude":"-115.12560","name":" Chevron","address":" USA-(NV) Las Vegas","street_number":null,"street_name":"East Lake Mead Boulevard","zip":"89030","city":"North Las Vegas","area":null,"county":"Clark County","state":"Nevada","country":"us","formatted_address":"Chevron, East Lake Mead Boulevard, North Las Vegas, Clark County, Nevada, 89030, United States of America","place_id":"61085696","datatype":"locationiq"},{"latitude":" 36.49951","longitude":"-114.75984","name":" Chevron","address":" USA-(NV) Moapa","street_number":null,"street_name":"Valley of Fire Highway","zip":null,"city":null,"area":null,"county":"Clark County","state":"Nevada","country":"us","formatted_address":"Sinclair, Valley of Fire Highway, Clark County, Nevada, United States of America","place_id":"26013205","datatype":"locationiq"},{"latitude":" 40.59958","longitude":"-112.46486","name":" Chevron","address":" USA-(UT) Grantsville","street_number":null,"street_name":"West Main Street","zip":"84029","city":"Grantsville","area":null,"county":"Tooele County","state":"Utah","country":"us","formatted_address":"Grantsville Post Office, West Main Street, Grantsville, Tooele County, Utah, 84029, United States of America","place_id":"2925287","datatype":"locationiq"},{"latitude":" 39.25187","longitude":"-112.10973","name":" Chevron","address":" USA-(UT) Scipio","street_number":null,"street_name":"400 North Street","zip":"84656","city":null,"area":null,"county":"Millard County","state":"Utah","country":"us","formatted_address":"Chevron, 400 North Street, Scipio, Millard County, Utah, 84656, United States of America","place_id":"143057390","datatype":"locationiq"},{"latitude":" 36.23977","longitude":"-115.17976","name":" Chevron","address":" USA-(NV) Las Vegas","street_number":"2874","street_name":"West Craig Road","zip":"89032","city":"Las Vegas","area":null,"county":"Clark County","state":"Nevada","country":"us","formatted_address":"2874, West Craig Road, Centennial Hills, Las Vegas, Clark County, Nevada, 89032, United States of America","place_id":"194865897","datatype":"locationiq"},{"latitude":" 36.03408","longitude":"-115.10060","name":" Chevron","address":" USA-(NV) Henderson","street_number":"2609","street_name":"Wigwam Parkway","zip":"89074","city":null,"area":null,"county":"Clark County","state":"Nevada","country":"us","formatted_address":"2609, Wigwam Parkway, Paradise, Clark County, Nevada, 89074, United States of America","place_id":"194920587","datatype":"locationiq"},{"latitude":" 40.27306","longitude":"-111.68495","name":" Chevron","address":" USA-(UT) Orem","street_number":null,"street_name":"East University Parkway","zip":"84097","city":"Orem","area":null,"county":"Utah County","state":"Utah","country":"us","formatted_address":"Chevron, East University Parkway, Orem, Utah County, Utah, 84097, United States of America","place_id":"4410292","datatype":"locationiq"},{"latitude":" 40.64972","longitude":"-111.93841","name":" Chevron","address":" USA-(UT) Salt Lake City","street_number":null,"street_name":"Redwood Road","zip":"84123","city":"Taylorsville","area":null,"county":"Salt Lake County","state":"Utah","country":"us","formatted_address":"Chevron, Redwood Road, Taylorsville, Salt Lake County, Utah, 84123, United States of America","place_id":"23810439","datatype":"locationiq"},{"latitude":" 38.56096","longitude":"-109.54695","name":" Chevron","address":" USA-(UT) Moab","street_number":null,"street_name":"US 191","zip":"84532","city":null,"area":null,"county":"Grand County","state":"Utah","country":"us","formatted_address":"Chevron, US 191, Moab, Grand County, Utah, 84532, United States of America","place_id":"20050015","datatype":"locationiq"},{"latitude":" 40.60271","longitude":"-112.05747","name":" Chevron","address":" USA-(UT) West Jordan","street_number":null,"street_name":"8200 South","zip":"84081","city":"West Jordan","area":null,"county":"Salt Lake County","state":"Utah","country":"us","formatted_address":"8200 South, West Jordan, Salt Lake County, Utah, 84081, United States of America","place_id":"144333330","datatype":"locationiq"},{"latitude":" 40.73325","longitude":"-111.84258","name":" Chevron","address":" USA-(UT) Salt Lake City","street_number":null,"street_name":"1700 East","zip":"84108","city":"Salt Lake City","area":"Yalecrest","county":"Salt Lake County","state":"Utah","country":"us","formatted_address":"Wasatch Presbyterian Church Preschool, 1700 East, Yalecrest, Salt Lake City, Salt Lake County, Utah, 84108, United States of America","place_id":"2909684","datatype":"locationiq"},{"latitude":" 36.10127","longitude":"-115.20433","name":" Chevron","address":" USA-(NV) Las Vegas","street_number":"4624","street_name":"West Tropicana Avenue","zip":"89103","city":null,"area":null,"county":"Clark County","state":"Nevada","country":"us","formatted_address":"4624, West Tropicana Avenue, Flamingo Heights, Spring Valley, Clark County, Nevada, 89103, United States of America","place_id":"194855569","datatype":"locationiq"},{"latitude":" 36.10054","longitude":"-115.13636","name":" Chevron","address":" USA-(NV) Las Vegas","street_number":"1229","street_name":"East Tropicana Avenue","zip":"89119","city":null,"area":null,"county":"Clark County","state":"Nevada","country":"us","formatted_address":"1229, East Tropicana Avenue, Midtown UNLV, Paradise, Clark County, Nevada, 89119, United States of America","place_id":"194904549","datatype":"locationiq"},{"latitude":" 40.28311","longitude":"-111.65910","name":" Chevron","address":" USA-(UT) Provo","street_number":null,"street_name":null,"zip":"84604","city":"Provo","area":null,"county":"Utah County","state":"Utah","country":"us","formatted_address":"Provo River Parkway, Provo, Utah County, Utah, 84604, United States of America","place_id":"137811222","datatype":"locationiq"},{"latitude":" 36.10031","longitude":"-115.11345","name":" Chevron","address":" USA-(NV) Las Vegas","street_number":null,"street_name":"East Tropicana Avenue","zip":"89122","city":null,"area":null,"county":"Clark County","state":"Nevada","country":"us","formatted_address":"Chevron, East Tropicana Avenue, Renaissance Center, Midtown UNLV, Paradise, Clark County, Nevada, 89122, United States of America","place_id":"50403514","datatype":"locationiq"},{"latitude":" 40.55908","longitude":"-111.85380","name":" Chevron","address":" USA-(UT) Sandy","street_number":null,"street_name":"10600 South","zip":"84094","city":null,"area":null,"county":"Salt Lake County","state":"Utah","country":"us","formatted_address":"Chevron, 10600 South, White City, Salt Lake County, Utah, 84094, United States of America","place_id":"61531810","datatype":"locationiq"},{"latitude":" 36.04284","longitude":"-115.10069","name":" Chevron","address":" USA-(NV) Henderson","street_number":"223","street_name":"North Pecos Road","zip":"89074","city":"Henderson","area":null,"county":"Clark County","state":"Nevada","country":"us","formatted_address":"223, North Pecos Road, Green Valley, Henderson, Clark County, Nevada, 89074, United States of America","place_id":"194909874","datatype":"locationiq"},{"latitude":" 36.01937","longitude":"-115.11912","name":" Chevron","address":" USA-(NV) Las Vegas","street_number":"9365","street_name":"Eastern Avenue","zip":"89123","city":null,"area":null,"county":"Clark County","state":"Nevada","country":"us","formatted_address":"9365, Eastern Avenue, Paradise, Clark County, Nevada, 89123, United States of America","place_id":"194909782","datatype":"locationiq"},{"latitude":" 36.07077","longitude":"-115.27884","name":" Chevron","address":" USA-(NV) Las Vegas","street_number":"6480","street_name":"South Durango Drive","zip":"89113","city":null,"area":null,"county":"Clark County","state":"Nevada","country":"us","formatted_address":"Chevron, 6480, South Durango Drive, Spanish Hills, Spring Valley, Clark County, Nevada, 89113, United States of America","place_id":"18102944","datatype":"locationiq"},{"latitude":" 40.71088","longitude":"-112.09269","name":" Chevron","address":" USA-(UT) Magna","street_number":null,"street_name":"Magna Main Street","zip":"84044","city":null,"area":null,"county":"Salt Lake County","state":"Utah","country":"us","formatted_address":"Chevron, Magna Main Street, Magna, Salt Lake County, Utah, 84044, United States of America","place_id":"48063025","datatype":"locationiq"},{"latitude":" 41.25501","longitude":"-111.76075","name":" Chevron","address":" USA-(UT) Huntsville","street_number":null,"street_name":"East 500 South","zip":"84317","city":null,"area":null,"county":"Weber County","state":"Utah","country":"us","formatted_address":"Chevron, East 500 South, Huntsville, Weber County, Utah, 84317, United States of America","place_id":"40517071","datatype":"locationiq"},{"latitude":" 41.73882","longitude":"-111.83437","name":" Chevron","address":" USA-(UT) Logan","street_number":null,"street_name":"East 400 North","zip":"84321","city":"Logan","area":null,"county":"Cache County","state":"Utah","country":"us","formatted_address":"Chevron, East 400 North, Logan, Cache County, Utah, 84321, United States of America","place_id":"29261445","datatype":"locationiq"},{"latitude":" 36.09944","longitude":"-115.24261","name":" Chevron","address":" USA-(NV) Las Vegas","street_number":"6887","street_name":"West Tropicana Avenue","zip":"89118","city":null,"area":null,"county":"Clark County","state":"Nevada","country":"us","formatted_address":"6887, West Tropicana Avenue, Spanish Trail, Spring Valley, Clark County, Nevada, 89118, United States of America","place_id":"194909262","datatype":"locationiq"},{"latitude":" 36.04125","longitude":"-115.27855","name":" Chevron","address":" USA-(NV) Las Vegas","street_number":"8078","street_name":"South Durango Drive","zip":"89113","city":null,"area":null,"county":"Clark County","state":"Nevada","country":"us","formatted_address":"8078, South Durango Drive, Mountain's Edge, Enterprise, Spring Valley, Clark County, Nevada, 89113, United States of America","place_id":"194874224","datatype":"locationiq"},{"latitude":" 36.11509","longitude":"-115.26147","name":" Chevron","address":" USA-(NV) Las Vegas","street_number":"7816","street_name":"West Flamingo Road","zip":"89147","city":null,"area":null,"county":"Clark County","state":"Nevada","country":"us","formatted_address":"7816, West Flamingo Road, Spring Valley, Clark County, Nevada, 89147, United States of America","place_id":"194923689","datatype":"locationiq"},{"latitude":" 40.17935","longitude":"-118.47238","name":" Chevron","address":" USA-(NV) Lovelock","street_number":null,"street_name":"Main Street","zip":"89419","city":null,"area":null,"county":"Pershing County","state":"Nevada","country":"us","formatted_address":"Chevron Store, Main Street, Lovelock, Pershing County, Nevada, 89419, United States of America","place_id":"6973672","datatype":"locationiq"},{"latitude":" 40.68913","longitude":"-112.26592","name":" Chevron","address":" USA-(UT) Tooele","street_number":null,"street_name":"State Route 36","zip":null,"city":null,"area":null,"county":"Tooele County","state":"Utah","country":"us","formatted_address":"Chevron, State Route 36, Mills Junction, Tooele County, Utah, United States of America","place_id":"4826708","datatype":"locationiq"},{"latitude":" 40.64039","longitude":"-111.85499","name":" Chevron","address":" USA-(UT) Salt Lake City","street_number":null,"street_name":"Vine Street","zip":"84121","city":"Murray","area":"South Cottonwood Acres","county":"Salt Lake County","state":"Utah","country":"us","formatted_address":"Chevron, Vine Street, South Cottonwood Acres, Murray, Salt Lake County, Utah, 84121, United States of America","place_id":"19620278","datatype":"locationiq"},{"latitude":" 40.65358","longitude":"-111.90793","name":" Chevron","address":" USA-(UT) Murray","street_number":null,"street_name":"Allendale Drive","zip":"84122","city":"Murray","area":"Misty Meadows","county":"Salt Lake County","state":"Utah","country":"us","formatted_address":"Chevron, Allendale Drive, Misty Meadows, Murray, Salt Lake County, Utah, 84122, United States of America","place_id":"31864288","datatype":"locationiq"},{"latitude":" 40.62463","longitude":"-111.92881","name":" Chevron","address":" USA-(UT) West Jordan","street_number":null,"street_name":"1300 West","zip":"84123","city":"Taylorsville","area":null,"county":"Salt Lake County","state":"Utah","country":"us","formatted_address":"Chevron, 1300 West, Taylorsville, Salt Lake County, Utah, 84123, United States of America","place_id":"58668408","datatype":"locationiq"},{"latitude":" 40.60568","longitude":"-111.87261","name":" Chevron","address":" USA-(UT) Sandy","street_number":"652","street_name":"8000 South","zip":"84070","city":"Midvale","area":null,"county":"Salt Lake County","state":"Utah","country":"us","formatted_address":"652, 8000 South, Midvale, Salt Lake County, Utah, 84070, United States of America","place_id":"206835046","datatype":"locationiq"},{"latitude":" 36.04181","longitude":"-115.18857","name":" Chevron","address":" USA-(NV) Las Vegas","street_number":"3524","street_name":"Blue Diamond Road","zip":"89139","city":null,"area":null,"county":"Clark County","state":"Nevada","country":"us","formatted_address":"3524, Blue Diamond Road, Mountain's Edge, Enterprise, Arden, Clark County, Nevada, 89139, United States of America","place_id":"194894045","datatype":"locationiq"},{"latitude":" 36.23985","longitude":"-115.16145","name":" Chevron","address":" USA-(NV) North Las Vegas","street_number":"1462","street_name":"West Craig Road","zip":"89032","city":"North Las Vegas","area":null,"county":"Clark County","state":"Nevada","country":"us","formatted_address":"1462, West Craig Road, North Las Vegas, Clark County, Nevada, 89032, United States of America","place_id":"194882147","datatype":"locationiq"},{"latitude":" 41.71484","longitude":"-111.83443","name":" Chevron","address":" USA-(UT) Logan","street_number":null,"street_name":"Golf Course Road","zip":"84332","city":"Providence","area":null,"county":"Cache County","state":"Utah","country":"us","formatted_address":"Golf Course Road, Providence, Cache County, Utah, 84332, United States of America","place_id":"65036107","datatype":"locationiq"},{"latitude":" 39.63829","longitude":"-119.71077","name":" Chevron","address":" USA-(NV) Sparks","street_number":null,"street_name":"La Posada Drive","zip":"89441","city":null,"area":"Pyramid Ranch Estates","county":"Washoe County","state":"Nevada","country":"us","formatted_address":"Jacksons, La Posada Drive, Pyramid Ranch Estates, Spanish Springs, Washoe County, Nevada, 89441, United States of America","place_id":"161942468","datatype":"locationiq"},{"latitude":" 36.24086","longitude":"-115.24262","name":" Chevron","address":" USA-(NV) Las Vegas","street_number":"6718","street_name":"West Craig Road","zip":"89108","city":"Las Vegas","area":null,"county":"Clark County","state":"Nevada","country":"us","formatted_address":"6718, West Craig Road, Centennial Hills, Las Vegas, Clark County, Nevada, 89108, United States of America","place_id":"194884765","datatype":"locationiq"},{"latitude":" 36.14499","longitude":"-115.04693","name":" Chevron","address":" USA-(NV) Las Vegas","street_number":null,"street_name":"East Sahara Avenue","zip":"89142","city":null,"area":null,"county":"Clark County","state":"Nevada","country":"us","formatted_address":"Chevron, East Sahara Avenue, Sunrise Manor, Clark County, Nevada, 89142, United States of America","place_id":"26983674","datatype":"locationiq"},{"latitude":" 37.16116","longitude":"-113.43499","name":" Chevron","address":" USA-(UT) Hurricane","street_number":null,"street_name":"North 6300 West","zip":null,"city":"Washington","area":null,"county":"Washington County","state":"Utah","country":"us","formatted_address":"Hurricane Coral Canyon Market, North 6300 West, Coral Canyon, Washington, Washington County, Utah, United States of America","place_id":"19551257","datatype":"locationiq"},{"latitude":" 40.32610","longitude":"-111.72523","name":" Chevron","address":" USA-(UT) Orem","street_number":null,"street_name":"West 1600 North","zip":"84042","city":"Lindon","area":null,"county":"Utah County","state":"Utah","country":"us","formatted_address":"Holiday, West 1600 North, Lindon, Utah County, Utah, 84042, United States of America","place_id":"1513895","datatype":"locationiq"},{"latitude":" 36.14374","longitude":"-115.22524","name":" Chevron","address":" USA-(NV) Las Vegas","street_number":"2516","street_name":"South Jones Boulevard","zip":"89146","city":null,"area":null,"county":"Clark County","state":"Nevada","country":"us","formatted_address":"2516, South Jones Boulevard, Flamingo Heights, Spring Valley, Clark County, Nevada, 89146, United States of America","place_id":"194871449","datatype":"locationiq"},{"latitude":" 36.03505","longitude":"-114.99976","name":" Chevron","address":" USA-(NV) Henderson","street_number":"513","street_name":"Lake Mead Parkway","zip":"89015","city":"Henderson","area":"Water Street District","county":"Clark County","state":"Nevada","country":"us","formatted_address":"513, Lake Mead Parkway, Water Street District, Downtown Henderson, Henderson, Clark County, Nevada, 89015, United States of America","place_id":"194858996","datatype":"locationiq"},{"latitude":" 36.17400","longitude":"-115.27766","name":" Chevron","address":" USA-(NV) Las Vegas","street_number":"8484","street_name":"Westcliff Drive","zip":"89145","city":"Las Vegas","area":null,"county":"Clark County","state":"Nevada","country":"us","formatted_address":"8484, Westcliff Drive, Charleston Heights, Las Vegas, Clark County, Nevada, 89145, United States of America","place_id":"194912252","datatype":"locationiq"},{"latitude":" 36.06352","longitude":"-115.03511","name":" Chevron","address":" USA-(NV) Henderson","street_number":"1003","street_name":"Sunset Road","zip":"89014","city":"Henderson","area":null,"county":"Clark County","state":"Nevada","country":"us","formatted_address":"1003, Sunset Road, Whitney Ranch, Henderson, Clark County, Nevada, 89014, United States of America","place_id":"194969156","datatype":"locationiq"},{"latitude":" 40.68183","longitude":"-111.96795","name":" Chevron","address":" USA-(UT) West Valley City","street_number":null,"street_name":"4100 South","zip":"84119","city":"Taylorsville","area":null,"county":"Salt Lake County","state":"Utah","country":"us","formatted_address":"Chevron, 4100 South, Taylorsville, Salt Lake County, Utah, 84119, United States of America","place_id":"151304473","datatype":"locationiq"},{"latitude":" 36.21856","longitude":"-115.25191","name":" Chevron","address":" USA-(NV) Las Vegas","street_number":"7306","street_name":"West Cheyenne Avenue","zip":"89129","city":"Las Vegas","area":null,"county":"Clark County","state":"Nevada","country":"us","formatted_address":"7306, West Cheyenne Avenue, Desert Shores, Las Vegas, Clark County, Nevada, 89129, United States of America","place_id":"194962534","datatype":"locationiq"},{"latitude":" 40.61088","longitude":"-111.85384","name":" Chevron","address":" USA-(UT) Sandy","street_number":"7740","street_name":"1300 East","zip":"84047","city":"Midvale","area":null,"county":"Salt Lake County","state":"Utah","country":"us","formatted_address":"7740, 1300 East, Midvale, Salt Lake County, Utah, 84047, United States of America","place_id":"206825572","datatype":"locationiq"},{"latitude":" 40.65341","longitude":"-111.98221","name":" Chevron","address":" USA-(UT) Kearns","street_number":null,"street_name":"5400 South","zip":"84118","city":"Taylorsville","area":null,"county":"Salt Lake County","state":"Utah","country":"us","formatted_address":"Chevron, 5400 South, Taylorsville, Salt Lake County, Utah, 84118, United States of America","place_id":"48989065","datatype":"locationiq"},{"latitude":" 36.04818","longitude":"-115.17181","name":" Chevron","address":" USA-(NV) Las Vegas","street_number":null,"street_name":"Moberly Avenue","zip":"89123","city":null,"area":null,"county":"Clark County","state":"Nevada","country":"us","formatted_address":"Chevron, Moberly Avenue, Enterprise, Clark County, Nevada, 89123, United States of America","place_id":"4783450","datatype":"locationiq"},{"latitude":" 36.15936","longitude":"-115.27831","name":" Chevron","address":" USA-(NV) Las Vegas","street_number":"8548","street_name":"West Charleston Boulevard","zip":"89117","city":"Las Vegas","area":null,"county":"Clark County","state":"Nevada","country":"us","formatted_address":"8548, West Charleston Boulevard, Canyon Gate, Las Vegas, Clark County, Nevada, 89117, United States of America","place_id":"194979710","datatype":"locationiq"},{"latitude":" 38.78656","longitude":"-112.08394","name":" Chevron","address":" USA-(UT) Richfield","street_number":null,"street_name":"North Main Street","zip":"84701","city":null,"area":null,"county":"Sevier County","state":"Utah","country":"us","formatted_address":"Chevron, North Main Street, Richfield, Sevier County, Utah, 84701, United States of America","place_id":"52124135","datatype":"locationiq"},{"latitude":" 40.60912","longitude":"-111.92967","name":" Chevron","address":" USA-(UT) West Jordan","street_number":"1315","street_name":"7800 South","zip":"84088","city":"West Jordan","area":null,"county":"Salt Lake County","state":"Utah","country":"us","formatted_address":"1315, 7800 South, West Jordan, Salt Lake County, Utah, 84088, United States of America","place_id":"206801424","datatype":"locationiq"},{"latitude":" 39.52101","longitude":"-119.81640","name":" Chevron","address":" USA-(NV) Reno","street_number":"350","street_name":"South Arlington Avenue","zip":"89501","city":"Reno","area":"Powning Addition","county":"Washoe County","state":"Nevada","country":"us","formatted_address":"350, South Arlington Avenue, Powning Addition, Midtown, Reno, Washoe County, Nevada, 89501, United States of America","place_id":"146203595","datatype":"locationiq"},{"latitude":" 40.58788","longitude":"-111.89129","name":" Chevron","address":" USA-(UT) Sandy","street_number":null,"street_name":"State Street","zip":"84047","city":"Sandy","area":null,"county":"Salt Lake County","state":"Utah","country":"us","formatted_address":"Holiday Oil, State Street, Sandy, Salt Lake County, Utah, 84047, United States of America","place_id":"48717774","datatype":"locationiq"},{"latitude":" 36.14475","longitude":"-115.19033","name":" Chevron","address":" USA-(NV) Las Vegas","street_number":null,"street_name":"West Sahara Avenue","zip":"89102-4370","city":"Las Vegas","area":null,"county":"Clark County","state":"Nevada","country":"us","formatted_address":"Terrible's, West Sahara Avenue, Las Vegas, Clark County, Nevada, 89102-4370, United States of America","place_id":"28358491","datatype":"locationiq"},{"latitude":" 39.54291","longitude":"-110.68884","name":" Chevron","address":" USA-(UT) Wellington","street_number":null,"street_name":"US 6;US 191","zip":"84542","city":"Wellington","area":null,"county":"Carbon County","state":"Utah","country":"us","formatted_address":"Chevron, US 6;US 191, Wellington, Carbon County, Utah, 84542, United States of America","place_id":"42683926","datatype":"locationiq"},{"latitude":" 39.53546","longitude":"-119.76405","name":" Chevron","address":" USA-(NV) Sparks","street_number":null,"street_name":"Victorian Avenue","zip":"89431","city":null,"area":null,"county":"Washoe County","state":"Nevada","country":"us","formatted_address":"Chevron, Victorian Avenue, Sparks, Washoe County, Nevada, 89431, United States of America","place_id":"9809771","datatype":"locationiq"},{"latitude":" 35.99769","longitude":"-115.20695","name":" Chevron","address":" USA-(NV) Las Vegas","street_number":null,"street_name":"Southern Highlands Parkway","zip":"89141","city":null,"area":null,"county":"Clark County","state":"Nevada","country":"us","formatted_address":"Southern Highlands Parkway, Enterprise, Mack, Clark County, Nevada, 89141, United States of America","place_id":"108592027","datatype":"locationiq"},{"latitude":" 36.15854","longitude":"-115.17246","name":" Chevron","address":" USA-(NV) Las Vegas","street_number":null,"street_name":"South Rancho Drive","zip":"89106","city":"Las Vegas","area":"Rancho Circle","county":"Clark County","state":"Nevada","country":"us","formatted_address":"Chevron, South Rancho Drive, Rancho Circle, Twin Lakes, Las Vegas, Clark County, Nevada, 89106, United States of America","place_id":"28609868","datatype":"locationiq"},{"latitude":" 39.25004","longitude":"-119.95314","name":" Chevron","address":" USA-(NV) Incline Village","street_number":null,"street_name":"Tahoe Boulevard","zip":"89451","city":null,"area":null,"county":"Washoe County","state":"Nevada","country":"us","formatted_address":"Chevron, Tahoe Boulevard, Incline Village-Crystal Bay, Washoe County, Nevada, 89451, United States of America","place_id":"41287514","datatype":"locationiq"},{"latitude":" 36.16830","longitude":"-115.14831","name":" Chevron","address":" USA-(NV) Las Vegas","street_number":"389","street_name":"Main Street","zip":"89101","city":"Las Vegas","area":"18b Arts District","county":"Clark County","state":"Nevada","country":"us","formatted_address":"389, Main Street, 18b Arts District, Vegas Heights, Las Vegas, Clark County, Nevada, 89101, United States of America","place_id":"194902737","datatype":"locationiq"},{"latitude":" 36.10064","longitude":"-115.18595","name":" Chevron","address":" USA-(NV) Las Vegas","street_number":null,"street_name":"West Tropicana Avenue","zip":"89103","city":null,"area":null,"county":"Clark County","state":"Nevada","country":"us","formatted_address":"McDonald's, West Tropicana Avenue, Chinatown, Paradise, Clark County, Nevada, 89103, United States of America","place_id":"113381377","datatype":"locationiq"},{"latitude":" 39.47642","longitude":"-118.79977","name":" Chevron","address":" USA-(NV) Fallon","street_number":null,"street_name":"West Williams Avenue","zip":"89406","city":null,"area":null,"county":"Churchill County","state":"Nevada","country":"us","formatted_address":"West Williams Avenue, Fallon, Churchill County, Nevada, 89406, United States of America","place_id":"171117839","datatype":"locationiq"},{"latitude":" 40.69626","longitude":"-112.04427","name":" Chevron","address":" USA-(UT) Salt Lake City","street_number":"6409","street_name":"3500 South","zip":"84128","city":"West Valley City","area":null,"county":"Salt Lake County","state":"Utah","country":"us","formatted_address":"6409, 3500 South, West Valley City, Salt Lake County, Utah, 84128, United States of America","place_id":"206789819","datatype":"locationiq"},{"latitude":" 36.00005","longitude":"-115.10513","name":" Chevron","address":" USA-(NV) Henderson","street_number":null,"street_name":"West Horizon Ridge Parkway","zip":"89052","city":"Henderson","area":null,"county":"Clark County","state":"Nevada","country":"us","formatted_address":"CVS Pharmacy, West Horizon Ridge Parkway, Green Valley Ranch, Henderson, Clark County, Nevada, 89052, United States of America","place_id":"107396715","datatype":"locationiq"},{"latitude":" 36.08601","longitude":"-115.07349","name":" Chevron","address":" USA-(NV) Las Vegas","street_number":"4586","street_name":"Russell Road","zip":"89120","city":null,"area":null,"county":"Clark County","state":"Nevada","country":"us","formatted_address":"4586, Russell Road, Paradise, Clark County, Nevada, 89120, United States of America","place_id":"194895498","datatype":"locationiq"},{"latitude":" 36.06428","longitude":"-115.03680","name":" Chevron","address":" USA-(NV) Henderson","street_number":"791","street_name":"Marks Street","zip":"89014","city":"Henderson","area":null,"county":"Clark County","state":"Nevada","country":"us","formatted_address":"791, Marks Street, Whitney Ranch, Henderson, Clark County, Nevada, 89014, United States of America","place_id":"194841849","datatype":"locationiq"},{"latitude":" 39.55589","longitude":"-119.75309","name":" Chevron","address":" USA-(NV) Sparks","street_number":null,"street_name":"North McCarran Boulevard","zip":"89431","city":null,"area":null,"county":"Washoe County","state":"Nevada","country":"us","formatted_address":"Chevron, North McCarran Boulevard, Sparks, Washoe County, Nevada, 89431, United States of America","place_id":"9809807","datatype":"locationiq"},{"latitude":" 36.27652","longitude":"-115.27933","name":" Chevron","address":" USA-(NV) Las Vegas","street_number":"6444","street_name":"Grand Montecito Parkway","zip":"89149","city":"Las Vegas","area":null,"county":"Clark County","state":"Nevada","country":"us","formatted_address":"6444, Grand Montecito Parkway, Centennial Hills, Las Vegas, Clark County, Nevada, 89149, United States of America","place_id":"194871876","datatype":"locationiq"},{"latitude":" 35.61005","longitude":"-115.38873","name":" Chevron","address":" USA-(NV) Primm","street_number":"32060","street_name":"South Las Vegas Boulevard","zip":"89019","city":null,"area":null,"county":"Clark County","state":"Nevada","country":"us","formatted_address":"32060, South Las Vegas Boulevard, Primm, Clark County, Nevada, 89019, United States of America","place_id":"194887190","datatype":"locationiq"},{"latitude":" 40.66801","longitude":"-111.95831","name":" Chevron","address":" USA-(UT) West Valley City","street_number":"4699","street_name":"Constitution Boulevard","zip":"84129","city":"Taylorsville","area":null,"county":"Salt Lake County","state":"Utah","country":"us","formatted_address":"4699, Constitution Boulevard, Taylorsville, Salt Lake County, Utah, 84129, United States of America","place_id":"206794905","datatype":"locationiq"},{"latitude":" 40.68913","longitude":"-112.26591","name":" Chevron","address":" USA-(UT) Tooele","street_number":null,"street_name":"State Route 36","zip":null,"city":null,"area":null,"county":"Tooele County","state":"Utah","country":"us","formatted_address":"Chevron, State Route 36, Mills Junction, Tooele County, Utah, United States of America","place_id":"4826708","datatype":"locationiq"},{"latitude":" 39.51307","longitude":"-119.96583","name":" Chevron","address":" USA-(NV) Verdi","street_number":null,"street_name":"Cabela Road","zip":"89439","city":"Reno","area":null,"county":"Washoe County","state":"Nevada","country":"us","formatted_address":"Cabela Road, Reno, Washoe County, Nevada, 89439, United States of America","place_id":"84823257","datatype":"locationiq"},{"latitude":" 36.07100","longitude":"-115.24209","name":" Chevron","address":" USA-(NV) Las Vegas","street_number":null,"street_name":"Sunset Road","zip":"89118","city":null,"area":null,"county":"Clark County","state":"Nevada","country":"us","formatted_address":"Sunset Road, Enterprise, Spring Valley, Clark County, Nevada, 89118, United States of America","place_id":"101081570","datatype":"locationiq"},{"latitude":" 36.00613","longitude":"-115.08367","name":" Chevron","address":" USA-(NV) Henderson","street_number":"2231","street_name":"West Horizon Ridge Parkway","zip":"89052","city":"Henderson","area":null,"county":"Clark County","state":"Nevada","country":"us","formatted_address":"2231, West Horizon Ridge Parkway, Green Valley Ranch, Henderson, Clark County, Nevada, 89052, United States of America","place_id":"194940622","datatype":"locationiq"},{"latitude":" 36.04216","longitude":"-115.13579","name":" Chevron","address":" USA-(NV) Las Vegas","street_number":null,"street_name":null,"zip":"89123","city":null,"area":null,"county":"Clark County","state":"Nevada","country":"us","formatted_address":"I-215 Trail, Paradise, Clark County, Nevada, 89123, United States of America","place_id":"99144247","datatype":"locationiq"},{"latitude":" 39.49034","longitude":"-119.80763","name":" Chevron","address":" USA-(NV) Reno","street_number":"3628","street_name":"Lakeside Drive","zip":"89509","city":"Reno","area":null,"county":"Washoe County","state":"Nevada","country":"us","formatted_address":"3628, Lakeside Drive, Midtown, Reno, Washoe County, Nevada, 89509, United States of America","place_id":"195029858","datatype":"locationiq"},{"latitude":" 37.65660","longitude":"-113.08469","name":" Chevron","address":" USA-(UT) Cedar City","street_number":null,"street_name":"South Bentley Boulevard","zip":"84720","city":null,"area":null,"county":"Iron County","state":"Utah","country":"us","formatted_address":"Chevron, South Bentley Boulevard, Cedar City, Iron County, Utah, 84720, United States of America","place_id":"143003634","datatype":"locationiq"},{"latitude":" 40.62028","longitude":"-111.90023","name":" Chevron","address":" USA-(UT) Midvale","street_number":null,"street_name":"Cottonwood Street","zip":"84047","city":"Midvale","area":null,"county":"Salt Lake County","state":"Utah","country":"us","formatted_address":"Chevron, Cottonwood Street, Midvale, Salt Lake County, Utah, 84047, United States of America","place_id":"23808042","datatype":"locationiq"},{"latitude":" 36.07125","longitude":"-115.08675","name":" Chevron","address":" USA-(NV) Henderson","street_number":"4008","street_name":"Sunset Road","zip":"89014","city":null,"area":null,"county":"Clark County","state":"Nevada","country":"us","formatted_address":"4008, Sunset Road, Paradise, Clark County, Nevada, 89014, United States of America","place_id":"194848307","datatype":"locationiq"},{"latitude":" 39.25763","longitude":"-114.86036","name":" Chevron","address":" USA-(NV) Ely","street_number":"1414","street_name":"Aultman Street","zip":"89301","city":"Ely","area":null,"county":"White Pine County","state":"Nevada","country":"us","formatted_address":"1414, Aultman Street, East Ely, Ely, White Pine County, Nevada, 89301, United States of America","place_id":"195055730","datatype":"locationiq"},{"latitude":" 36.27224","longitude":"-115.26442","name":" Chevron","address":" USA-(NV) Las Vegas","street_number":null,"street_name":"West Azure Drive","zip":"89149","city":"Las Vegas","area":null,"county":"Clark County","state":"Nevada","country":"us","formatted_address":"Terrible's Gas Station, West Azure Drive, Centennial Hills, Las Vegas, Clark County, Nevada, 89149, United States of America","place_id":"21206959","datatype":"locationiq"},{"latitude":" 36.17360","longitude":"-115.11581","name":" Chevron","address":" USA-(NV) Las Vegas","street_number":"2513","street_name":"Bonanza Road","zip":"89101","city":"Las Vegas","area":"Cultural Corridor","county":"Clark County","state":"Nevada","country":"us","formatted_address":"2513, Bonanza Road, Cultural Corridor, Five Points, Las Vegas, Clark County, Nevada, 89101, United States of America","place_id":"194940796","datatype":"locationiq"},{"latitude":" 37.68284","longitude":"-113.06151","name":" Chevron","address":" USA-(UT) Cedar City","street_number":null,"street_name":"North Main Street","zip":"83721","city":null,"area":null,"county":"Iron County","state":"Utah","country":"us","formatted_address":"Chevron, North Main Street, Cedar City, Iron County, Utah, 83721, United States of America","place_id":"20049992","datatype":"locationiq"},{"latitude":" 35.99858","longitude":"-115.10470","name":" Chevron","address":" USA-(NV) Henderson","street_number":"10623","street_name":"Eastern Avenue","zip":"89052","city":"Henderson","area":null,"county":"Clark County","state":"Nevada","country":"us","formatted_address":"10623, Eastern Avenue, Seven Hills, Henderson, Clark County, Nevada, 89052, United States of America","place_id":"194962846","datatype":"locationiq"},{"latitude":" 38.76639","longitude":"-112.08452","name":" Chevron","address":" USA-(UT) Richfield","street_number":null,"street_name":"West 100 South","zip":"84701","city":null,"area":null,"county":"Sevier County","state":"Utah","country":"us","formatted_address":"The Church of Jesus Christ of Latter-day Saints, West 100 South, Richfield, Sevier County, Utah, 84701, United States of America","place_id":"2906386","datatype":"locationiq"},{"latitude":" 38.95622","longitude":"-111.87133","name":" Chevron","address":" USA-(UT) Salina","street_number":null,"street_name":"West Main Street","zip":"84654","city":"Salina","area":null,"county":"Sevier County","state":"Utah","country":"us","formatted_address":"Premium Oil, West Main Street, Salina, Sevier County, Utah, 84654, United States of America","place_id":"17617580","datatype":"locationiq"},{"latitude":" 36.09331","longitude":"-115.20833","name":" Chevron","address":" USA-(NV) Las Vegas","street_number":"5311","street_name":"South Decatur Boulevard","zip":"89118","city":null,"area":null,"county":"Clark County","state":"Nevada","country":"us","formatted_address":"5311, South Decatur Boulevard, Flamingo Heights, Spring Valley, Clark County, Nevada, 89118, United States of America","place_id":"194970014","datatype":"locationiq"},{"latitude":" 39.12510","longitude":"-119.77206","name":" Chevron","address":" USA-(NV) Carson City","street_number":"300","street_name":"West Appion Way","zip":"89703","city":"Carson City","area":null,"county":"Carson City","state":"Nevada","country":"us","formatted_address":"300, West Appion Way, Carson City, Nevada, 89703, United States of America","place_id":"195060685","datatype":"locationiq"},{"latitude":" 39.55702","longitude":"-119.79109","name":" Chevron","address":" USA-(NV) Reno","street_number":null,"street_name":"Clear Acre Lane","zip":"89512","city":"Reno","area":null,"county":"Washoe County","state":"Nevada","country":"us","formatted_address":"Port of Subs, Clear Acre Lane, Panther Valley, Reno, Washoe County, Nevada, 89512, United States of America","place_id":"37417723","datatype":"locationiq"},{"latitude":" 36.11600","longitude":"-115.19906","name":" Chevron","address":" USA-(NV) Las Vegas","street_number":null,"street_name":"West Flamingo Road","zip":"89103","city":null,"area":null,"county":"Clark County","state":"Nevada","country":"us","formatted_address":"Chevron, West Flamingo Road, Flamingo Heights, Spring Valley, Clark County, Nevada, 89103, United States of America","place_id":"1368641","datatype":"locationiq"},{"latitude":" 37.10008","longitude":"-113.12646","name":" Chevron","address":" USA-(UT) Apple Valley","street_number":null,"street_name":"UT 59","zip":"84784","city":null,"area":null,"county":"Washington County","state":"Utah","country":"us","formatted_address":"UT 59, Apple Valley, Washington County, Utah, 84784, United States of America","place_id":"130830045","datatype":"locationiq"},{"latitude":" 40.64346","longitude":"-111.28058","name":" Chevron","address":" USA-(UT) Kamas","street_number":"16","street_name":"North Main Street","zip":"84036","city":"Kamas","area":null,"county":"Summit County","state":"Utah","country":"us","formatted_address":"16, North Main Street, Kamas, Summit County, Utah, 84036, United States of America","place_id":"206871932","datatype":"locationiq"},{"latitude":" 40.68691","longitude":"-111.88245","name":" Chevron","address":" USA-(UT) Salt Lake City","street_number":"306","street_name":"3900 South","zip":"84107","city":null,"area":null,"county":"Salt Lake County","state":"Utah","country":"us","formatted_address":"306, 3900 South, Millcreek, Salt Lake County, Utah, 84107, United States of America","place_id":"206837649","datatype":"locationiq"},{"latitude":" 36.12274","longitude":"-115.32495","name":" Chevron","address":" USA-(NV) Las Vegas","street_number":null,"street_name":"Discovery Drive","zip":"89124","city":null,"area":null,"county":"Clark County","state":"Nevada","country":"us","formatted_address":"Chevron, Discovery Drive, The Gardens, Summerlin South, Clark County, Nevada, 89124, United States of America","place_id":"164792920","datatype":"locationiq"},{"latitude":" 36.05879","longitude":"-114.96449","name":" Chevron","address":" USA-(NV) Henderson","street_number":null,"street_name":"Dinkledorf Road","zip":"89015","city":"Henderson","area":"Water Street District","county":"Clark County","state":"Nevada","country":"us","formatted_address":"Dinkledorf Road, Water Street District, Downtown Henderson, Henderson, Clark County, Nevada, 89015, United States of America","place_id":"67782994","datatype":"locationiq"},{"latitude":" 40.28308","longitude":"-110.01216","name":" Chevron","address":" USA-(UT) Roosevelt","street_number":null,"street_name":"US 40;US 191","zip":"84066","city":null,"area":null,"county":"Duchesne County","state":"Utah","country":"us","formatted_address":"US 40;US 191, Roosevelt, Duchesne County, Utah, 84066, United States of America","place_id":"137989348","datatype":"locationiq"},{"latitude":" 36.14388","longitude":"-115.13745","name":" Chevron","address":" USA-(NV) Las Vegas","street_number":null,"street_name":"East Sahara Avenue","zip":"89104","city":null,"area":null,"county":"Clark County","state":"Nevada","country":"us","formatted_address":"Chevron, East Sahara Avenue, Winchester, Clark County, Nevada, 89104, United States of America","place_id":"52834331","datatype":"locationiq"},{"latitude":" 40.08632","longitude":"-111.59386","name":" Chevron","address":" USA-(UT) Spanish Fork","street_number":null,"street_name":"East Powerhouse Road","zip":"UT 84660","city":"Spanish Fork","area":null,"county":"Utah County","state":"Utah","country":"us","formatted_address":"Chevron, East Powerhouse Road, Spanish Fork, Utah County, Utah, UT 84660, United States of America","place_id":"78977908","datatype":"locationiq"},{"latitude":" 36.12200","longitude":"-115.06465","name":" Chevron","address":" USA-(NV) Las Vegas","street_number":null,"street_name":"East Twain Avenue","zip":"NV","city":null,"area":null,"county":"Clark County","state":"Nevada","country":"us","formatted_address":"Terrible, East Twain Avenue, Sunrise Manor, Clark County, Nevada, NV, United States of America","place_id":"27526249","datatype":"locationiq"},{"latitude":" 40.65278","longitude":"-112.02512","name":" Chevron","address":" USA-(UT) Salt Lake City","street_number":null,"street_name":"5400 South","zip":"84118","city":null,"area":null,"county":"Salt Lake County","state":"Utah","country":"us","formatted_address":"Chevron, 5400 South, Kearns, Salt Lake County, Utah, 84118, United States of America","place_id":"171095868","datatype":"locationiq"},{"latitude":" 39.55601","longitude":"-119.71920","name":" Chevron","address":" USA-(NV) Sparks","street_number":"1353","street_name":"Baring Boulevard","zip":"89434","city":null,"area":null,"county":"Washoe County","state":"Nevada","country":"us","formatted_address":"1353, Baring Boulevard, Sparks, Washoe County, Nevada, 89434, United States of America","place_id":"195048404","datatype":"locationiq"},{"latitude":" 36.08601","longitude":"-115.18604","name":" Chevron","address":" USA-(NV) Las Vegas","street_number":"3413","street_name":"West Russell Road","zip":"89118","city":null,"area":null,"county":"Clark County","state":"Nevada","country":"us","formatted_address":"3413, West Russell Road, Chinatown, Paradise, Clark County, Nevada, 89118, United States of America","place_id":"194964421","datatype":"locationiq"},{"latitude":" 39.52692","longitude":"-119.82609","name":" Chevron","address":" USA-(NV) Reno","street_number":"890","street_name":"West 4th Street","zip":"89503","city":"Reno","area":"Powning Addition","county":"Washoe County","state":"Nevada","country":"us","formatted_address":"890, West 4th Street, Powning Addition, Midtown, Reno, Washoe County, Nevada, 89503, United States of America","place_id":"147354677","datatype":"locationiq"},{"latitude":" 40.64991","longitude":"-111.86628","name":" Chevron","address":" USA-(UT) Salt Lake City","street_number":null,"street_name":"900 East","zip":"84107","city":"Murray","area":"South Cottonwood Acres","county":"Salt Lake County","state":"Utah","country":"us","formatted_address":"Swig, 900 East, South Cottonwood Acres, Murray, Salt Lake County, Utah, 84107, United States of America","place_id":"57126732","datatype":"locationiq"},{"latitude":" 36.60785","longitude":"-114.48420","name":" Chevron","address":" USA-(NV) Logandale","street_number":null,"street_name":"Moapa Valley Boulevard","zip":"89021","city":null,"area":null,"county":"Clark County","state":"Nevada","country":"us","formatted_address":"Wesleys, Moapa Valley Boulevard, Moapa Valley, Clark County, Nevada, 89021, United States of America","place_id":"172362134","datatype":"locationiq"},{"latitude":" 40.73056","longitude":"-111.98794","name":" Chevron","address":" USA-(UT) Salt Lake City","street_number":"4041","street_name":"1820 South","zip":"84104","city":"Salt Lake City","area":null,"county":"Salt Lake County","state":"Utah","country":"us","formatted_address":"4041, 1820 South, Salt Lake City, Salt Lake County, Utah, 84104, United States of America","place_id":"206834039","datatype":"locationiq"},{"latitude":" 36.07136","longitude":"-115.12810","name":" Chevron","address":" USA-(NV) Las Vegas","street_number":"1787","street_name":"Sunset Road","zip":"89119","city":null,"area":null,"county":"Clark County","state":"Nevada","country":"us","formatted_address":"1787, Sunset Road, Midtown UNLV, Paradise, Clark County, Nevada, 89119, United States of America","place_id":"194857031","datatype":"locationiq"},{"latitude":" 35.99996","longitude":"-115.12320","name":" Chevron","address":" USA-(NV) Henderson","street_number":"3189","street_name":"Saint Rose Parkway","zip":"89052","city":"Henderson","area":null,"county":"Clark County","state":"Nevada","country":"us","formatted_address":"3189, Saint Rose Parkway, Seven Hills, Henderson, Clark County, Nevada, 89052, United States of America","place_id":"194888178","datatype":"locationiq"},{"latitude":" 39.52791","longitude":"-119.70135","name":" Chevron","address":" USA-(NV) Sparks","street_number":"2081","street_name":"Brierley Way","zip":"89434","city":null,"area":null,"county":"Washoe County","state":"Nevada","country":"us","formatted_address":"2081, Brierley Way, Sparks, Washoe County, Nevada, 89434, United States of America","place_id":"195042745","datatype":"locationiq"},{"latitude":" 40.23353","longitude":"-111.68773","name":" Chevron","address":" USA-(UT) Provo","street_number":"24","street_name":"South 1600 West","zip":"84601","city":"Provo","area":null,"county":"Utah County","state":"Utah","country":"us","formatted_address":"24, South 1600 West, Provo, Utah County, Utah, 84601, United States of America","place_id":"206894217","datatype":"locationiq"},{"latitude":" 36.13738","longitude":"-115.06515","name":" Chevron","address":" USA-(NV) Las Vegas","street_number":null,"street_name":"Vegas Valley Drive","zip":"NV","city":null,"area":null,"county":"Clark County","state":"Nevada","country":"us","formatted_address":"Terrible, Vegas Valley Drive, Sunrise Manor, Clark County, Nevada, NV, United States of America","place_id":"27299115","datatype":"locationiq"},{"latitude":" 38.05401","longitude":"-117.21557","name":" Chevron","address":" USA-(NV) Tonopah","street_number":null,"street_name":"Erie Street","zip":"89049","city":null,"area":null,"county":"Nye County","state":"Nevada","country":"us","formatted_address":"Texaco, Erie Street, Tonopah, Nye County, Nevada, 89049, United States of America","place_id":"167708622","datatype":"locationiq"},{"latitude":" 40.29588","longitude":"-111.72454","name":" Chevron","address":" USA-(UT) Orem","street_number":null,"street_name":"South 1200 West","zip":"84058","city":"Orem","area":null,"county":"Utah County","state":"Utah","country":"us","formatted_address":"Conoco, South 1200 West, Orem, Utah County, Utah, 84058, United States of America","place_id":"1469049","datatype":"locationiq"},{"latitude":" 37.66174","longitude":"-113.07012","name":" Chevron","address":" USA-(UT) Cedar City","street_number":"924","street_name":"South Main Street","zip":"84720","city":null,"area":null,"county":"Iron County","state":"Utah","country":"us","formatted_address":"Chevron, 924, South Main Street, Cedar City, Iron County, Utah, 84720, United States of America","place_id":"143003616","datatype":"locationiq"},{"latitude":" 41.82053","longitude":"-111.83287","name":" Chevron","address":" USA-(UT) Smithfield","street_number":"786","street_name":"South Main Street","zip":"84335","city":"Smithfield","area":null,"county":"Cache County","state":"Utah","country":"us","formatted_address":"786, South Main Street, Smithfield, Cache County, Utah, 84335, United States of America","place_id":"206715175","datatype":"locationiq"},{"latitude":" 40.71087","longitude":"-111.88849","name":" Chevron","address":" USA-(UT) Salt Lake City","street_number":"96","street_name":"East Claybourne Avenue","zip":"84115","city":"South Salt Lake","area":null,"county":"Salt Lake County","state":"Utah","country":"us","formatted_address":"96, East Claybourne Avenue, South Salt Lake, Salt Lake County, Utah, 84115, United States of America","place_id":"206824600","datatype":"locationiq"},{"latitude":" 40.70417","longitude":"-111.95846","name":" Chevron","address":" USA-(UT) West Valley City","street_number":"2718","street_name":"3100 South","zip":"84119","city":"West Valley City","area":null,"county":"Salt Lake County","state":"Utah","country":"us","formatted_address":"2718, 3100 South, West Valley City, Salt Lake County, Utah, 84119, United States of America","place_id":"206844193","datatype":"locationiq"},{"latitude":" 36.23843","longitude":"-115.20802","name":" Chevron","address":" USA-(NV) Las Vegas","street_number":"4821","street_name":"West Craig Road","zip":"89130","city":"Las Vegas","area":null,"county":"Clark County","state":"Nevada","country":"us","formatted_address":"4821, West Craig Road, Centennial Hills, Las Vegas, Clark County, Nevada, 89130, United States of America","place_id":"194923242","datatype":"locationiq"},{"latitude":" 36.05647","longitude":"-115.11880","name":" Chevron","address":" USA-(NV) Las Vegas","street_number":"2377","street_name":"East Warm Springs Road","zip":"89119","city":null,"area":null,"county":"Clark County","state":"Nevada","country":"us","formatted_address":"2377, East Warm Springs Road, Midtown UNLV, Paradise, Clark County, Nevada, 89119, United States of America","place_id":"194945560","datatype":"locationiq"},{"latitude":" 39.53674","longitude":"-119.73568","name":" Chevron","address":" USA-(NV) Sparks","street_number":"394","street_name":"North McCarran Boulevard","zip":"89431","city":null,"area":null,"county":"Washoe County","state":"Nevada","country":"us","formatted_address":"394, North McCarran Boulevard, Sparks, Washoe County, Nevada, 89431, United States of America","place_id":"195027470","datatype":"locationiq"},{"latitude":" 39.51336","longitude":"-119.85890","name":" Chevron","address":" USA-(NV) Reno","street_number":"9550","street_name":"South McCarran Boulevard","zip":"89523","city":"Reno","area":"Edgewater","county":"Washoe County","state":"Nevada","country":"us","formatted_address":"Dr. William Clearfield and Clearfield Medical Group, 9550, South McCarran Boulevard, Edgewater, Reno, Washoe County, Nevada, 89523, United States of America","place_id":"61570218","datatype":"locationiq"},{"latitude":" 40.18596","longitude":"-111.61239","name":" Chevron","address":" USA-(UT) Springville","street_number":"128","street_name":"West 1400 North","zip":"84663","city":"Springville","area":null,"county":"Utah County","state":"Utah","country":"us","formatted_address":"128, West 1400 North, Springville, Utah County, Utah, 84663, United States of America","place_id":"206910667","datatype":"locationiq"},{"latitude":" 40.76470","longitude":"-111.87147","name":" Chevron","address":" USA-(UT) Salt Lake City","street_number":null,"street_name":"200 South","zip":"84111","city":"Salt Lake City","area":"East Central","county":"Salt Lake County","state":"Utah","country":"us","formatted_address":"Sinclair, 200 South, East Central, Greater Avenues, Salt Lake City, Salt Lake County, Utah, 84111, United States of America","place_id":"147934243","datatype":"locationiq"},{"latitude":" 37.17625","longitude":"-113.30008","name":" Chevron","address":" USA-(UT) Hurricane","street_number":null,"street_name":"West State Street","zip":"84737","city":"Hurricane","area":null,"county":"Washington County","state":"Utah","country":"us","formatted_address":"Chevron, West State Street, Hurricane, Washington County, Utah, 84737, United States of America","place_id":"143367295","datatype":"locationiq"},{"latitude":" 36.10041","longitude":"-115.29677","name":" Chevron","address":" USA-(NV) Las Vegas","street_number":"9317","street_name":"West Tropicana Avenue","zip":"89147","city":null,"area":null,"county":"Clark County","state":"Nevada","country":"us","formatted_address":"9317, West Tropicana Avenue, Bridgeport, Spring Valley, Clark County, Nevada, 89147, United States of America","place_id":"194898128","datatype":"locationiq"},{"latitude":" 36.12594","longitude":"-115.20763","name":" Chevron","address":" USA-(NV) Las Vegas","street_number":null,"street_name":"Spring Mountain Road","zip":"89103","city":null,"area":null,"county":"Clark County","state":"Nevada","country":"us","formatted_address":"chevron, Spring Mountain Road, Spring Valley, Clark County, Nevada, 89103, United States of America","place_id":"8260188","datatype":"locationiq"},{"latitude":" 36.26260","longitude":"-115.24952","name":" Chevron","address":" USA-(NV) Las Vegas","street_number":"7099","street_name":"West Ann Road","zip":"89130","city":"Las Vegas","area":null,"county":"Clark County","state":"Nevada","country":"us","formatted_address":"7099, West Ann Road, Centennial Hills, Las Vegas, Clark County, Nevada, 89130, United States of America","place_id":"194926067","datatype":"locationiq"},{"latitude":" 36.23915","longitude":"-115.14429","name":" Chevron","address":" USA-(NV) North Las Vegas","street_number":null,"street_name":"West Craig Road","zip":"89031","city":"North Las Vegas","area":null,"county":"Clark County","state":"Nevada","country":"us","formatted_address":"West Craig Road, North Las Vegas, Clark County, Nevada, 89031, United States of America","place_id":"148528660","datatype":"locationiq"},{"latitude":" 40.27551","longitude":"-111.72701","name":" Chevron","address":" USA-(UT) Orem","street_number":null,"street_name":"1350 West","zip":"84058","city":"Orem","area":null,"county":"Utah County","state":"Utah","country":"us","formatted_address":"Holiday Inn Express, 1350 West, Wolverine Crossing, Orem, Utah County, Utah, 84058, United States of America","place_id":"168097109","datatype":"locationiq"},{"latitude":" 37.82253","longitude":"-112.43525","name":" Chevron","address":" USA-(UT) Panguitch","street_number":"10","street_name":"East Center Street","zip":"84759","city":null,"area":null,"county":"Garfield County","state":"Utah","country":"us","formatted_address":"Arby's, 10, East Center Street, Panguitch, Garfield County, Utah, 84759, United States of America","place_id":"143108171","datatype":"locationiq"},{"latitude":" 40.91660","longitude":"-111.39899","name":" Chevron","address":" USA-(UT) Coalville","street_number":"81","street_name":"Center Street","zip":"84017","city":"Coalville","area":null,"county":"Summit County","state":"Utah","country":"us","formatted_address":"81, Center Street, Coalville, Summit County, Utah, 84017, United States of America","place_id":"206873610","datatype":"locationiq"},{"latitude":" 36.15951","longitude":"-115.33269","name":" Chevron","address":" USA-(NV) Las Vegas","street_number":"10874","street_name":"West Charleston Boulevard","zip":"89135","city":"Las Vegas","area":null,"county":"Clark County","state":"Nevada","country":"us","formatted_address":"10874, West Charleston Boulevard, Queensridge, Las Vegas, Clark County, Nevada, 89135, United States of America","place_id":"194870481","datatype":"locationiq"},{"latitude":" 36.15958","longitude":"-115.32229","name":" Chevron","address":" USA-(NV) Las Vegas","street_number":"10468","street_name":"West Charleston Boulevard","zip":"89135","city":"Las Vegas","area":null,"county":"Clark County","state":"Nevada","country":"us","formatted_address":"10468, West Charleston Boulevard, Queensridge, Las Vegas, Clark County, Nevada, 89135, United States of America","place_id":"194981626","datatype":"locationiq"},{"latitude":" 36.07407","longitude":"-115.17345","name":" Chevron","address":" USA-(NV) Las Vegas","street_number":null,"street_name":"South Las Vegas Boulevard","zip":"89119-1001","city":null,"area":null,"county":"Clark County","state":"Nevada","country":"us","formatted_address":"Jack in the Box, South Las Vegas Boulevard, Enterprise, Paradise, Clark County, Nevada, 89119-1001, United States of America","place_id":"34439721","datatype":"locationiq"},{"latitude":" 36.17740","longitude":"-115.16127","name":" Chevron","address":" USA-(NV) Las Vegas","street_number":"1605","street_name":"Bonanza Road","zip":"89106","city":"Las Vegas","area":"Rancho Circle","county":"Clark County","state":"Nevada","country":"us","formatted_address":"1605, Bonanza Road, Rancho Circle, Vegas Heights, Las Vegas, Clark County, Nevada, 89106, United States of America","place_id":"194931928","datatype":"locationiq"},{"latitude":" 36.09969","longitude":"-115.29786","name":" Chevron","address":" USA-(NV) Las Vegas","street_number":null,"street_name":"West Tropicana Avenue","zip":"89147-8491","city":null,"area":null,"county":"Clark County","state":"Nevada","country":"us","formatted_address":"Terrible's, West Tropicana Avenue, Bridgeport, Spring Valley, Clark County, Nevada, 89147-8491, United States of America","place_id":"16523620","datatype":"locationiq"},{"latitude":" 36.16629","longitude":"-115.20637","name":" Chevron","address":" USA-(NV) Las Vegas","street_number":null,"street_name":"South Decatur Boulevard","zip":"89107","city":null,"area":null,"county":"Clark County","state":"Nevada","country":"us","formatted_address":"Charleston Antique Mall, South Decatur Boulevard, Flamingo Heights, Spring Valley, Clark County, Nevada, 89107, United States of America","place_id":"55492883","datatype":"locationiq"},{"latitude":" 36.04193","longitude":"-115.17076","name":" Chevron","address":" USA-(NV) Las Vegas","street_number":null,"street_name":"East Windmill Lane","zip":"89123","city":null,"area":null,"county":"Clark County","state":"Nevada","country":"us","formatted_address":"Chevron, East Windmill Lane, Enterprise, Clark County, Nevada, 89123, United States of America","place_id":"49360589","datatype":"locationiq"},{"latitude":" 39.17258","longitude":"-119.74996","name":" Chevron","address":" USA-(NV) Carson City","street_number":"1576","street_name":"East William Street","zip":"89701","city":"Carson City","area":null,"county":"Carson City","state":"Nevada","country":"us","formatted_address":"1576, East William Street, Carson City, Nevada, 89701, United States of America","place_id":"195057255","datatype":"locationiq"},{"latitude":" 36.16045","longitude":"-115.35169","name":" Chevron","address":" USA-(NV) Las Vegas","street_number":null,"street_name":"Desert Foothills Drive","zip":"89135","city":null,"area":null,"county":"Clark County","state":"Nevada","country":"us","formatted_address":"Chevron, Desert Foothills Drive, Red Rock Country Club, Summerlin South, Clark County, Nevada, 89135, United States of America","place_id":"167314586","datatype":"locationiq"},{"latitude":" 36.07136","longitude":"-115.08282","name":" Chevron","address":" USA-(NV) Henderson","street_number":"2811","street_name":"North Green Valley Parkway","zip":"89014","city":null,"area":null,"county":"Clark County","state":"Nevada","country":"us","formatted_address":"2811, North Green Valley Parkway, Paradise, Clark County, Nevada, 89014, United States of America","place_id":"194893758","datatype":"locationiq"},{"latitude":" 37.17874","longitude":"-113.00733","name":" Chevron","address":" USA-(UT) Springdale","street_number":null,"street_name":"Zion Park Boulevard","zip":"84767","city":null,"area":null,"county":"Washington County","state":"Utah","country":"us","formatted_address":"Chevron Springdale, Zion Park Boulevard, Springdale, Washington County, Utah, 84767, United States of America","place_id":"20049966","datatype":"locationiq"},{"latitude":" 36.17681","longitude":"-115.17484","name":" Chevron","address":" USA-(NV) Las Vegas","street_number":"418","street_name":"North Rancho Drive","zip":"89130","city":"Las Vegas","area":"Rancho Circle","county":"Clark County","state":"Nevada","country":"us","formatted_address":"418, North Rancho Drive, Rancho Circle, Twin Lakes, Las Vegas, Clark County, Nevada, 89130, United States of America","place_id":"194847635","datatype":"locationiq"},{"latitude":" 40.67395","longitude":"-111.88776","name":" Chevron","address":" USA-(UT) Murray","street_number":null,"street_name":"4500 South","zip":"84107","city":"Murray","area":null,"county":"Salt Lake County","state":"Utah","country":"us","formatted_address":"Chevron, 4500 South, Murray, Salt Lake County, Utah, 84107, United States of America","place_id":"50133834","datatype":"locationiq"},{"latitude":" 35.16155","longitude":"-114.57429","name":" Chevron","address":" USA-(NV) Laughlin","street_number":"1934","street_name":"Casino Drive","zip":"89029","city":null,"area":null,"county":"Clark County","state":"Nevada","country":"us","formatted_address":"1934, Casino Drive, Laughlin, Clark County, Nevada, 89029, United States of America","place_id":"194922145","datatype":"locationiq"},{"latitude":" 36.19546","longitude":"-115.12884","name":" Chevron","address":" USA-(NV) Las Vegas","street_number":"1005","street_name":"East Lake Mead Boulevard","zip":"89030","city":"North Las Vegas","area":null,"county":"Clark County","state":"Nevada","country":"us","formatted_address":"1005, East Lake Mead Boulevard, North Las Vegas, Clark County, Nevada, 89030, United States of America","place_id":"194848259","datatype":"locationiq"},{"latitude":" 40.72503","longitude":"-111.85443","name":" Chevron","address":" USA-(UT) Salt Lake City","street_number":null,"street_name":null,"zip":"84105","city":"Salt Lake City","area":"Sugar House","county":"Salt Lake County","state":"Utah","country":"us","formatted_address":"Freebirds World Burrito, Parley's Trail, Sugar House, Salt Lake City, Salt Lake County, Utah, 84105, United States of America","place_id":"53692372","datatype":"locationiq"},{"latitude":" 38.61305","longitude":"-112.60516","name":" Chevron","address":" USA-(UT) Cove Fort","street_number":"17098","street_name":"UT 161","zip":"84713","city":null,"area":null,"county":"Millard County","state":"Utah","country":"us","formatted_address":"17098, UT 161, Millard County, Utah, 84713, United States of America","place_id":"206771427","datatype":"locationiq"},{"latitude":" 36.14402","longitude":"-115.26155","name":" Chevron","address":" USA-(NV) Las Vegas","street_number":"7824","street_name":"West Sahara Avenue","zip":"89117","city":"Las Vegas","area":null,"county":"Clark County","state":"Nevada","country":"us","formatted_address":"7824, West Sahara Avenue, The Lakes, Las Vegas, Clark County, Nevada, 89117, United States of America","place_id":"194976765","datatype":"locationiq"},{"latitude":" 40.58743","longitude":"-111.98603","name":" Chevron","address":" USA-(UT) West Jordan","street_number":null,"street_name":"9000 South","zip":"84088","city":"West Jordan","area":null,"county":"Salt Lake County","state":"Utah","country":"us","formatted_address":"McDonald's, 9000 South, West Jordan, Salt Lake County, Utah, 84088, United States of America","place_id":"134113489","datatype":"locationiq"},{"latitude":" 40.69686","longitude":"-112.06273","name":" Chevron","address":" USA-(UT) West Valley City","street_number":null,"street_name":"3500 South","zip":"84128","city":"West Valley City","area":null,"county":"Salt Lake County","state":"Utah","country":"us","formatted_address":"Chevron, 3500 South, West Valley City, Salt Lake County, Utah, 84128, United States of America","place_id":"7536287","datatype":"locationiq"},{"latitude":" 36.05653","longitude":"-115.17180","name":" Chevron","address":" USA-(NV) Las Vegas","street_number":null,"street_name":"East Warm Springs Road","zip":"89123","city":null,"area":null,"county":"Clark County","state":"Nevada","country":"us","formatted_address":"Chevron, East Warm Springs Road, Enterprise, Clark County, Nevada, 89123, United States of America","place_id":"4675682","datatype":"locationiq"},{"latitude":" 39.25708","longitude":"-114.86320","name":" Chevron","address":" USA-(NV) Ely","street_number":"1361","street_name":"Aultman Street","zip":"89301","city":"Ely","area":null,"county":"White Pine County","state":"Nevada","country":"us","formatted_address":"1361, Aultman Street, East Ely, Ely, White Pine County, Nevada, 89301, United States of America","place_id":"195055102","datatype":"locationiq"},{"latitude":" 40.69701","longitude":"-111.98623","name":" Chevron","address":" USA-(UT) West Valley City","street_number":"3988","street_name":"3500 South","zip":"84120","city":"West Valley City","area":null,"county":"Salt Lake County","state":"Utah","country":"us","formatted_address":"3988, 3500 South, West Valley City, Salt Lake County, Utah, 84120, United States of America","place_id":"206808706","datatype":"locationiq"},{"latitude":" 36.57839","longitude":"-115.66772","name":" Chevron","address":" USA-(NV) Indian Springs","street_number":null,"street_name":"Veterans Memorial Highway","zip":"89018","city":null,"area":null,"county":"Clark County","state":"Nevada","country":"us","formatted_address":"Veterans Memorial Highway, Indian Springs, Clark County, Nevada, 89018, United States of America","place_id":"167137788","datatype":"locationiq"},{"latitude":" 39.64209","longitude":"-119.88130","name":" Chevron","address":" USA-(NV) Reno","street_number":null,"street_name":"Stead Boulevard","zip":"89506","city":"Reno","area":null,"county":"Washoe County","state":"Nevada","country":"us","formatted_address":"Sierra Station Post Office, Stead Boulevard, Stead, Reno, Washoe County, Nevada, 89506, United States of America","place_id":"3126007","datatype":"locationiq"},{"latitude":" 40.69952","longitude":"-111.88243","name":" Chevron","address":" USA-(UT) Salt Lake City","street_number":"3311","street_name":"300 East","zip":"84115","city":"South Salt Lake","area":null,"county":"Salt Lake County","state":"Utah","country":"us","formatted_address":"3311, 300 East, South Salt Lake, Salt Lake County, Utah, 84115, United States of America","place_id":"206778922","datatype":"locationiq"},{"latitude":" 36.08582","longitude":"-115.11842","name":" Chevron","address":" USA-(NV) Las Vegas","street_number":"5714","street_name":"South Eastern Avenue","zip":"89119","city":null,"area":null,"county":"Clark County","state":"Nevada","country":"us","formatted_address":"5714, South Eastern Avenue, Midtown UNLV, Paradise, Clark County, Nevada, 89119, United States of America","place_id":"194862038","datatype":"locationiq"},{"latitude":" 37.16204","longitude":"-113.38963","name":" Chevron","address":" USA-(UT) Hurricane","street_number":null,"street_name":"North 4400 West","zip":null,"city":"Hurricane","area":null,"county":"Washington County","state":"Utah","country":"us","formatted_address":"North 4400 West, Hurricane, Washington County, Utah, United States of America","place_id":"65121893","datatype":"locationiq"},{"latitude":" 40.84168","longitude":"-111.90600","name":" Chevron","address":" USA-(UT) Salt Lake City","street_number":"184","street_name":"East Center Street","zip":"84054","city":"North Salt Lake","area":null,"county":"Davis County","state":"Utah","country":"us","formatted_address":"184, East Center Street, North Salt Lake, Davis County, Utah, 84054, United States of America","place_id":"206727571","datatype":"locationiq"},{"latitude":" 38.69655","longitude":"-119.54815","name":" Chevron","address":" USA-(NV) Gardnerville","street_number":null,"street_name":"US 395","zip":null,"city":null,"area":null,"county":"Douglas County","state":"California","country":"us","formatted_address":"Chevron, US 395, Topaz Lake, Douglas County, California, United States of America","place_id":"58825490","datatype":"locationiq"},{"latitude":" 41.99525","longitude":"-117.71863","name":" Chevron","address":" USA-(NV) McDermitt","street_number":null,"street_name":"Veterans Memorial Highway","zip":"89421","city":null,"area":null,"county":"Humboldt County","state":"Nevada","country":"us","formatted_address":"Texaco, Veterans Memorial Highway, McDermitt, Humboldt County, Nevada, 89421, United States of America","place_id":"140123805","datatype":"locationiq"},{"latitude":" 36.21858","longitude":"-115.26000","name":" Chevron","address":" USA-(NV) Las Vegas","street_number":"7572","street_name":"West Cheyenne Avenue","zip":"89129","city":"Las Vegas","area":null,"county":"Clark County","state":"Nevada","country":"us","formatted_address":"7572, West Cheyenne Avenue, Desert Shores, Las Vegas, Clark County, Nevada, 89129, United States of America","place_id":"194927749","datatype":"locationiq"},{"latitude":" 35.60966","longitude":"-115.39168","name":" Chevron","address":" USA-(NV) Primm","street_number":null,"street_name":"West Primm Boulevard","zip":"89019-7029","city":null,"area":null,"county":"Clark County","state":"Nevada","country":"us","formatted_address":"Flying J - Primm, West Primm Boulevard, Primm, Clark County, Nevada, 89019-7029, United States of America","place_id":"892688","datatype":"locationiq"},{"latitude":" 41.76635","longitude":"-111.83348","name":" Chevron","address":" USA-(UT) North Logan","street_number":null,"street_name":"East 1850 North","zip":"84341","city":null,"area":null,"county":"Cache County","state":"Utah","country":"us","formatted_address":"East 1850 North, North Logan, Cache County, Utah, 84341, United States of America","place_id":"65793860","datatype":"locationiq"},{"latitude":" 40.86486","longitude":"-111.89325","name":" Chevron","address":" USA-(UT) Bountiful","street_number":null,"street_name":"South Main Street","zip":"84054","city":"North Salt Lake","area":null,"county":"Davis County","state":"Utah","country":"us","formatted_address":"Slim Olson's Chevron, South Main Street, North Salt Lake, Davis County, Utah, 84054, United States of America","place_id":"78103196","datatype":"locationiq"},{"latitude":" 40.75809","longitude":"-111.89437","name":" Chevron","address":" USA-(UT) Salt Lake City","street_number":null,"street_name":"West Temple","zip":"84115","city":"Salt Lake City","area":"Central City \/ Liberty-Wells","county":"Salt Lake County","state":"Utah","country":"us","formatted_address":"Metropolitan Inn, West Temple, Central City \/ Liberty-Wells, Capitol Hill, Salt Lake City, Salt Lake County, Utah, 84115, United States of America","place_id":"53824587","datatype":"locationiq"},{"latitude":" 36.11456","longitude":"-115.27858","name":" Chevron","address":" USA-(NV) Las Vegas","street_number":"8583","street_name":"West Flamingo Road","zip":"89147","city":null,"area":null,"county":"Clark County","state":"Nevada","country":"us","formatted_address":"8583, West Flamingo Road, Spring Valley, Clark County, Nevada, 89147, United States of America","place_id":"194926038","datatype":"locationiq"},{"latitude":" 39.62442","longitude":"-119.88256","name":" Chevron","address":" USA-(NV) Reno","street_number":"10563","street_name":"Stead Boulevard","zip":"89506","city":"Reno","area":null,"county":"Washoe County","state":"Nevada","country":"us","formatted_address":"10563, Stead Boulevard, Stead, Reno, Washoe County, Nevada, 89506, United States of America","place_id":"195033170","datatype":"locationiq"},{"latitude":" 36.17040","longitude":"-115.20639","name":" Chevron","address":" USA-(NV) Las Vegas","street_number":"284","street_name":"South Decatur Boulevard","zip":"89107","city":"Las Vegas","area":null,"county":"Clark County","state":"Nevada","country":"us","formatted_address":"284, South Decatur Boulevard, Twin Lakes, Las Vegas, Clark County, Nevada, 89107, United States of America","place_id":"194869953","datatype":"locationiq"},{"latitude":" 36.21855","longitude":"-115.25191","name":" Chevron","address":" USA-(NV) Las Vegas","street_number":"7306","street_name":"West Cheyenne Avenue","zip":"89129","city":"Las Vegas","area":null,"county":"Clark County","state":"Nevada","country":"us","formatted_address":"7306, West Cheyenne Avenue, Desert Shores, Las Vegas, Clark County, Nevada, 89129, United States of America","place_id":"194962534","datatype":"locationiq"},{"latitude":" 40.70305","longitude":"-111.93941","name":" Chevron","address":" USA-(UT) West Valley City","street_number":"3138","street_name":"Redwood Road","zip":"84119","city":"Taylorsville","area":null,"county":"Salt Lake County","state":"Utah","country":"us","formatted_address":"3138, Redwood Road, Taylorsville, Salt Lake County, Utah, 84119, United States of America","place_id":"206852025","datatype":"locationiq"}]