[{"latitude":" 41.92885","longitude":"-87.78565","name":" Chipotle","address":" USA-Chicago","street_number":"2653-2659","street_name":"North Narragansett Avenue","zip":"60707","city":"Chicago","area":"Beat 2512","county":"Cook County","state":"Illinois","country":"us","formatted_address":"2653-2659, North Narragansett Avenue, Beat 2512, Chicago, Cook County, Illinois, 60707, United States of America","place_id":"106411152","datatype":"locationiq"},{"latitude":" 40.11052","longitude":"-88.23063","name":" Chipotle","address":" USA-Champaign","street_number":null,"street_name":"East Green Street","zip":"61820","city":"Champaign","area":null,"county":"Champaign County","state":"Illinois","country":"us","formatted_address":"Noodles & Co., East Green Street, Champaign, Champaign County, Illinois, 61820, United States of America","place_id":"17547567","datatype":"locationiq"},{"latitude":" 41.90926","longitude":"-87.62852","name":" Chipotle","address":" USA-Chicago","street_number":"1445","street_name":"North State Parkway","zip":"60610","city":"Chicago","area":"Gold Coast","county":"Cook County","state":"Illinois","country":"us","formatted_address":"State Parkway Condominiums, 1445, North State Parkway, Gold Coast, Chicago, Cook County, Illinois, 60610, United States of America","place_id":"118740080","datatype":"locationiq"},{"latitude":" 41.88070","longitude":"-87.63491","name":" Chipotle","address":" USA-Chicago","street_number":"230","street_name":"West Monroe Street","zip":"60606","city":"Chicago","area":"Loop","county":"Cook County","state":"Illinois","country":"us","formatted_address":"230 West Monroe, 230, West Monroe Street, Loop, Chicago, Cook County, Illinois, 60606, United States of America","place_id":"102208265","datatype":"locationiq"},{"latitude":" 41.87824","longitude":"-87.62708","name":" Chipotle","address":" USA-Chicago","street_number":"14","street_name":"East Jackson Boulevard","zip":"60604","city":"Chicago","area":"Loop","county":"Cook County","state":"Illinois","country":"us","formatted_address":"Richard M. and Maggie C. Daley Building, 14, East Jackson Boulevard, Loop, Chicago, Cook County, Illinois, 60604, United States of America","place_id":"102381906","datatype":"locationiq"},{"latitude":" 48.78494","longitude":"-122.48957","name":" Chipotle","address":" USA-Bellingham","street_number":"4","street_name":"Bellis Fair Parkway","zip":"98226","city":"Bellingham","area":null,"county":"Whatcom County","state":"Washington","country":"us","formatted_address":"Chipotle Mexican Grill, 4, Bellis Fair Parkway, Bellingham, Whatcom County, Washington, 98226, United States of America","place_id":"44899480","datatype":"locationiq"},{"latitude":" 42.00271","longitude":"-87.66124","name":" Chipotle","address":" USA-Chicago","street_number":"6600-6602","street_name":"North Sheridan Road","zip":"60626","city":"Chicago","area":null,"county":"Cook County","state":"Illinois","country":"us","formatted_address":"6600-6602, North Sheridan Road, Rogers Park, Chicago, Cook County, Illinois, 60626, United States of America","place_id":"118073580","datatype":"locationiq"},{"latitude":" 42.26455","longitude":"-88.98030","name":" Chipotle","address":" USA-Rockford","street_number":"751","street_name":"South Perryville Road","zip":"61108","city":null,"area":null,"county":"Winnebago County","state":"Illinois","country":"us","formatted_address":"Chipotle, 751, South Perryville Road, Cherry Valley, Winnebago County, Illinois, 61108, United States of America","place_id":"53952490","datatype":"locationiq"},{"latitude":" 41.89168","longitude":"-87.62824","name":" Chipotle","address":" USA-Chicago","street_number":"2-6","street_name":"West Grand Avenue","zip":"60654","city":"Chicago","area":"Magnificent Mile","county":"Cook County","state":"Illinois","country":"us","formatted_address":"Grand Plaza, 2-6, West Grand Avenue, Magnificent Mile, Chicago, Cook County, Illinois, 60654, United States of America","place_id":"116729676","datatype":"locationiq"},{"latitude":" 42.10050","longitude":"-88.28737","name":" Chipotle","address":" USA-West Dundee","street_number":"359","street_name":"North 8th Street","zip":"60118","city":null,"area":null,"county":"Kane County","state":"Illinois","country":"us","formatted_address":"359, North 8th Street, West Dundee, Kane County, Illinois, 60118, United States of America","place_id":"185250707","datatype":"locationiq"},{"latitude":" 40.49066","longitude":"-88.95322","name":" Chipotle","address":" USA-Bloomington","street_number":"508","street_name":"Iaa Drive","zip":"61701","city":"Bloomington","area":null,"county":"McLean County","state":"Illinois","country":"us","formatted_address":"Schlotzsky's Deli, 508, Iaa Drive, Bloomington, McLean County, Illinois, 61701, United States of America","place_id":"33365313","datatype":"locationiq"},{"latitude":" 42.02951","longitude":"-88.15349","name":" Chipotle","address":" USA-Schaumburg","street_number":null,"street_name":"West Schaumburg Road","zip":"60194","city":null,"area":null,"county":"Cook County","state":"Illinois","country":"us","formatted_address":"West Schaumburg Road, Streamwood, Cook County, Illinois, 60194, United States of America","place_id":"138413060","datatype":"locationiq"},{"latitude":" 41.93285","longitude":"-87.64366","name":" Chipotle","address":" USA-Chicago","street_number":"554-616","street_name":"West Diversey Parkway","zip":"60614","city":"Chicago","area":"Mid-North District","county":"Cook County","state":"Illinois","country":"us","formatted_address":"554-616, West Diversey Parkway, Mid-North District, Uptown, Chicago, Cook County, Illinois, 60614, United States of America","place_id":"118520411","datatype":"locationiq"},{"latitude":" 41.68978","longitude":"-88.12581","name":" Chipotle","address":" USA-Naperville","street_number":null,"street_name":"Lily Cache Lane","zip":"60490","city":null,"area":null,"county":"Will County","state":"Illinois","country":"us","formatted_address":"Penn Station East Coast Subs, Lily Cache Lane, Bolingbrook, Will County, Illinois, 60490, United States of America","place_id":"57167837","datatype":"locationiq"},{"latitude":" 41.81553","longitude":"-87.86951","name":" Chipotle","address":" USA-Chicago","street_number":null,"street_name":"South La Grange Road","zip":"60525","city":null,"area":null,"county":"Cook County","state":"Illinois","country":"us","formatted_address":"Kama Indian Bistro, South La Grange Road, La Grange, Cook County, Illinois, 60525, United States of America","place_id":"147787682","datatype":"locationiq"},{"latitude":" 41.93953","longitude":"-87.64436","name":" Chipotle","address":" USA-Chicago","street_number":"3165-3179","street_name":"North Broadway","zip":"60614","city":"Chicago","area":"Pine Grove","county":"Cook County","state":"Illinois","country":"us","formatted_address":"3165-3179, North Broadway, Pine Grove, Uptown, Chicago, Cook County, Illinois, 60614, United States of America","place_id":"118520220","datatype":"locationiq"},{"latitude":" 42.02452","longitude":"-88.33919","name":" Chipotle","address":" USA-Elgin","street_number":null,"street_name":"South Street","zip":"60124","city":"Elgin","area":null,"county":"Kane County","state":"Illinois","country":"us","formatted_address":"Shell, South Street, Elgin, Kane County, Illinois, 60124, United States of America","place_id":"166314410","datatype":"locationiq"},{"latitude":" 41.93074","longitude":"-87.68568","name":" Chipotle","address":" USA-Chicago","street_number":"2310","street_name":"West Logan Boulevard","zip":"60618","city":"Chicago","area":"Maplewood","county":"Cook County","state":"Illinois","country":"us","formatted_address":"2310, West Logan Boulevard, Maplewood, Uptown, Chicago, Cook County, Illinois, 60618, United States of America","place_id":"117825974","datatype":"locationiq"},{"latitude":" 42.38435","longitude":"-87.95451","name":" Chipotle","address":" USA-Chicago","street_number":null,"street_name":"Gurnee Mills Circle East","zip":"60031","city":null,"area":null,"county":"Lake County","state":"Illinois","country":"us","formatted_address":"Chipotle Mexican Grill, Gurnee Mills Circle East, Gurnee Mills Mall, Gurnee, Lake County, Illinois, 60031, United States of America","place_id":"27334516","datatype":"locationiq"},{"latitude":" 41.60070","longitude":"-87.79426","name":" Chipotle","address":" USA-Orland Park","street_number":null,"street_name":"Harlem Avenue","zip":"60477","city":null,"area":null,"county":"Cook County","state":"Illinois","country":"us","formatted_address":"Chipotle Mexican Grill, Harlem Avenue, Tinley Park, Cook County, Illinois, 60477, United States of America","place_id":"8080014","datatype":"locationiq"},{"latitude":" 42.34468","longitude":"-87.89501","name":" Chipotle","address":" USA-Chicago","street_number":null,"street_name":"Northpoint Boulevard","zip":"60085","city":"Waukegan","area":null,"county":"Lake County","state":"Illinois","country":"us","formatted_address":"Sweet Tomatoes, Northpoint Boulevard, Waukegan, Lake County, Illinois, 60085, United States of America","place_id":"105168580","datatype":"locationiq"},{"latitude":" 42.04042","longitude":"-88.03461","name":" Chipotle","address":" USA-Schaumburg","street_number":null,"street_name":"North Martingale Road","zip":"60173","city":null,"area":null,"county":"Cook County","state":"Illinois","country":"us","formatted_address":"Streets of Woodfield, North Martingale Road, Schaumburg, Cook County, Illinois, 60173, United States of America","place_id":"174665051","datatype":"locationiq"},{"latitude":" 42.17330","longitude":"-88.33523","name":" Chipotle","address":" USA-Chicago","street_number":null,"street_name":"South Randall Road","zip":"60102","city":null,"area":null,"county":"McHenry County","state":"Illinois","country":"us","formatted_address":"BMO Harris Bank, South Randall Road, Algonquin, McHenry County, Illinois, 60102, United States of America","place_id":"47176894","datatype":"locationiq"},{"latitude":" 42.22617","longitude":"-88.29646","name":" Chipotle","address":" USA-Crystal Lake","street_number":null,"street_name":"Northwest Highway","zip":"60014","city":"Crystal Lake","area":null,"county":"McHenry County","state":"Illinois","country":"us","formatted_address":"Crystal Lake Bank, Northwest Highway, Crystal Lake, McHenry County, Illinois, 60014, United States of America","place_id":"48833729","datatype":"locationiq"},{"latitude":" 42.01189","longitude":"-87.76207","name":" Chipotle","address":" USA-Chicago","street_number":"5406","street_name":"West Touhy Avenue","zip":"60077","city":null,"area":"Wildwood","county":"Cook County","state":"Illinois","country":"us","formatted_address":"5406, West Touhy Avenue, Wildwood, Niles, Cook County, Illinois, 60077, United States of America","place_id":"176005772","datatype":"locationiq"},{"latitude":" 41.88735","longitude":"-87.62503","name":" Chipotle","address":" USA-Chicago","street_number":"316","street_name":"North Michigan Avenue","zip":"60601","city":"Chicago","area":"Streeterville","county":"Cook County","state":"Illinois","country":"us","formatted_address":"316, North Michigan Avenue, Streeterville, Chicago, Cook County, Illinois, 60601, United States of America","place_id":"102835640","datatype":"locationiq"},{"latitude":" 42.15314","longitude":"-87.92968","name":" Chipotle","address":" USA-Chicago","street_number":null,"street_name":"Lake Cook Road","zip":"60090","city":null,"area":null,"county":"Cook County","state":"Illinois","country":"us","formatted_address":"Lake Cook Road, Wheeling, Cook County, Illinois, 60090, United States of America","place_id":"145460684","datatype":"locationiq"},{"latitude":" 42.18575","longitude":"-87.80281","name":" Chipotle","address":" USA-Chicago","street_number":"1848","street_name":"Green Bay Road","zip":"60035","city":"Highland Park","area":null,"county":"Lake County","state":"Illinois","country":"us","formatted_address":"1848, Green Bay Road, Highland Park, Lake County, Illinois, 60035, United States of America","place_id":"185322413","datatype":"locationiq"},{"latitude":" 41.88862","longitude":"-87.80407","name":" Chipotle","address":" USA-Chicago","street_number":null,"street_name":"Lake Street","zip":"60153","city":null,"area":"Samuel A Rothermel Houses","county":"Cook County","state":"Illinois","country":"us","formatted_address":"Chipotle Mexican Grill, Lake Street, Samuel A Rothermel Houses, Oak Park, Cook County, Illinois, 60153, United States of America","place_id":"62211972","datatype":"locationiq"},{"latitude":" 41.88179","longitude":"-87.63237","name":" Chipotle","address":" USA-Chicago","street_number":null,"street_name":"South La Salle Street","zip":"60696","city":"Chicago","area":"Loop","county":"Cook County","state":"Illinois","country":"us","formatted_address":"La Salle & Madison SB, South La Salle Street, Loop, Chicago, Cook County, Illinois, 60696, United States of America","place_id":"56463279","datatype":"locationiq"},{"latitude":" 42.06254","longitude":"-87.74679","name":" Chipotle","address":" USA-Chicago","street_number":"10000","street_name":"Skokie Boulevard","zip":"60077","city":null,"area":null,"county":"Cook County","state":"Illinois","country":"us","formatted_address":"10000, Skokie Boulevard, Skokie, Cook County, Illinois, 60077, United States of America","place_id":"156934060","datatype":"locationiq"},{"latitude":" 41.76960","longitude":"-88.20761","name":" Chipotle","address":" USA-Naperville","street_number":null,"street_name":"Liberty Street","zip":"60519","city":"Aurora","area":null,"county":"DuPage County","state":"Illinois","country":"us","formatted_address":"Liberty Street, Meridian Business Campus, Aurora, DuPage County, Illinois, 60519, United States of America","place_id":"96980265","datatype":"locationiq"},{"latitude":" 41.71964","longitude":"-87.77632","name":" Chipotle","address":" USA-Chicago","street_number":null,"street_name":"West 95th Street","zip":"60415","city":null,"area":null,"county":"Cook County","state":"Illinois","country":"us","formatted_address":"Petco, West 95th Street, Oak Lawn, Cook County, Illinois, 60415, United States of America","place_id":"23376310","datatype":"locationiq"},{"latitude":" 41.85937","longitude":"-88.05760","name":" Chipotle","address":" USA-Wheaton","street_number":null,"street_name":"East Roosevelt Road","zip":"60137","city":null,"area":null,"county":"DuPage County","state":"Illinois","country":"us","formatted_address":"East Roosevelt Road, Glen Ellyn, DuPage County, Illinois, 60137, United States of America","place_id":"135732669","datatype":"locationiq"},{"latitude":" 41.90105","longitude":"-87.93993","name":" Chipotle","address":" USA-Chicago","street_number":null,"street_name":"North York Street","zip":"60126","city":null,"area":null,"county":"DuPage County","state":"Illinois","country":"us","formatted_address":"My Favorite Toy Store, North York Street, Elmhurst, DuPage County, Illinois, 60126, United States of America","place_id":"24618466","datatype":"locationiq"},{"latitude":" 41.88571","longitude":"-87.63475","name":" Chipotle","address":" USA-Chicago","street_number":"215","street_name":"West Lake Street","zip":"60606","city":"Chicago","area":"Loop","county":"Cook County","state":"Illinois","country":"us","formatted_address":"215, West Lake Street, Loop, Chicago, Cook County, Illinois, 60606, United States of America","place_id":"102601606","datatype":"locationiq"},{"latitude":" 42.11186","longitude":"-87.97911","name":" Chipotle","address":" USA-Chicago","street_number":"350","street_name":"East Rand Road","zip":"60004","city":null,"area":null,"county":"Cook County","state":"Illinois","country":"us","formatted_address":"350, East Rand Road, Arlington Heights, Cook County, Illinois, 60004, United States of America","place_id":"184926196","datatype":"locationiq"},{"latitude":" 42.06910","longitude":"-88.20229","name":" Chipotle","address":" USA-Chicago","street_number":null,"street_name":"Hoffman Boulevard","zip":"60125","city":null,"area":null,"county":"Cook County","state":"Illinois","country":"us","formatted_address":"Hoffman Boulevard, Hoffman Estates, Cook County, Illinois, 60125, United States of America","place_id":"87813998","datatype":"locationiq"},{"latitude":" 39.76407","longitude":"-89.70570","name":" Chipotle","address":" USA-Springfield","street_number":"2599","street_name":"Wabash Avenue","zip":"62704","city":"Springfield","area":null,"county":"Sangamon County","state":"Illinois","country":"us","formatted_address":"2599, Wabash Avenue, Springfield, Sangamon County, Illinois, 62704, United States of America","place_id":"157529866","datatype":"locationiq"},{"latitude":" 41.93106","longitude":"-88.77179","name":" Chipotle","address":" USA-DeKalb","street_number":"1013A","street_name":"West Lincoln Highway","zip":"60115","city":"DeKalb","area":null,"county":"DeKalb County","state":"Illinois","country":"us","formatted_address":"Chipotle Mexican Grill, 1013A, West Lincoln Highway, DeKalb, DeKalb County, Illinois, 60115, United States of America","place_id":"12365653","datatype":"locationiq"},{"latitude":" 41.77150","longitude":"-88.14694","name":" Chipotle","address":" USA-Naperville","street_number":null,"street_name":"Chicago Avenue","zip":"60566","city":null,"area":null,"county":"DuPage County","state":"Illinois","country":"us","formatted_address":"Kernel's Gourmet Popcorn & More, Chicago Avenue, Lisle, DuPage County, Illinois, 60566, United States of America","place_id":"55121321","datatype":"locationiq"},{"latitude":" 42.16720","longitude":"-87.84506","name":" Chipotle","address":" USA-Chicago","street_number":"679","street_name":"Deerfield Road","zip":"60015","city":null,"area":null,"county":"Lake County","state":"Illinois","country":"us","formatted_address":"679, Deerfield Road, Deerfield, Lake County, Illinois, 60015, United States of America","place_id":"185321691","datatype":"locationiq"},{"latitude":" 41.61357","longitude":"-87.85340","name":" Chipotle","address":" USA-Orland Park","street_number":"15216","street_name":"South La Grange Road","zip":"60462","city":null,"area":null,"county":"Cook County","state":"Illinois","country":"us","formatted_address":"15216, South La Grange Road, Orland Park, Cook County, Illinois, 60462, United States of America","place_id":"184975811","datatype":"locationiq"},{"latitude":" 41.93901","longitude":"-88.11369","name":" Chipotle","address":" USA-Chicago","street_number":null,"street_name":"West Army Trail Road","zip":"60108","city":null,"area":null,"county":"DuPage County","state":"Illinois","country":"us","formatted_address":"West Army Trail Road, Bloomingdale, DuPage County, Illinois, 60108, United States of America","place_id":"160827251","datatype":"locationiq"},{"latitude":" 47.66583","longitude":"-117.41074","name":" Chipotle","address":" USA-Spokane","street_number":null,"street_name":"North Ruby Street","zip":"99201","city":"Spokane","area":"Riverside","county":"Spokane County","state":"Washington","country":"us","formatted_address":"Wendy's, North Ruby Street, Riverside, East Empire, Spokane, Spokane County, Washington, 99201, United States of America","place_id":"151833591","datatype":"locationiq"},{"latitude":" 41.75846","longitude":"-87.94474","name":" Chipotle","address":" USA-Chicago","street_number":null,"street_name":"Kingery Highway","zip":"60527","city":null,"area":null,"county":"DuPage County","state":"Illinois","country":"us","formatted_address":"Kingery Highway, Willowbrook, DuPage County, Illinois, 60527, United States of America","place_id":"74245442","datatype":"locationiq"}]