[{"name":"Einstein Bros Bagel","code":null,"latitude":42.38944,"longitude":-82.9177,"address":"16828 Kercheval Avenue, Grosse Pointe Park MI","chain_name":null,"distance":0,"street_number":null,"street_name":"Kercheval Street","zip":"48230","city":"Grosse Pointe","area":null,"county":"Wayne County","state":"Michigan","country":"us","formatted_address":"Kercheval & Cadieux, Kercheval Street, Grosse Pointe, Wayne County, Michigan, 48230, United States of America","place_id":"23293911","datatype":"locationiq"},{"name":"Einstein Bros Bagel","code":null,"latitude":27.29932,"longitude":-82.5306,"address":"3800 South Tamiami Trail, Sarasota FL","chain_name":null,"distance":0,"street_number":null,"street_name":"Tamiami Trail","zip":"34239","city":"Sarasota","area":null,"county":"Sarasota County","state":"Florida","country":"us","formatted_address":"Einstein Bagels, Tamiami Trail, Sarasota, Sarasota County, Florida, 34239, United States of America","place_id":"8305153","datatype":"locationiq"},{"name":"Einstein Bros Bagel","code":null,"latitude":38.96261,"longitude":-77.3994,"address":"1230 Elden Street, Herndon VA","chain_name":null,"distance":0,"street_number":"1201","street_name":"Herndon Parkway","zip":"20170","city":null,"area":null,"county":"Fairfax County","state":"Virginia","country":"us","formatted_address":"CapitalOne Bank, 1201, Herndon Parkway, Herndon, Fairfax County, Virginia, 20170, United States of America","place_id":"103627941","datatype":"locationiq"},{"name":"Einstein Bros Bagel","code":null,"latitude":38.5773,"longitude":-90.4064,"address":"338 South Kirkwood Road, Saint Louis MO","chain_name":null,"distance":0,"street_number":null,"street_name":"South Kirkwood Road","zip":"63122","city":"Kirkwood","area":null,"county":"St. Louis County","state":"Missouri","country":"us","formatted_address":"McDonald's, South Kirkwood Road, Kirkwood, St. Louis County, Missouri, 63122, United States of America","place_id":"155603412","datatype":"locationiq"},{"name":"Einstein Bros Bagel","code":null,"latitude":33.91894,"longitude":-84.3512,"address":"1100 Hammond Drive Northeast Suite 600, Atlanta GA","chain_name":null,"distance":0,"street_number":"1062","street_name":"Hammond Drive Northeast","zip":"30328","city":"Sandy Springs","area":"Hammond","county":"Fulton County","state":"Georgia","country":"us","formatted_address":"1062, Hammond Drive Northeast, Hammond, Sandy Springs, Fulton County, Georgia, 30328, United States of America","place_id":"183795418","datatype":"locationiq"},{"name":"Einstein Bros Bagel","code":null,"latitude":30.28796,"longitude":-97.7416,"address":"Austin TX","chain_name":null,"distance":0,"street_number":"400","street_name":"West 24th Street","zip":"78705","city":"Austin","area":null,"county":"Travis County","state":"Texas","country":"us","formatted_address":"400, West 24th Street, Austin, Travis County, Texas, 78705, United States of America","place_id":"51198557","datatype":"locationiq"},{"name":"Einstein Bros Bagel","code":null,"latitude":39.65305,"longitude":-104.9036,"address":"7350 East Hampden Avenue, Denver CO","chain_name":null,"distance":0,"street_number":"7300","street_name":"East Hampden Avenue","zip":"80231","city":"Denver","area":null,"county":"Denver County","state":"Colorado","country":"us","formatted_address":"7300, East Hampden Avenue, Denver, Denver County, Colorado, 80231, United States of America","place_id":"133082587","datatype":"locationiq"},{"name":"Einstein Bros Bagel","code":null,"latitude":40.10221,"longitude":-75.0286,"address":"9997 Bustleton Avenue, Philadelphia PA","chain_name":null,"distance":0,"street_number":"968","street_name":"Red Lion Road","zip":"19115","city":"Philadelphia","area":"Pauls Run","county":"Philadelphia County","state":"Pennsylvania","country":"us","formatted_address":"968, Red Lion Road, Pauls Run, Philadelphia, Philadelphia County, Pennsylvania, 19115, United States of America","place_id":"202248908","datatype":"locationiq"},{"name":"Einstein Bros Bagel","code":null,"latitude":33.4464,"longitude":-112.0455,"address":"Phoenix AZ","chain_name":null,"distance":0,"street_number":"187","street_name":"South 17th Street","zip":"85034","city":"Phoenix","area":null,"county":"Maricopa County","state":"Arizona","country":"us","formatted_address":"187, South 17th Street, Central City, Phoenix, Maricopa County, Arizona, 85034, United States of America","place_id":"177184289","datatype":"locationiq"},{"name":"Einstein Bros Bagel","code":null,"latitude":32.81215,"longitude":-96.8061,"address":"3827 Lemmon Avenue, Dallas TX","chain_name":null,"distance":0,"street_number":"3439","street_name":"Oak Lawn Avenue","zip":"75207","city":"Dallas","area":"Oak Lawn","county":"Dallas County","state":"Texas","country":"us","formatted_address":"3439, Oak Lawn Avenue, Oak Lawn, Dallas, Dallas County, Texas, 75207, United States of America","place_id":"121195053","datatype":"locationiq"},{"name":"Einstein Bros Bagel","code":null,"latitude":32.33688,"longitude":-110.9777,"address":"7151 North Oracle Road, Tucson AZ","chain_name":null,"distance":0,"street_number":"7133","street_name":"North Oracle Road","zip":"85704","city":"Tucson","area":"Valley View","county":"Pima County","state":"Arizona","country":"us","formatted_address":"Whole Foods, 7133, North Oracle Road, Valley View, Casas Adobes, Tucson, Pima County, Arizona, 85704, United States of America","place_id":"140038950","datatype":"locationiq"},{"name":"Einstein Bros Bagel","code":null,"latitude":38.62075,"longitude":-76.9164,"address":"3310 Crain Highway, Waldorf MD","chain_name":null,"distance":0,"street_number":"3307","street_name":"Crain Highway","zip":"20603","city":null,"area":"Carrington","county":"Charles County","state":"Maryland","country":"us","formatted_address":"3307, Crain Highway, Carrington, Saint Charles, St. Charles, Charles County, Maryland, 20603, United States of America","place_id":"189751058","datatype":"locationiq"},{"name":"Einstein Bros Bagel","code":null,"latitude":44.86105,"longitude":-93.5382,"address":"7824 Market Boulevard, Chanhassen MN","chain_name":null,"distance":0,"street_number":null,"street_name":"Market Boulevard","zip":"55317","city":"Chanhassen","area":null,"county":"Carver County","state":"Minnesota","country":"us","formatted_address":"Wendy's, Market Boulevard, Chanhassen, Carver County, Minnesota, 55317, United States of America","place_id":"79134601","datatype":"locationiq"},{"name":"Einstein Bros Bagel","code":null,"latitude":39.79717,"longitude":-105.0771,"address":"5545 Wadsworth Bypass, Arvada CO","chain_name":null,"distance":0,"street_number":null,"street_name":"Wadsworth Bypass","zip":"80002","city":null,"area":null,"county":"Jefferson County","state":"Colorado","country":"us","formatted_address":"Wadsworth Bypass, Arvada, Jefferson County, Colorado, 80002, United States of America","place_id":"120405187","datatype":"locationiq"},{"name":"Einstein Bros Bagel","code":null,"latitude":32.99804,"longitude":-96.8271,"address":"4727 Frankford Road, Dallas TX","chain_name":null,"distance":0,"street_number":"4635","street_name":"Frankford Road","zip":"75252","city":"Dallas","area":null,"county":"Collin County","state":"Texas","country":"us","formatted_address":"Boston Market, 4635, Frankford Road, Dallas, Collin County, Texas, 75252, United States of America","place_id":"165487627","datatype":"locationiq"},{"name":"Einstein Bros Bagel","code":null,"latitude":44.98363,"longitude":-93.3788,"address":"7752 Highway 55, Minneapolis MN","chain_name":null,"distance":0,"street_number":null,"street_name":"Olson Memorial Highway","zip":"55427","city":"Golden Valley","area":null,"county":"Hennepin County","state":"Minnesota","country":"us","formatted_address":"Starbucks, Olson Memorial Highway, Golden Valley, Hennepin County, Minnesota, 55427, United States of America","place_id":"55926078","datatype":"locationiq"},{"name":"Einstein Bros Bagel","code":null,"latitude":33.58264,"longitude":-111.9757,"address":"4912 East Shea Boulevard, Phoenix AZ","chain_name":null,"distance":0,"street_number":null,"street_name":"East Shea Boulevard","zip":"85052","city":"Phoenix","area":null,"county":"Maricopa County","state":"Arizona","country":"us","formatted_address":"Unit #:2, East Shea Boulevard, Phoenix, Maricopa County, Arizona, 85052, United States of America","place_id":"48898524","datatype":"locationiq"},{"name":"Einstein Bros Bagel","code":null,"latitude":39.5238,"longitude":-76.3505,"address":"600 Marketplace Drive, Bel Air MD","chain_name":null,"distance":0,"street_number":"600","street_name":"Market Place Drive","zip":"21014","city":null,"area":null,"county":"Harford County","state":"Maryland","country":"us","formatted_address":"Boston Market, 600, Market Place Drive, Tollgate Marketplace, Bel Air, Harford County, Maryland, 21014, United States of America","place_id":"159559953","datatype":"locationiq"},{"name":"Einstein Bros Bagel","code":null,"latitude":32.78779,"longitude":-96.8003,"address":"Forest Preston, Dallas TX","chain_name":null,"distance":0,"street_number":"2001","street_name":"Flora Street","zip":"75201","city":"Dallas","area":null,"county":"Dallas County","state":"Texas","country":"us","formatted_address":"Nasher Sculpture Center, 2001, Flora Street, Kyle Warren Park-Arts District PID, Dallas, Dallas County, Texas, 75201, United States of America","place_id":"76548836","datatype":"locationiq"},{"name":"Einstein Bros Bagel","code":null,"latitude":35.10552,"longitude":-106.5895,"address":"5010 Cutler Avenue Northeast, Albuquerque NM","chain_name":null,"distance":0,"street_number":null,"street_name":"Cutler Avenue Northeast","zip":"87110-4099","city":"Albuquerque","area":null,"county":"Bernalillo County","state":"New Mexico","country":"us","formatted_address":"Office Depot, Cutler Avenue Northeast, Vista Encantada, Albuquerque, Bernalillo County, New Mexico, 87110-4099, United States of America","place_id":"50297767","datatype":"locationiq"},{"name":"Einstein Bros Bagel","code":null,"latitude":33.47968,"longitude":-111.9261,"address":"2825 North Scottsdale Road, Scottsdale AZ","chain_name":null,"distance":0,"street_number":"2865","street_name":"East Thomas Road","zip":"85257","city":"Scottsdale","area":"Main Street Arts District","county":"Maricopa County","state":"Arizona","country":"us","formatted_address":"Corner Store, 2865, East Thomas Road, Main Street Arts District, Scottsdale, Maricopa County, Arizona, 85257, United States of America","place_id":"61812615","datatype":"locationiq"},{"name":"Einstein Bros Bagel","code":null,"latitude":39.24667,"longitude":-94.6552,"address":"6507 Northwest Barry Road, Kansas City MO","chain_name":null,"distance":0,"street_number":"6505","street_name":"Northwest Barry Road","zip":"64154","city":"Kansas City","area":null,"county":"Platte County","state":"Missouri","country":"us","formatted_address":"Verizon, 6505, Northwest Barry Road, Kansas City, Platte County, Missouri, 64154, United States of America","place_id":"114356487","datatype":"locationiq"},{"name":"Einstein Bros Bagel","code":null,"latitude":39.66774,"longitude":-104.9407,"address":"2730 South Colorado Boulevard, Denver CO","chain_name":null,"distance":0,"street_number":null,"street_name":"East Yale Avenue","zip":"80222","city":"Denver","area":null,"county":"Denver County","state":"Colorado","country":"us","formatted_address":"Denver Fire Department Station 24, East Yale Avenue, Denver, Denver County, Colorado, 80222, United States of America","place_id":"3636218","datatype":"locationiq"},{"name":"Einstein Bros Bagel","code":null,"latitude":31.12399,"longitude":-97.7697,"address":"Hood Road, Killeen TX","chain_name":null,"distance":0,"street_number":null,"street_name":"Hood Road","zip":"76544","city":"Killeen","area":null,"county":"Bell County","state":"Texas","country":"us","formatted_address":"Hood Road, Killeen, Bell County, Texas, 76544, United States of America","place_id":"101850818","datatype":"locationiq"},{"name":"Einstein Bros Bagel","code":null,"latitude":39.56528,"longitude":-104.8875,"address":"8331 Willow Street, Lone Tree CO","chain_name":null,"distance":0,"street_number":null,"street_name":"County Line Road","zip":"80124","city":"Lone Tree","area":null,"county":"Douglas County","state":"Colorado","country":"us","formatted_address":"FedEx Office Print and Ship Center, County Line Road, Lone Tree, Douglas County, Lone Tree, Colorado, 80124, United States of America","place_id":"79397379","datatype":"locationiq"},{"name":"Einstein Bros Bagel","code":null,"latitude":33.49496,"longitude":-111.9864,"address":"4401 East Indian School Road, Phoenix AZ","chain_name":null,"distance":0,"street_number":"4105","street_name":"East Indian School Road","zip":"85018","city":"Phoenix","area":null,"county":"Maricopa County","state":"Arizona","country":"us","formatted_address":"4105, East Indian School Road, Camelback East, Phoenix, Maricopa County, Arizona, 85018, United States of America","place_id":"41616736","datatype":"locationiq"},{"name":"Einstein Bros Bagel","code":null,"latitude":29.72309,"longitude":-95.4411,"address":"5525 Weslayan Street, Houston TX","chain_name":null,"distance":0,"street_number":"5339","street_name":"Weslayan Street","zip":"77005","city":"West University Place","area":"College Court Place","county":"Harris County","state":"Texas","country":"us","formatted_address":"Bike Barn, 5339, Weslayan Street, College Court Place, West University Place, Harris County, Texas, 77005, United States of America","place_id":"27806465","datatype":"locationiq"},{"name":"Einstein Bros Bagel","code":null,"latitude":42.33065,"longitude":-83.2042,"address":"5700 Mercury Drive, Dearborn MI","chain_name":null,"distance":0,"street_number":null,"street_name":"Lundy Parkway","zip":"48126","city":"Dearborn","area":null,"county":"Wayne County","state":"Michigan","country":"us","formatted_address":"Einstein Bagels, Lundy Parkway, Dearborn, Wayne County, Michigan, 48126, United States of America","place_id":"45379776","datatype":"locationiq"},{"name":"Einstein Bros Bagel","code":null,"latitude":38.30551,"longitude":-77.48,"address":"1111 Jefferson Davis Highway, Fredericksburg VA","chain_name":null,"distance":0,"street_number":"1226","street_name":"Jefferson Davis Highway","zip":"22401","city":"Fredericksburg","area":null,"county":"Fredericksburg City","state":"Virginia","country":"us","formatted_address":"1226, Jefferson Davis Highway, Fredericksburg, Fredericksburg City, Virginia, 22401, United States of America","place_id":"208012341","datatype":"locationiq"},{"name":"Einstein Bros Bagel","code":null,"latitude":29.72543,"longitude":-95.4186,"address":"5300 Kirby Drive, Houston TX","chain_name":null,"distance":0,"street_number":"5215","street_name":"Kirby Drive","zip":"77005","city":"Houston","area":null,"county":"Harris County","state":"Texas","country":"us","formatted_address":"Urgent Care for Kids - West University, 5215, Kirby Drive, Houston, Harris County, Texas, 77005, United States of America","place_id":"173174427","datatype":"locationiq"},{"name":"Einstein Bros Bagel","code":null,"latitude":38.79751,"longitude":-77.0547,"address":"3556 South Jefferson Street, Alexandria VA","chain_name":null,"distance":0,"street_number":"1242","street_name":"Jefferson Street","zip":"22314","city":"Alexandria","area":"Lyles-Crouch","county":"Alexandria City","state":"Virginia","country":"us","formatted_address":"1242, Jefferson Street, Lyles-Crouch, Alexandria, Alexandria City, Virginia, 22314, United States of America","place_id":"207968521","datatype":"locationiq"},{"name":"Einstein Bros Bagel","code":null,"latitude":39.54857,"longitude":-104.9918,"address":"9249 South Broadway, Highlands Ranch CO","chain_name":null,"distance":0,"street_number":null,"street_name":"South Broadway","zip":"80129","city":null,"area":null,"county":"Douglas County","state":"Colorado","country":"us","formatted_address":"Shell, South Broadway, Kistler Park, Douglas County, Colorado, 80129, United States of America","place_id":"116107189","datatype":"locationiq"},{"name":"Einstein Bros Bagel","code":null,"latitude":39.91438,"longitude":-105.0531,"address":"5180 West 120th Avenue, Westminster CO","chain_name":null,"distance":0,"street_number":null,"street_name":"Sheridan Boulevard","zip":"80020","city":"Broomfield","area":null,"county":"City and County of Broomfield","state":"Colorado","country":"us","formatted_address":"CenturyLink Switching Office, Sheridan Boulevard, Broomfield, City and County of Broomfield, Colorado, 80020, United States of America","place_id":"136315399","datatype":"locationiq"},{"name":"Einstein Bros Bagel","code":null,"latitude":40.2217,"longitude":-74.9097,"address":"Doublewoods Road, Langhorne PA","chain_name":null,"distance":0,"street_number":"2390","street_name":"Woodbourne Road","zip":"19047","city":"Middletown Township","area":null,"county":"Bucks County","state":"Pennsylvania","country":"us","formatted_address":"2390, Woodbourne Road, Middletown Township, Bucks County, Pennsylvania, 19047, United States of America","place_id":"201429696","datatype":"locationiq"},{"name":"Einstein Bros Bagel","code":null,"latitude":41.62766,"longitude":-81.4273,"address":"36099 Euclid Avenue, Willoughby OH","chain_name":null,"distance":0,"street_number":null,"street_name":"Euclid Avenue","zip":"44094","city":"Wickliffe","area":null,"county":"Lake County","state":"Ohio","country":"us","formatted_address":"Red Robin Parking, Euclid Avenue, Wickliffe, Lake County, Ohio, 44094, United States of America","place_id":"91218954","datatype":"locationiq"},{"name":"Einstein Bros Bagel","code":null,"latitude":33.42245,"longitude":-111.9263,"address":"725 South Rural Road, Tempe AZ","chain_name":null,"distance":0,"street_number":null,"street_name":"South Rural Road","zip":"85281","city":"Tempe","area":null,"county":"Maricopa County","state":"Arizona","country":"us","formatted_address":"Tempe Bicycle (Rural & University), South Rural Road, The Cornerstone, Tempe, Maricopa County, Arizona, 85281, United States of America","place_id":"12597203","datatype":"locationiq"},{"name":"Einstein Bros Bagel","code":null,"latitude":39.86711,"longitude":-105.0529,"address":"9392 Sheridan Boulevard, Westminster CO","chain_name":null,"distance":0,"street_number":"9390","street_name":"Sheridan Boulevard","zip":"80031","city":null,"area":null,"county":"Jefferson County","state":"Colorado","country":"us","formatted_address":"FedEx Office Print & Shipping Center, 9390, Sheridan Boulevard, Westminster, Jefferson County, Colorado, 80031, United States of America","place_id":"61592016","datatype":"locationiq"},{"name":"Einstein Bros Bagel","code":null,"latitude":36.62128,"longitude":-87.44,"address":"2840 Bastogne Avenue, Fort Campbell KY","chain_name":null,"distance":0,"street_number":"1401","street_name":"Massachusetts Avenue","zip":"42223","city":"Clarksville","area":null,"county":"Montgomery County","state":"Tennessee","country":"us","formatted_address":"1401, Massachusetts Avenue, Clarksville, Montgomery County, Tennessee, 42223, United States of America","place_id":"203962194","datatype":"locationiq"},{"name":"Einstein Bros Bagel","code":null,"latitude":33.01636,"longitude":-96.7089,"address":"1201 North Central Expressway Suite 1, Plano TX","chain_name":null,"distance":0,"street_number":null,"street_name":"Central Expressway","zip":"75074","city":"Plano","area":null,"county":"Collin County","state":"Texas","country":"us","formatted_address":"28A, Central Expressway, Plano, Collin County, Texas, 75074, United States of America","place_id":"336271","datatype":"locationiq"},{"name":"Einstein Bros Bagel","code":null,"latitude":39.96129,"longitude":-83.0003,"address":"41 South High Street, Columbus OH","chain_name":null,"distance":0,"street_number":null,"street_name":"South High Street","zip":"43216","city":"Columbus","area":"Schlee Brewery Historic District","county":"Franklin County","state":"Ohio","country":"us","formatted_address":"William McKinley Statue, South High Street, Schlee Brewery Historic District, Columbus, Franklin County, Ohio, 43216, United States of America","place_id":"61576437","datatype":"locationiq"},{"name":"Einstein Bros Bagel","code":null,"latitude":41.72945,"longitude":-111.8288,"address":"Logan UT","chain_name":null,"distance":0,"street_number":"263","street_name":"East 100 South","zip":"84321","city":"Logan","area":null,"county":"Cache County","state":"Utah","country":"us","formatted_address":"263, East 100 South, Logan, Cache County, Utah, 84321, United States of America","place_id":"206712295","datatype":"locationiq"},{"name":"Einstein Bros Bagel","code":null,"latitude":33.38006,"longitude":-111.7885,"address":"1919 South Gilbert Road, Mesa AZ","chain_name":null,"distance":0,"street_number":null,"street_name":"South Gilbert Road","zip":"85204","city":"Mesa","area":null,"county":"Maricopa County","state":"Arizona","country":"us","formatted_address":"f.y.e, South Gilbert Road, Mesa, Maricopa County, Arizona, 85204, United States of America","place_id":"152396217","datatype":"locationiq"},{"name":"Einstein Bros Bagel","code":null,"latitude":38.93249,"longitude":-104.7963,"address":"6988 North Academy Boulevard, Colorado Springs CO","chain_name":null,"distance":0,"street_number":null,"street_name":"North Academy Boulevard","zip":"80920","city":"Colorado Springs","area":null,"county":"El Paso County","state":"Colorado","country":"us","formatted_address":"North Academy Boulevard, Colorado Springs, El Paso County, Colorado, 80920, United States of America","place_id":"168392015","datatype":"locationiq"},{"name":"Einstein Bros Bagel","code":null,"latitude":41.10872,"longitude":-81.5688,"address":"1751 West Exchange Street, Akron OH","chain_name":null,"distance":0,"street_number":null,"street_name":"West Exchange Street","zip":"44302:44313","city":"Akron","area":"Hunter's Lodge","county":"Summit County","state":"Ohio","country":"us","formatted_address":"McDonald's, West Exchange Street, Hunter's Lodge, Wallhaven, Akron, Summit County, Ohio, 44302:44313, United States of America","place_id":"138743919","datatype":"locationiq"},{"name":"Einstein Bros Bagel","code":null,"latitude":41.43082,"longitude":-81.3918,"address":"54 Shopping Plaza, Chagrin Falls OH","chain_name":null,"distance":0,"street_number":null,"street_name":"North Main Street","zip":"44022","city":null,"area":"Chagrin Falls Triangle Park Commercial Historic District","county":"Cuyahoga County","state":"Ohio","country":"us","formatted_address":"Chagrin Falls Popcorn Shop, North Main Street, Chagrin Falls Triangle Park Commercial Historic District, Chagrin Falls, Cuyahoga County, Ohio, 44022, United States of America","place_id":"167900981","datatype":"locationiq"},{"name":"Einstein Bros Bagel","code":null,"latitude":33.82265,"longitude":-116.5466,"address":"109 South Palm Canyon Drive, Palm Springs CA","chain_name":null,"distance":0,"street_number":null,"street_name":"South Palm Canyon Drive","zip":"99262","city":"Palm Springs","area":null,"county":"Riverside County","state":"California","country":"us","formatted_address":"Ben & Jerry's, South Palm Canyon Drive, Palm Springs, Riverside County, California, 99262, United States of America","place_id":"45158361","datatype":"locationiq"},{"name":"Einstein Bros Bagel","code":null,"latitude":41.18209,"longitude":-73.2532,"address":"2205 Black Rock Turnpike, Fairfield CT","chain_name":null,"distance":0,"street_number":"2220","street_name":"Black Rock Turnpike","zip":"06824","city":null,"area":null,"county":"Fairfield County","state":"Connecticut","country":"us","formatted_address":"Bankwell, 2220, Black Rock Turnpike, Tunxis Hill, Fairfield County, Connecticut, 06824, United States of America","place_id":"48025055","datatype":"locationiq"},{"name":"Einstein Bros Bagel","code":null,"latitude":38.91269,"longitude":-94.6422,"address":"4949 West 119th Street, Shawnee Mission KS","chain_name":null,"distance":0,"street_number":null,"street_name":"West 119th Street","zip":"66209","city":"Leawood","area":null,"county":"Johnson County","state":"Kansas","country":"us","formatted_address":"US Bank, West 119th Street, Leawood, Johnson County, Kansas, 66209, United States of America","place_id":"28640510","datatype":"locationiq"},{"name":"Einstein Bros Bagel","code":null,"latitude":39.59509,"longitude":-104.8477,"address":"12073 East Arapahoe Road, Englewood CO","chain_name":null,"distance":0,"street_number":null,"street_name":"East Arapahoe Road","zip":"80112","city":"Centennial","area":null,"county":"Arapahoe County","state":"Colorado","country":"us","formatted_address":"East Arapahoe Road, Centennial, Arapahoe County, Colorado, 80112, United States of America","place_id":"162148128","datatype":"locationiq"},{"name":"Einstein Bros Bagel","code":null,"latitude":33.63918,"longitude":-112.0656,"address":"16842 North 7th Street, Phoenix AZ","chain_name":null,"distance":0,"street_number":null,"street_name":"North 7th Street","zip":"85022","city":"Phoenix","area":null,"county":"Maricopa County","state":"Arizona","country":"us","formatted_address":"Verizon Wireless, North 7th Street, Phoenix, Maricopa County, Arizona, 85022, United States of America","place_id":"29169102","datatype":"locationiq"},{"name":"Einstein Bros Bagel","code":null,"latitude":41.48512,"longitude":-81.7975,"address":"14615 Detroit Avenue, Lakewood OH","chain_name":null,"distance":0,"street_number":null,"street_name":"Detroit Avenue","zip":"44107","city":"Lakewood","area":null,"county":"Cuyahoga County","state":"Ohio","country":"us","formatted_address":"Lakewood Travel, Detroit Avenue, Edgewater, Lakewood, Cuyahoga County, Ohio, 44107, United States of America","place_id":"51645744","datatype":"locationiq"},{"name":"Einstein Bros Bagel","code":null,"latitude":33.58276,"longitude":-111.9751,"address":"4912 East Shea Boulevard, Scottsdale AZ","chain_name":null,"distance":0,"street_number":null,"street_name":"East Shea Boulevard","zip":"85052","city":"Phoenix","area":null,"county":"Maricopa County","state":"Arizona","country":"us","formatted_address":"Chase, East Shea Boulevard, Phoenix, Maricopa County, Arizona, 85052, United States of America","place_id":"11950100","datatype":"locationiq"},{"name":"Einstein Bros Bagel","code":null,"latitude":32.83662,"longitude":-97.1349,"address":"2000 Airport Frwy Suite 500-A, Bedford TX","chain_name":null,"distance":0,"street_number":null,"street_name":"TX 121;TX 183","zip":"76022","city":"Bedford","area":null,"county":"Tarrant County","state":"Texas","country":"us","formatted_address":"TX 121;TX 183, Bedford, Tarrant County, Texas, 76022, United States of America","place_id":"174082739","datatype":"locationiq"},{"name":"Einstein Bros Bagel","code":null,"latitude":26.35061,"longitude":-80.0875,"address":"10 East Palmetto Park Road, Boca Raton FL","chain_name":null,"distance":0,"street_number":"6","street_name":"North Dixie Highway","zip":"33431","city":"Boca Raton","area":null,"county":"Palm Beach County","state":"Florida","country":"us","formatted_address":"6, North Dixie Highway, Boca Raton, Palm Beach County, Florida, 33431, United States of America","place_id":"182801406","datatype":"locationiq"},{"name":"Einstein Bros Bagel","code":null,"latitude":42.30539,"longitude":-83.247,"address":"22171 Michigan Avenue, Dearborn MI","chain_name":null,"distance":0,"street_number":null,"street_name":"Michigan Avenue","zip":"481241","city":"Dearborn","area":null,"county":"Wayne County","state":"Michigan","country":"us","formatted_address":"Buddy's Pizza, Michigan Avenue, Dearborn, Wayne County, Michigan, 481241, United States of America","place_id":"130738659","datatype":"locationiq"},{"name":"Einstein Bros Bagel","code":null,"latitude":38.97125,"longitude":-94.744,"address":"13624 West 87th Street Parkway, Shawnee Mission KS","chain_name":null,"distance":0,"street_number":"13648","street_name":"West 87th Street","zip":"66215","city":"Lenexa","area":null,"county":"Johnson County","state":"Kansas","country":"us","formatted_address":"13648, West 87th Street, Lenexa, Johnson County, Kansas, 66215, United States of America","place_id":"187937456","datatype":"locationiq"},{"name":"Einstein Bros Bagel","code":null,"latitude":40.87889,"longitude":-81.4323,"address":"6736 Strip Avenue Northwest, North Canton OH","chain_name":null,"distance":0,"street_number":null,"street_name":"Strip Avenue Northwest","zip":"44720","city":null,"area":null,"county":"Stark County","state":"Ohio","country":"us","formatted_address":"Einstein Bros. Bagels, Strip Avenue Northwest, The Strip, Marchand, Jackson Township, Stark County, Ohio, 44720, United States of America","place_id":"123729305","datatype":"locationiq"},{"name":"Einstein Bros Bagel","code":null,"latitude":29.73772,"longitude":-95.4973,"address":"6383 Westheimer Road, Houston TX","chain_name":null,"distance":0,"street_number":null,"street_name":"Westheimer Road","zip":"77063","city":null,"area":null,"county":"Harris County","state":"Texas","country":"us","formatted_address":"Rag\u00fa & Pesto. The autentic Italian Food, Westheimer Road, Lamar Terrace, Harris County, Texas, 77063, United States of America","place_id":"59067001","datatype":"locationiq"},{"name":"Einstein Bros Bagel","code":null,"latitude":40.01531,"longitude":-105.2582,"address":"1693 28th Street, Boulder CO","chain_name":null,"distance":0,"street_number":"1600","street_name":"28th Street","zip":"80301","city":"Boulder","area":"The Hill","county":"Boulder County","state":"Colorado","country":"us","formatted_address":"Famous Footwear, 1600, 28th Street, The Hill, Boulder, Boulder County, Colorado, 80301, United States of America","place_id":"54344933","datatype":"locationiq"},{"name":"Einstein Bros Bagel","code":null,"latitude":39.94696,"longitude":-82.9975,"address":"743 South High Street, Columbus OH","chain_name":null,"distance":0,"street_number":"740","street_name":"South High Street","zip":"43206","city":"Columbus","area":"Schlee Brewery Historic District","county":"Franklin County","state":"Ohio","country":"us","formatted_address":"Village Pet Supply, 740, South High Street, Schlee Brewery Historic District, Columbus, Franklin County, Ohio, 43206, United States of America","place_id":"28563919","datatype":"locationiq"},{"name":"Einstein Bros Bagel","code":null,"latitude":26.34879,"longitude":-80.1538,"address":"22107 Powerline Road, Boca Raton FL","chain_name":null,"distance":0,"street_number":null,"street_name":"Powerline Road","zip":"33433","city":null,"area":null,"county":"Palm Beach County","state":"Florida","country":"us","formatted_address":"Powerline Road, Boca Del Mar, Palm Beach County, Florida, 33433, United States of America","place_id":"105770696","datatype":"locationiq"},{"name":"Einstein Bros Bagel","code":null,"latitude":28.01274,"longitude":-82.7088,"address":"2519 North McMullen Booth Road, Clearwater FL","chain_name":null,"distance":0,"street_number":null,"street_name":"McMullen Booth Road","zip":"33759","city":null,"area":null,"county":"Pinellas County","state":"Florida","country":"us","formatted_address":"MCMULLEN BOOTH RD  & ENTERPRISE RD, McMullen Booth Road, Safety Harbor, Pinellas County, Florida, 33759, United States of America","place_id":"9855637","datatype":"locationiq"},{"name":"Einstein Bros Bagel","code":null,"latitude":29.55455,"longitude":-95.1209,"address":"923 Bay Area Boulevard, Houston TX","chain_name":null,"distance":0,"street_number":null,"street_name":"Bay Area Boulevard","zip":"77058","city":null,"area":null,"county":"Harris County","state":"Texas","country":"us","formatted_address":"Einstein Bros. Bagels, Bay Area Boulevard, Clear Lake City, Harris County, Texas, 77058, United States of America","place_id":"60602601","datatype":"locationiq"},{"name":"Einstein Bros Bagel","code":null,"latitude":39.5816,"longitude":-105.1289,"address":"7456 South Simms Street, Littleton CO","chain_name":null,"distance":0,"street_number":null,"street_name":"South Simms Street","zip":"80127","city":null,"area":null,"county":"Jefferson County","state":"Colorado","country":"us","formatted_address":"Walgreens, South Simms Street, Ken Caryl, Jefferson County, Colorado, 80127, United States of America","place_id":"85667305","datatype":"locationiq"},{"name":"Einstein Bros Bagel","code":null,"latitude":41.37959,"longitude":-81.7866,"address":"6799 Pearl Road, Cleveland OH","chain_name":null,"distance":0,"street_number":"6791","street_name":"Pearl Road","zip":"44130","city":null,"area":null,"county":"Cuyahoga County","state":"Ohio","country":"us","formatted_address":"6791, Pearl Road, Southland, Middleburg Heights, Cuyahoga County, Ohio, 44130, United States of America","place_id":"198982762","datatype":"locationiq"},{"name":"Einstein Bros Bagel","code":null,"latitude":39.08289,"longitude":-94.5817,"address":"2450 Grand Boulevard, Kansas City MO","chain_name":null,"distance":0,"street_number":null,"street_name":null,"zip":"64108","city":"Kansas City","area":null,"county":"Jackson County","state":"Missouri","country":"us","formatted_address":"UMB Bank, Crown Center Square, Crown Center, Westport, Kansas City, Jackson County, Missouri, 64108, United States of America","place_id":"82153576","datatype":"locationiq"},{"name":"Einstein Bros Bagel","code":null,"latitude":40.06336,"longitude":-83.0428,"address":"876 Bethel Road, Columbus OH","chain_name":null,"distance":0,"street_number":"889","street_name":"Bethel Road","zip":"43214","city":"Columbus","area":"Old Beechwold Historic District","county":"Franklin County","state":"Ohio","country":"us","formatted_address":"CAM International Market, 889, Bethel Road, Old Beechwold Historic District, Columbus, Franklin County, Ohio, 43214, United States of America","place_id":"23061582","datatype":"locationiq"},{"name":"Einstein Bros Bagel","code":null,"latitude":38.59167,"longitude":-90.3381,"address":"8127 Big Bend Boulevard, Saint Louis MO","chain_name":null,"distance":0,"street_number":null,"street_name":"E Lockwood Ave","zip":"63119","city":"Webster Groves","area":null,"county":"St. Louis County","state":"Missouri","country":"us","formatted_address":"McDonald's, E Lockwood Ave, Webster Groves, St. Louis County, Missouri, 63119, United States of America","place_id":"152327192","datatype":"locationiq"},{"name":"Einstein Bros Bagel","code":null,"latitude":39.54533,"longitude":-104.9443,"address":"9385 South Colorado Boulevard, Littleton CO","chain_name":null,"distance":0,"street_number":"9352","street_name":"South Colorado Boulevard","zip":"80126","city":null,"area":null,"county":"Douglas County","state":"Colorado","country":"us","formatted_address":"9352, South Colorado Boulevard, Highlands Ranch, Douglas County, Colorado, 80126, United States of America","place_id":"79471693","datatype":"locationiq"},{"name":"Einstein Bros Bagel","code":null,"latitude":32.77589,"longitude":-117.154,"address":"5638 Mission Center Road, San Diego CA","chain_name":null,"distance":0,"street_number":"5604","street_name":"Mission Center Road","zip":"92108","city":"San Diego","area":null,"county":"San Diego County","state":"California","country":"us","formatted_address":"5604, Mission Center Road, Mission Valley, San Diego, San Diego County, California, 92108, United States of America","place_id":"6375305","datatype":"locationiq"},{"name":"Einstein Bros Bagel","code":null,"latitude":39.78958,"longitude":-105.1093,"address":"5131 Kipling Street, Arvada CO","chain_name":null,"distance":0,"street_number":null,"street_name":"Kipling Parkway","zip":"80002","city":null,"area":null,"county":"Jefferson County","state":"Colorado","country":"us","formatted_address":"Kipling Pkwy & W 51st Pl, Kipling Parkway, Arvada, Jefferson County, Colorado, 80002, United States of America","place_id":"48747601","datatype":"locationiq"},{"name":"Einstein Bros Bagel","code":null,"latitude":42.49936,"longitude":-83.3588,"address":"27841 Orchard Lake Road, Farmington Hills MI","chain_name":null,"distance":0,"street_number":"27831","street_name":"West 12 Mile Road","zip":"48377","city":"Farmington Hills","area":null,"county":"Oakland County","state":"Michigan","country":"us","formatted_address":"Burger King, 27831, West 12 Mile Road, Farmington Hills, Oakland County, Michigan, 48377, United States of America","place_id":"166446088","datatype":"locationiq"},{"name":"Einstein Bros Bagel","code":null,"latitude":38.67112,"longitude":-90.4342,"address":"11423 Olive Boulevard, Saint Louis MO","chain_name":null,"distance":0,"street_number":null,"street_name":"Olive Boulevard","zip":"MO 63146","city":"Creve Coeur","area":null,"county":"St. Louis County","state":"Missouri","country":"us","formatted_address":"ATM - Regions Bank, Olive Boulevard, Creve Coeur, St. Louis County, Missouri, MO 63146, United States of America","place_id":"59734284","datatype":"locationiq"},{"name":"Einstein Bros Bagel","code":null,"latitude":42.3589,"longitude":-83.4668,"address":"640 Ann Arbor Road West, Plymouth MI","chain_name":null,"distance":0,"street_number":null,"street_name":"West Ann Arbor Road","zip":"48170","city":"Plymouth","area":null,"county":"Wayne County","state":"Michigan","country":"us","formatted_address":"Arby's, West Ann Arbor Road, Plymouth, Wayne County, Michigan, 48170, United States of America","place_id":"46036035","datatype":"locationiq"},{"name":"Einstein Bros Bagel","code":null,"latitude":29.77279,"longitude":-95.5624,"address":"600 West Sam Houston Parkway North, Houston TX","chain_name":null,"distance":0,"street_number":"12899","street_name":"Memorial Drive","zip":"77024","city":null,"area":null,"county":"Harris County","state":"Texas","country":"us","formatted_address":"12899, Memorial Drive, Town and Country Village, Spring Branch West, Harris County, Texas, 77024, United States of America","place_id":"205335679","datatype":"locationiq"},{"name":"Einstein Bros Bagel","code":null,"latitude":40.00008,"longitude":-105.2624,"address":"2400 Baseline Road, Boulder CO","chain_name":null,"distance":0,"street_number":"2450","street_name":"Baseline Road","zip":"80309","city":"Boulder","area":"The Hill","county":"Boulder County","state":"Colorado","country":"us","formatted_address":"Taco Bell, 2450, Baseline Road, The Hill, Boulder, Boulder County, Colorado, 80309, United States of America","place_id":"88122096","datatype":"locationiq"},{"name":"Einstein Bros Bagel","code":null,"latitude":39.73909,"longitude":-105.1472,"address":"14401 West Colfax Avenue, Lakewood CO","chain_name":null,"distance":0,"street_number":"13170","street_name":"West Colfax Avenue","zip":"80401","city":null,"area":null,"county":"Jefferson County","state":"Colorado","country":"us","formatted_address":"13170, West Colfax Avenue, Applewood, Jefferson County, Colorado, 80401, United States of America","place_id":"180898645","datatype":"locationiq"},{"name":"Einstein Bros Bagel","code":null,"latitude":33.55309,"longitude":-112.0981,"address":"1820 West Northern Avenue, Phoenix AZ","chain_name":null,"distance":0,"street_number":"1834","street_name":"West Northern Avenue","zip":"85021","city":"Phoenix","area":"Citrus Grove","county":"Maricopa County","state":"Arizona","country":"us","formatted_address":"1834, West Northern Avenue, Citrus Grove, Alhambra, Phoenix, Maricopa County, Arizona, 85021, United States of America","place_id":"177123684","datatype":"locationiq"},{"name":"Einstein Bros Bagel","code":null,"latitude":38.88383,"longitude":-94.7727,"address":"16180 West 135th Street, Olathe KS","chain_name":null,"distance":0,"street_number":null,"street_name":"Brougham Drive","zip":"66062","city":"Olathe","area":null,"county":"Johnson County","state":"Kansas","country":"us","formatted_address":"Applebee's, Brougham Drive, Olathe, Johnson County, Kansas, 66062, United States of America","place_id":"102469175","datatype":"locationiq"},{"name":"Einstein Bros Bagel","code":null,"latitude":39.00221,"longitude":-94.6314,"address":"3939 West 69th Terrace, Shawnee Mission KS","chain_name":null,"distance":0,"street_number":null,"street_name":"West 69th Terrace","zip":"66208","city":"Prairie Village","area":null,"county":"Johnson County","state":"Kansas","country":"us","formatted_address":"Standees Theatres, West 69th Terrace, The Village Shopping Center, Prairie Village, Johnson County, Kansas, 66208, United States of America","place_id":"173401319","datatype":"locationiq"},{"name":"Einstein Bros Bagel","code":null,"latitude":41.48197,"longitude":-81.8353,"address":"19234 Detroit Road, Rocky River OH","chain_name":null,"distance":0,"street_number":null,"street_name":"Detroit Road","zip":"44145","city":null,"area":null,"county":"Cuyahoga County","state":"Ohio","country":"us","formatted_address":"Heinen's, Detroit Road, Rocky River, Cuyahoga County, Ohio, 44145, United States of America","place_id":"24512965","datatype":"locationiq"},{"name":"Einstein Bros Bagel","code":null,"latitude":33.61089,"longitude":-112.1853,"address":"5890 West Thunderbird Road, Glendale AZ","chain_name":null,"distance":0,"street_number":"5890","street_name":"West Thunderbird Road","zip":"85306","city":null,"area":null,"county":"Maricopa County","state":"Arizona","country":"us","formatted_address":"Sprint, 5890, West Thunderbird Road, San Miguel, Maricopa County, Arizona, 85306, United States of America","place_id":"53096912","datatype":"locationiq"},{"name":"Einstein Bros Bagel","code":null,"latitude":38.87784,"longitude":-94.691,"address":"8700 West 135th Street, Shawnee Mission KS","chain_name":null,"distance":0,"street_number":"13839","street_name":"Hayes Street","zip":"66221","city":"Overland Park","area":null,"county":"Johnson County","state":"Kansas","country":"us","formatted_address":"13839, Hayes Street, Overland Park, Johnson County, Kansas, 66221, United States of America","place_id":"187941974","datatype":"locationiq"},{"name":"Einstein Bros Bagel","code":null,"latitude":39.74508,"longitude":-104.9923,"address":"1600 California Street, Denver CO","chain_name":null,"distance":0,"street_number":"620","street_name":"16th Street","zip":"80202","city":"Denver","area":"Writer Square","county":"Denver County","state":"Colorado","country":"us","formatted_address":"McClintock Building, 620, 16th Street, Writer Square, Denver, Denver County, Colorado, 80202, United States of America","place_id":"91273890","datatype":"locationiq"},{"name":"Einstein Bros Bagel","code":null,"latitude":33.36409,"longitude":-111.9112,"address":"6350 South McClintock Drive, Tempe AZ","chain_name":null,"distance":0,"street_number":null,"street_name":"South McClintock Drive","zip":"85283","city":null,"area":null,"county":"Maricopa County","state":"Arizona","country":"us","formatted_address":"South McClintock Drive, The Landings, Maricopa County, Arizona, 85283, United States of America","place_id":"163971888","datatype":"locationiq"},{"name":"Einstein Bros Bagel","code":null,"latitude":40.10332,"longitude":-83.0907,"address":"6700 Sawmill Road, Columbus OH","chain_name":null,"distance":0,"street_number":"6680","street_name":"Sawmill Road","zip":"43235","city":"Dublin","area":null,"county":"Franklin County","state":"Ohio","country":"us","formatted_address":"6680, Sawmill Road, Sun Center, Dublin, Franklin County, Ohio, 43235, United States of America","place_id":"199183510","datatype":"locationiq"},{"name":"Einstein Bros Bagel","code":null,"latitude":39.02956,"longitude":-94.6326,"address":"4050 Shawnee Mission Parkway, Shawnee Mission KS","chain_name":null,"distance":0,"street_number":"4050","street_name":"Shawnee Mission Parkway","zip":"66205","city":"Fairway","area":null,"county":"Johnson County","state":"Kansas","country":"us","formatted_address":"Einstein Bros. Bagels, 4050, Shawnee Mission Parkway, Fairway, Johnson County, Kansas, 66205, United States of America","place_id":"166660742","datatype":"locationiq"},{"name":"Einstein Bros Bagel","code":null,"latitude":30.28791,"longitude":-97.7414,"address":"2404 Guadalupe Street, Austin TX","chain_name":null,"distance":0,"street_number":"2409","street_name":"Guadalupe Street","zip":"78705","city":"Austin","area":null,"county":"Travis County","state":"Texas","country":"us","formatted_address":"University United Methodist Church, 2409, Guadalupe Street, Austin, Travis County, Texas, 78705, United States of America","place_id":"2976243","datatype":"locationiq"},{"name":"Einstein Bros Bagel","code":null,"latitude":38.62415,"longitude":-90.5149,"address":"14173 Clayton Road, Chesterfield MO","chain_name":null,"distance":0,"street_number":null,"street_name":"Clayton Road","zip":"63011","city":"Town and Country","area":null,"county":"St. Louis County","state":"Missouri","country":"us","formatted_address":"Einstein's Bagels, Clayton Road, Town and Country, St. Louis County, Missouri, 63011, United States of America","place_id":"27847672","datatype":"locationiq"},{"name":"Einstein Bros Bagel","code":null,"latitude":39.60978,"longitude":-105.09,"address":"8246 West Bowles Avenue, Littleton CO","chain_name":null,"distance":0,"street_number":"7967","street_name":"West Bowles Avenue","zip":"80123","city":null,"area":null,"county":"Jefferson County","state":"Colorado","country":"us","formatted_address":"7967, West Bowles Avenue, Columbine, Jefferson County, Colorado, 80123, United States of America","place_id":"180941543","datatype":"locationiq"},{"name":"Einstein Bros Bagel","code":null,"latitude":39.62696,"longitude":-104.8852,"address":"4920 South Yosemite Street, Englewood CO","chain_name":null,"distance":0,"street_number":"4932","street_name":"South Xenia Street","zip":"80237","city":"Denver","area":null,"county":"Denver County","state":"Colorado","country":"us","formatted_address":"4932, South Xenia Street, Denver, Denver County, Colorado, 80237, United States of America","place_id":"172708117","datatype":"locationiq"},{"name":"Einstein Bros Bagel","code":null,"latitude":32.30821,"longitude":-110.8917,"address":"4708 East Sunrise Drive, Tucson AZ","chain_name":null,"distance":0,"street_number":null,"street_name":"East Sunrise Drive","zip":"85718-4525","city":"Tucson","area":"Skyline Bel Aire Estates","county":"Pima County","state":"Arizona","country":"us","formatted_address":"Washington Federal, East Sunrise Drive, Skyline Bel Aire Estates, Catalina Foothills, Tucson, Pima County, Arizona, 85718-4525, United States of America","place_id":"126732253","datatype":"locationiq"},{"name":"Einstein Bros Bagel","code":null,"latitude":41.79255,"longitude":-88.1276,"address":"1120 East Ogden Avenue, Naperville IL","chain_name":null,"distance":0,"street_number":"25603","street_name":"East Ogden Avenue","zip":"60563","city":"Naperville","area":null,"county":"DuPage County","state":"Illinois","country":"us","formatted_address":"25603, East Ogden Avenue, Naperville, DuPage County, Illinois, 60563, United States of America","place_id":"185084360","datatype":"locationiq"},{"name":"Einstein Bros Bagel","code":null,"latitude":38.59276,"longitude":-90.5827,"address":"15828 Manchester Road, Ellisville MO","chain_name":null,"distance":0,"street_number":"15783","street_name":"Manchester Road","zip":"63011","city":"Ellisville","area":null,"county":"St. Louis County","state":"Missouri","country":"us","formatted_address":"15783, Manchester Road, Ellisville, St. Louis County, Missouri, 63011, United States of America","place_id":"193996428","datatype":"locationiq"},{"name":"Einstein Bros Bagel","code":null,"latitude":38.65027,"longitude":-90.3373,"address":"7810 Forsyth Boulevard, Saint Louis MO","chain_name":null,"distance":0,"street_number":"7801","street_name":"Forsyth Boulevard","zip":"63105","city":"Clayton","area":null,"county":"St. Louis County","state":"Missouri","country":"us","formatted_address":"PNC Bank, 7801, Forsyth Boulevard, Clayton, St. Louis County, Missouri, 63105, United States of America","place_id":"153822359","datatype":"locationiq"},{"name":"Einstein Bros Bagel","code":null,"latitude":39.01458,"longitude":-94.7286,"address":"12221 Shawnee Mission Parkway, Shawnee Mission KS","chain_name":null,"distance":0,"street_number":"12249","street_name":"Shawnee Mission Parkway","zip":"66216","city":"Shawnee","area":null,"county":"Johnson County","state":"Kansas","country":"us","formatted_address":"12249, Shawnee Mission Parkway, Shawnee, Johnson County, Kansas, 66216, United States of America","place_id":"187906817","datatype":"locationiq"},{"name":"Einstein Bros Bagel","code":null,"latitude":41.94405,"longitude":-87.6637,"address":"3420 North Southport Avenue, Chicago IL","chain_name":null,"distance":0,"street_number":"3423","street_name":"North Southport Avenue","zip":"60613","city":"Chicago","area":"Wrigleyville","county":"Cook County","state":"Illinois","country":"us","formatted_address":"3423, North Southport Avenue, Wrigleyville, Uptown, Chicago, Cook County, Illinois, 60613, United States of America","place_id":"118373542","datatype":"locationiq"},{"name":"Einstein Bros Bagel","code":null,"latitude":38.87423,"longitude":-104.7199,"address":"2848 North Powers Boulevard, Colorado Springs CO","chain_name":null,"distance":0,"street_number":"2826","street_name":"North Powers Boulevard","zip":"80922","city":"Colorado Springs","area":null,"county":"El Paso County","state":"Colorado","country":"us","formatted_address":"2826, North Powers Boulevard, Colorado Springs, El Paso County, Colorado, 80922, United States of America","place_id":"180802381","datatype":"locationiq"},{"name":"Einstein Bros Bagel","code":null,"latitude":32.87262,"longitude":-117.2173,"address":"4150 Regents Park Row, La Jolla CA","chain_name":null,"distance":0,"street_number":null,"street_name":"Regents Park Row","zip":"92039","city":"San Diego","area":"La Jolla Colony","county":"San Diego County","state":"California","country":"us","formatted_address":"Hawaiian BBQ, Regents Park Row, La Jolla Colony, University City, San Diego, San Diego County, California, 92039, United States of America","place_id":"17169141","datatype":"locationiq"},{"name":"Einstein Bros Bagel","code":null,"latitude":30.36051,"longitude":-97.7396,"address":"3010 West Anderson Lane, Austin TX","chain_name":null,"distance":0,"street_number":"2951","street_name":"West Anderson Lane","zip":"78757","city":"Austin","area":null,"county":"Travis County","state":"Texas","country":"us","formatted_address":"2951, West Anderson Lane, Austin, Travis County, Texas, 78757, United States of America","place_id":"50921244","datatype":"locationiq"},{"name":"Einstein Bros Bagel","code":null,"latitude":33.87837,"longitude":-84.3796,"address":"4502 Roswell Road Northeast, Atlanta GA","chain_name":null,"distance":0,"street_number":"4520","street_name":"Roswell Road Northeast","zip":"30342","city":"Sandy Springs","area":"Forestdale Estates","county":"Fulton County","state":"Georgia","country":"us","formatted_address":"Caribou Coffee, 4520, Roswell Road Northeast, Forestdale Estates, Sandy Springs, Fulton County, Georgia, 30342, United States of America","place_id":"131084966","datatype":"locationiq"},{"name":"Einstein Bros Bagel","code":null,"latitude":42.317,"longitude":-71.3635,"address":"44 Main Street, Wayland MA","chain_name":null,"distance":0,"street_number":null,"street_name":"Commonwealth Road","zip":"01760","city":null,"area":null,"county":"Middlesex County","state":"Massachusetts","country":"us","formatted_address":"Route 27 & Route 30 - Cochituate, Commonwealth Road, Wayland, Middlesex County, Massachusetts, 01760, United States of America","place_id":"16112363","datatype":"locationiq"},{"name":"Einstein Bros Bagel","code":null,"latitude":42.31706,"longitude":-83.2718,"address":"750 North Telegraph Road, Dearborn MI","chain_name":null,"distance":0,"street_number":null,"street_name":"North Telegraph Road","zip":"48128","city":"Dearborn","area":null,"county":"Wayne County","state":"Michigan","country":"us","formatted_address":"North Telegraph Road, Dearborn, Wayne County, Michigan, 48128, United States of America","place_id":"64262613","datatype":"locationiq"},{"name":"Einstein Bros Bagel","code":null,"latitude":33.0581,"longitude":-96.7273,"address":"Plano TX","chain_name":null,"distance":0,"street_number":"1798","street_name":"Cherokee Trail","zip":"75023","city":"Plano","area":null,"county":"Collin County","state":"Texas","country":"us","formatted_address":"1798, Cherokee Trail, Plano, Collin County, Texas, 75023, United States of America","place_id":"204700826","datatype":"locationiq"},{"name":"Einstein Bros Bagel","code":null,"latitude":33.6756,"longitude":-117.8315,"address":"17675 Harvard Avenue, Irvine CA","chain_name":null,"distance":0,"street_number":null,"street_name":"Harvard Avenue","zip":"92612","city":"Irvine","area":null,"county":"Orange County","state":"California","country":"us","formatted_address":"Harvard Avenue, Westpark, Irvine, Orange County, California, 92612, United States of America","place_id":"158628228","datatype":"locationiq"},{"name":"Einstein Bros Bagel","code":null,"latitude":32.81978,"longitude":-117.1796,"address":"5650 Balboa Avenue, San Diego CA","chain_name":null,"distance":0,"street_number":"5413","street_name":"Balboa Avenue","zip":"92111","city":"San Diego","area":null,"county":"San Diego County","state":"California","country":"us","formatted_address":"5413, Balboa Avenue, Clairemont, San Diego, San Diego County, California, 92111, United States of America","place_id":"16389824","datatype":"locationiq"},{"name":"Einstein Bros Bagel","code":null,"latitude":28.05444,"longitude":-82.4014,"address":"5003 East Fowler Avenue, Tampa FL","chain_name":null,"distance":0,"street_number":null,"street_name":"East Fowler Avenue","zip":"33592","city":null,"area":null,"county":"Hillsborough County","state":"Florida","country":"us","formatted_address":"Fowler Av @ 50th St, East Fowler Avenue, Temple Terrace, Hillsborough County, Florida, 33592, United States of America","place_id":"8525796","datatype":"locationiq"},{"name":"Einstein Bros Bagel","code":null,"latitude":30.27609,"longitude":-97.7517,"address":"1112 North Lamar Boulevard, Austin TX","chain_name":null,"distance":0,"street_number":"1011","street_name":"North Lamar Boulevard","zip":"78703","city":"Austin","area":null,"county":"Travis County","state":"Texas","country":"us","formatted_address":"1011, North Lamar Boulevard, Austin, Travis County, Texas, 78703, United States of America","place_id":"99895447","datatype":"locationiq"},{"name":"Einstein Bros Bagel","code":null,"latitude":33.62959,"longitude":-111.8875,"address":"15768 North Frank Lloyd Wright B, Scottsdale AZ","chain_name":null,"distance":0,"street_number":null,"street_name":"North Frank Lloyd Wright Blvd; E Frank Lloyd Wright Boulevard","zip":"85260","city":"Scottsdale","area":null,"county":"Maricopa County","state":"Arizona","country":"us","formatted_address":"North Frank Lloyd Wright Blvd; E Frank Lloyd Wright Boulevard, Scottsdale, Maricopa County, Arizona, 85260, United States of America","place_id":"163770522","datatype":"locationiq"},{"name":"Einstein Bros Bagel","code":null,"latitude":33.07193,"longitude":-96.75,"address":"7000 Independence Parkway, Plano TX","chain_name":null,"distance":0,"street_number":null,"street_name":"Legacy Drive","zip":"75023","city":"Plano","area":null,"county":"Collin County","state":"Texas","country":"us","formatted_address":"Legacy Drive, Plano, Collin County, Texas, 75023, United States of America","place_id":"135217772","datatype":"locationiq"},{"name":"Einstein Bros Bagel","code":null,"latitude":40.27332,"longitude":-111.6832,"address":"556 University Parkway, Orem UT","chain_name":null,"distance":0,"street_number":null,"street_name":"East University Parkway","zip":"84097","city":"Orem","area":null,"county":"Utah County","state":"Utah","country":"us","formatted_address":"Panda Express, East University Parkway, Orem, Utah County, Utah, 84097, United States of America","place_id":"86950488","datatype":"locationiq"},{"name":"Einstein Bros Bagel","code":null,"latitude":40.42583,"longitude":-86.908,"address":"201 Northwestern Avenue, West Lafayette IN","chain_name":null,"distance":0,"street_number":null,"street_name":"Northwestern Avenue","zip":"47906","city":"West Lafayette","area":null,"county":"Tippecanoe County","state":"Indiana","country":"us","formatted_address":"Einstein Bros. Bagels, Northwestern Avenue, West Lafayette, Tippecanoe County, Indiana, 47906, United States of America","place_id":"85678533","datatype":"locationiq"},{"name":"Einstein Bros Bagel","code":null,"latitude":42.42471,"longitude":-71.0691,"address":"69 Middlesex Street, Malden MA","chain_name":null,"distance":0,"street_number":"167","street_name":"Centre Street","zip":"02148","city":null,"area":"Malden Park Place Apartments","county":"Middlesex County","state":"Massachusetts","country":"us","formatted_address":"Jay's Pizza and Ice Cream, 167, Centre Street, Malden Park Place Apartments, Malden, Middlesex County, Massachusetts, 02148, United States of America","place_id":"17199523","datatype":"locationiq"},{"name":"Einstein Bros Bagel","code":null,"latitude":26.00763,"longitude":-80.3913,"address":"18301 Pines Boulevard, Pembroke Pines FL","chain_name":null,"distance":0,"street_number":null,"street_name":"Pines Boulevard","zip":"33027","city":null,"area":null,"county":"Broward County","state":"Florida","country":"us","formatted_address":"Pines Boulevard, Pembroke Pines, Broward County, Florida, 33027, United States of America","place_id":"98850291","datatype":"locationiq"},{"name":"Einstein Bros Bagel","code":null,"latitude":42.50382,"longitude":-83.2227,"address":"29191 Southfield Road, Southfield MI","chain_name":null,"distance":0,"street_number":null,"street_name":"Southfield Road","zip":"48009","city":"Southfield","area":null,"county":"Oakland County","state":"Michigan","country":"us","formatted_address":"Southfield Road, Southfield, Oakland County, Michigan, 48009, United States of America","place_id":"157026166","datatype":"locationiq"},{"name":"Einstein Bros Bagel","code":null,"latitude":30.40036,"longitude":-97.7434,"address":"4501 West Braker Lane, Austin TX","chain_name":null,"distance":0,"street_number":"4506","street_name":"West Braker Lane","zip":"78759","city":"Austin","area":null,"county":"Travis County","state":"Texas","country":"us","formatted_address":"4506, West Braker Lane, Jollyville, Austin, Travis County, Texas, 78759, United States of America","place_id":"206453902","datatype":"locationiq"},{"name":"Einstein Bros Bagel","code":null,"latitude":33.04521,"longitude":-96.8275,"address":"5976 West Parker Road, Plano TX","chain_name":null,"distance":0,"street_number":null,"street_name":"West Parker Road","zip":"75093","city":"Plano","area":null,"county":"Collin County","state":"Texas","country":"us","formatted_address":"On the Border, West Parker Road, Plano, Collin County, Texas, 75093, United States of America","place_id":"39689239","datatype":"locationiq"},{"name":"Einstein Bros Bagel","code":null,"latitude":40.62054,"longitude":-111.8561,"address":"7176 Union Park Avenue, Midvale UT","chain_name":null,"distance":0,"street_number":null,"street_name":"1300 East","zip":"84121","city":"Midvale","area":null,"county":"Salt Lake County","state":"Utah","country":"us","formatted_address":"In N Out Burger, 1300 East, Midvale, Salt Lake County, Utah, 84121, United States of America","place_id":"24143610","datatype":"locationiq"},{"name":"Einstein Bros Bagel","code":null,"latitude":41.8603,"longitude":-88.0051,"address":"440 East Roosevelt Road, Lombard IL","chain_name":null,"distance":0,"street_number":"498","street_name":"East Roosevelt Road","zip":"60148","city":null,"area":null,"county":"DuPage County","state":"Illinois","country":"us","formatted_address":"Buona Beef, 498, East Roosevelt Road, Lombard, DuPage County, Illinois, 60148, United States of America","place_id":"115555205","datatype":"locationiq"},{"name":"Einstein Bros Bagel","code":null,"latitude":32.70685,"longitude":-97.3606,"address":"3050 South University Drive, Fort Worth TX","chain_name":null,"distance":0,"street_number":"3050","street_name":"South University Drive","zip":"76109","city":"Fort Worth","area":null,"county":"Tarrant County","state":"Texas","country":"us","formatted_address":"3050, South University Drive, Fort Worth, Tarrant County, Texas, 76109, United States of America","place_id":"173383911","datatype":"locationiq"},{"name":"Einstein Bros Bagel","code":null,"latitude":27.85722,"longitude":-82.6387,"address":"9346 4th Street North, Saint Petersburg FL","chain_name":null,"distance":0,"street_number":"9346","street_name":"4th Street North","zip":"33702","city":"Saint Petersburg","area":"Riviera Bay","county":"Pinellas County","state":"Florida","country":"us","formatted_address":"Einstein Bros Bagels, 9346, 4th Street North, Riviera Bay, Saint Petersburg, Pinellas County, Florida, 33702, United States of America","place_id":"21782257","datatype":"locationiq"},{"name":"Einstein Bros Bagel","code":null,"latitude":33.306,"longitude":-111.8876,"address":"2560 West Chandler Boulevard, Chandler AZ","chain_name":null,"distance":0,"street_number":null,"street_name":"West Chandler Boulevard","zip":"85224","city":"Chandler","area":null,"county":"Maricopa County","state":"Arizona","country":"us","formatted_address":"McDonald's, West Chandler Boulevard, Chandler, Maricopa County, Arizona, 85224, United States of America","place_id":"20335283","datatype":"locationiq"},{"name":"Einstein Bros Bagel","code":null,"latitude":41.80235,"longitude":-87.9292,"address":"54 South Washington Street, Hinsdale IL","chain_name":null,"distance":0,"street_number":"27","street_name":"South Washington Street","zip":"60521","city":null,"area":null,"county":"DuPage County","state":"Illinois","country":"us","formatted_address":"27, South Washington Street, Hinsdale, DuPage County, Illinois, 60521, United States of America","place_id":"185084188","datatype":"locationiq"},{"name":"Einstein Bros Bagel","code":null,"latitude":43.06085,"longitude":-89.5049,"address":"7062 Mineral Point Road, Madison WI","chain_name":null,"distance":0,"street_number":null,"street_name":"Mineral Point Road","zip":"53717:53719","city":"Madison","area":null,"county":"Dane County","state":"Wisconsin","country":"us","formatted_address":"Olive Garden, Mineral Point Road, High Point Center, Madison, Dane County, Wisconsin, 53717:53719, United States of America","place_id":"80556127","datatype":"locationiq"},{"name":"Einstein Bros Bagel","code":null,"latitude":33.32599,"longitude":-111.9284,"address":"9900 South Rural Road, Tempe AZ","chain_name":null,"distance":0,"street_number":"9512","street_name":"South Rural Road","zip":"85283","city":null,"area":null,"county":"Maricopa County","state":"Arizona","country":"us","formatted_address":"9512, South Rural Road, Raintree Luxury Homes, Maricopa County, Arizona, 85283, United States of America","place_id":"177130646","datatype":"locationiq"},{"name":"Einstein Bros Bagel","code":null,"latitude":40.32426,"longitude":-111.7067,"address":"1470 North State Street, Orem UT","chain_name":null,"distance":0,"street_number":null,"street_name":"North State Street","zip":"84057","city":"Orem","area":null,"county":"Utah County","state":"Utah","country":"us","formatted_address":"Asahi, North State Street, Orem, Utah County, Utah, 84057, United States of America","place_id":"53333383","datatype":"locationiq"},{"name":"Einstein Bros Bagel","code":null,"latitude":35.14761,"longitude":-106.55,"address":"8060 Academy Road Northeast, Albuquerque NM","chain_name":null,"distance":0,"street_number":"8050","street_name":"Academy Road Northeast","zip":"87111","city":"Albuquerque","area":null,"county":"Bernalillo County","state":"New Mexico","country":"us","formatted_address":"Tim's Place, 8050, Academy Road Northeast, Vista Encantada, Albuquerque, Bernalillo County, New Mexico, 87111, United States of America","place_id":"108604025","datatype":"locationiq"},{"name":"Einstein Bros Bagel","code":null,"latitude":43.2131,"longitude":-71.5302,"address":"10 Fort Eddy Road, Concord NH","chain_name":null,"distance":0,"street_number":"68","street_name":"Fort Eddy Road","zip":"03301","city":"Concord","area":null,"county":"Merrimack County","state":"New Hampshire","country":"us","formatted_address":"Eastern Mountain Sports, 68, Fort Eddy Road, Concord, Merrimack County, New Hampshire, 03301, United States of America","place_id":"282642","datatype":"locationiq"},{"name":"Einstein Bros Bagel","code":null,"latitude":41.80198,"longitude":-87.9294,"address":"54 S Washington Street, Hinsdale IL","chain_name":null,"distance":0,"street_number":"54","street_name":"South Washington Street","zip":"60521","city":null,"area":null,"county":"DuPage County","state":"Illinois","country":"us","formatted_address":"54, South Washington Street, Hinsdale, DuPage County, Illinois, 60521, United States of America","place_id":"185084189","datatype":"locationiq"},{"name":"Einstein Bros Bagel","code":null,"latitude":43.21684,"longitude":-87.9238,"address":"10950 North Port Washington Road, Mequon WI","chain_name":null,"distance":0,"street_number":null,"street_name":"Port Washington Road","zip":"53024","city":"Mequon","area":"The Pines","county":"Ozaukee County","state":"Wisconsin","country":"us","formatted_address":"Port Washington Road, The Pines, Mequon, Ozaukee County, Wisconsin, 53024, United States of America","place_id":"78932045","datatype":"locationiq"},{"name":"Einstein Bros Bagel","code":null,"latitude":32.96754,"longitude":-96.7387,"address":"2403 Promenade Shopping Centre, Richardson TX","chain_name":null,"distance":0,"street_number":"604","street_name":"Vernet Street","zip":"75080","city":null,"area":null,"county":"Dallas County","state":"Texas","country":"us","formatted_address":"604, Vernet Street, Richardson, Dallas County, Texas, 75080, United States of America","place_id":"204872076","datatype":"locationiq"},{"name":"Einstein Bros Bagel","code":null,"latitude":33.50912,"longitude":-112.0462,"address":"1641 East Camelback Road, Phoenix AZ","chain_name":null,"distance":0,"street_number":"1751","street_name":"East Camelback Road","zip":"85016","city":"Phoenix","area":null,"county":"Maricopa County","state":"Arizona","country":"us","formatted_address":"1751, East Camelback Road, Encanto, Phoenix, Maricopa County, Arizona, 85016, United States of America","place_id":"177269321","datatype":"locationiq"},{"name":"Einstein Bros Bagel","code":null,"latitude":40.62406,"longitude":-111.8235,"address":"2353 Fort Union Boulevard, Salt Lake City UT","chain_name":null,"distance":0,"street_number":null,"street_name":"Fort Union Boulevard","zip":"84121","city":"Cottonwood Heights","area":null,"county":"Salt Lake County","state":"Utah","country":"us","formatted_address":"Einstein's Bagels, Fort Union Boulevard, Cottonwood Heights, Salt Lake County, Utah, 84121, United States of America","place_id":"23753664","datatype":"locationiq"},{"name":"Einstein Bros Bagel","code":null,"latitude":26.39425,"longitude":-80.0973,"address":"690 Northwest 51st Street, Boca Raton FL","chain_name":null,"distance":0,"street_number":"600","street_name":"Yamato Road","zip":"33431","city":"Boca Raton","area":null,"county":"Palm Beach County","state":"Florida","country":"us","formatted_address":"600, Yamato Road, Boca Raton, Palm Beach County, Florida, 33431, United States of America","place_id":"182781430","datatype":"locationiq"},{"name":"Einstein Bros Bagel","code":null,"latitude":32.96102,"longitude":-96.769,"address":"15645 Coit Road, Dallas TX","chain_name":null,"distance":0,"street_number":"15534","street_name":"El Estado Drive","zip":"75248","city":null,"area":null,"county":"Dallas County","state":"Texas","country":"us","formatted_address":"15534, El Estado Drive, Richardson, Dallas County, Texas, 75248, United States of America","place_id":"169583257","datatype":"locationiq"},{"name":"Einstein Bros Bagel","code":null,"latitude":41.77198,"longitude":-88.1485,"address":"22 Jackson Avenue, Naperville IL","chain_name":null,"distance":0,"street_number":null,"street_name":"West Jackson Avenue","zip":"60540","city":"Naperville","area":null,"county":"DuPage County","state":"Illinois","country":"us","formatted_address":"Jackson Ave Pub, West Jackson Avenue, Naperville, DuPage County, Illinois, 60540, United States of America","place_id":"125815152","datatype":"locationiq"},{"name":"Einstein Bros Bagel","code":null,"latitude":27.96054,"longitude":-82.7578,"address":"1916 Gulf To Bay Boulevard, Clearwater FL","chain_name":null,"distance":0,"street_number":null,"street_name":"Gulf to Bay Boulevard","zip":"33764","city":"Clearwater","area":"Bayside Arbors","county":"Pinellas County","state":"Florida","country":"us","formatted_address":"GULF TO BAY BLVD & METEOR AVE S, Gulf to Bay Boulevard, Bayside Arbors, Clearwater, Pinellas County, Florida, 33764, United States of America","place_id":"9741045","datatype":"locationiq"},{"name":"Einstein Bros Bagel","code":null,"latitude":32.88121,"longitude":-96.9634,"address":"5330 North Macarthur, Irving TX","chain_name":null,"distance":0,"street_number":"5310","street_name":"North MacArthur Boulevard","zip":"75038","city":"Irving","area":null,"county":"Dallas County","state":"Texas","country":"us","formatted_address":"Walgreens, 5310, North MacArthur Boulevard, Valley Ranch, Irving, Dallas County, Texas, 75038, United States of America","place_id":"98211199","datatype":"locationiq"},{"name":"Einstein Bros Bagel","code":null,"latitude":26.21191,"longitude":-81.7686,"address":"5311 Airport Pulling Road North, Naples FL","chain_name":null,"distance":0,"street_number":null,"street_name":"Airport Pulling Road","zip":"34109","city":null,"area":null,"county":"Collier County","state":"Florida","country":"us","formatted_address":"Airport Pulling Road, Four Seasons, Collier County, Florida, 34109, United States of America","place_id":"99824671","datatype":"locationiq"},{"name":"Einstein Bros Bagel","code":null,"latitude":33.61183,"longitude":-111.9948,"address":"4030 East Thunderbird Road, Phoenix AZ","chain_name":null,"distance":0,"street_number":"4028","street_name":"East Thunderbird Road","zip":"85032-5837","city":"Phoenix","area":null,"county":"Maricopa County","state":"Arizona","country":"us","formatted_address":"4028, East Thunderbird Road, Phoenix, Maricopa County, Arizona, 85032-5837, United States of America","place_id":"85432629","datatype":"locationiq"},{"name":"Einstein Bros Bagel","code":null,"latitude":35.08087,"longitude":-106.6179,"address":"2510 Central Avenue Southeast, Albuquerque NM","chain_name":null,"distance":0,"street_number":"2500","street_name":"Central Avenue Southeast","zip":"87106-1432","city":"Albuquerque","area":"Nob Hill","county":"Bernalillo County","state":"New Mexico","country":"us","formatted_address":"The Tamarind Institute, 2500, Central Avenue Southeast, Nob Hill, Martinez Town, Albuquerque, Bernalillo County, New Mexico, 87106-1432, United States of America","place_id":"119779657","datatype":"locationiq"},{"name":"Einstein Bros Bagel","code":null,"latitude":37.58936,"longitude":-77.5032,"address":"5701 West Broad Street, Richmond VA","chain_name":null,"distance":0,"street_number":null,"street_name":"West Broad Street","zip":"23230","city":"Richmond City","area":null,"county":null,"state":"Virginia","country":"us","formatted_address":"Vitamin Shoppe, West Broad Street, Scott's Addition, Richmond, Richmond City, Virginia, 23230, United States of America","place_id":"58129684","datatype":"locationiq"},{"name":"Einstein Bros Bagel","code":null,"latitude":43.17778,"longitude":-88.0106,"address":"8301 W Brown Deer Road, Milwaukee WI","chain_name":null,"distance":0,"street_number":"8112","street_name":"West Brown Deer Road","zip":"53223","city":"Milwaukee","area":"Servite Woods","county":"Milwaukee County","state":"Wisconsin","country":"us","formatted_address":"8112, West Brown Deer Road, Servite Woods, Milwaukee, Milwaukee County, Wisconsin, 53223, United States of America","place_id":"209524633","datatype":"locationiq"},{"name":"Einstein Bros Bagel","code":null,"latitude":33.63938,"longitude":-112.1521,"address":"4304 West Bell Road, Phoenix AZ","chain_name":null,"distance":0,"street_number":null,"street_name":"West Bell Road","zip":"85036","city":"Phoenix","area":null,"county":"Maricopa County","state":"Arizona","country":"us","formatted_address":"Bank of America, West Bell Road, Phoenix, Maricopa County, Arizona, 85036, United States of America","place_id":"27975312","datatype":"locationiq"},{"name":"Einstein Bros Bagel","code":null,"latitude":28.07304,"longitude":-82.7389,"address":"33119 US Highway 19 North, Palm Harbor FL","chain_name":null,"distance":0,"street_number":null,"street_name":"US 19","zip":"34684","city":null,"area":null,"county":"Pinellas County","state":"Florida","country":"us","formatted_address":"US HWY 19 N & CORAL LANDINGS BLVD, US 19, Tarpon Springs, Pinellas County, Florida, 34684, United States of America","place_id":"9741086","datatype":"locationiq"},{"name":"Einstein Bros Bagel","code":null,"latitude":43.09495,"longitude":-87.8875,"address":"4301 North Oakland Avenue, Milwaukee WI","chain_name":null,"distance":0,"street_number":null,"street_name":"East Marion Street","zip":"53211","city":null,"area":null,"county":"Milwaukee County","state":"Wisconsin","country":"us","formatted_address":"TCF Bank, East Marion Street, Shorewood, Milwaukee County, Wisconsin, 53211, United States of America","place_id":"58296661","datatype":"locationiq"},{"name":"Einstein Bros Bagel","code":null,"latitude":40.68685,"longitude":-111.7958,"address":"3923 Wasatch Boulevard, Salt Lake City UT","chain_name":null,"distance":0,"street_number":null,"street_name":"Jupiter Drive","zip":"84109","city":null,"area":null,"county":"Salt Lake County","state":"Utah","country":"us","formatted_address":"Sinclair, Jupiter Drive, Mount Olympus, Salt Lake County, Utah, 84109, United States of America","place_id":"54017798","datatype":"locationiq"},{"name":"Einstein Bros Bagel","code":null,"latitude":42.29264,"longitude":-71.235,"address":"946 Highland Avenue, Needham MA","chain_name":null,"distance":0,"street_number":"968","street_name":"Highland Avenue","zip":"02494","city":null,"area":null,"county":"Norfolk County","state":"Massachusetts","country":"us","formatted_address":"Citizens Bank, 968, Highland Avenue, Needham, Norfolk County, Massachusetts, 02494, United States of America","place_id":"119217467","datatype":"locationiq"},{"name":"Einstein Bros Bagel","code":null,"latitude":33.46573,"longitude":-112.0657,"address":"530 East McDowell Road, Phoenix AZ","chain_name":null,"distance":0,"street_number":"545","street_name":"East McDowell Road","zip":"85007","city":"Phoenix","area":null,"county":"Maricopa County","state":"Arizona","country":"us","formatted_address":"McDonald's, 545, East McDowell Road, Encanto, Phoenix, Maricopa County, Arizona, 85007, United States of America","place_id":"84661931","datatype":"locationiq"},{"name":"Einstein Bros Bagel","code":null,"latitude":28.60066,"longitude":-81.326,"address":"1965 Aloma Avenue, Winter Park FL","chain_name":null,"distance":0,"street_number":"2003","street_name":"Aloma Avenue","zip":"32792","city":null,"area":null,"county":"Orange County","state":"Florida","country":"us","formatted_address":"2003, Aloma Avenue, Winter Park, Orange County, Florida, 32792, United States of America","place_id":"182671948","datatype":"locationiq"},{"name":"Einstein Bros Bagel","code":null,"latitude":35.10902,"longitude":-106.5158,"address":"11255 Menaul Boulevard Northeast, Albuquerque NM","chain_name":null,"distance":0,"street_number":null,"street_name":"Juan Tabo Boulevard Northeast","zip":"87112-9998","city":"Albuquerque","area":null,"county":"Bernalillo County","state":"New Mexico","country":"us","formatted_address":"Denny's, Juan Tabo Boulevard Northeast, Chelwood Park, Albuquerque, Bernalillo County, New Mexico, 87112-9998, United States of America","place_id":"6411732","datatype":"locationiq"},{"name":"Einstein Bros Bagel","code":null,"latitude":32.86497,"longitude":-96.8063,"address":"6109 Berkshire Lane, Dallas TX","chain_name":null,"distance":0,"street_number":"8400","street_name":"Westchester Drive","zip":"75225","city":"Dallas","area":null,"county":"Dallas County","state":"Texas","country":"us","formatted_address":"8400, Westchester Drive, Dallas, Dallas County, Texas, 75225, United States of America","place_id":"84587397","datatype":"locationiq"},{"name":"Einstein Bros Bagel","code":null,"latitude":39.0535,"longitude":-94.2706,"address":"210 Northwest State Route 7, Blue Springs MO","chain_name":null,"distance":0,"street_number":"3499","street_name":"MO-7","zip":"64057","city":"Blue Springs","area":null,"county":"Jackson County","state":"Missouri","country":"us","formatted_address":"3499, MO-7, Blue Springs, Jackson County, Missouri, 64057, United States of America","place_id":"193581454","datatype":"locationiq"},{"name":"Einstein Bros Bagel","code":null,"latitude":44.89416,"longitude":-93.4202,"address":"10999 Red Circle Drive, Hopkins MN","chain_name":null,"distance":0,"street_number":null,"street_name":"Red Circle Drive","zip":"55343","city":"Minnetonka","area":null,"county":"Hennepin County","state":"Minnesota","country":"us","formatted_address":"Shady Oak Rd, Red Circle Drive, Minnetonka, Hennepin County, Minnesota, 55343, United States of America","place_id":"6871823","datatype":"locationiq"},{"name":"Einstein Bros Bagel","code":null,"latitude":28.58667,"longitude":-81.365,"address":"1200 South Orlando Avenue, Winter Park FL","chain_name":null,"distance":0,"street_number":"1190","street_name":"Orlando Avenue","zip":"32789","city":null,"area":null,"county":"Orange County","state":"Florida","country":"us","formatted_address":"1190, Orlando Avenue, Winter Park, Orange County, Florida, 32789, United States of America","place_id":"182727466","datatype":"locationiq"},{"name":"Einstein Bros Bagel","code":null,"latitude":40.663,"longitude":-111.5006,"address":"1890 Bonanza Drive, Park City UT","chain_name":null,"distance":0,"street_number":null,"street_name":"Bonanza Drive","zip":"84068","city":"Park City","area":null,"county":"Summit County","state":"Utah","country":"us","formatted_address":"Taco Maker, Bonanza Drive, Park City, Summit County, Utah, 84068, United States of America","place_id":"5072577","datatype":"locationiq"},{"name":"Einstein Bros Bagel","code":null,"latitude":40.76904,"longitude":-111.8768,"address":"481 East South Temple, Salt Lake City UT","chain_name":null,"distance":0,"street_number":null,"street_name":"South Temple","zip":"84111","city":"Salt Lake City","area":"The Avenues","county":"Salt Lake County","state":"Utah","country":"us","formatted_address":"Multiple Restaurants, South Temple, The Avenues, Greater Avenues, Salt Lake City, Salt Lake County, Utah, 84111, United States of America","place_id":"124881852","datatype":"locationiq"},{"name":"Einstein Bros Bagel","code":null,"latitude":40.75056,"longitude":-73.9962,"address":"1695 3rd Avenue At E 96th Street, New York NY","chain_name":null,"distance":0,"street_number":"320","street_name":"West 31st Street","zip":"10001","city":"New York City","area":"Koreatown","county":"New York County","state":"New York","country":"us","formatted_address":"320, West 31st Street, Koreatown, Manhattan, New York County, New York City, New York, 10001, United States of America","place_id":"131681664","datatype":"locationiq"},{"name":"Einstein Bros Bagel","code":null,"latitude":43.0653,"longitude":-87.8782,"address":"2567 North Downer Avenue, Milwaukee WI","chain_name":null,"distance":0,"street_number":"2589","street_name":"North Downer Avenue","zip":"53211","city":"Milwaukee","area":null,"county":"Milwaukee County","state":"Wisconsin","country":"us","formatted_address":"Downer Theatre, 2589, North Downer Avenue, Northpoint, Milwaukee, Milwaukee County, Wisconsin, 53211, United States of America","place_id":"153891094","datatype":"locationiq"},{"name":"Einstein Bros Bagel","code":null,"latitude":38.92765,"longitude":-94.6841,"address":"8600 College Boulevard, Shawnee Mission KS","chain_name":null,"distance":0,"street_number":null,"street_name":"College Boulevard","zip":"KS 66210","city":"Overland Park","area":null,"county":"Johnson County","state":"Kansas","country":"us","formatted_address":"Einstein Bros Bagels, College Boulevard, Overland Park, Johnson County, Kansas, KS 66210, United States of America","place_id":"156654558","datatype":"locationiq"},{"name":"Einstein Bros Bagel","code":null,"latitude":40.64976,"longitude":-111.9389,"address":"5588 South Redwood Road, Salt Lake Cty UT","chain_name":null,"distance":0,"street_number":null,"street_name":"Redwood Road","zip":"84123","city":"Taylorsville","area":null,"county":"Salt Lake County","state":"Utah","country":"us","formatted_address":"Chevron, Redwood Road, Taylorsville, Salt Lake County, Utah, 84123, United States of America","place_id":"23810439","datatype":"locationiq"},{"name":"Einstein Bros Bagel","code":null,"latitude":32.85454,"longitude":-97.1876,"address":"9159 Boulevard 26, North Richland Hills TX","chain_name":null,"distance":0,"street_number":null,"street_name":"Grapevine Highway","zip":"76180","city":"Hurst","area":null,"county":"Tarrant County","state":"Texas","country":"us","formatted_address":"Grapevine Highway, Hurst, Tarrant County, Texas, 76180, United States of America","place_id":"160881458","datatype":"locationiq"},{"name":"Einstein Bros Bagel","code":null,"latitude":26.3679,"longitude":-80.1999,"address":"9795 Glades Road, Boca Raton FL","chain_name":null,"distance":0,"street_number":null,"street_name":"Glades Road","zip":"33432","city":null,"area":null,"county":"Palm Beach County","state":"Florida","country":"us","formatted_address":"Europen Auto Service Centre, Glades Road, Mission Bay, Palm Beach County, Florida, 33432, United States of America","place_id":"105401962","datatype":"locationiq"},{"name":"Einstein Bros Bagel","code":null,"latitude":45.19745,"longitude":-93.3497,"address":"3536 Main Street Northwest, Minneapolis MN","chain_name":null,"distance":0,"street_number":null,"street_name":"Main Street Northwest","zip":"55448","city":null,"area":null,"county":"Anoka County","state":"Minnesota","country":"us","formatted_address":"Riverdale Blvd, Main Street Northwest, Coon Rapids, Anoka County, Minnesota, 55448, United States of America","place_id":"6824983","datatype":"locationiq"},{"name":"Einstein Bros Bagel","code":null,"latitude":38.92139,"longitude":-94.7086,"address":"Shawnee Mission KS","chain_name":null,"distance":0,"street_number":"10634","street_name":"West 115th Street","zip":"66210","city":"Overland Park","area":null,"county":"Johnson County","state":"Kansas","country":"us","formatted_address":"10634, West 115th Street, Overland Park, Johnson County, Kansas, 66210, United States of America","place_id":"187929031","datatype":"locationiq"},{"name":"Einstein Bros Bagel","code":null,"latitude":28.66671,"longitude":-81.419,"address":"340 North State Road 434, Altamonte Springs FL","chain_name":null,"distance":0,"street_number":null,"street_name":"FL 434","zip":"32714","city":null,"area":null,"county":"Seminole County","state":"Florida","country":"us","formatted_address":"FL 434, Altamonte Springs, Seminole County, Florida, 32714, United States of America","place_id":"120267267","datatype":"locationiq"},{"name":"Einstein Bros Bagel","code":null,"latitude":43.07502,"longitude":-89.3963,"address":"652 State Street, Madison WI","chain_name":null,"distance":0,"street_number":null,"street_name":"State Street","zip":"53703","city":"Madison","area":null,"county":"Dane County","state":"Wisconsin","country":"us","formatted_address":"Sunroom Cafe, State Street, State-Langdon, Madison, Dane County, Wisconsin, 53703, United States of America","place_id":"18267028","datatype":"locationiq"},{"name":"Einstein Bros Bagel","code":null,"latitude":40.14522,"longitude":-105.1304,"address":"2311 Clover Basin Drive, Longmont CO","chain_name":null,"distance":0,"street_number":"1194","street_name":"South Hover Road","zip":"80501","city":null,"area":null,"county":"Boulder County","state":"Colorado","country":"us","formatted_address":"1194, South Hover Road, Longmont, Boulder County, Colorado, 80501, United States of America","place_id":"180671608","datatype":"locationiq"},{"name":"Einstein Bros Bagel","code":null,"latitude":40.23388,"longitude":-111.6583,"address":"43 East Center Street, Provo UT","chain_name":null,"distance":0,"street_number":"19","street_name":"North University Avenue","zip":"Utah 84606","city":"Provo","area":null,"county":"Utah County","state":"Utah","country":"us","formatted_address":"Black Sheep Cafe, 19, North University Avenue, Provo, Utah County, Utah, Utah 84606, United States of America","place_id":"27015696","datatype":"locationiq"},{"name":"Einstein Bros Bagel","code":null,"latitude":27.84123,"longitude":-82.7944,"address":"11234 Park Boulevard, Seminole FL","chain_name":null,"distance":0,"street_number":"11209","street_name":"78th Avenue","zip":"33772","city":null,"area":null,"county":"Pinellas County","state":"Florida","country":"us","formatted_address":"11209, 78th Avenue, Seminole, Pinellas County, Florida, 33772, United States of America","place_id":"182954418","datatype":"locationiq"},{"name":"Einstein Bros Bagel","code":null,"latitude":38.94415,"longitude":-94.6079,"address":"10215 State Line Road, Kansas City MO","chain_name":null,"distance":0,"street_number":null,"street_name":"State Line Road","zip":"66206","city":"Leawood","area":null,"county":"Johnson County","state":"Kansas","country":"us","formatted_address":"Goodcents, State Line Road, Leawood, Johnson County, Kansas, 66206, United States of America","place_id":"28370242","datatype":"locationiq"},{"name":"Einstein Bros Bagel","code":null,"latitude":43.03697,"longitude":-88.125,"address":"17000 West Bluemound Road, Brookfield WI","chain_name":null,"distance":0,"street_number":null,"street_name":"Frontage Road","zip":"53005-5918","city":"Brookfield","area":null,"county":"Waukesha County","state":"Wisconsin","country":"us","formatted_address":"Hooters, Frontage Road, Brookfield, Waukesha County, Wisconsin, 53005-5918, United States of America","place_id":"85029265","datatype":"locationiq"},{"name":"Einstein Bros Bagel","code":null,"latitude":40.55872,"longitude":-111.889,"address":"72 East 10600 South, Sandy UT","chain_name":null,"distance":0,"street_number":null,"street_name":"10600 South","zip":"84070","city":"Sandy","area":null,"county":"Salt Lake County","state":"Utah","country":"us","formatted_address":"Einstein's Bagels, 10600 South, Sandy, Salt Lake County, Utah, 84070, United States of America","place_id":"168974326","datatype":"locationiq"},{"name":"Einstein Bros Bagel","code":null,"latitude":39.71928,"longitude":-104.9535,"address":"200 Fillmore Street, Denver CO","chain_name":null,"distance":0,"street_number":null,"street_name":"East 2nd Avenue","zip":"80206","city":"Denver","area":null,"county":"Denver County","state":"Colorado","country":"us","formatted_address":"Starbucks, East 2nd Avenue, Denver, Denver County, Colorado, 80206, United States of America","place_id":"14002422","datatype":"locationiq"},{"name":"Einstein Bros Bagel","code":null,"latitude":39.73093,"longitude":-104.9407,"address":"895 Colorado Boulevard, Denver CO","chain_name":null,"distance":0,"street_number":null,"street_name":"Colorado Boulevard","zip":"80262","city":"Denver","area":null,"county":"Denver County","state":"Colorado","country":"us","formatted_address":"Colorado Blvd & E 9th Ave, Colorado Boulevard, Denver, Denver County, Colorado, 80262, United States of America","place_id":"33630263","datatype":"locationiq"},{"name":"Einstein Bros Bagel","code":null,"latitude":42.29,"longitude":-71.0456,"address":"1010 William T Morrissey, Dorchester MA","chain_name":null,"distance":0,"street_number":"1005","street_name":"William T. Morrissey Boulevard","zip":"02125","city":"Boston","area":"Neponset","county":"Suffolk County","state":"Massachusetts","country":"us","formatted_address":"1005, William T. Morrissey Boulevard, Neponset, Dorchester, Boston, Suffolk County, Massachusetts, 02125, United States of America","place_id":"190533728","datatype":"locationiq"},{"name":"Einstein Bros Bagel","code":null,"latitude":39.78934,"longitude":-75.0587,"address":"880 South Black Horse Pike, Blackwood NJ","chain_name":null,"distance":0,"street_number":"998","street_name":"South Black Horse Pike","zip":"08012","city":"Gloucester Township","area":null,"county":"Camden County","state":"New Jersey","country":"us","formatted_address":"998, South Black Horse Pike, Gloucester Township, Camden County, New Jersey, 08012, United States of America","place_id":"195354318","datatype":"locationiq"},{"name":"Einstein Bros Bagel","code":null,"latitude":40.68796,"longitude":-80.1023,"address":"20263 Route 19, Cranberry Twp PA","chain_name":null,"distance":0,"street_number":null,"street_name":"Nickolas Drive","zip":"16046","city":"Cranberry Township","area":null,"county":"Butler County","state":"Pennsylvania","country":"us","formatted_address":"Next Tier Bank, Nickolas Drive, Cranberry Township, Butler County, Pennsylvania, 16046, United States of America","place_id":"23898271","datatype":"locationiq"},{"name":"Einstein Bros Bagel","code":null,"latitude":40.76407,"longitude":-111.854,"address":"240 South 1300 East, Salt Lake City UT","chain_name":null,"distance":0,"street_number":null,"street_name":"1300 East","zip":"84112","city":"Salt Lake City","area":"East Central","county":"Salt Lake County","state":"Utah","country":"us","formatted_address":"Indochine, 1300 East, East Central, Greater Avenues, Salt Lake City, Salt Lake County, Utah, 84112, United States of America","place_id":"16155476","datatype":"locationiq"},{"name":"Einstein Bros Bagel","code":null,"latitude":43.03531,"longitude":-89.4538,"address":"4515 Verona Road, Madison WI","chain_name":null,"distance":0,"street_number":null,"street_name":"Britta Parkway","zip":"53711","city":"Madison","area":null,"county":"Dane County","state":"Wisconsin","country":"us","formatted_address":"Great Wall, Britta Parkway, Madison, Dane County, Wisconsin, 53711, United States of America","place_id":"80931096","datatype":"locationiq"},{"name":"Einstein Bros Bagel","code":null,"latitude":38.64419,"longitude":-90.5658,"address":"1682 Clarkson Road, Chesterfield MO","chain_name":null,"distance":0,"street_number":null,"street_name":"Clarkson Road","zip":"63017","city":"Chesterfield","area":null,"county":"St. Louis County","state":"Missouri","country":"us","formatted_address":"Clarkson Road, Chesterfield, St. Louis County, Missouri, 63017, United States of America","place_id":"75660545","datatype":"locationiq"},{"name":"Einstein Bros Bagel","code":null,"latitude":40.52829,"longitude":-111.8549,"address":"1297 Draper Parkway, Draper UT","chain_name":null,"distance":0,"street_number":null,"street_name":"Draper Parkway","zip":"84020","city":"Draper","area":null,"county":"Salt Lake County","state":"Utah","country":"us","formatted_address":"Taco Bell, Draper Parkway, Draper, Salt Lake County, Utah, 84020, United States of America","place_id":"169514314","datatype":"locationiq"},{"name":"Einstein Bros Bagel","code":null,"latitude":29.75546,"longitude":-95.3661,"address":"Houston TX","chain_name":null,"distance":0,"street_number":null,"street_name":"Main Street","zip":"77002","city":"Houston","area":null,"county":"Harris County","state":"Texas","country":"us","formatted_address":"Main & Dallas, Main Street, Houston, Harris County, Texas, 77002, United States of America","place_id":"44041660","datatype":"locationiq"},{"name":"Einstein Bros Bagel","code":null,"latitude":41.07402,"longitude":-111.9803,"address":"897 North Main Street, Layton UT","chain_name":null,"distance":0,"street_number":"968","street_name":"North Main Street","zip":"84041","city":null,"area":"Mala","county":"Davis County","state":"Utah","country":"us","formatted_address":"Krispy Kreme Donuts, 968, North Main Street, Mala, Layton, Davis County, Utah, 84041, United States of America","place_id":"78108726","datatype":"locationiq"},{"name":"Einstein Bros Bagel","code":null,"latitude":40.29507,"longitude":-74.6816,"address":"3340 US Highway 1, Trenton NJ","chain_name":null,"distance":0,"street_number":"3378","street_name":"Brunswick Pike","zip":"08648","city":"Lawrence Township","area":null,"county":"Mercer County","state":"New Jersey","country":"us","formatted_address":"3378, Brunswick Pike, Lawrence Township, Mercer County, New Jersey, 08648, United States of America","place_id":"195493436","datatype":"locationiq"},{"name":"Einstein Bros Bagel","code":null,"latitude":40.73628,"longitude":-111.8479,"address":"1520 South 1500 East, Salt Lake City UT","chain_name":null,"distance":0,"street_number":null,"street_name":"1500 East","zip":"84105","city":"Salt Lake City","area":"Yalecrest","county":"Salt Lake County","state":"Utah","country":"us","formatted_address":"15th Street Gallery, 1500 East, Yalecrest, Greater Avenues, Salt Lake City, Salt Lake County, Utah, 84105, United States of America","place_id":"57575282","datatype":"locationiq"},{"name":"Einstein Bros Bagel","code":null,"latitude":39.67858,"longitude":-104.9732,"address":"1213 East Evans Avenue, Denver CO","chain_name":null,"distance":0,"street_number":null,"street_name":"East Evans Avenue","zip":"80210","city":"Denver","area":"Platt Park","county":"Denver County","state":"Colorado","country":"us","formatted_address":"E Evans Ave & S Downing St, East Evans Avenue, Platt Park, Denver, Denver County, Colorado, 80210, United States of America","place_id":"37075475","datatype":"locationiq"},{"name":"Einstein Bros Bagel","code":null,"latitude":40.15741,"longitude":-74.0534,"address":"1933 State Route 35, Wall Township NJ","chain_name":null,"distance":0,"street_number":"1946","street_name":"River Road","zip":"07719","city":"Wall Township","area":null,"county":"Monmouth County","state":"New Jersey","country":"us","formatted_address":"1946, River Road, Wall Township, Monmouth County, New Jersey, 07719, United States of America","place_id":"195603791","datatype":"locationiq"},{"name":"Einstein Bros Bagel","code":null,"latitude":38.96396,"longitude":-95.2361,"address":"1026 Massachusetts Street, Lawrence KS","chain_name":null,"distance":0,"street_number":"1047","street_name":"Massachusetts Street","zip":"66044","city":"Lawrence","area":null,"county":"Douglas County","state":"Kansas","country":"us","formatted_address":"Watkins Community Museum of History, 1047, Massachusetts Street, Downtown Lawrence, Lawrence, Douglas County, Kansas, 66044, United States of America","place_id":"119836351","datatype":"locationiq"},{"name":"Einstein Bros Bagel","code":null,"latitude":40.88457,"longitude":-111.8807,"address":"498 South Main Street, Bountiful UT","chain_name":null,"distance":0,"street_number":null,"street_name":"East 400 South","zip":"84010","city":"Bountiful","area":null,"county":"Davis County","state":"Utah","country":"us","formatted_address":"Beehive Bakery and Cafe, East 400 South, Bountiful, Davis County, Utah, 84010, United States of America","place_id":"61806872","datatype":"locationiq"},{"name":"Einstein Bros Bagel","code":null,"latitude":42.98851,"longitude":-87.9481,"address":"3129 South 27th Street, Milwaukee WI","chain_name":null,"distance":0,"street_number":null,"street_name":"East Oklahoma Avenue","zip":"53207","city":"Milwaukee","area":"Southgate","county":"Milwaukee County","state":"Wisconsin","country":"us","formatted_address":"East Oklahoma Avenue, Southgate, Milwaukee, Milwaukee County, Wisconsin, 53207, United States of America","place_id":"70648091","datatype":"locationiq"},{"name":"Einstein Bros Bagel","code":null,"latitude":38.64041,"longitude":-90.262,"address":"2 North Euclid Avenue, Saint Louis MO","chain_name":null,"distance":0,"street_number":null,"street_name":"North Euclid Avenue","zip":"63108","city":"St. Louis","area":null,"county":"City of St. Louis","state":"Missouri","country":"us","formatted_address":"Einstein's Bagels, North Euclid Avenue, St. Louis, City of St. Louis, Missouri, 63108, United States of America","place_id":"46925038","datatype":"locationiq"},{"name":"Einstein Bros Bagel","code":null,"latitude":39.90534,"longitude":-74.9368,"address":"882 Route 73 North, Marlton NJ","chain_name":null,"distance":0,"street_number":null,"street_name":"State Route 73","zip":"08053","city":"Evesham Township","area":null,"county":"Burlington County","state":"New Jersey","country":"us","formatted_address":"State Route 73, Greentree Square, Evesham Township, Burlington County, New Jersey, 08053, United States of America","place_id":"84650087","datatype":"locationiq"},{"name":"Einstein Bros Bagel","code":null,"latitude":38.89395,"longitude":-104.8496,"address":"4325 Centennial Boulevard, Colorado Springs CO","chain_name":null,"distance":0,"street_number":null,"street_name":"Centennial Boulevard","zip":"80919","city":"Colorado Springs","area":null,"county":"El Paso County","state":"Colorado","country":"us","formatted_address":"Walgreen's, Centennial Boulevard, Colorado Springs, El Paso County, Colorado, 80919, United States of America","place_id":"14015264","datatype":"locationiq"},{"name":"Einstein Bros Bagel","code":null,"latitude":32.75122,"longitude":-97.3318,"address":"Fort Worth TX","chain_name":null,"distance":0,"street_number":null,"street_name":"Taylor Street","zip":"76102","city":"Fort Worth","area":null,"county":"Tarrant County","state":"Texas","country":"us","formatted_address":"Oil & Gas Building, Taylor Street, Fort Worth, Tarrant County, Texas, 76102, United States of America","place_id":"173802007","datatype":"locationiq"},{"name":"Einstein Bros Bagel","code":null,"latitude":37.54029,"longitude":-77.5642,"address":"3058 Stony Point Road, Richmond VA","chain_name":null,"distance":0,"street_number":"3135","street_name":"Stony Point Rd","zip":"23235","city":"Richmond City","area":null,"county":null,"state":"Virginia","country":"us","formatted_address":"3135, Stony Point Rd, Stony Point Shopping Center, Bon Air, Richmond City, Virginia, 23235, United States of America","place_id":"208098165","datatype":"locationiq"},{"name":"Einstein Bros Bagel","code":null,"latitude":39.59583,"longitude":-104.8887,"address":"6650 South Yosemite Street, Englewood CO","chain_name":null,"distance":0,"street_number":null,"street_name":"South Yosemite Street","zip":"80112","city":"Greenwood Village","area":null,"county":"Arapahoe County","state":"Colorado","country":"us","formatted_address":"Einsteins Bagels, South Yosemite Street, Greenwood Village, Arapahoe County, Colorado, 80112, United States of America","place_id":"81068257","datatype":"locationiq"},{"name":"Einstein Bros Bagel","code":null,"latitude":45.23589,"longitude":-93.4084,"address":"Minneapolis MN","chain_name":null,"distance":0,"street_number":"5547","street_name":"146th Avenue Northwest","zip":"55303","city":"Ramsey","area":null,"county":"Anoka County","state":"Minnesota","country":"us","formatted_address":"5547, 146th Avenue Northwest, Ramsey, Anoka County, Minnesota, 55303, United States of America","place_id":"191820371","datatype":"locationiq"},{"name":"Einstein Bros Bagel","code":null,"latitude":40.66651,"longitude":-111.8394,"address":"4764 Highland Drive, Salt Lake City UT","chain_name":null,"distance":0,"street_number":null,"street_name":"Highland Drive","zip":"84117","city":"Holladay","area":null,"county":"Salt Lake County","state":"Utah","country":"us","formatted_address":"Highland Dr \/ 4745 S, Highland Drive, Holladay, Salt Lake County, Utah, 84117, United States of America","place_id":"25780496","datatype":"locationiq"},{"name":"Einstein Bros Bagel","code":null,"latitude":43.04819,"longitude":-87.9054,"address":"544 East Ogden Avenue, Milwaukee WI","chain_name":null,"distance":0,"street_number":"544","street_name":"East Ogden Avenue","zip":"53202","city":"Milwaukee","area":null,"county":"Milwaukee County","state":"Wisconsin","country":"us","formatted_address":"544, East Ogden Avenue, East Pointe Marketplace, Yankee Hill, Milwaukee, Milwaukee County, Wisconsin, 53202, United States of America","place_id":"88441768","datatype":"locationiq"},{"name":"Einstein Bros Bagel","code":null,"latitude":32.95407,"longitude":-96.834,"address":"Dallas TX","chain_name":null,"distance":0,"street_number":"4598","street_name":"Beltway Drive","zip":"75001","city":"Addison","area":null,"county":"Dallas County","state":"Texas","country":"us","formatted_address":"4598, Beltway Drive, Addison, Dallas County, Texas, 75001, United States of America","place_id":"204866375","datatype":"locationiq"},{"name":"Einstein Bros Bagel","code":null,"latitude":39.75848,"longitude":-104.9036,"address":"7300 East 29th Avenue, Denver CO","chain_name":null,"distance":0,"street_number":"7299","street_name":"East 29th Avenue","zip":"80207","city":"Denver","area":"North Park HIll","county":"Denver County","state":"Colorado","country":"us","formatted_address":"7299, East 29th Avenue, North Park HIll, Denver, Denver County, Colorado, 80207, United States of America","place_id":"180708661","datatype":"locationiq"},{"name":"Einstein Bros Bagel","code":null,"latitude":43.12118,"longitude":-89.3179,"address":"3904 East Washington Avenue, Madison WI","chain_name":null,"distance":0,"street_number":null,"street_name":"East Washington Avenue","zip":"53704","city":"Madison","area":null,"county":"Dane County","state":"Wisconsin","country":"us","formatted_address":"Wendy's, East Washington Avenue, Madison, Dane County, Wisconsin, 53704, United States of America","place_id":"10715384","datatype":"locationiq"},{"name":"Einstein Bros Bagel","code":null,"latitude":45.48083,"longitude":-122.688,"address":"Portland OR","chain_name":null,"distance":0,"street_number":"900","street_name":"Southwest Cheltenham Street","zip":"97239","city":"Portland","area":null,"county":"Multnomah County","state":"Oregon","country":"us","formatted_address":"900, Southwest Cheltenham Street, Hillsdale, Portland, Multnomah County, Oregon, 97239, United States of America","place_id":"136407902","datatype":"locationiq"},{"name":"Einstein Bros Bagel","code":null,"latitude":29.87913,"longitude":-95.6461,"address":"15745 Fm 529 Road, Houston TX","chain_name":null,"distance":0,"street_number":"16250","street_name":"Spencer Road","zip":"77095","city":null,"area":null,"county":"Harris County","state":"Texas","country":"us","formatted_address":"Corner Store, 16250, Spencer Road, Satsuma, Harris County, Texas, 77095, United States of America","place_id":"61701980","datatype":"locationiq"},{"name":"Einstein Bros Bagel","code":null,"latitude":39.74975,"longitude":-104.9957,"address":"Denver CO","chain_name":null,"distance":0,"street_number":null,"street_name":"17th Street","zip":"80202","city":"Denver","area":"Central Business District","county":"Denver County","state":"Colorado","country":"us","formatted_address":"17th Street Plaza, 17th Street, Central Business District, Denver, Denver County, Colorado, 80202, United States of America","place_id":"139908767","datatype":"locationiq"},{"name":"Einstein Bros Bagel","code":null,"latitude":41.18306,"longitude":-111.9491,"address":"4387 Harrison Boulevard, Ogden UT","chain_name":null,"distance":0,"street_number":null,"street_name":"East 4400 South","zip":"84403","city":"Ogden","area":null,"county":"Weber County","state":"Utah","country":"us","formatted_address":"Starbucks, East 4400 South, Ogden, Weber County, Utah, 84403, United States of America","place_id":"55208416","datatype":"locationiq"},{"name":"Einstein Bros Bagel","code":null,"latitude":43.09565,"longitude":-89.3632,"address":"1738 Fordem Avenue, Madison WI","chain_name":null,"distance":0,"street_number":"1882","street_name":"Fordem Avenue","zip":"53704","city":"Madison","area":null,"county":"Dane County","state":"Wisconsin","country":"us","formatted_address":"1882, Fordem Avenue, Lakewood Gardens, Sherman, Madison, Town of Madison, Dane County, Wisconsin, 53704, United States of America","place_id":"209313787","datatype":"locationiq"},{"name":"Einstein Bros Bagel","code":null,"latitude":39.58021,"longitude":-104.9603,"address":"7523 South University Boulevard, Littleton CO","chain_name":null,"distance":0,"street_number":null,"street_name":"South University Boulevard","zip":"80122","city":null,"area":null,"county":"Arapahoe County","state":"Colorado","country":"us","formatted_address":"Shell, South University Boulevard, Centennial, Arapahoe County, Colorado, 80122, United States of America","place_id":"83582874","datatype":"locationiq"},{"name":"Einstein Bros Bagel","code":null,"latitude":39.77327,"longitude":-104.7946,"address":"16495 East 40th Circle, Aurora CO","chain_name":null,"distance":0,"street_number":null,"street_name":"East 40th Avenue","zip":"80239","city":"Denver","area":null,"county":"Denver County","state":"Colorado","country":"us","formatted_address":"East 40th Avenue, Gateway Park, Denver, Denver County, Colorado, 80239, United States of America","place_id":"120111223","datatype":"locationiq"},{"name":"Einstein Bros Bagel","code":null,"latitude":40.14539,"longitude":-75.3936,"address":"2732 Avenue, Norristown PA","chain_name":null,"distance":0,"street_number":"2703","street_name":"Ridge Pike","zip":"19403","city":"West Norriton Township","area":null,"county":"Montgomery County","state":"Pennsylvania","country":"us","formatted_address":"2703, Ridge Pike, West Norriton, West Norriton Township, Montgomery County, Pennsylvania, 19403, United States of America","place_id":"202155832","datatype":"locationiq"},{"name":"Einstein Bros Bagel","code":null,"latitude":33.67747,"longitude":-111.9773,"address":"21001 North Tatum Boulevard Suite 1630, Phoenix AZ","chain_name":null,"distance":0,"street_number":"21040","street_name":"North Tatum Boulevard","zip":"85050-4206","city":"Phoenix","area":null,"county":"Maricopa County","state":"Arizona","country":"us","formatted_address":"21040, North Tatum Boulevard, Phoenix, Maricopa County, Arizona, 85050-4206, United States of America","place_id":"85132596","datatype":"locationiq"},{"name":"Einstein Bros Bagel","code":null,"latitude":39.80211,"longitude":-75.5048,"address":"1732 Marsh Road, Wilmington DE","chain_name":null,"distance":0,"street_number":"2191","street_name":"Silverside Road","zip":"19810","city":null,"area":"Mayfield","county":"New Castle County","state":"Delaware","country":"us","formatted_address":"2191, Silverside Road, Mayfield, Silverside, New Castle County, Delaware, 19810, United States of America","place_id":"181492372","datatype":"locationiq"},{"name":"Einstein Bros Bagel","code":null,"latitude":32.95345,"longitude":-96.804,"address":"14999 Preston Road Suite 108, Dallas TX","chain_name":null,"distance":0,"street_number":"15050","street_name":"Preston Road","zip":"75254","city":"Dallas","area":null,"county":"Dallas County","state":"Texas","country":"us","formatted_address":"15050, Preston Road, Dallas, Dallas County, Texas, 75254, United States of America","place_id":"98790847","datatype":"locationiq"},{"name":"Einstein Bros Bagel","code":null,"latitude":35.0684,"longitude":-106.5009,"address":"13170 Central Avenue Southeast, Albuquerque NM","chain_name":null,"distance":0,"street_number":null,"street_name":"Cochiti Road Southeast","zip":"87123-3035","city":"Albuquerque","area":null,"county":"Bernalillo County","state":"New Mexico","country":"us","formatted_address":"Little Caesar's, Cochiti Road Southeast, La Cuesta, Albuquerque, Bernalillo County, New Mexico, 87123-3035, United States of America","place_id":"20753053","datatype":"locationiq"},{"name":"Einstein Bros Bagel","code":null,"latitude":39.60818,"longitude":-104.8867,"address":"Greenwood Village CO","chain_name":null,"distance":0,"street_number":"6038","street_name":"South Willow Way","zip":"80111","city":"Greenwood Village","area":null,"county":"Arapahoe County","state":"Colorado","country":"us","formatted_address":"6038, South Willow Way, Greenwood Village, Arapahoe County, Colorado, 80111, United States of America","place_id":"180620781","datatype":"locationiq"},{"name":"Einstein Bros Bagel","code":null,"latitude":39.72335,"longitude":-105.0812,"address":"490 Wadsworth Boulevard, Lakewood CO","chain_name":null,"distance":0,"street_number":null,"street_name":"West 5th Avenue","zip":"80226","city":"Lakewood","area":null,"county":"Jefferson County","state":"Colorado","country":"us","formatted_address":"Einstein Brothers, West 5th Avenue, Lakewood, Jefferson County, Colorado, 80226, United States of America","place_id":"10122450","datatype":"locationiq"},{"name":"Einstein Bros Bagel","code":null,"latitude":37.64677,"longitude":-77.6151,"address":"3320 Pump Road, Richmond VA","chain_name":null,"distance":0,"street_number":null,"street_name":"Pump Road","zip":"23233","city":null,"area":null,"county":"Henrico County","state":"Virginia","country":"us","formatted_address":"Short Pump Crossing, Pump Road, Short Pump Crossing, Short Pump, Henrico County, Virginia, 23233, United States of America","place_id":"122300453","datatype":"locationiq"},{"name":"Einstein Bros Bagel","code":null,"latitude":39.71108,"longitude":-104.984,"address":"300 East Alameda Avenue, Denver CO","chain_name":null,"distance":0,"street_number":null,"street_name":"East Alameda Avenue","zip":"80209","city":"Denver","area":"Baker","county":"Denver County","state":"Colorado","country":"us","formatted_address":"E Alameda Ave & S Grant St, East Alameda Avenue, Baker, Denver, Denver County, Colorado, 80209, United States of America","place_id":"35062127","datatype":"locationiq"},{"name":"Einstein Bros Bagel","code":null,"latitude":42.27883,"longitude":-83.7407,"address":"307 S State Street, Ann Arbor MI","chain_name":null,"distance":0,"street_number":null,"street_name":"North University Avenue","zip":"48104","city":"Ann Arbor","area":null,"county":"Washtenaw County","state":"Michigan","country":"us","formatted_address":"Walgreens, North University Avenue, Ann Arbor, Washtenaw County, Michigan, 48104, United States of America","place_id":"104404275","datatype":"locationiq"},{"name":"Einstein Bros Bagel","code":null,"latitude":37.63957,"longitude":-77.557,"address":"9480 West Broad Street, Richmond VA","chain_name":null,"distance":0,"street_number":null,"street_name":"West Broad Street","zip":"23294","city":null,"area":null,"county":"Henrico County","state":"Virginia","country":"us","formatted_address":"Pizza Hut, West Broad Street, Tuckernuck Square, Laurel, Henrico County, Virginia, 23294, United States of America","place_id":"42074362","datatype":"locationiq"},{"name":"Einstein Bros Bagel","code":null,"latitude":37.60445,"longitude":-77.5908,"address":"1368 Gaskins Road, Richmond VA","chain_name":null,"distance":0,"street_number":null,"street_name":"Gaskins Road","zip":"23238","city":null,"area":null,"county":"Henrico County","state":"Virginia","country":"us","formatted_address":"McAlister's Deli, Gaskins Road, Gayton Crossing Shopping Center, Tuckahoe, Henrico County, Virginia, 23238, United States of America","place_id":"42247138","datatype":"locationiq"},{"name":"Einstein Bros Bagel","code":null,"latitude":42.41278,"longitude":-83.4325,"address":"17101 Haggerty Road, Northville MI","chain_name":null,"distance":0,"street_number":null,"street_name":"Haggerty Road","zip":"48167","city":null,"area":null,"county":"Wayne County","state":"Michigan","country":"us","formatted_address":"Haggerty Road, Northville Township, Wayne County, Michigan, 48167, United States of America","place_id":"172988159","datatype":"locationiq"},{"name":"Einstein Bros Bagel","code":null,"latitude":42.39368,"longitude":-83.4816,"address":"15077 North Sheldon Road, Plymouth MI","chain_name":null,"distance":0,"street_number":"15055","street_name":"Sheldon Road","zip":"48170","city":null,"area":null,"county":"Wayne County","state":"Michigan","country":"us","formatted_address":"Wendy's, 15055, Sheldon Road, Northville Township, Wayne County, Michigan, 48170, United States of America","place_id":"135238125","datatype":"locationiq"},{"name":"Einstein Bros Bagel","code":null,"latitude":32.83655,"longitude":-96.7544,"address":"6333 East Mockingbird Lane, Dallas TX","chain_name":null,"distance":0,"street_number":"6300","street_name":"East Mockingbird Lane","zip":"75214","city":"Dallas","area":null,"county":"Dallas County","state":"Texas","country":"us","formatted_address":"6300, East Mockingbird Lane, Dallas, Dallas County, Texas, 75214, United States of America","place_id":"137872593","datatype":"locationiq"},{"name":"Einstein Bros Bagel","code":null,"latitude":40.75056,"longitude":-73.9962,"address":"1336 1st Avenue At E 72nd Street, New York NY","chain_name":null,"distance":0,"street_number":"320","street_name":"West 31st Street","zip":"10001","city":"New York City","area":"Koreatown","county":"New York County","state":"New York","country":"us","formatted_address":"320, West 31st Street, Koreatown, Manhattan, New York County, New York City, New York, 10001, United States of America","place_id":"131681664","datatype":"locationiq"},{"name":"Einstein Bros Bagel","code":null,"latitude":39.73041,"longitude":-104.9751,"address":"1025 East 9th Avenue, Denver CO","chain_name":null,"distance":0,"street_number":"1000","street_name":"East 9th Avenue","zip":"80218","city":"Denver","area":"Quality Hill Historic District","county":"Denver County","state":"Colorado","country":"us","formatted_address":"1000, East 9th Avenue, Quality Hill Historic District, Denver, Denver County, Colorado, 80218, United States of America","place_id":"146275856","datatype":"locationiq"},{"name":"Einstein Bros Bagel","code":null,"latitude":44.93756,"longitude":-92.938,"address":"8362 Tamarack Village, Saint Paul MN","chain_name":null,"distance":0,"street_number":"8336","street_name":"Tamarack Village","zip":"55125","city":"Woodbury","area":null,"county":"Washington County","state":"Minnesota","country":"us","formatted_address":"8336, Tamarack Village, Woodbury, Washington County, Minnesota, 55125, United States of America","place_id":"192648502","datatype":"locationiq"},{"name":"Einstein Bros Bagel","code":null,"latitude":40.44243,"longitude":-80.0046,"address":"3 Ppg Place, Pittsburgh PA","chain_name":null,"distance":0,"street_number":"603","street_name":"Stanwix Street","zip":"15222","city":"Pittsburgh","area":null,"county":"Allegheny County","state":"Pennsylvania","country":"us","formatted_address":"Two Gateway Center, 603, Stanwix Street, Downtown, Pittsburgh, Allegheny County, Pennsylvania, 15222, United States of America","place_id":"121392001","datatype":"locationiq"},{"name":"Einstein Bros Bagel","code":null,"latitude":33.31986,"longitude":-111.9799,"address":"4803 East Ray Road, Phoenix AZ","chain_name":null,"distance":0,"street_number":null,"street_name":"East Ray Road","zip":"85044","city":"Phoenix","area":null,"county":"Maricopa County","state":"Arizona","country":"us","formatted_address":"East Ray Road, Ahwatukee, Phoenix, Maricopa County, Arizona, 85044, United States of America","place_id":"163938143","datatype":"locationiq"},{"name":"Einstein Bros Bagel","code":null,"latitude":29.74062,"longitude":-95.4105,"address":"2801 S Shepherd Drive, Houston TX","chain_name":null,"distance":0,"street_number":null,"street_name":"Harold Street","zip":"77098","city":"Houston","area":null,"county":"Harris County","state":"Texas","country":"us","formatted_address":"Starbucks, Harold Street, Houston, Harris County, Texas, 77098, United States of America","place_id":"25712051","datatype":"locationiq"},{"name":"Einstein Bros Bagel","code":null,"latitude":33.36672,"longitude":-111.7561,"address":"899 North Val Vista Drive, Gilbert AZ","chain_name":null,"distance":0,"street_number":null,"street_name":"North Val Vista Drive","zip":"85234","city":"Gilbert","area":null,"county":"Maricopa County","state":"Arizona","country":"us","formatted_address":"Einstein Bagels, North Val Vista Drive, Gilbert, Maricopa County, Arizona, 85234, United States of America","place_id":"12298092","datatype":"locationiq"},{"name":"Einstein Bros Bagel","code":null,"latitude":40.43622,"longitude":-80.1097,"address":"979 Greentree Road, Pgh PA","chain_name":null,"distance":0,"street_number":null,"street_name":"I 79","zip":"15205","city":null,"area":null,"county":"Allegheny County","state":"Pennsylvania","country":"us","formatted_address":"I 79, Robinson Township, Allegheny County, Pennsylvania, 15205, United States of America","place_id":"75740809","datatype":"locationiq"},{"name":"Einstein Bros Bagel","code":null,"latitude":40.1981,"longitude":-74.8675,"address":"1615 Big Oak Road, Yardley PA","chain_name":null,"distance":0,"street_number":"101","street_name":"Oxford Valley Road","zip":"19030","city":"Lower Makefield Township","area":null,"county":"Bucks County","state":"Pennsylvania","country":"us","formatted_address":"CVS Pharmacy, 101, Oxford Valley Road, Lower Makefield Township, Bucks County, Pennsylvania, 19030, United States of America","place_id":"157311489","datatype":"locationiq"},{"name":"Einstein Bros Bagel","code":null,"latitude":39.74471,"longitude":-104.9681,"address":"1600 East 18th Avenue, Denver CO","chain_name":null,"distance":0,"street_number":"1830","street_name":"Franklin Street","zip":"80218","city":"Denver","area":"City Park West","county":"Denver County","state":"Colorado","country":"us","formatted_address":"Children's Hospital Colorado Uptown Denver, 1830, Franklin Street, City Park West, Denver, Denver County, Colorado, 80218, United States of America","place_id":"144267563","datatype":"locationiq"},{"name":"Einstein Bros Bagel","code":null,"latitude":33.01848,"longitude":-96.9914,"address":"500 East Fm 3040, Lewisville TX","chain_name":null,"distance":0,"street_number":"1702","street_name":"East Southwest Parkway","zip":"75067","city":"Lewisville","area":null,"county":"Denton County","state":"Texas","country":"us","formatted_address":"Inside Out Home Design, 1702, East Southwest Parkway, Lewisville, Denton County, Texas, 75067, United States of America","place_id":"57747933","datatype":"locationiq"},{"name":"Einstein Bros Bagel","code":null,"latitude":33.43391,"longitude":-111.8515,"address":"Gilbert AZ","chain_name":null,"distance":0,"street_number":"969","street_name":"West 10th Place","zip":"85201","city":"Mesa","area":null,"county":"Maricopa County","state":"Arizona","country":"us","formatted_address":"969, West 10th Place, Mesa, Maricopa County, Arizona, 85201, United States of America","place_id":"177153248","datatype":"locationiq"},{"name":"Einstein Bros Bagel","code":null,"latitude":38.60247,"longitude":-90.4387,"address":"12139 Manchester Road, Saint Louis MO","chain_name":null,"distance":0,"street_number":"12113","street_name":"Manchester Road","zip":"63131","city":"Des Peres","area":null,"county":"St. Louis County","state":"Missouri","country":"us","formatted_address":"12113, Manchester Road, Des Peres, St. Louis County, Missouri, 63131, United States of America","place_id":"194065651","datatype":"locationiq"},{"name":"Einstein Bros Bagel","code":null,"latitude":45.08444,"longitude":-93.0108,"address":"4735 Highway 61 North, Saint Paul MN","chain_name":null,"distance":0,"street_number":null,"street_name":"US 61","zip":"55110","city":"White Bear Lake","area":null,"county":"Ramsey County","state":"Minnesota","country":"us","formatted_address":"White Bear Lake Historical Society, US 61, White Bear Lake, Ramsey County, Minnesota, 55110, United States of America","place_id":"16477402","datatype":"locationiq"},{"name":"Einstein Bros Bagel","code":null,"latitude":29.7423,"longitude":-95.3912,"address":"3407 Montrose Boulevard, Houston TX","chain_name":null,"distance":0,"street_number":null,"street_name":"Hawthorne Street","zip":"77006","city":"Houston","area":null,"county":"Harris County","state":"Texas","country":"us","formatted_address":"Starbucks, Hawthorne Street, Houston, Harris County, Texas, 77006, United States of America","place_id":"5221688","datatype":"locationiq"},{"name":"Einstein Bros Bagel","code":null,"latitude":39.91434,"longitude":-75.3433,"address":"1056 Baltimore Pike, Springfield PA","chain_name":null,"distance":0,"street_number":null,"street_name":"East Baltimore Pike","zip":"19064","city":"Springfield Township","area":null,"county":"Delaware County","state":"Pennsylvania","country":"us","formatted_address":"East Baltimore Pike, Olde Sproul Shopping Centre, Springfield Township, Delaware County, Pennsylvania, 19064, United States of America","place_id":"76600742","datatype":"locationiq"},{"name":"Einstein Bros Bagel","code":null,"latitude":40.42977,"longitude":-79.8113,"address":"3462 William Penn Highway, Pittsburgh PA","chain_name":null,"distance":0,"street_number":null,"street_name":"Kingston Drive","zip":"15145","city":null,"area":null,"county":"Allegheny County","state":"Pennsylvania","country":"us","formatted_address":"Applebee's, Kingston Drive, Penn Center East, Wilkins Township, Allegheny County, Pennsylvania, 15145, United States of America","place_id":"26531821","datatype":"locationiq"},{"name":"Einstein Bros Bagel","code":null,"latitude":33.63203,"longitude":-111.9279,"address":"15849 North 71st Street, Scottsdale AZ","chain_name":null,"distance":0,"street_number":"16210","street_name":"North 71st Street","zip":"85254","city":"Phoenix","area":null,"county":"Maricopa County","state":"Arizona","country":"us","formatted_address":"16210, North 71st Street, Phoenix, Maricopa County, Arizona, 85254, United States of America","place_id":"177221373","datatype":"locationiq"},{"name":"Einstein Bros Bagel","code":null,"latitude":38.96219,"longitude":-77.3565,"address":"1829 Fountain Drive, Reston VA","chain_name":null,"distance":0,"street_number":"11901","street_name":"Bowman Towne Drive","zip":"20190","city":null,"area":"Lake Anne Village","county":"Fairfax County","state":"Virginia","country":"us","formatted_address":"11901, Bowman Towne Drive, Lake Anne Village, Reston, Fairfax County, Virginia, 20190, United States of America","place_id":"207398275","datatype":"locationiq"},{"name":"Einstein Bros Bagel","code":null,"latitude":44.98322,"longitude":-93.457,"address":"187 Cheshire Lane North, Minneapolis MN","chain_name":null,"distance":0,"street_number":"500","street_name":"Cheshire Lane","zip":"55441","city":"Plymouth","area":null,"county":"Hennepin County","state":"Minnesota","country":"us","formatted_address":"500, Cheshire Lane, Plymouth, Hennepin County, Minnesota, 55441, United States of America","place_id":"192072143","datatype":"locationiq"},{"name":"Einstein Bros Bagel","code":null,"latitude":40.44321,"longitude":-79.9553,"address":"4906 Baum Boulevard, Pgh PA","chain_name":null,"distance":0,"street_number":null,"street_name":"Forbes Avenue","zip":"15213","city":"Pittsburgh","area":"Oakland","county":"Allegheny County","state":"Pennsylvania","country":"us","formatted_address":"McCormick Hall, Forbes Avenue, Oakland, Central Oakland, Pittsburgh, Allegheny County, Pennsylvania, 15213, United States of America","place_id":"104464452","datatype":"locationiq"},{"name":"Einstein Bros Bagel","code":null,"latitude":38.8175,"longitude":-77.141,"address":"6244 Little River Turnpike, Alexandria VA","chain_name":null,"distance":0,"street_number":"6227","street_name":"Little River Turnpike","zip":"22312","city":null,"area":"James K. Polk","county":"Alexandria City","state":"Virginia","country":"us","formatted_address":"KFC, 6227, Little River Turnpike, James K. Polk, Lincolnia, Alexandria City, Virginia, 22312, United States of America","place_id":"130539556","datatype":"locationiq"},{"name":"Einstein Bros Bagel","code":null,"latitude":39.80513,"longitude":-84.0352,"address":"4881 Sugar Maple Drive, Dayton OH","chain_name":null,"distance":0,"street_number":"4885","street_name":"Sugar Maple Drive","zip":"45433","city":null,"area":null,"county":"Greene County","state":"Ohio","country":"us","formatted_address":"4885, Sugar Maple Drive, Buckeye Trailer Court, Greene County, Ohio, 45433, United States of America","place_id":"199225745","datatype":"locationiq"},{"name":"Einstein Bros Bagel","code":null,"latitude":44.94826,"longitude":-93.3014,"address":"1513 West Lake Street, Minneapolis MN","chain_name":null,"distance":0,"street_number":"1513","street_name":"West Lake Street","zip":"55408","city":"Minneapolis","area":null,"county":"Hennepin County","state":"Minnesota","country":"us","formatted_address":"Lake & Irving, 1513, West Lake Street, East Calhoun, Minneapolis, Hennepin County, Minnesota, 55408, United States of America","place_id":"28606583","datatype":"locationiq"},{"name":"Einstein Bros Bagel","code":null,"latitude":44.86227,"longitude":-93.2927,"address":"700 West 78th Street, Minneapolis MN","chain_name":null,"distance":0,"street_number":null,"street_name":"I 494;MN 5","zip":"55431","city":null,"area":null,"county":"Hennepin County","state":"Minnesota","country":"us","formatted_address":"Don Pablo's, I 494;MN 5, Richfield, Hennepin County, Minnesota, 55431, United States of America","place_id":"88273287","datatype":"locationiq"},{"name":"einstein bagels","code":null,"latitude":33.1971682188985,"longitude":-117.380541181423,"address":"oceanside CA","chain_name":null,"distance":0,"street_number":null,"street_name":"Civic Center Drive","zip":"92054","city":"Oceanside","area":null,"county":"San Diego County","state":"California","country":"us","formatted_address":"Oceanside Public Library, Civic Center Drive, Oceanside, San Diego County, California, 92054, United States of America","place_id":"173860223","datatype":"locationiq"},{"name":"Einsteins","code":null,"latitude":31.7761855,"longitude":-106.4694687,"address":"2121 Wyoming avenue, El Paso TX","chain_name":null,"distance":0,"street_number":"2185","street_name":"Wyoming Avenue","zip":"79903","city":"El Paso City","area":null,"county":"El Paso County","state":"Texas","country":"us","formatted_address":"2185, Wyoming Avenue, El Paso City, El Paso County, Texas, 79903, United States of America","place_id":"205045001","datatype":"locationiq"},{"name":"Einstein Bros.Bagels","code":null,"latitude":26.1224386,"longitude":-80.1373174,"address":"17th St. Causeway, Ft. Lauderdale FL","chain_name":null,"distance":0,"street_number":null,"street_name":"Southeast 6th Avenue","zip":"33394","city":"Fort Lauderdale","area":null,"county":"Broward County","state":"Florida","country":"us","formatted_address":"Starbucks, Southeast 6th Avenue, Fort Lauderdale, Broward County, Florida, 33394, United States of America","place_id":"141504220","datatype":"locationiq"}]