[{"latitude":"41.469188","longitude":"-81.769217","name":"117th & I90 GetGo\/WetGo","address":"\n\t\t\t3038 W 117th Street<br>\nCleveland, OH 44111<br>\n\n\t\t\t(216) 941-9024 (Main)<br>\n(216) 941-9254 (Main Fax)<br>\n(216) 941-9443 (Car Wash)<br>\n\n\t\t\tSun-Sat: 6:00 AM - 11:00 PM<br>\n\n\t\t\t","street_number":null,"street_name":"West 117th Street","zip":"44111","city":"Cleveland","area":null,"county":"Cuyahoga County","state":"Ohio","country":"us","formatted_address":"Get Go, West 117th Street, Jefferson, Cleveland, Cuyahoga County, Ohio, 44111, United States of America","place_id":"49775316","datatype":"locationiq"},{"latitude":"41.026985","longitude":"-81.461538","name":"Akron Route 224 & 241 GetGo Cafe' & Market","address":"\n\t\t\t1900 East Waterloo Road<br>\nAkron, OH 44312<br>\n\n\t\t\t(330) 849-3050 (Main)<br>\n(330) 849-3051 (Main Fax)<br>\n\n\t\t\tSun-Sat: Open 24 hours<br>\n\n\t\t\t","street_number":null,"street_name":"East Waterloo Road","zip":"44312","city":"Akron","area":null,"county":"Summit County","state":"Ohio","country":"us","formatted_address":"East Waterloo Road, Ellet, Akron, Summit County, Ohio, 44312, United States of America","place_id":"82145834","datatype":"locationiq"},{"latitude":"40.598231","longitude":"-80.302662","name":"Aliquippa GetGo","address":"\n\t\t\t3105 Green Garden Road<br>\nAliquippa, PA 15001-1069<br>\n\n\t\t\t(724) 378-6320 (Main)<br>\n\n\t\t\tSun: 6:00 AM - 9:00 PM<br>\nMon-Sat: 6:00 AM - 10:00 PM<br>\n\n\t\t\t","street_number":null,"street_name":"Independence Road","zip":"15001","city":null,"area":null,"county":"Beaver County","state":"Pennsylvania","country":"us","formatted_address":"Independence Road, Arrow, Beaver County, Pennsylvania, 15001, United States of America","place_id":"70912763","datatype":"locationiq"},{"latitude":"40.606839","longitude":"-79.609101","name":"Allegheny Township GetGo","address":"\n\t\t\t51 Towne Center Drive<br>\nLeechburg, PA 15656<br>\n\n\t\t\t(724) 845-4343 (Main)<br>\n(724) 845-4367 (Main Fax)<br>\n\n\t\t\tSun-Sat: 5:00 AM - 11:00 PM<br>\n\n\t\t\t","street_number":null,"street_name":"PA 56","zip":"15690","city":"Vandergrift","area":null,"county":"Westmoreland County","state":"Pennsylvania","country":"us","formatted_address":"PA 56, Vandergrift, Westmoreland County, Pennsylvania, 15690, United States of America","place_id":"121797502","datatype":"locationiq"},{"latitude":"40.555246","longitude":"-79.971201","name":"Allison Park GetGo","address":"\n\t\t\t2401 Ferguson Road<br>\nAllison Park, PA 15101<br>\n\n\t\t\t(412) 487-9685 (Main)<br>\n\n\t\t\tSun-Sat: 5:30 AM - 11:00 PM<br>\n\n\t\t\t","street_number":null,"street_name":"Ferguson Road","zip":"15101","city":null,"area":null,"county":"Allegheny County","state":"Pennsylvania","country":"us","formatted_address":"GetGo, Ferguson Road, Hampton Township, Allegheny County, Pennsylvania, 15101, United States of America","place_id":"13565565","datatype":"locationiq"},{"latitude":"40.485400","longitude":"-78.387906","name":"Altoona GetGo","address":"\n\t\t\t200 Sophira Lane<br>\nAltoona, PA 16602<br>\n\n\t\t\t(814) 940-1525 (Main)<br>\n\n\t\t\tSun-Sat: 6:00 AM - 11:00 PM<br>\n\n\t\t\t","street_number":null,"street_name":"Sophira Drive","zip":"16602","city":null,"area":null,"county":"Blair County","state":"Pennsylvania","country":"us","formatted_address":"Ge, Sophira Drive, Hileman Heights, Blair County, Pennsylvania, 16602, United States of America","place_id":"137360733","datatype":"locationiq"},{"latitude":"41.416641","longitude":"-82.205529","name":"Amherst GetGo","address":"\n\t\t\t2223 Kresge Drive<br>\nAmherst, OH 44001<br>\n\n\t\t\t(440) 282-8600 (Main)<br>\n\n\t\t\tSun-Sat: 5:00 AM - 11:00 PM<br>\n\n\t\t\t","street_number":"1999","street_name":"Kresge Drive","zip":"44001","city":"Amherst","area":null,"county":"Lorain County","state":"Ohio","country":"us","formatted_address":"1999, Kresge Drive, Amherst, Lorain County, Ohio, 44001, United States of America","place_id":"199471182","datatype":"locationiq"},{"latitude":"41.854377","longitude":"-80.817174","name":"Ashtabula GetGo","address":"\n\t\t\t2388 Prospect Ave<br>\nAshtabula, OH 44004<br>\n\n\t\t\t(440) 992-5159 (Main)<br>\n\n\t\t\tSun-Sat: 6:00 AM - 11:00 PM<br>\n\n\t\t\t","street_number":"2515","street_name":"North Ridge Road West","zip":"44004","city":"Ashtabula","area":null,"county":"Ashtabula County","state":"Ohio","country":"us","formatted_address":"2515, North Ridge Road West, Ashtabula, Ashtabula County, Ohio, 44004, United States of America","place_id":"198789314","datatype":"locationiq"},{"latitude":"41.099144","longitude":"-80.755057","name":"Austintown GetGo\/WetGo","address":"\n\t\t\t5163 Mahoning Ave<br>\nAustintown, OH 44515<br>\n\n\t\t\t(330) 792-2311 (Main)<br>\n(330) 792-2313 (Main Fax)<br>\n\n\t\t\tSun-Sat: Open 24 hours<br>\n\n\t\t\t","street_number":"5163","street_name":"Mahoning Avenue","zip":"44515","city":null,"area":null,"county":"Mahoning County","state":"Ohio","country":"us","formatted_address":"Get Go, 5163, Mahoning Avenue, West Austintown, Mahoning County, Ohio, 44515, United States of America","place_id":"135883190","datatype":"locationiq"},{"latitude":"41.466638","longitude":"-82.023024","name":"Avon GetGo","address":"\n\t\t\t1501 Travelers Pointe<br>\nAvon, OH 44011<br>\n\n\t\t\t(440) 934-5855 (Main)<br>\n(440) 934-5864 (Main Fax)<br>\n\n\t\t\tSun-Sat: Open 24 hours<br>\n\n\t\t\t","street_number":"1577","street_name":"Traveler's Point","zip":"44011","city":"Avon","area":null,"county":"Lorain County","state":"Ohio","country":"us","formatted_address":"1577, Traveler's Point, Avon, Lorain County, Ohio, 44011, United States of America","place_id":"199478834","datatype":"locationiq"},{"latitude":"40.547086","longitude":"-80.029268","name":"Babcock Blvd GetGo","address":"\n\t\t\t5603 Babcock Boulevard<br>\nPittsburgh, PA 15237<br>\n\n\t\t\t(412) 366-6999 (Main)<br>\n\n\t\t\tSun-Sat: 6:00 AM - 11:00 PM<br>\n\n\t\t\t","street_number":null,"street_name":"Babcock Boulevard","zip":"15237","city":null,"area":null,"county":"Allegheny County","state":"Pennsylvania","country":"us","formatted_address":"Getgo, Babcock Boulevard, Ross Township, Allegheny County, Pennsylvania, 15237, United States of America","place_id":"147463573","datatype":"locationiq"},{"latitude":"41.009189","longitude":"-81.589917","name":"Barberton GetGo","address":"\n\t\t\t45 5th Street S.E.<br>\nBarberton, OH 44203<br>\n\n\t\t\t(330) 861-5039 (Main)<br>\n(330) 861-0717 (Main Fax)<br>\n\n\t\t\tSun-Sat: 6:00 AM - 11:00 PM<br>\n\n\t\t\t","street_number":"76","street_name":"5th Street Southeast","zip":"44203","city":"Barberton","area":"Austin Estates","county":"Summit County","state":"Ohio","country":"us","formatted_address":"76, 5th Street Southeast, Austin Estates, Barberton, Coventry Township, Summit County, Ohio, 44203, United States of America","place_id":"199895113","datatype":"locationiq"},{"latitude":"40.454590","longitude":"-79.945506","name":"Baum Blvd. GetGo","address":"\n\t\t\t4924 Baum Blvd.<br>\nPittsburgh, PA 15213<br>\n\n\t\t\t(412) 681-1883 (Main)<br>\n(412) 621-6191 (Main Fax)<br>\n\n\t\t\tSun-Sat: Open 24 hours<br>\n\n\t\t\t","street_number":"4924","street_name":"Baum Boulevard","zip":"15213","city":"Pittsburgh","area":null,"county":"Allegheny County","state":"Pennsylvania","country":"us","formatted_address":"GetGo, 4924, Baum Boulevard, Bloomfield, Pittsburgh, Allegheny County, Pennsylvania, 15213, United States of America","place_id":"20331172","datatype":"locationiq"},{"latitude":"40.053028","longitude":"-78.511219","name":"Bedford GetGo","address":"\n\t\t\t4363 U.S. 220 Business<br>\nUnit #1<br>\nBedford, PA 15522<br>\n\n\t\t\t(814) 624-0599 (Main)<br>\n(814) 624-0399 (Main Fax)<br>\n\n\t\t\tSun-Sat: 5:00 AM - 12:00 AM<br>\n\n\t\t\t","street_number":null,"street_name":"North Richard Street","zip":null,"city":null,"area":null,"county":"Bedford County","state":"Pennsylvania","country":"us","formatted_address":"McDonald's, North Richard Street, Wolfsburg, Bedford County, Pennsylvania, United States of America","place_id":"163702555","datatype":"locationiq"},{"latitude":"40.901500","longitude":"-81.134400","name":"Beechwood & State St. GetGo Cafe' & Market","address":"\n\t\t\t1896 West State Street<br>\nAlliance, OH 44601<br>\n\n\t\t\t(330) 821-2216 (Main)<br>\n(330) 821-2298 (Main Fax)<br>\n\n\t\t\tSun-Sat: Open 24 hours<br>\n\n\t\t\t","street_number":null,"street_name":"Beechwood Avenue","zip":"44601","city":"Alliance","area":null,"county":"Stark County","state":"Ohio","country":"us","formatted_address":"Beechwood Avenue, Alliance, Washington Township, Stark County, Ohio, 44601, United States of America","place_id":"70883169","datatype":"locationiq"},{"latitude":"40.152383","longitude":"-79.775158","name":"Belle Vernon GetGo","address":"\n\t\t\t4285 State Route 51 S<br>\nBelle Vernon, PA 15012<br>\n\n\t\t\t(724) 929-6328 (Main)<br>\n(724) 929-3857 (Main Fax)<br>\n\n\t\t\tSun-Sat: Open 24 hours<br>\n\n\t\t\t","street_number":null,"street_name":"Finley Road","zip":"15012","city":null,"area":null,"county":"Westmoreland County","state":"Pennsylvania","country":"us","formatted_address":"GetGo, Finley Road, Port Royal, Westmoreland County, Pennsylvania, 15012, United States of America","place_id":"170786747","datatype":"locationiq"},{"latitude":"39.981843","longitude":"-82.821780","name":"Blacklick GetGo","address":"\n\t\t\t6825 East Broad Street<br>\nColumbus, OH 43213<br>\n\n\t\t\t(614) 863-0826 (Main)<br>\n(614) 863-0849 (Main Fax)<br>\n\n\t\t\tSun-Sat: 6:00 AM - 11:00 PM<br>\n\n\t\t\t","street_number":null,"street_name":"East Broad Street","zip":"43004","city":"Columbus","area":null,"county":"Franklin County","state":"Ohio","country":"us","formatted_address":"Get Go, East Broad Street, Columbus, Franklin County, Ohio, 43004, United States of America","place_id":"31305633","datatype":"locationiq"},{"latitude":"41.024609","longitude":"-80.679035","name":"Boardman GetGo","address":"\n\t\t\t480 Boardman-Canfield Rd<br>\nBoardman, OH 44512<br>\n\n\t\t\t(330) 729-9305 (Main)<br>\n\n\t\t\tSun-Sat: 6:00 AM - 11:00 PM<br>\n\n\t\t\t","street_number":null,"street_name":"Boardman Canfield Road","zip":"44512","city":null,"area":null,"county":"Mahoning County","state":"Ohio","country":"us","formatted_address":"Get Go, Boardman Canfield Road, Boardman, Mahoning County, Ohio, 44512, United States of America","place_id":"136504975","datatype":"locationiq"},{"latitude":"40.372174","longitude":"-79.981943","name":"Brentwood GetGo\/WetGo","address":"\n\t\t\t3601 Sawmill Run Blvd<br>\nState Route 51<br>\nPittsburgh, PA 15227<br>\n\n\t\t\t(412) 885-7360 (Main)<br>\n\n\t\t\tSun-Sat: Open 24 hours<br>\n\n\t\t\t","street_number":null,"street_name":"Clairton Road","zip":"15227","city":"Brentwood","area":null,"county":"Allegheny County","state":"Pennsylvania","country":"us","formatted_address":"GetGo, Clairton Road, Brentwood, Allegheny County, Pennsylvania, 15227, United States of America","place_id":"171604382","datatype":"locationiq"},{"latitude":"40.353110","longitude":"-80.114203","name":"Bridgeville GetGo\/WetGo","address":"\n\t\t\t3029 Washington Pike<br>\nBridgeville, PA 15017<br>\n\n\t\t\t(412) 220-7190 (Main)<br>\n(412) 220-7193 (Main Fax)<br>\n\n\t\t\tSun-Sat: Open 24 hours<br>\n\n\t\t\t","street_number":null,"street_name":"Daniel Drive","zip":"15017","city":null,"area":null,"county":"Allegheny County","state":"Pennsylvania","country":"us","formatted_address":"Get Go Gas Station, Daniel Drive, South Fayette Township, Allegheny County, Pennsylvania, 15017, United States of America","place_id":"158881659","datatype":"locationiq"},{"latitude":"40.036000","longitude":"-83.131800","name":"Britton Parkway GetGo","address":"\n\t\t\t4051 Britton Parkway<br>\nHilliard, OH 43026<br>\n\n\t\t\t(614) 876-1080 (Main)<br>\n(614) 876-1627 (Main Fax)<br>\n\n\t\t\tSun-Sat: 5:00 AM - 12:00 AM<br>\n\n\t\t\t","street_number":null,"street_name":"Britton Parkway","zip":"43026","city":"Hilliard","area":null,"county":"Franklin County","state":"Ohio","country":"us","formatted_address":"Britton Parkway, Hilliard, Franklin County, Ohio, 43026, United States of America","place_id":"75745832","datatype":"locationiq"},{"latitude":"41.363864","longitude":"-81.685107","name":"Broadview GetGo","address":"\n\t\t\t7418 Broadview Road<br>\nParma, OH 44134<br>\n\n\t\t\t(216) 328-8540 (Main)<br>\n(216) 328-8542 (Main Fax)<br>\n\n\t\t\tSun-Sat: 6:00 AM - 12:00 AM<br>\n\n\t\t\t","street_number":null,"street_name":"Broadview Road","zip":"44147","city":null,"area":null,"county":"Cuyahoga County","state":"Ohio","country":"us","formatted_address":"Charter One, Broadview Road, Seven Hills, Cuyahoga County, Ohio, 44147, United States of America","place_id":"28047848","datatype":"locationiq"},{"latitude":"41.404834","longitude":"-81.796418","name":"Brookpark GetGo","address":"\n\t\t\t14600 Snow Rd<br>\nBrookpark, OH 44142<br>\n\n\t\t\t(216) 267-8128 (Main)<br>\n\n\t\t\tSun-Sat: 6:00 AM - 11:00 PM<br>\n\n\t\t\t","street_number":"14556","street_name":"Snow Road","zip":"44142","city":null,"area":null,"county":"Cuyahoga County","state":"Ohio","country":"us","formatted_address":"14556, Snow Road, Brook Park, Cuyahoga County, Ohio, 44142, United States of America","place_id":"199008511","datatype":"locationiq"},{"latitude":"41.165337","longitude":"-79.098247","name":"Brookville GetGo","address":"\n\t\t\t217 Allegheny Blvd<br>\nBrookville, PA 15825<br>\n\n\t\t\t(814) 849-4363 (Main)<br>\n(814) 849-6398 (Main Fax)<br>\n\n\t\t\tSun-Sat: Open 24 hours<br>\n\n\t\t\t","street_number":"117","street_name":"Waterford Pike","zip":"15825","city":"Brookville","area":null,"county":"Jefferson County","state":"Pennsylvania","country":"us","formatted_address":"117, Waterford Pike, Brookville, Jefferson County, Pennsylvania, 15825, United States of America","place_id":"201840636","datatype":"locationiq"},{"latitude":"41.238798","longitude":"-81.806639","name":"Brunswick Center Road GetGo Cafe' & Market","address":"\n\t\t\t3351 Center Road<br>\nBrunswick, OH 44212<br>\n\n\t\t\t(330) 741-6052 (Main)<br>\n(330) 741-6053 (Main Fax)<br>\n\n\t\t\tSun-Sat: Open 24 hours<br>\n\n\t\t\t","street_number":"3267","street_name":"Center Road","zip":"44212","city":"Brunswick","area":null,"county":"Medina County","state":"Ohio","country":"us","formatted_address":"3267, Center Road, Brunswick, Medina County, Ohio, 44212, United States of America","place_id":"199575685","datatype":"locationiq"},{"latitude":"40.878157","longitude":"-79.897195","name":"Butler GetGo\/WetGo","address":"\n\t\t\t1024 North Main Street<br>\nButler, PA 16001<br>\n\n\t\t\t(724) 282-4148 (Main)<br>\n\n\t\t\tSun-Sat: Open 24 hours<br>\n\n\t\t\t","street_number":null,"street_name":"Fairfield Lane","zip":"16001","city":null,"area":null,"county":"Butler County","state":"Pennsylvania","country":"us","formatted_address":"Fairfield Lane, Homeacre-Lyndora, Butler County, Pennsylvania, 16001, United States of America","place_id":"167841720","datatype":"locationiq"},{"latitude":"40.984684","longitude":"-80.313425","name":"Butler Road GetGo\/WetGo","address":"\n\t\t\t1700-B New Butler Road<br>\nNew Castle, PA 16101<br>\n\n\t\t\t(724) 658-9651 (Main)<br>\n\n\t\t\tSun-Sat: 6:00 AM - 11:00 PM<br>\n\n\t\t\t","street_number":null,"street_name":"Service Street","zip":"16101","city":null,"area":null,"county":"Lawrence County","state":"Pennsylvania","country":"us","formatted_address":"Service Street, East New Castle, Lawrence County, Pennsylvania, 16101, United States of America","place_id":"71422369","datatype":"locationiq"},{"latitude":"40.674811","longitude":"-80.584209","name":"Calcutta GetGo","address":"\n\t\t\t15905 SR 170<br>\nEast Liverpool, OH 43920<br>\n\n\t\t\t(330) 386-0574 (Main)<br>\n(330) 386-1192 (Main Fax)<br>\n\n\t\t\tSun-Sat: 6:00 AM - 11:00 PM<br>\n\n\t\t\t","street_number":"48757","street_name":"Lakeview Circle","zip":"43920","city":null,"area":null,"county":"Columbiana County","state":"Ohio","country":"us","formatted_address":"48757, Lakeview Circle, Calcutta, Columbiana County, Ohio, 43920, United States of America","place_id":"198938195","datatype":"locationiq"},{"latitude":"40.521151","longitude":"-80.068881","name":"Camp Horne GetGo","address":"\n\t\t\t156 Ben Avon Heights Road<br>\nPittsburgh, PA 15237<br>\n\n\t\t\t(412) 364-3453 (Main)<br>\n\n\t\t\tSun-Sat: 5:00 AM - 11:00 PM<br>\n\n\t\t\t","street_number":null,"street_name":"Ben Avon Heights Road","zip":"15202","city":"Ben Avon Heights","area":null,"county":"Allegheny County","state":"Pennsylvania","country":"us","formatted_address":"Giant Eagle, Ben Avon Heights Road, Ben Avon Heights, Allegheny County, Pennsylvania, 15202, United States of America","place_id":"147995591","datatype":"locationiq"},{"latitude":"41.024167","longitude":"-80.736456","name":"Canfield Route 224 & 11 GetGo Cafe' & Market","address":"\n\t\t\t4590 Boardman Canfield Rd<br>\nCanfield, OH 44406<br>\n\n\t\t\t(330) 967-7146 (Main)<br>\n(330) 967-7147 (Main Fax)<br>\n\n\t\t\tSun-Sat: Open 24 hours<br>\n\n\t\t\t","street_number":"4585","street_name":"Boardman Canfield Road","zip":"44406","city":null,"area":null,"county":"Mahoning County","state":"Ohio","country":"us","formatted_address":"Sheetz, 4585, Boardman Canfield Road, Starrs Corners, Mahoning County, Ohio, 44406, United States of America","place_id":"167151782","datatype":"locationiq"},{"latitude":"40.832985","longitude":"-81.382796","name":"Canton GetGo","address":"\n\t\t\t3070 Cromer Avenue NW<br>\nCanton, OH 44709<br>\n\n\t\t\t(330) 492-2157 (Main)<br>\n(330) 492-2206 (Main Fax)<br>\n\n\t\t\tSun-Sat: 6:00 AM - 11:00 PM<br>\n\n\t\t\t","street_number":"3062","street_name":"Cromer Avenue Northwest","zip":"44709","city":"Canton","area":null,"county":"Stark County","state":"Ohio","country":"us","formatted_address":"3062, Cromer Avenue Northwest, Canton, Stark County, Ohio, 44709, United States of America","place_id":"199883598","datatype":"locationiq"},{"latitude":"39.998922","longitude":"-86.088241","name":"Carmel 146th & Gray GetGo Cafe' & Market","address":"\n\t\t\t4927 E 146th Street<br>\nCarmel, IN 46033<br>\n\n\t\t\t(317) 689-6804 (Main)<br>\n(317) 689-6805 (Main Fax)<br>\n(317) 689-6804 (Curbside Express)<br>\n\n\t\t\tSun-Sat: Open 24 hours<br>\n\n\t\t\t","street_number":null,"street_name":"East 146th Street","zip":"46074","city":"Carmel","area":null,"county":"Hamilton County","state":"Indiana","country":"us","formatted_address":"East 146th Street, Carmel, Hamilton County, Indiana, 46074, United States of America","place_id":"104093683","datatype":"locationiq"},{"latitude":"39.954400","longitude":"-86.163300","name":"Carmel GetGo Cafe' & Market","address":"\n\t\t\t11545 N Illinois Street<br>\nCarmel, IN 46032<br>\n\n\t\t\t(317) 569-0034 (Main)<br>\n(317) 569-0245 (Main Fax)<br>\n\n\t\t\tSun-Sat: Open 24 hours<br>\n\n\t\t\t","street_number":null,"street_name":"North Illinois Street","zip":"46082","city":"Carmel","area":null,"county":"Hamilton County","state":"Indiana","country":"us","formatted_address":"North Illinois Street, Carmel, Hamilton County, Indiana, 46082, United States of America","place_id":"84267404","datatype":"locationiq"},{"latitude":"40.409689","longitude":"-80.082478","name":"Carnegie Parkway GetGo","address":"\n\t\t\t350 E Main Street<br>\nCarnegie, PA 15106<br>\n\n\t\t\t(412) 276-6107 (Main)<br>\n\n\t\t\tSun-Sat: Open 24 hours<br>\n\n\t\t\t","street_number":null,"street_name":"Sansbury Street","zip":"15106","city":"Carnegie","area":null,"county":"Allegheny County","state":"Pennsylvania","country":"us","formatted_address":"GetGo, Sansbury Street, Carnegie, Allegheny County, Pennsylvania, 15106, United States of America","place_id":"164958340","datatype":"locationiq"},{"latitude":"40.409706","longitude":"-80.082746","name":"Carnegie Parkway GetGo","address":"\n\t\t\t410 Chestnut Street<br>\nCarnegie, PA 15106<br>\n\n\t\t\t(412) 276-0925 (Main)<br>\n(412) 276-0927 (Main Fax)<br>\n\n\t\t\tSun-Sat: Open 24 hours<br>\n\n\t\t\t","street_number":null,"street_name":"Sansbury Street","zip":"15106","city":"Carnegie","area":null,"county":"Allegheny County","state":"Pennsylvania","country":"us","formatted_address":"GetGo, Sansbury Street, Carnegie, Allegheny County, Pennsylvania, 15106, United States of America","place_id":"164958340","datatype":"locationiq"},{"latitude":"41.584044","longitude":"-81.213229","name":"Chardon GetGo\/WetGo","address":"\n\t\t\t318 Center Street<br>\nChardon, OH 44024<br>\n\n\t\t\t(440) 285-8307 (Main)<br>\n\n\t\t\tSun-Sat: 5:00 AM - 12:00 AM<br>\n\n\t\t\t","street_number":"318","street_name":"Center Street","zip":"44024","city":"Chardon","area":null,"county":"Geauga County","state":"Ohio","country":"us","formatted_address":"Get Go, 318, Center Street, Meadowland Town Center, Chardon, Chardon Township, Geauga County, Ohio, 44024, United States of America","place_id":"139280967","datatype":"locationiq"},{"latitude":"40.770962","longitude":"-80.372280","name":"Chippewa GetGo\/WetGo","address":"\n\t\t\t111 McMillen Avenue<br>\nBeaver Falls, PA 15010<br>\n\n\t\t\t(724) 847-2263 (Main)<br>\n(724) 847-0061 (Main Fax)<br>\n\n\t\t\tSun-Sat: Open 24 hours<br>\n\n\t\t\t","street_number":"99","street_name":"McMillen Avenue","zip":"15010","city":null,"area":null,"county":"Beaver County","state":"Pennsylvania","country":"us","formatted_address":"99, McMillen Avenue, Riverview, Beaver County, Pennsylvania, 15010, United States of America","place_id":"201313049","datatype":"locationiq"},{"latitude":"41.165900","longitude":"-80.666776","name":"Churchill Commons GetGo","address":"\n\t\t\t4698 Belmont Avenue<br>\nYoungstown, OH 44505<br>\n\n\t\t\t(330) 759-9502 (Main)<br>\n\n\t\t\tSun-Sat: 6:00 AM - 11:00 PM<br>\n\n\t\t\t","street_number":null,"street_name":"Belmont Avenue","zip":"44505","city":null,"area":null,"county":"Trumbull County","state":"Ohio","country":"us","formatted_address":"Belmont Avenue, Churchill, Trumbull County, Ohio, 44505, United States of America","place_id":"71381800","datatype":"locationiq"},{"latitude":"41.408747","longitude":"-81.614369","name":"City View GetGo","address":"\n\t\t\t5637 Transportation Blvd<br>\nGarfield Heights, OH 44125<br>\n\n\t\t\t(216) 662-7569 (Main)<br>\n\n\t\t\tSun-Sat: 5:00 AM - 12:00 AM<br>\n\n\t\t\t","street_number":"5637","street_name":"Transportation Boulevard","zip":"44125","city":null,"area":null,"county":"Cuyahoga County","state":"Ohio","country":"us","formatted_address":"Get Go, 5637, Transportation Boulevard, Garfield Heights, Cuyahoga County, Ohio, 44125, United States of America","place_id":"58422133","datatype":"locationiq"},{"latitude":"40.391712","longitude":"-80.060729","name":"Cochran Road GetGo","address":"\n\t\t\t1636 Cochran Road<br>\nPittsburgh, PA 15220<br>\n\n\t\t\t(412) 563-4140 (Main)<br>\n\n\t\t\tSun-Sat: 5:00 AM - 11:00 PM<br>\n\n\t\t\t","street_number":"1650","street_name":"Cochran Road","zip":"15220","city":null,"area":null,"county":"Allegheny County","state":"Pennsylvania","country":"us","formatted_address":"1650, Cochran Road, Mount Lebanon, Allegheny County, Pennsylvania, 15220, United States of America","place_id":"201187343","datatype":"locationiq"},{"latitude":"41.027700","longitude":"-80.633900","name":"Community Center GetGo","address":"\n\t\t\t6911 South Avenue<br>\nBoardman, OH 44512<br>\n\n\t\t\t(330) 758-1295 (Main)<br>\n(330) 758-1362 (Main Fax)<br>\n\n\t\t\tSun-Sat: 6:00 AM - 11:00 PM<br>\n\n\t\t\t","street_number":null,"street_name":"Doral Drive","zip":"44514","city":null,"area":"South Main Street Historic District","county":"Mahoning County","state":"Ohio","country":"us","formatted_address":"Lowe's, Doral Drive, South Main Street Historic District, McKays Corners, Mahoning County, Ohio, 44514, United States of America","place_id":"3574969","datatype":"locationiq"},{"latitude":"40.441721","longitude":"-80.072028","name":"Crafton\/Ingram GetGo","address":"\n\t\t\t280 Crafton Ingram Shopping Center<br>\nPittsburgh, PA 15205<br>\n\n\t\t\t(412) 937-0190 (Main)<br>\n(412) 937-0196 (Main Fax)<br>\n\n\t\t\tSun-Sat: 6:00 AM - 11:00 PM<br>\n\n\t\t\t","street_number":"159","street_name":"Ingram Avenue","zip":"15205","city":"Ingram","area":null,"county":"Allegheny County","state":"Pennsylvania","country":"us","formatted_address":"159, Ingram Avenue, Fairywood, Ingram, Allegheny County, Pennsylvania, 15205, United States of America","place_id":"201211993","datatype":"locationiq"},{"latitude":"40.686596","longitude":"-80.086010","name":"Cranberry Crossroads GetGo\/WetGo","address":"\n\t\t\t1737 State Route 228<br>\nCranberry Twp, PA 16066<br>\n\n\t\t\t(724) 741-2380 (Main)<br>\n(724) 741-2382 (Main Fax)<br>\n\n\t\t\tSun-Sat: Open 24 hours<br>\n\n\t\t\t","street_number":null,"street_name":"Mackenzie Way","zip":"15086","city":"Cranberry Township","area":null,"county":"Butler County","state":"Pennsylvania","country":"us","formatted_address":"Get Go, Mackenzie Way, Cranberry Township, Butler County, Pennsylvania, 15086, United States of America","place_id":"143284226","datatype":"locationiq"},{"latitude":"40.682955","longitude":"-80.100460","name":"Cranberry Township GetGo\/WetGo","address":"\n\t\t\t20110 State Route 19<br>\nCranberry Township, PA 16066<br>\n\n\t\t\t(724) 772-4944 (Main)<br>\n(724) 779-3294 (Main Fax)<br>\n\n\t\t\tSun-Sat: 5:00 AM - 12:00 AM<br>\n\n\t\t\t","street_number":null,"street_name":"Perry Highway","zip":"16066","city":"Cranberry Township","area":null,"county":"Butler County","state":"Pennsylvania","country":"us","formatted_address":"GetGo, Perry Highway, Cranberry Township, Butler County, Pennsylvania, 16066, United States of America","place_id":"124202269","datatype":"locationiq"},{"latitude":"41.380093","longitude":"-81.740555","name":"Day Drive GetGo","address":"\n\t\t\t8039 Day Drive<br>\nCleveland, OH 44129<br>\n\n\t\t\t(440) 842-1350 (Main)<br>\n(440) 842-1665 (Main Fax)<br>\n\n\t\t\tSun-Sat: 6:00 AM - 11:00 PM<br>\n\n\t\t\t","street_number":"8157","street_name":"Day Drive","zip":"44129","city":null,"area":null,"county":"Cuyahoga County","state":"Ohio","country":"us","formatted_address":"8157, Day Drive, Parma, Cuyahoga County, Ohio, 44129, United States of America","place_id":"198988657","datatype":"locationiq"},{"latitude":"40.399704","longitude":"-79.578978","name":"Delmont GetGo\/WetGo","address":"\n\t\t\t6586 Route 22<br>\nDelmont, PA 15626<br>\n\n\t\t\t(724) 468-3808 (Main)<br>\n\n\t\t\tSun-Sat: Open 24 hours<br>\n\n\t\t\t","street_number":null,"street_name":"William Penn Highway","zip":"15626","city":null,"area":null,"county":"Westmoreland County","state":"Pennsylvania","country":"us","formatted_address":"GetGo, William Penn Highway, Ringertown, Westmoreland County, Pennsylvania, 15626, United States of America","place_id":"19483321","datatype":"locationiq"},{"latitude":"40.268573","longitude":"-80.128039","name":"Donaldson Crossroads GetGo\/WetGo","address":"\n\t\t\t4031 Washington Road<br>\nMcMurray, PA 15317<br>\n\n\t\t\t(724) 941-0722 (Main)<br>\n(724) 941-0726 (Main Fax)<br>\n(724) 941-1322 (Car Wash)<br>\n\n\t\t\tSun-Sat: 5:00 AM - 11:00 PM<br>\n\n\t\t\t","street_number":null,"street_name":"Washington Road","zip":"15301","city":null,"area":null,"county":"Washington County","state":"Pennsylvania","country":"us","formatted_address":"GetGo, Washington Road, Donaldsons Crossroads, Washington County, Pennsylvania, 15301, United States of America","place_id":"131313308","datatype":"locationiq"},{"latitude":"40.511450","longitude":"-81.466906","name":"Dover GetGo","address":"\n\t\t\t501 Union Avenue<br>\nDover, OH 44622<br>\n\n\t\t\t(330) 343-8268 (Main)<br>\n(330) 343-8364 (Main Fax)<br>\n\n\t\t\tSun-Sat: 6:00 AM - 11:00 PM<br>\n\n\t\t\t","street_number":"340","street_name":"Union Avenue","zip":"44622","city":"Dover","area":null,"county":"Tuscarawas County","state":"Ohio","country":"us","formatted_address":"340, Union Avenue, Dover, Tuscarawas County, Ohio, 44622, United States of America","place_id":"199966211","datatype":"locationiq"},{"latitude":"40.102736","longitude":"-83.158768","name":"Dublin GetGo\/WetGo","address":"\n\t\t\t6725 Perimeter Loop Dr<br>\nDublin, OH 43017<br>\n\n\t\t\t(614) 766-5877 (Main)<br>\n(614) 766-5071 (Main Fax)<br>\n\n\t\t\tSun-Sat: 5:00 AM - 12:00 AM<br>\n\n\t\t\t","street_number":null,"street_name":"Perimeter Loop Road","zip":"43017","city":"Dublin","area":null,"county":"Franklin County","state":"Ohio","country":"us","formatted_address":"BP, Perimeter Loop Road, Dublin, Franklin County, Ohio, 43017, United States of America","place_id":"6575645","datatype":"locationiq"},{"latitude":"41.122669","longitude":"-78.766318","name":"DuBois GetGo","address":"\n\t\t\t14 North Main Street<br>\nDuBois, PA 15801<br>\n\n\t\t\t(814) 371-1275 (Main)<br>\n(814) 371-1380 (Main Fax)<br>\n\n\t\t\tSun-Sat: 6:00 AM - 10:00 PM<br>\n\n\t\t\t","street_number":null,"street_name":"Orange Alley","zip":"15801","city":"DuBois","area":null,"county":"Clearfield County","state":"Pennsylvania","country":"us","formatted_address":"Orange Alley, DuBois, Clearfield County, Pennsylvania, 15801, United States of America","place_id":"66362132","datatype":"locationiq"},{"latitude":"40.462268","longitude":"-79.865225","name":"East Hills GetGo","address":"\n\t\t\t9003 Frankstown Road<br>\nPittsburgh, PA 15235<br>\n\n\t\t\t(412) 371-6638 (Main)<br>\n\n\t\t\tSun-Sat: 6:00 AM - 11:00 PM<br>\n\n\t\t\t","street_number":"30","street_name":"Verona Road","zip":"15147","city":null,"area":"Eastwood","county":"Allegheny County","state":"Pennsylvania","country":"us","formatted_address":"30, Verona Road, Eastwood, Penn Hills, Allegheny County, Pennsylvania, 15147, United States of America","place_id":"201239645","datatype":"locationiq"},{"latitude":"40.380683","longitude":"-79.811598","name":"East McKeesport GetGo","address":"\n\t\t\t436 Lincoln Highway East<br>\nEast McKeesport, PA 15035<br>\n\n\t\t\t(412) 829-8030 (Main)<br>\n\n\t\t\tSun-Sat: Open 24 hours<br>\n\n\t\t\t","street_number":"1222","street_name":"Stockton Alley","zip":"15035","city":"East McKeesport","area":null,"county":"Allegheny County","state":"Pennsylvania","country":"us","formatted_address":"1222, Stockton Alley, East McKeesport, Allegheny County, Pennsylvania, 15035, United States of America","place_id":"36311537","datatype":"locationiq"},{"latitude":"40.182785","longitude":"-80.262817","name":"East Wylie GetGo","address":"\n\t\t\t104 East Wylie Avenue<br>\nWashington, PA 15301<br>\n\n\t\t\t(724) 228-8401 (Main)<br>\n\n\t\t\tSun-Sat: Open 24 hours<br>\n\n\t\t\t","street_number":null,"street_name":"East Wylie Avenue","zip":"15301","city":"Washington","area":null,"county":"Washington County","state":"Pennsylvania","country":"us","formatted_address":"GetGo, East Wylie Avenue, Washington, Washington County, Pennsylvania, 15301, United States of America","place_id":"26471627","datatype":"locationiq"},{"latitude":"40.471412","longitude":"-78.752006","name":"Ebensburg GetGo","address":"\n\t\t\t4534 Admiral Peary Highway<br>\nEbensburg, PA 15931<br>\n\n\t\t\t(814) 472-2153 (Main)<br>\n(814) 472-2162 (Main Fax)<br>\n\n\t\t\tSun-Sat: 5:00 AM - 12:00 AM<br>\n\n\t\t\t","street_number":"103","street_name":"Beulah Road","zip":"15943","city":null,"area":null,"county":"Cambria County","state":"Pennsylvania","country":"us","formatted_address":"103, Beulah Road, Beula, Cambria County, Pennsylvania, 15943, United States of America","place_id":"201493739","datatype":"locationiq"},{"latitude":"40.433151","longitude":"-79.893918","name":"Edgewood GetGo","address":"\n\t\t\t1043 South Braddock Ave<br>\nPittsburgh, PA 15218<br>\n\n\t\t\t(412) 241-7481 (Main)<br>\n(412) 241-7687 (Main Fax)<br>\n\n\t\t\tSun-Sat: 6:00 AM - 11:00 PM<br>\n\n\t\t\t","street_number":null,"street_name":"South Braddock Avenue","zip":"15218","city":"Edgewood","area":"Park Place","county":"Allegheny County","state":"Pennsylvania","country":"us","formatted_address":"Dunning's Grill, South Braddock Avenue, Park Place, Regent Square, Edgewood, Allegheny County, Pennsylvania, 15218, United States of America","place_id":"36285799","datatype":"locationiq"},{"latitude":"41.875948","longitude":"-80.131261","name":"Edinboro GetGo","address":"\n\t\t\t200 Erie Street<br>\nEdinboro, PA 16412<br>\n\n\t\t\t(814) 734-6960 (Main)<br>\n(814) 734-6962 (Main Fax)<br>\n\n\t\t\tSun-Sat: 6:00 AM - 11:00 PM<br>\n\n\t\t\t","street_number":null,"street_name":"East Plum Street","zip":"16412","city":"Edinboro","area":null,"county":"Erie County","state":"Pennsylvania","country":"us","formatted_address":"East Plum Street, Edinboro, Erie County, Pennsylvania, 16412, United States of America","place_id":"168962097","datatype":"locationiq"},{"latitude":"40.264914","longitude":"-79.879381","name":"Elizabeth GetGo","address":"\n\t\t\t1000 Hayden Boulevard<br>\nElizabeth, PA 15037<br>\n\n\t\t\t(412) 384-1829 (Main)<br>\n(412) 384-1896 (Main Fax)<br>\n\n\t\t\tSun-Sat: Open 24 hours<br>\n\n\t\t\t","street_number":null,"street_name":"Hayden Boulevard","zip":"15088","city":"Elizabeth","area":null,"county":"Allegheny County","state":"Pennsylvania","country":"us","formatted_address":"GetGo, Hayden Boulevard, Elizabeth, Allegheny County, Pennsylvania, 15088, United States of America","place_id":"59215603","datatype":"locationiq"},{"latitude":"40.264398","longitude":"-79.879081","name":"Elizabeth GetGo","address":"\n\t\t\t998 Hayden Boulevard<br>\nElizabeth, PA 15037<br>\n\n\t\t\t(412) 382-3080 (Main)<br>\n(412) 382-3082 (Main Fax)<br>\n\n\t\t\tSun-Sat: Open 24 hours<br>\n\n\t\t\t","street_number":null,"street_name":"Hayden Boulevard","zip":"15088","city":"Elizabeth","area":null,"county":"Allegheny County","state":"Pennsylvania","country":"us","formatted_address":"GetGo, Hayden Boulevard, Elizabeth, Allegheny County, Pennsylvania, 15088, United States of America","place_id":"59215603","datatype":"locationiq"},{"latitude":"40.846703","longitude":"-80.259869","name":"Ellwood City GetGo","address":"\n\t\t\t263 State Route 288<br>\nEllwood City, PA 16117<br>\n\n\t\t\t(724) 752-1337 (Main)<br>\n(724) 752-1446 (Main Fax)<br>\n\n\t\t\tSun-Sat: 6:00 AM - 11:00 PM<br>\n\n\t\t\t","street_number":"275","street_name":"Ellwood-Zelienople Road","zip":"16117","city":null,"area":null,"county":"Beaver County","state":"Pennsylvania","country":"us","formatted_address":"275, Ellwood-Zelienople Road, Lillyville, Beaver County, Pennsylvania, 16117, United States of America","place_id":"201322652","datatype":"locationiq"},{"latitude":"41.369552","longitude":"-82.097465","name":"Elyria GetGo","address":"\n\t\t\t209 East Bridge Street<br>\nElyria, OH 44035<br>\n\n\t\t\t(440) 326-1940 (Main)<br>\n\n\t\t\tSun-Sat: 6:00 AM - 11:00 PM<br>\n\n\t\t\t","street_number":"275","street_name":"East Bridge Street","zip":"44035","city":"Elyria","area":"Washington Avenue Historic District","county":"Lorain County","state":"Ohio","country":"us","formatted_address":"275, East Bridge Street, Washington Avenue Historic District, Elyria, Lorain County, Ohio, 44035, United States of America","place_id":"199491974","datatype":"locationiq"},{"latitude":"42.110688","longitude":"-80.118441","name":"Erie Bayfront GetGo","address":"\n\t\t\t1625 West Bayfront Pkwy<br>\nErie, PA 16505<br>\n\n\t\t\t(814) 871-4308 (Main)<br>\n\n\t\t\tSun-Sat: Open 24 hours<br>\n\n\t\t\t","street_number":"1655","street_name":"West Bayfront Parkway","zip":"16505","city":"Erie","area":null,"county":"Erie County","state":"Pennsylvania","country":"us","formatted_address":"Erie Bayfront getGo Cafe and Market, 1655, West Bayfront Parkway, Erie, Erie County, Pennsylvania, 16505, United States of America","place_id":"53101377","datatype":"locationiq"},{"latitude":"42.125802","longitude":"-80.109962","name":"Erie Bayfront GetGo Cafe' & Market","address":"\n\t\t\t1655 W Bayfront Pkwy<br>\nErie, PA 16505<br>\n\n\t\t\t(814) 461-6535 (Main)<br>\n(814) 461-6539 (Main Fax)<br>\n\n\t\t\tSun-Sat: Open 24 hours<br>\n\n\t\t\t","street_number":"1099","street_name":"West Bayfront Parkway","zip":"16507","city":"Erie","area":null,"county":"Erie County","state":"Pennsylvania","country":"us","formatted_address":"1099, West Bayfront Parkway, Erie, Erie County, Pennsylvania, 16507, United States of America","place_id":"201754808","datatype":"locationiq"},{"latitude":"42.118774","longitude":"-79.965448","name":"Erie I-90 & 430 GetGo Cafe' & Market","address":"\n\t\t\t6005 Knowledge Pkwy<br>\nErie, PA 16510<br>\n\n\t\t\t(814) 898-1025 (Main)<br>\n(814) 898-1094 (Main Fax)<br>\n\n\t\t\tSun-Sat: Open 24 hours<br>\n\n\t\t\t","street_number":null,"street_name":"Bayfront Connector","zip":"16510","city":"Harborcreek Township","area":null,"county":"Erie County","state":"Pennsylvania","country":"us","formatted_address":"GetGo Cafe, Bayfront Connector, Harborcreek Township, Erie County, Pennsylvania, 16510, United States of America","place_id":"157049736","datatype":"locationiq"},{"latitude":"42.118694","longitude":"-79.965491","name":"Erie I-90 GetGo","address":"\n\t\t\t6001 Knowledge Pkwy<br>\nErie, PA 16510<br>\n\n\t\t\t(814) 898-1548 (Main)<br>\n\n\t\t\tSun-Sat: Open 24 hours<br>\n\n\t\t\t","street_number":null,"street_name":"Bayfront Connector","zip":"16510","city":"Harborcreek Township","area":null,"county":"Erie County","state":"Pennsylvania","country":"us","formatted_address":"GetGo Cafe, Bayfront Connector, Harborcreek Township, Erie County, Pennsylvania, 16510, United States of America","place_id":"157049736","datatype":"locationiq"},{"latitude":"42.059059","longitude":"-80.093379","name":"Erie Peach St GetGo","address":"\n\t\t\t6400 Peach St<br>\nErie, PA 16509<br>\n\n\t\t\t(814) 314-0721 (Main)<br>\n(814) 314-0723 (Main Fax)<br>\n\n\t\t\tSun-Sat: Open 24 hours<br>\n\n\t\t\t","street_number":"1920","street_name":"Hershey Road","zip":"16509","city":"Summit Township","area":null,"county":"Erie County","state":"Pennsylvania","country":"us","formatted_address":"1920, Hershey Road, Summit Township, Erie County, Pennsylvania, 16509, United States of America","place_id":"201741101","datatype":"locationiq"},{"latitude":"41.129700","longitude":"-81.614500","name":"Fairlawn GetGo","address":"\n\t\t\t4072 Medina Road<br>\nAkron, OH 44333<br>\n\n\t\t\t(330) 666-1900 (Main)<br>\n\n\t\t\tSun-Sat: 5:00 AM - 12:00 AM<br>\n\n\t\t\t","street_number":null,"street_name":"West Market Street","zip":"44333","city":"Fairlawn","area":null,"county":"Summit County","state":"Ohio","country":"us","formatted_address":"Cafe Bricco, West Market Street, Fairlawn, Summit County, Ohio, 44333, United States of America","place_id":"44059826","datatype":"locationiq"},{"latitude":"41.441521","longitude":"-81.863543","name":"Fairview Park GetGo","address":"\n\t\t\t21991 Lorain Road<br>\nCleveland, OH 44126<br>\n\n\t\t\t(440) 734-3307 (Main)<br>\n\n\t\t\tSun-Sat: 6:00 AM - 11:00 PM<br>\n\n\t\t\t","street_number":null,"street_name":"Lorain Road","zip":"44126","city":"Fairview Park","area":null,"county":"Cuyahoga County","state":"Ohio","country":"us","formatted_address":"GetGo, Lorain Road, Fairview Park, Cuyahoga County, Ohio, 44126, United States of America","place_id":"91414838","datatype":"locationiq"},{"latitude":"40.337143","longitude":"-80.050817","name":"Fort Couch GetGo\/WetGo","address":"\n\t\t\t14 Fort Couch Road<br>\nPittsburgh, PA 15241<br>\n\n\t\t\t(412) 833-6370 (Main)<br>\n\n\t\t\tSun-Sat: 6:00 AM - 12:00 AM<br>\n\n\t\t\t","street_number":null,"street_name":"Fort Couch Road","zip":"15241","city":"Bethel Park","area":null,"county":"Allegheny County","state":"Pennsylvania","country":"us","formatted_address":"GetGo, Fort Couch Road, Bethel Park, Allegheny County, Pennsylvania, 15241, United States of America","place_id":"139512631","datatype":"locationiq"},{"latitude":"41.401773","longitude":"-79.809928","name":"Franklin GetGo","address":"\n\t\t\t511 Allegheny Blvd.<br>\nFranklin, PA 16323<br>\n\n\t\t\t(814) 437-9070 (Main)<br>\n(814) 437-9072 (Main Fax)<br>\n\n\t\t\tSun-Sat: 6:00 AM - 10:00 PM<br>\n\n\t\t\t","street_number":null,"street_name":"Allegheny Boulevard","zip":"16323","city":"Sugarcreek","area":null,"county":"Venango County","state":"Pennsylvania","country":"us","formatted_address":"GetGo, Allegheny Boulevard, Sugarcreek, Venango County, Pennsylvania, 16323, United States of America","place_id":"149422572","datatype":"locationiq"},{"latitude":"39.415658","longitude":"-77.439068","name":"Frederick GetGo","address":"\n\t\t\t1000 West Patrick St.<br>\nFrederick, MD 21703<br>\n\n\t\t\t(301) 694-5331 (Main)<br>\n\n\t\t\tSun-Sat: 5:30 AM - 11:30 PM<br>\n\n\t\t\t","street_number":"51","street_name":"Linden Avenue","zip":"21703","city":"Frederick","area":null,"county":"Frederick County","state":"Maryland","country":"us","formatted_address":"51, Linden Avenue, Frederick, Frederick County, Maryland, 21703, United States of America","place_id":"189773552","datatype":"locationiq"},{"latitude":"39.430641","longitude":"-77.420643","name":"Frederick Shopping Center GetGo","address":"\n\t\t\t1391 W Seventh Street<br>\nFrederick, MD 21702<br>\n\n\t\t\t(301) 846-7740 (Main)<br>\n(301) 846-7742 (Main Fax)<br>\n\n\t\t\tSun-Sat: 6:00 AM - 11:00 PM<br>\n\n\t\t\t","street_number":null,"street_name":"West 8th Street","zip":"21702","city":"Frederick","area":null,"county":"Frederick County","state":"Maryland","country":"us","formatted_address":"Staples, West 8th Street, Frederick Shopping Center, Frederick, Frederick County, Maryland, 21702, United States of America","place_id":"107119951","datatype":"locationiq"},{"latitude":"40.052770","longitude":"-82.862850","name":"Gahanna GetGo","address":"\n\t\t\t1310 North Hamilton Rd<br>\nColumbus, OH 43230<br>\n\n\t\t\t(614) 775-9233 (Main)<br>\n(614) 939-9607 (Main Fax)<br>\n\n\t\t\tSun-Sat: 6:00 AM - 11:00 PM<br>\n\n\t\t\t","street_number":null,"street_name":"Stoneridge Drive","zip":"43230","city":"Gahanna","area":null,"county":"Franklin County","state":"Ohio","country":"us","formatted_address":"Stoneridge Drive, Gahanna, Franklin County, Ohio, 43230, United States of America","place_id":"114790726","datatype":"locationiq"},{"latitude":"41.772045","longitude":"-80.946650","name":"Geneva GetGo","address":"\n\t\t\t1759 South Broadway Ave<br>\nGeneva, OH 44041<br>\n\n\t\t\t(440) 466-6037 (Main)<br>\n\n\t\t\tSun-Sat: 5:00 AM - 11:00 PM<br>\n\n\t\t\t","street_number":null,"street_name":"South Broadway Street","zip":"44041","city":"Geneva","area":null,"county":"Ashtabula County","state":"Ohio","country":"us","formatted_address":"South Broadway Street, Geneva, Ashtabula County, Ohio, 44041, United States of America","place_id":"78154885","datatype":"locationiq"},{"latitude":"40.642598","longitude":"-79.937897","name":"Gibsonia GetGo\/WetGo","address":"\n\t\t\t4099 Grandview Drive<br>\nGibsonia, PA 15044<br>\n\n\t\t\t(724) 443-3011 (Main)<br>\n\n\t\t\tSun-Sat: Open 24 hours<br>\n\n\t\t\t","street_number":null,"street_name":"William Flinn Highway","zip":"15007","city":null,"area":null,"county":"Allegheny County","state":"Pennsylvania","country":"us","formatted_address":"Get Go, William Flinn Highway, Richland Township, Allegheny County, Pennsylvania, 15007, United States of America","place_id":"143511061","datatype":"locationiq"},{"latitude":"42.009211","longitude":"-80.303360","name":"Girard GetGo","address":"\n\t\t\t9165 West Ridge Road<br>\nGirard, PA 16417<br>\n\n\t\t\t(814) 774-2447 (Main)<br>\n(814) 774-2458 (Main Fax)<br>\n\n\t\t\tSun-Sat: 6:00 AM - 11:00 PM<br>\n\n\t\t\t","street_number":null,"street_name":"Ridge Road","zip":"16417","city":null,"area":null,"county":"Erie County","state":"Pennsylvania","country":"us","formatted_address":"Getgo, Ridge Road, Fairplain, Girard Township, Erie County, Pennsylvania, 16417, United States of America","place_id":"21368745","datatype":"locationiq"},{"latitude":"40.514018","longitude":"-79.959305","name":"Glenshaw GetGo","address":"\n\t\t\t801 Mt Royal Boulevard<br>\nPittsburgh, PA 15223<br>\n\n\t\t\t(412) 487-1775 (Main)<br>\n\n\t\t\tSun-Sat: 5:30 AM - 11:00 PM<br>\n\n\t\t\t","street_number":"100","street_name":"Wiljohn Street","zip":"15223","city":null,"area":null,"county":"Allegheny County","state":"Pennsylvania","country":"us","formatted_address":"100, Wiljohn Street, Shaler Township, Allegheny County, Pennsylvania, 15223, United States of America","place_id":"201182731","datatype":"locationiq"},{"latitude":"40.293805","longitude":"-78.933537","name":"Goucher Street GetGo","address":"\n\t\t\t358 Goucher Street<br>\nJohnstown, PA 15905<br>\n\n\t\t\t(814) 288-0800 (Main)<br>\n(814) 288-0802 (Main Fax)<br>\n\n\t\t\tSun-Sat: 6:00 AM - 11:00 PM<br>\n\n\t\t\t","street_number":"398","street_name":"Warren Street","zip":"15905","city":null,"area":null,"county":"Cambria County","state":"Pennsylvania","country":"us","formatted_address":"398, Warren Street, Elim, Cambria County, Pennsylvania, 15905, United States of America","place_id":"201488821","datatype":"locationiq"},{"latitude":"39.982974","longitude":"-83.028702","name":"Grandview Yard GetGo","address":"\n\t\t\t820 W 3rd Avenue<br>\nColumbus, OH 43212<br>\n\n\t\t\t(614) 674-6437 (Main)<br>\n(614) 674-6439 (Main Fax)<br>\n\n\t\t\tSun-Sat: 5:00 AM - 12:00 AM<br>\n\n\t\t\t","street_number":null,"street_name":"Bobcat Avenue","zip":"43212","city":"Grandview Heights","area":null,"county":"Franklin County","state":"Ohio","country":"us","formatted_address":"Bobcat Avenue, Grandview Heights, Franklin County, Ohio, 43212, United States of America","place_id":"159282789","datatype":"locationiq"},{"latitude":"40.960941","longitude":"-81.466010","name":"Green GetGo","address":"\n\t\t\t1711 Corporate Wood Circle<br>\nUniontown, OH 44685<br>\n\n\t\t\t(330) 899-9461 (Main)<br>\n\n\t\t\tSun-Sat: 6:00 AM - 11:00 PM<br>\n\n\t\t\t","street_number":"1727","street_name":"Corporate Woods Circle","zip":"44685","city":"Green","area":null,"county":"Summit County","state":"Ohio","country":"us","formatted_address":"1727, Corporate Woods Circle, Green, Summit County, Ohio, 44685, United States of America","place_id":"199920409","datatype":"locationiq"},{"latitude":"39.878609","longitude":"-83.060715","name":"Grove City GetGo","address":"\n\t\t\t2165 Stringtown Road<br>\nGrove City, OH 43123<br>\n\n\t\t\t(614) 277-9128 (Main)<br>\n\n\t\t\tSun: 6:00 AM - 10:00 PM<br>\nMon-Sat: 6:00 AM - 11:00 PM<br>\n\n\t\t\t","street_number":"2151","street_name":"Stringtown Road","zip":"43123","city":"Grove City","area":null,"county":"Franklin County","state":"Ohio","country":"us","formatted_address":"2151, Stringtown Road, Grove City, Franklin County, Ohio, 43123, United States of America","place_id":"199168109","datatype":"locationiq"},{"latitude":"39.896665","longitude":"-82.884116","name":"Hamilton & Route 33 GetGo\/WetGo","address":"\n\t\t\t3765 S. Hamilton Road<br>\nGroveport, OH 43125<br>\n\n\t\t\t(614) 836-5835 (Main)<br>\n(614) 836-6195 (Main Fax)<br>\n\n\t\t\tSun-Sat: 6:00 AM - 11:00 PM<br>\n\n\t\t\t","street_number":null,"street_name":"Bayleap Drive","zip":"43125","city":"Columbus","area":null,"county":"Franklin County","state":"Ohio","country":"us","formatted_address":"Bayleap Drive, Columbus, Franklin County, Ohio, 43125, United States of America","place_id":"124212733","datatype":"locationiq"},{"latitude":"42.145197","longitude":"-80.004179","name":"Harborcreek GetGo","address":"\n\t\t\t4307 Buffalo Road<br>\nErie, PA 16510<br>\n\n\t\t\t(814) 898-1374 (Main)<br>\n(814) 898-1425 (Main Fax)<br>\n\n\t\t\tSun-Sat: 5:00 AM - 12:00 AM<br>\n\n\t\t\t","street_number":"4389","street_name":"Buffalo Road","zip":"16510","city":null,"area":null,"county":"Erie County","state":"Pennsylvania","country":"us","formatted_address":"4389, Buffalo Road, Northwest Harborcreek, Erie County, Pennsylvania, 16510, United States of America","place_id":"201746436","datatype":"locationiq"},{"latitude":"40.972073","longitude":"-81.347172","name":"Hartville GetGo","address":"\n\t\t\t909 W Maple Street<br>\nHartville, OH 44632<br>\n\n\t\t\t(330) 877-2293 (Main)<br>\n(330) 877-2716 (Main Fax)<br>\n\n\t\t\tSun-Sat: 7:00 AM - 11:00 PM<br>\n\n\t\t\t","street_number":null,"street_name":"Bixler Avenue Northeast","zip":"44632","city":null,"area":null,"county":"Stark County","state":"Ohio","country":"us","formatted_address":"Bixler Avenue Northeast, Hartville, Lake Township, Stark County, Ohio, 44632, United States of America","place_id":"70775499","datatype":"locationiq"},{"latitude":"40.060567","longitude":"-83.181438","name":"Hayden & Cosgray GetGo\/WetGo","address":"\n\t\t\t6780 Hayden Run Road<br>\nHilliard, OH 43026<br>\n\n\t\t\t(614) 850-9569 (Main)<br>\n\n\t\t\tSun-Sat: 6:00 AM - 11:00 PM<br>\n\n\t\t\t","street_number":null,"street_name":"Hayden Run Road","zip":"43002","city":null,"area":null,"county":"Franklin County","state":"Ohio","country":"us","formatted_address":"Hayden Run Road, Hayden, Franklin County, Ohio, 43002, United States of America","place_id":"78173395","datatype":"locationiq"},{"latitude":"40.034685","longitude":"-82.443366","name":"Heath GetGo","address":"\n\t\t\t625 South 30th Street<br>\nHeath, OH 43056<br>\n\n\t\t\t(740) 522-6166 (Main)<br>\n\n\t\t\tSun-Sat: 6:00 AM - 11:00 PM<br>\n\n\t\t\t","street_number":"11","street_name":"Claren Drive","zip":"43056","city":"Heath","area":null,"county":"Licking County","state":"Ohio","country":"us","formatted_address":"11, Claren Drive, Heath, Licking County, Ohio, 43056, United States of America","place_id":"199459642","datatype":"locationiq"},{"latitude":"40.304174","longitude":"-79.594442","name":"Hempfield GetGo","address":"\n\t\t\tRD 6, Box 215A<br>\nGreensburg, PA 15601<br>\n\n\t\t\t(724) 837-3682 (Main)<br>\n(724) 837-3948 (Main Fax)<br>\n\n\t\t\tSun-Sat: 6:00 AM - 11:00 PM<br>\n\n\t\t\t","street_number":null,"street_name":"Hempfield Square Drive","zip":"15634","city":null,"area":null,"county":"Westmoreland County","state":"Pennsylvania","country":"us","formatted_address":"GetGo, Hempfield Square Drive, Hempfield Square, Radebaugh, Westmoreland County, Pennsylvania, 15634, United States of America","place_id":"26553237","datatype":"locationiq"},{"latitude":"40.383085","longitude":"-79.867730","name":"Hoffman Blvd GetGo","address":"\n\t\t\t1200 Hoffman Blvd<br>\nWest Mifflin, PA 15122<br>\n\n\t\t\t(412) 461-8153 (Main)<br>\n(412) 461-9068 (Main Fax)<br>\n\n\t\t\tSun-Sat: 6:00 AM - 10:00 PM<br>\n\n\t\t\t","street_number":"1399","street_name":"Hoffman Boulevard","zip":"15122","city":"Duquesne","area":null,"county":"Allegheny County","state":"Pennsylvania","country":"us","formatted_address":"1399, Hoffman Boulevard, Duquesne, Allegheny County, Pennsylvania, 15122, United States of America","place_id":"201210077","datatype":"locationiq"},{"latitude":"41.117367","longitude":"-81.484555","name":"Howe Ave GetGo","address":"\n\t\t\t1125 Main Street<br>\nCuyahoga Falls, OH 44221<br>\n\n\t\t\t(330) 923-8195 (Main)<br>\n(330) 923-8314 (Main Fax)<br>\n\n\t\t\tSun-Sat: 6:00 AM - 11:00 PM<br>\n\n\t\t\t","street_number":"1101","street_name":"Main Street","zip":"44221","city":"Akron","area":null,"county":"Summit County","state":"Ohio","country":"us","formatted_address":"1101, Main Street, Chapel Hill, Akron, Summit County, Ohio, 44221, United States of America","place_id":"199934536","datatype":"locationiq"},{"latitude":"41.237700","longitude":"-80.739900","name":"Howland GetGo","address":"\n\t\t\t119 Niles Cortland Road<br>\nWarren, OH 44484<br>\n\n\t\t\t(330) 856-1563 (Main)<br>\n\n\t\t\tSun-Sat: 4:00 AM - 11:00 PM<br>\n\n\t\t\t","street_number":null,"street_name":"East Market Street","zip":"44484","city":"Warren","area":null,"county":"Trumbull County","state":"Ohio","country":"us","formatted_address":"Giant Eagle GetGo Car Wash, East Market Street, Warren, Trumbull County, Ohio, 44484, United States of America","place_id":"110346863","datatype":"locationiq"},{"latitude":"40.601111","longitude":"-79.193834","name":"Indiana GetGo","address":"\n\t\t\t3100 Oakland Avenue<br>\nIndiana, PA 15701<br>\n\n\t\t\t(724) 465-7914 (Main)<br>\n(724) 465-5241 (Main Fax)<br>\n\n\t\t\tSun-Sat: 6:00 AM - 11:00 PM<br>\n\n\t\t\t","street_number":"20","street_name":"Plaza Road","zip":"15701","city":null,"area":null,"county":"Indiana County","state":"Pennsylvania","country":"us","formatted_address":"20, Plaza Road, Shado-Wood Village, Indiana County, Pennsylvania, 15701, United States of America","place_id":"201823935","datatype":"locationiq"},{"latitude":"40.319177","longitude":"-79.686342","name":"Irwin GetGo","address":"\n\t\t\t8813 Route 30<br>\nNorth Huntingdon Square<br>\nNorth Huntingdon, PA 15642<br>\n\n\t\t\t(724) 861-6710 (Main)<br>\n(412) 861-6711 (Main Fax)<br>\n\n\t\t\tSun-Sat: 5:00 AM - 11:00 PM<br>\n\n\t\t\t","street_number":null,"street_name":"Teddy Drive","zip":"15692","city":null,"area":null,"county":"Westmoreland County","state":"Pennsylvania","country":"us","formatted_address":"GetGo, Teddy Drive, Penn Glyn, Westmoreland County, Pennsylvania, 15692, United States of America","place_id":"26129849","datatype":"locationiq"},{"latitude":"41.261614","longitude":"-80.834342","name":"Jamestown GetGo","address":"\n\t\t\t2800 Mahoning Avenue<br>\nWarren, OH 44483<br>\n\n\t\t\t(330) 393-5983 (Main)<br>\n(330) 393-5986 (Main Fax)<br>\n\n\t\t\tSun-Sat: 5:00 AM - 11:00 PM<br>\n\n\t\t\t","street_number":null,"street_name":"Mahoning Avenue Northwest","zip":"44483","city":"Warren","area":"Mahoning Avenue Historic District","county":"Trumbull County","state":"Ohio","country":"us","formatted_address":"Get Go, Mahoning Avenue Northwest, Mahoning Avenue Historic District, Warren, Trumbull County, Ohio, 44483, United States of America","place_id":"57862269","datatype":"locationiq"},{"latitude":"40.467698","longitude":"-80.097087","name":"Kennedy Township GetGo","address":"\n\t\t\t1809 McKees Rocks Road<br>\nMcKees Rocks, PA 15136<br>\n\n\t\t\t(412) 771-8675 (Main)<br>\n(412) 733-3924 (Main Fax)<br>\n\n\t\t\tSun-Sat: 6:00 AM - 11:00 PM<br>\n\n\t\t\t","street_number":null,"street_name":"McKees Rocks Road","zip":"15136","city":null,"area":null,"county":"Allegheny County","state":"Pennsylvania","country":"us","formatted_address":"McKees Rocks Road, Kennedy Township, Allegheny County, Pennsylvania, 15136, United States of America","place_id":"66165269","datatype":"locationiq"},{"latitude":"40.025686","longitude":"-83.057550","name":"Kingsdale GetGo","address":"\n\t\t\t1640 Fishinger Rd.<br>\nUpper Arlington, OH 43221<br>\n\n\t\t\t(614) 457-3996 (Main)<br>\n\n\t\t\tSun-Sat: 6:00 AM - 11:00 PM<br>\n\n\t\t\t","street_number":null,"street_name":"Tremont Road","zip":"43221","city":"Upper Arlington","area":null,"county":"Franklin County","state":"Ohio","country":"us","formatted_address":"Giant Eagle Gas Station, Tremont Road, Kingsdale Center, Upper Arlington, Franklin County, Ohio, 43221, United States of America","place_id":"160870228","datatype":"locationiq"},{"latitude":"41.485627","longitude":"-81.789941","name":"Lakewood GetGo","address":"\n\t\t\t14013 Detroit Road<br>\nLakewood, OH 44107<br>\n\n\t\t\t(440) 799-8864 (Main)<br>\n(440) 799-8866 (Main Fax)<br>\n\n\t\t\tSun-Sat: 6:00 AM - 12:00 AM<br>\n\n\t\t\t","street_number":null,"street_name":"Detroit Avenue","zip":"44107","city":"Lakewood","area":null,"county":"Cuyahoga County","state":"Ohio","country":"us","formatted_address":"GetGo, Detroit Avenue, Edgewater, Lakewood, Cuyahoga County, Ohio, 44107, United States of America","place_id":"163448071","datatype":"locationiq"},{"latitude":"39.743973","longitude":"-82.636177","name":"Lancaster GetGo\/WetGo","address":"\n\t\t\t1416 Ety Shops Way<br>\nLancaster, OH 43130<br>\n\n\t\t\t(740) 687-0138 (Main)<br>\n(740) 687-0730 (Main Fax)<br>\n\n\t\t\tSun-Sat: 6:00 AM - 11:00 PM<br>\n\n\t\t\t","street_number":"2400","street_name":"Oakview Lane","zip":"43130","city":"Lancaster","area":"Lancaster Methodist Episcopal Camp Ground Historic District","county":"Fairfield County","state":"Ohio","country":"us","formatted_address":"2400, Oakview Lane, Lancaster Methodist Episcopal Camp Ground Historic District, Lancaster, Fairfield County, Ohio, 43130, United States of America","place_id":"199091335","datatype":"locationiq"},{"latitude":"40.285552","longitude":"-79.390141","name":"Latrobe GetGo","address":"\n\t\t\t1100 Mt. Laurel Plaza<br>\nState Route 30<br>\nLatrobe, PA 15650<br>\n\n\t\t\t(724) 539-4330 (Main)<br>\n(724) 539-4331 (Main Fax)<br>\n\n\t\t\tSun-Sat: 6:00 AM - 12:00 AM<br>\n\n\t\t\t","street_number":null,"street_name":"Lincoln Highway","zip":"15601","city":null,"area":null,"county":"Westmoreland County","state":"Pennsylvania","country":"us","formatted_address":"Walgreens, Lincoln Highway, Lawson Heights, Westmoreland County, Pennsylvania, 15601, United States of America","place_id":"52650179","datatype":"locationiq"},{"latitude":"40.468663","longitude":"-79.961834","name":"Lawrenceville GetGo","address":"\n\t\t\t4000 Butler Street<br>\nPittsburgh, PA 15201<br>\n\n\t\t\t(412) 682-7219 (Main)<br>\n\n\t\t\tSun-Sat: Open 24 hours<br>\n\n\t\t\t","street_number":null,"street_name":"40th Street","zip":"15201","city":"Pittsburgh","area":"Lawrenceville","county":"Allegheny County","state":"Pennsylvania","country":"us","formatted_address":"GetGo, 40th Street, Lawrenceville, Central Lawrenceville, Pittsburgh, Allegheny County, Pennsylvania, 15201, United States of America","place_id":"153562229","datatype":"locationiq"},{"latitude":"40.558758","longitude":"-80.204694","name":"Leetsdale GetGo","address":"\n\t\t\t8A Quaker Village Shopping Center<br>\nLeetsdale, PA 15056<br>\n\n\t\t\t(412) 749-9183 (Main)<br>\n(412) 749-9915 (Main Fax)<br>\n\n\t\t\tSun-Sat: 6:00 AM - 11:00 PM<br>\n\n\t\t\t","street_number":null,"street_name":"Ohio River Boulevard","zip":"15056","city":"Leetsdale","area":null,"county":"Allegheny County","state":"Pennsylvania","country":"us","formatted_address":"GetGo, Ohio River Boulevard, Leetsdale, Allegheny County, Pennsylvania, 15056, United States of America","place_id":"148625158","datatype":"locationiq"},{"latitude":"40.241935","longitude":"-79.239982","name":"Ligonier GetGo","address":"\n\t\t\t215 South Market Street<br>\nLigonier, PA 15658<br>\n\n\t\t\t(724) 238-3304 (Main)<br>\n\n\t\t\tSun-Sat: 5:00 AM - 11:00 PM<br>\n\n\t\t\t","street_number":"298","street_name":"Freeman Alley","zip":"15658","city":"Ligonier","area":null,"county":"Westmoreland County","state":"Pennsylvania","country":"us","formatted_address":"298, Freeman Alley, Ligonier, Westmoreland County, Pennsylvania, 15658, United States of America","place_id":"202462828","datatype":"locationiq"},{"latitude":"39.952431","longitude":"-83.128035","name":"Lincoln Village GetGo","address":"\n\t\t\t4758 West Broad Street<br>\nColumbus, OH 43228<br>\n\n\t\t\t(614) 878-8710 (Main)<br>\n\n\t\t\tSun-Sat: 6:00 AM - 11:00 PM<br>\n\n\t\t\t","street_number":"4765","street_name":"West Broad Street","zip":"43228","city":null,"area":null,"county":"Franklin County","state":"Ohio","country":"us","formatted_address":"Tim Hortons, 4765, West Broad Street, Lincoln Village Plaza, Lincoln Village, Franklin County, Ohio, 43228, United States of America","place_id":"18594033","datatype":"locationiq"},{"latitude":"40.837978","longitude":"-81.259914","name":"Louisville GetGo","address":"\n\t\t\t115 N Chapel Rd<br>\nLouisville, OH 44641<br>\n\n\t\t\t(330) 875-7488 (Main)<br>\n(330) 871-8502 (Main Fax)<br>\n\n\t\t\tSun-Sat: 5:00 AM - 12:00 AM<br>\n\n\t\t\t","street_number":null,"street_name":"North Chapel Street","zip":"44641","city":"Louisville","area":null,"county":"Stark County","state":"Ohio","country":"us","formatted_address":"BP, North Chapel Street, Louisville, Stark County, Ohio, 44641, United States of America","place_id":"42409355","datatype":"locationiq"},{"latitude":"41.520067","longitude":"-81.489435","name":"Lyndhurst GetGo","address":"\n\t\t\t5275 Mayfield Road<br>\nLyndhurst, OH 44124<br>\n\n\t\t\t(440) 442-6453 (Main)<br>\n(440) 684-9485 (Main Fax)<br>\n\n\t\t\tSun-Sat: 7:00 AM - 11:00 PM<br>\n\n\t\t\t","street_number":"5277","street_name":"Mayfield Road","zip":"44124","city":null,"area":null,"county":"Cuyahoga County","state":"Ohio","country":"us","formatted_address":"5277, Mayfield Road, Lyndhurst, Cuyahoga County, Ohio, 44124, United States of America","place_id":"198986944","datatype":"locationiq"},{"latitude":"41.299582","longitude":"-81.516248","name":"Macedonia GetGo Cafe' & Market","address":"\n\t\t\t265 East Highland Road<br>\nMacedonia, OH 44056<br>\n\n\t\t\t(234) 808-4765 (Main)<br>\n(234) 808-4764 (Main Fax)<br>\n\n\t\t\tSun-Sat: Open 24 hours<br>\n\n\t\t\t","street_number":"239","street_name":"East Highland Road","zip":"44056","city":"Macedonia","area":null,"county":"Summit County","state":"Ohio","country":"us","formatted_address":"239, East Highland Road, Macedonia, Northfield Center Township, Summit County, Ohio, 44056, United States of America","place_id":"199893659","datatype":"locationiq"},{"latitude":"39.411798","longitude":"-81.435121","name":"Marietta GetGo","address":"\n\t\t\t331 Pike Street<br>\nMarietta, OH 45750<br>\n\n\t\t\t(740) 374-4031 (Main)<br>\n(740) 374-4068 (Main Fax)<br>\n\n\t\t\tSun-Sat: 6:00 AM - 11:00 PM<br>\n\n\t\t\t","street_number":"1005","street_name":"Lafayette Place","zip":"45750","city":null,"area":"East Norwood","county":"Washington County","state":"Ohio","country":"us","formatted_address":"1005, Lafayette Place, East Norwood, Harmar, Marietta, Washington County, Ohio, 45750, United States of America","place_id":"200024470","datatype":"locationiq"},{"latitude":"40.798648","longitude":"-81.494863","name":"Massillon GetGo","address":"\n\t\t\t2046 Lincoln Way East<br>\nMassillon, OH 44646<br>\n\n\t\t\t(330) 833-2656 (Main)<br>\n\n\t\t\tSun-Sat: 6:00 AM - 11:00 PM<br>\n\n\t\t\t","street_number":"2084","street_name":"Lincoln Way East","zip":"44646","city":"Massillon","area":"Fourth Street Historic District","county":"Stark County","state":"Ohio","country":"us","formatted_address":"2084, Lincoln Way East, Fourth Street Historic District, Massillon, Stark County, Ohio, 44646, United States of America","place_id":"199848180","datatype":"locationiq"},{"latitude":"40.032842","longitude":"-82.909949","name":"McCutcheon & Stelzer GetGo\/WetGo","address":"\n\t\t\t2920 Stelzer Road<br>\nColumbus, OH 43219<br>\n\n\t\t\t(614) 342-2170 (Main)<br>\n(614) 342-2716 (Main Fax)<br>\n\n\t\t\tSun-Sat: 6:00 AM - 11:00 PM<br>\n\n\t\t\t","street_number":"2976","street_name":"Stelzer Road","zip":"43219","city":"Columbus","area":null,"county":"Franklin County","state":"Ohio","country":"us","formatted_address":"2976, Stelzer Road, Columbus, Franklin County, Ohio, 43219, United States of America","place_id":"199172058","datatype":"locationiq"},{"latitude":"40.545350","longitude":"-80.017096","name":"McKnight Road GetGo","address":"\n\t\t\t7675 McKnight Road<br>\nPittsburgh, PA 15237<br>\n\n\t\t\t(412) 369-9259 (Main)<br>\n\n\t\t\tSun-Sat: Open 24 hours<br>\n\n\t\t\t","street_number":"7675","street_name":"McKnight Road","zip":"15237","city":null,"area":null,"county":"Allegheny County","state":"Pennsylvania","country":"us","formatted_address":"GetGo, 7675, McKnight Road, Ross Township, Allegheny County, Pennsylvania, 15237, United States of America","place_id":"146433598","datatype":"locationiq"},{"latitude":"40.303667","longitude":"-80.097488","name":"McMurray GetGo\/WetGo","address":"\n\t\t\t2846 Washington Rd<br>\nMcMurray, PA 15317<br>\n\n\t\t\t(724) 942-7105 (Main)<br>\n(724) 942-7102 (Main Fax)<br>\n\n\t\t\tSun-Sat: 6:00 AM - 10:00 PM<br>\n\n\t\t\t","street_number":"536","street_name":"Circle Drive","zip":"15317","city":null,"area":null,"county":"Washington County","state":"Pennsylvania","country":"us","formatted_address":"536, Circle Drive, Upper St. Clair, Washington County, Pennsylvania, 15317, United States of America","place_id":"202398898","datatype":"locationiq"},{"latitude":"41.620153","longitude":"-80.167030","name":"Meadville GetGo","address":"\n\t\t\t18499 Smock Highway<br>\nMeadville, PA 16335<br>\n\n\t\t\t(814) 724-3535 (Main)<br>\n\n\t\t\tSun-Sat: 6:00 AM - 11:00 PM<br>\n\n\t\t\t","street_number":"18499","street_name":"Smock Highway","zip":"16335","city":null,"area":null,"county":"Crawford County","state":"Pennsylvania","country":"us","formatted_address":"GetGo, 18499, Smock Highway, Fredericksburg, Crawford County, Pennsylvania, 16335, United States of America","place_id":"149093273","datatype":"locationiq"},{"latitude":"41.135992","longitude":"-81.863719","name":"Medina GetGo","address":"\n\t\t\t302 S. Court Street<br>\nMedina, OH 44256<br>\n\n\t\t\t(330) 722-0320 (Main)<br>\n(330) 722-2634 (Main Fax)<br>\n\n\t\t\tSun-Sat: 6:00 AM - 11:00 PM<br>\n\n\t\t\t","street_number":"185","street_name":"East Smith Road","zip":"44256","city":"Medina","area":"Medina Public Square Historic District","county":"Medina County","state":"Ohio","country":"us","formatted_address":"185, East Smith Road, Medina Public Square Historic District, Medina, Medina County, Ohio, 44256, United States of America","place_id":"199569901","datatype":"locationiq"},{"latitude":"41.659511","longitude":"-81.377813","name":"Mentor GetGo","address":"\n\t\t\t7750 Reynolds Rd<br>\nMentor, OH 44060<br>\n\n\t\t\t(440) 946-3837 (Main)<br>\n(440) 946-3845 (Main Fax)<br>\n\n\t\t\tSun-Sat: Open 24 hours<br>\n\n\t\t\t","street_number":"7816","street_name":"Reynolds Road","zip":"44060","city":"Mentor","area":null,"county":"Lake County","state":"Ohio","country":"us","formatted_address":"7816, Reynolds Road, Mentor, Lake County, Ohio, 44060, United States of America","place_id":"199422264","datatype":"locationiq"},{"latitude":"41.463284","longitude":"-81.091451","name":"Middlefield GetGo","address":"\n\t\t\t15402 W High Street<br>\nMiddlefield, OH 44062<br>\n\n\t\t\t(440) 632-3030 (Main)<br>\n(440) 632-3031 (Main Fax)<br>\n\n\t\t\tSun: 7:00 AM - 10:00 PM<br>\nMon-Sat: 7:00 AM - 11:00 PM<br>\n\n\t\t\t","street_number":null,"street_name":"West High Street","zip":"44062","city":null,"area":null,"county":"Geauga County","state":"Ohio","country":"us","formatted_address":"GetGo, West High Street, Middlefield, Middlefield Township, Geauga County, Ohio, 44062, United States of America","place_id":"165154136","datatype":"locationiq"},{"latitude":"40.436188","longitude":"-79.772402","name":"Monroeville Pad Site GetGo","address":"\n\t\t\t4000 Monroeville Blvd.<br>\nMonroeville, PA 15146<br>\n\n\t\t\t(412) 856-0685 (Main)<br>\n(412) 856-0686 (Main Fax)<br>\n\n\t\t\tSun-Sat: 5:00 AM - 12:00 AM<br>\n\n\t\t\t","street_number":null,"street_name":"Monroeville Boulevard","zip":"15146","city":"Monroeville","area":null,"county":"Allegheny County","state":"Pennsylvania","country":"us","formatted_address":"Eat 'N Park, Monroeville Boulevard, Monroeville, Allegheny County, Pennsylvania, 15146, United States of America","place_id":"26564783","datatype":"locationiq"},{"latitude":"40.440887","longitude":"-79.742830","name":"Monroeville Stand Alone GetGo","address":"\n\t\t\t4685 Old William Penn Hwy<br>\nMonroeville, PA 15146<br>\n\n\t\t\t(412) 372-6955 (Main)<br>\n\n\t\t\tSun-Sat: 5:00 AM - 12:00 AM<br>\n\n\t\t\t","street_number":null,"street_name":"Beatty Road","zip":"15146","city":"Monroeville","area":null,"county":"Allegheny County","state":"Pennsylvania","country":"us","formatted_address":"Forbes Day Care Center, Beatty Road, Monroeville, Allegheny County, Pennsylvania, 15146, United States of America","place_id":"3807040","datatype":"locationiq"},{"latitude":"40.518225","longitude":"-80.218641","name":"Moon Township GetGo","address":"\n\t\t\t6507 University Boulevard<br>\nCoraopolis, PA 15108<br>\n\n\t\t\t(412) 264-3020 (Main)<br>\n(412) 264-3063 (Main Fax)<br>\n\n\t\t\tSun-Sat: 6:00 AM - 11:00 PM<br>\n\n\t\t\t","street_number":null,"street_name":"University Boulevard","zip":"15108","city":null,"area":null,"county":"Allegheny County","state":"Pennsylvania","country":"us","formatted_address":"GetGo, University Boulevard, Moon Township, Allegheny County, Pennsylvania, 15108, United States of America","place_id":"162760999","datatype":"locationiq"},{"latitude":"39.604961","longitude":"-79.967422","name":"Morgantown GetGo","address":"\n\t\t\t54 Don Knotts Blvd.<br>\nMorgantown, WV 26501<br>\n\n\t\t\t(304) 291-4620 (Main)<br>\n(304) 291-4623 (Main Fax)<br>\n\n\t\t\tSun-Sat: Open 24 hours<br>\n\n\t\t\t","street_number":null,"street_name":"Don Knotts Boulevard","zip":"26501","city":null,"area":"Hopecrest","county":"Monongalia County","state":"West Virginia","country":"us","formatted_address":"Giant Eagle Go Mart and Gasoline, Don Knotts Boulevard, Hopecrest, Morgantown, Monongalia County, West Virginia, 26501, United States of America","place_id":"26713808","datatype":"locationiq"},{"latitude":"40.124937","longitude":"-79.554193","name":"Mount Pleasant GetGo\/WetGo","address":"\n\t\t\t230 Bessemer Road<br>\nMount Pleasant, PA 15666<br>\n\n\t\t\t(724) 547-6234 (Main)<br>\n(724) 547-6265 (Main Fax)<br>\n\n\t\t\tSun-Sat: Open 24 hours<br>\n\n\t\t\t","street_number":null,"street_name":"Bessemer Road","zip":"15666","city":null,"area":null,"county":"Westmoreland County","state":"Pennsylvania","country":"us","formatted_address":"GetGo, Bessemer Road, Bessemer, Westmoreland County, Pennsylvania, 15666, United States of America","place_id":"162158589","datatype":"locationiq"},{"latitude":"40.355728","longitude":"-80.050694","name":"Mt. Lebanon GetGo","address":"\n\t\t\t1540 Washington Road<br>\nPittsburgh, PA 15228<br>\n\n\t\t\t(412) 531-0426 (Main)<br>\n\n\t\t\tSun-Sat: 6:00 AM - 12:00 AM<br>\n\n\t\t\t","street_number":"1540","street_name":"Washington Road","zip":"15228","city":null,"area":null,"county":"Allegheny County","state":"Pennsylvania","country":"us","formatted_address":"GetGo, 1540, Washington Road, Mount Lebanon, Allegheny County, Pennsylvania, 15228, United States of America","place_id":"19802843","datatype":"locationiq"},{"latitude":"41.466673","longitude":"-81.987705","name":"Nagel Road GetGo Cafe' & Market","address":"\n\t\t\t33501 Just Imagine Drive<br>\nAvon, OH 44011<br>\n\n\t\t\t(440) 695-1622 (Main)<br>\n(440) 695-1565 (Main Fax)<br>\n\n\t\t\tSun-Sat: Open 24 hours<br>\n\n\t\t\t","street_number":null,"street_name":"Just Imagine Drive","zip":"44011","city":"Avon","area":null,"county":"Lorain County","state":"Ohio","country":"us","formatted_address":"Get Go, Just Imagine Drive, Avon, Lorain County, Ohio, 44011, United States of America","place_id":"159571921","datatype":"locationiq"},{"latitude":"40.094100","longitude":"-82.824600","name":"New Albany GetGo","address":"\n\t\t\t5465 New Albany Road West<br>\nNew Albany, OH 43054<br>\n\n\t\t\t(614) 775-0961 (Main)<br>\n\n\t\t\tSun-Sat: 6:00 AM - 11:00 PM<br>\n\n\t\t\t","street_number":"5494","street_name":"New Albany Road West","zip":"43054","city":"Columbus","area":null,"county":"Franklin County","state":"Ohio","country":"us","formatted_address":"5494, New Albany Road West, Columbus, Franklin County, Ohio, 43054, United States of America","place_id":"199135520","datatype":"locationiq"},{"latitude":"41.053215","longitude":"-80.356955","name":"New Castle GetGo","address":"\n\t\t\t3224 Wilmington Road<br>\nNew Castle, PA 16105<br>\n\n\t\t\t(724) 658-0972 (Main)<br>\n(724) 658-0680 (Main Fax)<br>\n\n\t\t\tSun-Sat: 6:00 AM - 11:00 PM<br>\n\n\t\t\t","street_number":null,"street_name":"Wilmington Road","zip":"16105","city":null,"area":null,"county":"Lawrence County","state":"Pennsylvania","country":"us","formatted_address":"Wendy's, Wilmington Road, Clover, Lawrence County, Pennsylvania, 16105, United States of America","place_id":"4838479","datatype":"locationiq"},{"latitude":"40.591161","longitude":"-79.751427","name":"New Kensington GetGo\/WetGo","address":"\n\t\t\t250 Tarentum Bridge Road<br>\nNew Kensington, PA 15068<br>\n\n\t\t\t(724) 337-9303 (Main)<br>\n(724) 337-9305 (Main Fax)<br>\n\n\t\t\tSun-Sat: 5:00 AM - 11:00 PM<br>\n\n\t\t\t","street_number":"286","street_name":"Tarentum Bridge Road","zip":"15068","city":"New Kensington","area":null,"county":"Westmoreland County","state":"Pennsylvania","country":"us","formatted_address":"286, Tarentum Bridge Road, New Kensington, Westmoreland County, Pennsylvania, 15068, United States of America","place_id":"202421575","datatype":"locationiq"},{"latitude":"40.020106","longitude":"-83.013010","name":"North High Street GetGo","address":"\n\t\t\t2845 N. High Street<br>\nColumbus, OH 43202<br>\n\n\t\t\t(614) 262-6470 (Main)<br>\n\n\t\t\tSun-Sat: 6:00 AM - 11:00 PM<br>\n\n\t\t\t","street_number":"2822","street_name":"North High Street","zip":"43202","city":"Columbus","area":"Iuka Ravine Historic District","county":"Franklin County","state":"Ohio","country":"us","formatted_address":"O'Reily's Irish Pub, 2822, North High Street, Iuka Ravine Historic District, Columbus, Franklin County, Ohio, 43202, United States of America","place_id":"169328463","datatype":"locationiq"},{"latitude":"41.803055","longitude":"-81.056539","name":"North Madison GetGo","address":"\n\t\t\t6542 North Ridge Road<br>\nNorth Madison, OH 44057<br>\n\n\t\t\t(440) 428-1232 (Main)<br>\n\n\t\t\tSun-Sat: 6:00 AM - 11:00 PM<br>\n\n\t\t\t","street_number":"6502","street_name":"North Ridge Road","zip":"44057","city":null,"area":null,"county":"Lake County","state":"Ohio","country":"us","formatted_address":"6502, North Ridge Road, North Madison, Lake County, Ohio, 44057, United States of America","place_id":"199425248","datatype":"locationiq"},{"latitude":"41.398059","longitude":"-81.995429","name":"North Ridgeville GetGo","address":"\n\t\t\t34179 Center Ridge Road<br>\nNorth Ridgeville, OH 44039<br>\n\n\t\t\t(440) 353-3311 (Main)<br>\n\n\t\t\tSun-Sat: 6:00 AM - 12:00 AM<br>\n\n\t\t\t","street_number":null,"street_name":"Center Ridge Road","zip":"44039:44145","city":"North Ridgeville","area":null,"county":"Cuyahoga County","state":"Ohio","country":"us","formatted_address":"Get Go, Center Ridge Road, North Ridgeville, Cuyahoga County, Ohio, 44039:44145, United States of America","place_id":"46346941","datatype":"locationiq"},{"latitude":"41.336183","longitude":"-81.785177","name":"North Royalton GetGo","address":"\n\t\t\t10151 West 130th Street<br>\nNorth Royalton, OH 44133<br>\n\n\t\t\t(440) 877-1236 (Main)<br>\n\n\t\t\tSun-Sat: 6:00 AM - 11:00 PM<br>\n\n\t\t\t","street_number":"10267","street_name":"West 130th Street","zip":"44133","city":null,"area":null,"county":"Cuyahoga County","state":"Ohio","country":"us","formatted_address":"10267, West 130th Street, Middleburg Heights, Cuyahoga County, Ohio, 44133, United States of America","place_id":"198990949","datatype":"locationiq"},{"latitude":"40.488003","longitude":"-79.883677","name":"O'Hara GetGo\/WetGo","address":"\n\t\t\t1081 Freeport Road<br>\nPittsburgh, PA 15238<br>\n\n\t\t\t(412) 781-0508 (Main)<br>\n\n\t\t\tSun-Sat: Open 24 hours<br>\n\n\t\t\t","street_number":"1081","street_name":"Freeport Road","zip":"15238","city":"Aspinwall","area":null,"county":"Allegheny County","state":"Pennsylvania","country":"us","formatted_address":"GetGo, 1081, Freeport Road, Fox Chapel Plaza, Lincoln-Lemington-Belmar, Aspinwall, Allegheny County, Pennsylvania, 15238, United States of America","place_id":"12978250","datatype":"locationiq"},{"latitude":"41.705216","longitude":"-81.269141","name":"Painesville GetGo","address":"\n\t\t\t1251 Mentor Ave<br>\nPainesville, OH 44077<br>\n\n\t\t\t(440) 354-4396 (Main)<br>\n(440) 354-4687 (Main Fax)<br>\n\n\t\t\tSun-Sat: Open 24 hours<br>\n\n\t\t\t","street_number":"1211","street_name":"Mentor Avenue","zip":"44077","city":"Painesville","area":null,"county":"Lake County","state":"Ohio","country":"us","formatted_address":"1211, Mentor Avenue, Painesville, Lake County, Ohio, 44077, United States of America","place_id":"199414772","datatype":"locationiq"},{"latitude":"41.381268","longitude":"-81.784146","name":"Parma Heights GetGo","address":"\n\t\t\t6730 Pearl Road<br>\nParma, OH 44130<br>\n\n\t\t\t(440) 845-3301 (Main)<br>\n\n\t\t\tSun-Sat: Open 24 hours<br>\n\n\t\t\t","street_number":"6732","street_name":"Pearl Road","zip":"44130","city":null,"area":null,"county":"Cuyahoga County","state":"Ohio","country":"us","formatted_address":"6732, Pearl Road, Southland, Parma Heights, Cuyahoga County, Ohio, 44130, United States of America","place_id":"198999504","datatype":"locationiq"},{"latitude":"39.827633","longitude":"-86.046551","name":"Pendleton Pike GetGo Cafe' & Market","address":"\n\t\t\t6990 Pendleton Pike<br>\nIndianapolis, IN 46226<br>\n\n\t\t\t(317) 612-0021 (Main)<br>\n(317) 612-0022 (Main Fax)<br>\n(317) 612-0021 (Curbside Express)<br>\n\n\t\t\tSun-Sat: 5:00 AM - 11:00 PM<br>\n\n\t\t\t","street_number":"6980","street_name":"Pendleton Pike","zip":"46226","city":"Indianapolis","area":null,"county":"Marion County","state":"Indiana","country":"us","formatted_address":"6980, Pendleton Pike, Indianapolis, Marion County, Indiana, 46226, United States of America","place_id":"186523177","datatype":"locationiq"},{"latitude":"40.460292","longitude":"-79.843366","name":"Penn Hills GetGo\/WetGo","address":"\n\t\t\t10525 Frankstown Road<br>\nPittsburgh, PA 15235<br>\n\n\t\t\t(412) 243-0439 (Main)<br>\n(412) 243-0470 (Main Fax)<br>\n\n\t\t\tSun-Sat: 5:00 AM - 12:00 AM<br>\n\n\t\t\t","street_number":null,"street_name":"Frankstown Road","zip":"15235","city":null,"area":"Frankstown Estates","county":"Allegheny County","state":"Pennsylvania","country":"us","formatted_address":"GetGo, Frankstown Road, Frankstown Estates, Penn Hills, Allegheny County, Pennsylvania, 15235, United States of America","place_id":"21870153","datatype":"locationiq"},{"latitude":"39.907730","longitude":"-82.776209","name":"Pickerington GetGo","address":"\n\t\t\t1020 Hill Road North<br>\nPickerington, OH 43147<br>\n\n\t\t\t(614) 866-7030 (Main)<br>\n\n\t\t\tSun-Sat: 6:00 AM - 11:00 PM<br>\n\n\t\t\t","street_number":null,"street_name":"Refugee Road","zip":"43147","city":"Pickerington","area":null,"county":"Fairfield County","state":"Ohio","country":"us","formatted_address":"Refugee Road, Pickerington, Fairfield County, Ohio, 43147, United States of America","place_id":"70677962","datatype":"locationiq"},{"latitude":"40.631843","longitude":"-80.055676","name":"Pine Township GetGo\/WetGo","address":"\n\t\t\t140 Towne Centre Drive<br>\nWexford, PA 15090<br>\n\n\t\t\t(724) 934-1404 (Main)<br>\n(724) 934-1413 (Main Fax)<br>\n\n\t\t\tSun-Sat: 6:00 AM - 11:00 PM<br>\n\n\t\t\t","street_number":null,"street_name":"Towne Center Boulevard","zip":"15095","city":null,"area":null,"county":"Allegheny County","state":"Pennsylvania","country":"us","formatted_address":"Getgo, Towne Center Boulevard, Pine, Allegheny County, Pennsylvania, 15095, United States of America","place_id":"18168469","datatype":"locationiq"},{"latitude":"39.726799","longitude":"-86.337475","name":"Plainfield Reagan Pkwy GetGo Cafe' & Market","address":"\n\t\t\t3061 E Main St<br>\nPlainfield, IN 46168<br>\n\n\t\t\t(317) 204-6620 (Main)<br>\n(317) 204-6621 (Main Fax)<br>\n\n\t\t\tSun-Sat: Open 24 hours<br>\n\n\t\t\t","street_number":null,"street_name":"West Washington Street","zip":"46231","city":null,"area":null,"county":"Hendricks County","state":"Indiana","country":"us","formatted_address":"West Washington Street, Plainfield, Hendricks County, Indiana, 46231, United States of America","place_id":"164539013","datatype":"locationiq"},{"latitude":"40.157459","longitude":"-83.017923","name":"Polaris GetGo\/WetGo","address":"\n\t\t\t9151 Columbus Pike <br>\nLewis Center, OH 43035<br>\n\n\t\t\t(614) 888-0266 (Main)<br>\n(614) 888-5144 (Main Fax)<br>\n\n\t\t\tSun-Sat: 5:00 AM - 12:00 AM<br>\n\n\t\t\t","street_number":"9151","street_name":"Columbus Pike","zip":"43081","city":"Columbus","area":null,"county":"Delaware County","state":"Ohio","country":"us","formatted_address":"GetGo, 9151, Columbus Pike, Columbus, Delaware County, Ohio, 43081, United States of America","place_id":"80166665","datatype":"locationiq"},{"latitude":"41.148664","longitude":"-81.509102","name":"Portage Trail GetGo","address":"\n\t\t\t2816 State Road<br>\nCuyahoga Falls, OH 44223<br>\n\n\t\t\t(330) 922-4175 (Main)<br>\n(330) 922-4291 (Main Fax)<br>\n\n\t\t\tSun-Sat: Open 24 hours<br>\n\n\t\t\t","street_number":"15","street_name":"Portage Trail Extended West","zip":"44223","city":"Cuyahoga Falls","area":null,"county":"Summit County","state":"Ohio","country":"us","formatted_address":"15, Portage Trail Extended West, Cuyahoga Falls, Summit County, Ohio, 44223, United States of America","place_id":"199914984","datatype":"locationiq"},{"latitude":"40.162205","longitude":"-83.089063","name":"Powell GetGo","address":"\n\t\t\t9590 Sawmill Parkway<br>\nPowell, OH 43065<br>\n\n\t\t\t(614) 793-2494 (Main)<br>\n(614) 793-2496 (Main Fax)<br>\n\n\t\t\tSun-Sat: 6:00 AM - 11:00 PM<br>\n\n\t\t\t","street_number":null,"street_name":"Sawmill Parkway","zip":"43065","city":null,"area":null,"county":"Delaware County","state":"Ohio","country":"us","formatted_address":"Sawmill Parkway, Delaware County, Ohio, 43065, United States of America","place_id":"133172280","datatype":"locationiq"},{"latitude":"40.797237","longitude":"-81.416477","name":"Raff Road GetGo","address":"\n\t\t\t104 Raff Road SW<br>\nCanton, OH 44710<br>\n\n\t\t\t(330) 454-8679 (Main)<br>\n(330) 454-8706 (Main Fax)<br>\n\n\t\t\tSun-Sat: 6:00 AM - 12:00 AM<br>\n\n\t\t\t","street_number":"3670","street_name":"Tuscarawas Street West","zip":"44708","city":"Canton","area":"Downtown Canton Arts District","county":"Stark County","state":"Ohio","country":"us","formatted_address":"3670, Tuscarawas Street West, Downtown Canton Arts District, Canton, Stark County, Ohio, 44708, United States of America","place_id":"199888112","datatype":"locationiq"},{"latitude":"41.157375","longitude":"-81.219945","name":"Ravenna Route 59 & 14 GetGo Cafe' & Market","address":"\n\t\t\t1363 East Main Street<br>\nRavenna, OH 44266<br>\n\n\t\t\t(330) 235-7116 (Main)<br>\n(330) 235-7117 (Main Fax)<br>\n\n\t\t\tSun-Sat: Open 24 hours<br>\n\n\t\t\t","street_number":null,"street_name":"SR 59","zip":"44266","city":"Ravenna","area":"East Main Street Historic District","county":"Portage County","state":"Ohio","country":"us","formatted_address":"SR 59, East Main Street Historic District, Ravenna, Ravenna Township, Portage County, Ohio, 44266, United States of America","place_id":"98247059","datatype":"locationiq"},{"latitude":"40.053305","longitude":"-80.001585","name":"Richeyville GetGo","address":"\n\t\t\t3143 National Pike Rd.<br>\nRicheyville, PA 15358<br>\n\n\t\t\t(724) 632-2122 (Main)<br>\n(724) 632-2037 (Main Fax)<br>\n\n\t\t\tSun-Sat: Open 24 hours<br>\n\n\t\t\t","street_number":null,"street_name":"Richeyville Road","zip":"15358","city":"Centerville","area":null,"county":"Washington County","state":"Pennsylvania","country":"us","formatted_address":"Get Go, Richeyville Road, Centerville, Washington County, Pennsylvania, 15358, United States of America","place_id":"16268287","datatype":"locationiq"},{"latitude":"41.419514","longitude":"-81.733752","name":"Ridge Road GetGo","address":"\n\t\t\t4951 Ridge Road<br>\nCleveland, OH 44144<br>\n\n\t\t\t(216) 741-2570 (Main)<br>\n(216) 741-2690 (Main Fax)<br>\n\n\t\t\tSun-Sat: 6:00 AM - 11:00 PM<br>\n\n\t\t\t","street_number":null,"street_name":"Ridge Road","zip":"44133","city":null,"area":null,"county":"Cuyahoga County","state":"Ohio","country":"us","formatted_address":"Get Go, Ridge Road, Brooklyn, Cuyahoga County, Ohio, 44133, United States of America","place_id":"23564703","datatype":"locationiq"},{"latitude":"40.368733","longitude":"-78.432930","name":"Roaring Spring GetGo","address":"\n\t\t\t334 Travelers Road<br>\nEast Freedom, PA 16637-8118<br>\n\n\t\t\t(814) 695-5645 (Main)<br>\n\n\t\t\tSun-Sat: 5:00 AM - 12:00 AM<br>\n\n\t\t\t","street_number":null,"street_name":"Commerce Drive","zip":"16665","city":null,"area":null,"county":"Blair County","state":"Pennsylvania","country":"us","formatted_address":"Commerce Drive, Leamersville, Blair County, Pennsylvania, 16665, United States of America","place_id":"131392850","datatype":"locationiq"},{"latitude":"40.447446","longitude":"-80.162887","name":"Robinson Cafe GetGo","address":"\n\t\t\t6513-A Steubenville Pike<br>\nPittsburgh, PA 15205<br>\n\n\t\t\t(412) 446-0264 (Main)<br>\n(412) 446-0285 (Main Fax)<br>\n\n\t\t\tSun-Sat: Open 24 hours<br>\n\n\t\t\t","street_number":null,"street_name":"PA 60","zip":"15275","city":null,"area":null,"county":"Allegheny County","state":"Pennsylvania","country":"us","formatted_address":"GetGo, PA 60, Robinson Township, Allegheny County, Pennsylvania, 15275, United States of America","place_id":"17244897","datatype":"locationiq"},{"latitude":"40.447249","longitude":"-80.163352","name":"Robinson GetGo","address":"\n\t\t\t6513-B Steubenville Pike<br>\nPittsburgh, PA 15205<br>\n\n\t\t\t(412) 446-0171 (Main)<br>\n(412) 446-0263 (Main Fax)<br>\n\n\t\t\tSun-Sat: Open 24 hours<br>\n\n\t\t\t","street_number":null,"street_name":"PA 60","zip":"15275","city":null,"area":null,"county":"Allegheny County","state":"Pennsylvania","country":"us","formatted_address":"GetGo, PA 60, Robinson Township, Allegheny County, Pennsylvania, 15275, United States of America","place_id":"17244892","datatype":"locationiq"},{"latitude":"40.698067","longitude":"-80.270715","name":"Rochester GetGo","address":"\n\t\t\t820 Ohio River Blvd.<br>\nRochester, PA 15074<br>\n\n\t\t\t(724) 775-2802 (Main)<br>\n(724) 728-3108 (Main Fax)<br>\n\n\t\t\tSun-Sat: Open 24 hours<br>\n\n\t\t\t","street_number":null,"street_name":"Ohio River Boulevard","zip":"15074","city":"East Rochester","area":null,"county":"Beaver County","state":"Pennsylvania","country":"us","formatted_address":"Getgo, Ohio River Boulevard, East Rochester, Beaver County, Pennsylvania, 15074, United States of America","place_id":"156160912","datatype":"locationiq"},{"latitude":"39.763463","longitude":"-86.307201","name":"Rockville & Country Club GetGo Cafe' & Market","address":"\n\t\t\t8249 Rockville Road<br>\nIndianapolis, IN 46214<br>\n\n\t\t\t(317) 510-8779 (Main)<br>\n(317) 510-8780 (Main Fax)<br>\n(317) 510-8779 (Curbside Express)<br>\n\n\t\t\tSun-Sat: Open 24 hours<br>\n\n\t\t\t","street_number":null,"street_name":"Country Village Drive","zip":"46231","city":null,"area":null,"county":"Marion County","state":"Indiana","country":"us","formatted_address":"Country Village Drive, Tremont, Marion County, Indiana, 46231, United States of America","place_id":"149134222","datatype":"locationiq"},{"latitude":"41.458803","longitude":"-81.863331","name":"Rocky River GetGo","address":"\n\t\t\t22150 Center Ridge Road<br>\nRocky River, OH 44116<br>\n\n\t\t\t(440) 356-4051 (Main)<br>\n(440) 356-5449 (Main Fax)<br>\n\n\t\t\tSun-Sat: 5:00 AM - 11:00 PM<br>\n\n\t\t\t","street_number":null,"street_name":"Center Ridge Road","zip":"44039:44145","city":null,"area":null,"county":"Cuyahoga County","state":"Ohio","country":"us","formatted_address":"The Woods, Center Ridge Road, Westlake, Cuyahoga County, Ohio, 44039:44145, United States of America","place_id":"57933542","datatype":"locationiq"},{"latitude":"41.315670","longitude":"-81.653282","name":"Route 82 and I-77 GetGo","address":"\n\t\t\t4955 E Royalton Road<br>\nBroadview Heights, OH 44147<br>\n\n\t\t\t(440) 546-4920 (Main)<br>\n(440) 546-7173 (Main Fax)<br>\n\n\t\t\tSun-Sat: Open 24 hours<br>\n\n\t\t\t","street_number":null,"street_name":"Royalton Road","zip":"44141","city":null,"area":null,"county":"Cuyahoga County","state":"Ohio","country":"us","formatted_address":"Get Go, Royalton Road, Brecksville, Cuyahoga County, Ohio, 44141, United States of America","place_id":"152958127","datatype":"locationiq"},{"latitude":"40.900843","longitude":"-80.827875","name":"Salem GetGo","address":"\n\t\t\t2345 East State Street<br>\nSalem, OH 44460<br>\n\n\t\t\t(330) 332-0768 (Main)<br>\n\n\t\t\tSun-Sat: 6:00 AM - 11:00 PM<br>\n\n\t\t\t","street_number":"2299","street_name":"East State Street","zip":"44460","city":"Salem","area":null,"county":"Mahoning County","state":"Ohio","country":"us","formatted_address":"Bob Evans, 2299, East State Street, Salem, Mahoning County, Ohio, 44460, United States of America","place_id":"29307212","datatype":"locationiq"},{"latitude":"40.698802","longitude":"-79.720116","name":"Sarver GetGo\/WetGo","address":"\n\t\t\t710 South Pike Road<br>\nSarver, PA 16055<br>\n\n\t\t\t(724) 295-5490 (Main)<br>\n\n\t\t\tSun-Sat: Open 24 hours<br>\n\n\t\t\t","street_number":null,"street_name":"South Pike Road","zip":"16055","city":"Buffalo Township","area":null,"county":"Butler County","state":"Pennsylvania","country":"us","formatted_address":"GetGo, South Pike Road, Buffalo Township, Butler County, Pennsylvania, 16055, United States of America","place_id":"171034156","datatype":"locationiq"},{"latitude":"40.269962","longitude":"-78.855745","name":"Scalp Avenue GetGo","address":"\n\t\t\t1313 Eisenhower Blvd<br>\nJohnstown, PA 15904<br>\n\n\t\t\t(814) 262-0783 (Main)<br>\n\n\t\t\tSun-Sat: 6:00 AM - 11:00 PM<br>\n\n\t\t\t","street_number":"1358","street_name":"Eisenhower Boulevard","zip":"15904","city":null,"area":null,"county":"Cambria County","state":"Pennsylvania","country":"us","formatted_address":"1358, Eisenhower Boulevard, Richland, Cambria County, Pennsylvania, 15904, United States of America","place_id":"201486608","datatype":"locationiq"},{"latitude":"40.689438","longitude":"-80.057591","name":"Seven Fields GetGo\/WetGo","address":"\n\t\t\t204 Seven Fields Blvd<br>\nSeven Fields, PA 16046<br>\n\n\t\t\t(724) 779-7955 (Main)<br>\n(724) 779-7968 (Main Fax)<br>\n\n\t\t\tSun-Sat: 6:00 AM - 11:00 PM<br>\n\n\t\t\t","street_number":null,"street_name":"Seven Fields Boulevard","zip":"16046","city":"Seven Fields","area":null,"county":"Butler County","state":"Pennsylvania","country":"us","formatted_address":"GetGo Car Wash, Seven Fields Boulevard, Seven Fields, Butler County, Pennsylvania, 16046, United States of America","place_id":"24012026","datatype":"locationiq"},{"latitude":"40.538137","longitude":"-79.962392","name":"Shaler GetGo\/WetGo","address":"\n\t\t\t1700 William Flynn Hwy<br>\nGlenshaw, PA 15116<br>\n\n\t\t\t(412) 487-3096 (Main)<br>\n(412) 287-3804 (Main Fax)<br>\n\n\t\t\tSun-Sat: Open 24 hours<br>\n\n\t\t\t","street_number":null,"street_name":"William Flinn Highway","zip":"15116","city":null,"area":null,"county":"Allegheny County","state":"Pennsylvania","country":"us","formatted_address":"GetGo, William Flinn Highway, Shaler Township, Allegheny County, Pennsylvania, 15116, United States of America","place_id":"16746397","datatype":"locationiq"},{"latitude":"41.427097","longitude":"-82.077591","name":"Sheffield Village GetGo","address":"\n\t\t\t4660 Abbe Road<br>\nSheffield Lake, OH 44054<br>\n\n\t\t\t(440) 934-3170 (Main)<br>\n\n\t\t\tSun-Sat: 6:00 AM - 11:00 PM<br>\n\n\t\t\t","street_number":null,"street_name":"Parkhurst Drive","zip":"44054","city":null,"area":null,"county":"Lorain County","state":"Ohio","country":"us","formatted_address":"Parkhurst Drive, Sheffield, Lorain County, Ohio, 44054, United States of America","place_id":"70822705","datatype":"locationiq"},{"latitude":"41.228765","longitude":"-80.450981","name":"Shenango Valley GetGo","address":"\n\t\t\t3140 Shenango Valley Freeway<br>\nHermitage, PA 16148<br>\n\n\t\t\t(724) 981-1050 (Main)<br>\n(724) 981-1051 (Main Fax)<br>\n\n\t\t\tSun-Sat: Open 24 hours<br>\n\n\t\t\t","street_number":"424","street_name":"South Hermitage Road","zip":"16148","city":"Hermitage","area":null,"county":"Mercer County","state":"Pennsylvania","country":"us","formatted_address":"424, South Hermitage Road, Hermitage, Mercer County, Pennsylvania, 16148, United States of America","place_id":"202071307","datatype":"locationiq"},{"latitude":"41.228765","longitude":"-80.451056","name":"Shenango Valley GetGo Cafe' & Market","address":"\n\t\t\t3150 Shenango Valley Freeway<br>\nHermitage, PA 16148<br>\n\n\t\t\t(724) 981-1399 (Main)<br>\n(724) 981-1448 (Main Fax)<br>\n\n\t\t\tSun-Sat: Open 24 hours<br>\n\n\t\t\t","street_number":"3104","street_name":"Shenango Valley Freeway","zip":"16148","city":"Hermitage","area":null,"county":"Mercer County","state":"Pennsylvania","country":"us","formatted_address":"3104, Shenango Valley Freeway, Hermitage, Mercer County, Pennsylvania, 16148, United States of America","place_id":"202065053","datatype":"locationiq"},{"latitude":"41.070856","longitude":"-80.053879","name":"Slippery Rock GetGo","address":"\n\t\t\t640 Kelly Blvd.<br>\nSlippery Rock, PA 16057<br>\n\n\t\t\t(724) 738-0024 (Main)<br>\n\n\t\t\tSun-Sat: 6:00 AM - 11:00 PM<br>\n\n\t\t\t","street_number":null,"street_name":"Kelly Drive","zip":"16057","city":"Slippery Rock","area":null,"county":"Butler County","state":"Pennsylvania","country":"us","formatted_address":"Giant Eagle Plaza, Kelly Drive, Slippery Rock, Butler County, Pennsylvania, 16057, United States of America","place_id":"101467945","datatype":"locationiq"},{"latitude":"41.383100","longitude":"-81.437300","name":"Solon GetGo","address":"\n\t\t\t6477 SOM Center Road<br>\nSolon, OH 44139<br>\n\n\t\t\t(440) 542-9916 (Main)<br>\n(440) 542-9925 (Main Fax)<br>\n\n\t\t\tSun-Sat: 5:00 AM - 11:00 PM<br>\n\n\t\t\t","street_number":null,"street_name":"S.O.M. Center Road","zip":"44139","city":null,"area":null,"county":"Cuyahoga County","state":"Ohio","country":"us","formatted_address":"Get Go, S.O.M. Center Road, Solon, Cuyahoga County, Ohio, 44139, United States of America","place_id":"157216098","datatype":"locationiq"},{"latitude":"40.036392","longitude":"-79.074936","name":"Somerset GetGo\/WetGo","address":"\n\t\t\t1604 North Center Avenue<br>\nSomerset, PA 15501<br>\n\n\t\t\t(814) 443-3702 (Main)<br>\n(814) 443-3713 (Main Fax)<br>\n\n\t\t\tSun-Sat: 6:00 AM - 11:00 PM<br>\n\n\t\t\t","street_number":"1606","street_name":"North Center Avenue","zip":"15501","city":null,"area":null,"county":"Somerset County","state":"Pennsylvania","country":"us","formatted_address":"1606, North Center Avenue, Husband, Somerset County, Pennsylvania, 15501, United States of America","place_id":"202335318","datatype":"locationiq"},{"latitude":"41.520475","longitude":"-81.526805","name":"South Euclid GetGo","address":"\n\t\t\t4254 Mayfield Rd<br>\nSouth Euclid, OH 44121<br>\n\n\t\t\t(216) 291-7031 (Main)<br>\n(216) 291-7544 (Main Fax)<br>\n\n\t\t\tSun-Sat: 5:00 AM - 12:00 AM<br>\n\n\t\t\t","street_number":"4246","street_name":"Mayfield Road","zip":"44121","city":null,"area":null,"county":"Cuyahoga County","state":"Ohio","country":"us","formatted_address":"4246, Mayfield Road, South Euclid, Cuyahoga County, Ohio, 44121, United States of America","place_id":"199010244","datatype":"locationiq"},{"latitude":"40.331327","longitude":"-80.022070","name":"South Park GetGo","address":"\n\t\t\t5281 Library Road<br>\nBethel Park, PA 15102<br>\n\n\t\t\t(412) 831-0227 (Main)<br>\n\n\t\t\tSun-Sat: Open 24 hours<br>\n\n\t\t\t","street_number":null,"street_name":"serv","zip":"15102","city":"Bethel Park","area":null,"county":"Allegheny County","state":"Pennsylvania","country":"us","formatted_address":"GetGo, serv, Bethel Park, Allegheny County, Pennsylvania, 15102, United States of America","place_id":"139071129","datatype":"locationiq"},{"latitude":"40.427713","longitude":"-79.980532","name":"Southside GetGo (No Fuel)","address":"\n\t\t\t117 South 18th Street<br>\nPittsburgh, PA 15203<br>\n\n\t\t\t(412) 431-2090 (Main)<br>\n\n\t\t\tSun-Sat: Open 24 hours<br>\n\n\t\t\t","street_number":"108","street_name":"South 18th Street","zip":"15203","city":"Pittsburgh","area":"Billy Buck Hill","county":"Allegheny County","state":"Pennsylvania","country":"us","formatted_address":"108, South 18th Street, Billy Buck Hill, South Side Slopes, Pittsburgh, Allegheny County, Pennsylvania, 15203, United States of America","place_id":"201201442","datatype":"locationiq"},{"latitude":"40.423200","longitude":"-79.960191","name":"Southside Works GetGo","address":"\n\t\t\t3247 East Carson Street<br>\nPittsburgh, PA 15203<br>\n\n\t\t\t(412) 481-6430 (Main)<br>\n(412) 481-6719 (Main Fax)<br>\n\n\t\t\tSun-Sat: Open 24 hours<br>\n\n\t\t\t","street_number":"3247","street_name":"East Carson Street","zip":"15203","city":"Pittsburgh","area":null,"county":"Allegheny County","state":"Pennsylvania","country":"us","formatted_address":"GetGo, 3247, East Carson Street, South Side Flats, Pittsburgh, Allegheny County, Pennsylvania, 15203, United States of America","place_id":"23569274","datatype":"locationiq"},{"latitude":"41.019417","longitude":"-81.415861","name":"Springfield GetGo","address":"\n\t\t\t1796 Canton Rd<br>\nAkron, OH 44312<br>\n\n\t\t\t(330) 733-7427 (Main)<br>\n(330) 733-8421 (Main Fax)<br>\n\n\t\t\tSun-Sat: 6:00 AM - 11:00 PM<br>\n\n\t\t\t","street_number":"1892","street_name":"Canton Road","zip":"44312","city":null,"area":null,"county":"Summit County","state":"Ohio","country":"us","formatted_address":"1892, Canton Road, Lakemore, Springfield Township, Summit County, Ohio, 44312, United States of America","place_id":"199917250","datatype":"locationiq"},{"latitude":"40.430044","longitude":"-79.923262","name":"Squirrel Hill GetGo","address":"\n\t\t\t5801 Forward Avenue<br>\nPittsburgh, PA 15217<br>\n\n\t\t\t(412) 421-2742 (Main)<br>\n(412) 421-2744 (Main Fax)<br>\n\n\t\t\tSun-Sat: 6:00 AM - 12:00 AM<br>\n\n\t\t\t","street_number":"5801","street_name":"Forward Avenue","zip":"15217","city":"Pittsburgh","area":"Summerset","county":"Allegheny County","state":"Pennsylvania","country":"us","formatted_address":"GetGo, 5801, Forward Avenue, Summerset, Squirrel Hill South, Pittsburgh, Allegheny County, Pennsylvania, 15217, United States of America","place_id":"132931362","datatype":"locationiq"},{"latitude":"41.390236","longitude":"-78.557589","name":"St Marys GetGo","address":"\n\t\t\t1109 Million Dollar Hwy<br>\nSt Marys, PA 15857<br>\n\n\t\t\t(814) 834-5377 (Main)<br>\n(814) 834-5382 (Main Fax)<br>\n\n\t\t\tSun-Sat: 5:00 AM - 12:00 AM<br>\n\n\t\t\t","street_number":"123","street_name":"Arbutus Lane","zip":"15857","city":null,"area":null,"county":"Elk County","state":"Pennsylvania","country":"us","formatted_address":"123, Arbutus Lane, Fairview, Elk County, Pennsylvania, 15857, United States of America","place_id":"201723772","datatype":"locationiq"},{"latitude":"41.006608","longitude":"-80.377357","name":"State Street GetGo\/WetGo","address":"\n\t\t\t1901 West State Street<br>\nNew Castle, PA 16101<br>\n\n\t\t\t(724) 652-5434 (Main)<br>\n(724) 657-6765 (Main Fax)<br>\n\n\t\t\tSun-Sat: Open 24 hours<br>\n\n\t\t\t","street_number":"1903","street_name":"West State Street","zip":"16101","city":null,"area":null,"county":"Lawrence County","state":"Pennsylvania","country":"us","formatted_address":"1903, West State Street, Oakwood, Lawrence County, Pennsylvania, 16101, United States of America","place_id":"201936857","datatype":"locationiq"},{"latitude":"40.449527","longitude":"-80.106511","name":"Steubenville Pike GetGo","address":"\n\t\t\t4900 Steubenville Pike<br>\nPittsburgh, PA 15205<br>\n\n\t\t\t(412) 444-4474 (Main)<br>\n(412) 444-4476 (Main Fax)<br>\n\n\t\t\tSun-Sat: Open 24 hours<br>\n\n\t\t\t","street_number":null,"street_name":"Steubenville Pike","zip":"15205","city":null,"area":null,"county":"Allegheny County","state":"Pennsylvania","country":"us","formatted_address":"Kings Family Restaurant, Steubenville Pike, Robinson Township, Allegheny County, Pennsylvania, 15205, United States of America","place_id":"29183165","datatype":"locationiq"},{"latitude":"41.169256","longitude":"-81.440095","name":"Stow GetGo","address":"\n\t\t\t3845 Darrow Rd<br>\nStow, OH 44224<br>\n\n\t\t\t(330) 688-3957 (Main)<br>\n\n\t\t\tSun-Sat: 6:00 AM - 11:00 PM<br>\n\n\t\t\t","street_number":"3831","street_name":"Darrow Road","zip":"44224","city":"Stow","area":null,"county":"Summit County","state":"Ohio","country":"us","formatted_address":"3831, Darrow Road, Stow, Summit County, Ohio, 44224, United States of America","place_id":"199895657","datatype":"locationiq"},{"latitude":"41.237350","longitude":"-81.346067","name":"Streetsboro GetGo","address":"\n\t\t\t9075 State Route 43<br>\nStreetsboro, OH 44241<br>\n\n\t\t\t(330) 626-8169 (Main)<br>\n(330) 626-8176 (Main Fax)<br>\n\n\t\t\tSun-Sat: 6:00 AM - 11:00 PM<br>\n\n\t\t\t","street_number":"9075","street_name":"State Route 43","zip":"44241","city":"Streetsboro","area":null,"county":"Portage County","state":"Ohio","country":"us","formatted_address":"GetGo, 9075, State Route 43, Streetsboro, Franklin Township, Portage County, Ohio, 44241, United States of America","place_id":"27322522","datatype":"locationiq"},{"latitude":"41.290706","longitude":"-81.834776","name":"Strongsville GetGo","address":"\n\t\t\t17573 Pearl Road<br>\nStrongsville, OH 44136<br>\n\n\t\t\t(440) 572-1496 (Main)<br>\n(440) 572-1513 (Main Fax)<br>\n\n\t\t\tSun-Sat: Open 24 hours<br>\n\n\t\t\t","street_number":"18832","street_name":"Drake Road","zip":"44136","city":null,"area":null,"county":"Cuyahoga County","state":"Ohio","country":"us","formatted_address":"18832, Drake Road, Strongsville, Cuyahoga County, Ohio, 44136, United States of America","place_id":"199037695","datatype":"locationiq"},{"latitude":"41.101698","longitude":"-81.449346","name":"Tallmadge GetGo","address":"\n\t\t\t185 West Avenue<br>\nTallmadge, OH 44278<br>\n\n\t\t\t(330) 634-1766 (Main)<br>\n\n\t\t\tSun-Sat: 6:00 AM - 11:00 PM<br>\n\n\t\t\t","street_number":"144","street_name":"West Avenue","zip":"44278","city":"Tallmadge","area":"Tallmadge Town Square Historic District","county":"Summit County","state":"Ohio","country":"us","formatted_address":"144, West Avenue, Tallmadge Town Square Historic District, Tallmadge, Summit County, Ohio, 44278, United States of America","place_id":"199892892","datatype":"locationiq"},{"latitude":"41.389350","longitude":"-81.338587","name":"Tanglewood GetGo","address":"\n\t\t\t17675 Chillicothe Road<br>\nChagrin Falls, OH 44023<br>\n\n\t\t\t(440) 708-1200 (Main)<br>\n\n\t\t\tSun-Sat: 5:00 AM - 11:00 PM<br>\n\n\t\t\t","street_number":"8476","street_name":"Bainbridge Road","zip":"44023","city":null,"area":null,"county":"Geauga County","state":"Ohio","country":"us","formatted_address":"8476, Bainbridge Road, Bainbridge, Bainbridge Township, Geauga County, Ohio, 44023, United States of America","place_id":"199221343","datatype":"locationiq"},{"latitude":"41.626767","longitude":"-79.677443","name":"Titusville GetGo","address":"\n\t\t\t103 S Perry St<br>\nTitusville, PA 16354<br>\n\n\t\t\t(814) 827-1812 (Main)<br>\n\n\t\t\tSun-Sat: Open 24 hours<br>\n\n\t\t\t","street_number":"103","street_name":"South Perry Street","zip":"16354","city":"Titusville","area":null,"county":"Crawford County","state":"Pennsylvania","country":"us","formatted_address":"GetGo, 103, South Perry Street, Titusville, Crawford County, Pennsylvania, 16354, United States of America","place_id":"40683385","datatype":"locationiq"},{"latitude":"41.310721","longitude":"-81.454677","name":"Twinsburg GetGo\/WetGo","address":"\n\t\t\t8901 Hadden Road<br>\nTwinsburg, OH 44087<br>\n\n\t\t\t(330) 405-7262 (Main)<br>\n\n\t\t\tSun-Sat: 5:00 AM - 12:00 AM<br>\n\n\t\t\t","street_number":null,"street_name":"Hadden Road","zip":"44087","city":"Twinsburg","area":null,"county":"Summit County","state":"Ohio","country":"us","formatted_address":"GetGo, Hadden Road, Twinsburg, Twinsburg Township, Summit County, Ohio, 44087, United States of America","place_id":"24512783","datatype":"locationiq"},{"latitude":"39.923933","longitude":"-79.727153","name":"Uniontown GetGo","address":"\n\t\t\t637 Pittsburgh Road<br>\nUniontown, PA 15401<br>\n\n\t\t\t(724) 425-9624 (Main)<br>\n\n\t\t\tSun-Sat: 6:00 AM - 11:00 PM<br>\n\n\t\t\t","street_number":null,"street_name":"Pittsburgh Road","zip":"15401","city":null,"area":null,"county":"Fayette County","state":"Pennsylvania","country":"us","formatted_address":"Pittsburgh Road, Oliver, Fayette County, Pennsylvania, 15401, United States of America","place_id":"110884081","datatype":"locationiq"},{"latitude":"39.650316","longitude":"-80.003012","name":"University Heights GetGo","address":"\n\t\t\t3744 University Town Centre Drive<br>\nMorgantown, WV 26501<br>\n\n\t\t\t(304) 599-0948 (Main)<br>\n(304) 599-3019 (Main Fax)<br>\n\n\t\t\tSun-Sat: 6:00 AM - 11:00 PM<br>\n\n\t\t\t","street_number":null,"street_name":"University Town Centre Drive","zip":"26534","city":null,"area":null,"county":"Monongalia County","state":"West Virginia","country":"us","formatted_address":"GetGo, University Town Centre Drive, Granville, Monongalia County, West Virginia, 26534, United States of America","place_id":"15979381","datatype":"locationiq"},{"latitude":"40.065497","longitude":"-83.095725","name":"Upper Arlington GetGo\/WetGo","address":"\n\t\t\t2888 Bethel Road<br>\nColumbus, OH 43220<br>\n\n\t\t\t(614) 734-9415 (Main)<br>\n\n\t\t\tSun-Sat: 6:00 AM - 11:00 PM<br>\n\n\t\t\t","street_number":null,"street_name":"Bethel Road","zip":"43220","city":"Columbus","area":null,"county":"Franklin County","state":"Ohio","country":"us","formatted_address":"Get Go, Bethel Road, Columbus, Franklin County, Ohio, 43220, United States of America","place_id":"166384210","datatype":"locationiq"},{"latitude":"41.408877","longitude":"-82.365288","name":"Vermilion GetGo","address":"\n\t\t\t1317 State Road 60 N<br>\nVermilion, OH 44089<br>\n\n\t\t\t(440) 967-1317 (Main)<br>\n\n\t\t\tSun-Sat: 6:00 AM - 11:00 PM<br>\n\n\t\t\t","street_number":"1350","street_name":"State Street","zip":"44089","city":"Vermilion","area":null,"county":"Erie County","state":"Ohio","country":"us","formatted_address":"1350, State Street, Vermilion, Erie County, Ohio, 44089, United States of America","place_id":"199086652","datatype":"locationiq"},{"latitude":"40.506854","longitude":"-79.843118","name":"Verona GetGo Cafe' & Market","address":"\n\t\t\t800 Allegheny River Boulevard<br>\nVerona, PA 15147<br>\n\n\t\t\t(412) 828-4413 (Main)<br>\n(412) 280-0261 (Main Fax)<br>\n\n\t\t\tSun-Sat: Open 24 hours<br>\n\n\t\t\t","street_number":"373","street_name":"Center Avenue","zip":"15147","city":"Verona","area":null,"county":"Allegheny County","state":"Pennsylvania","country":"us","formatted_address":"373, Center Avenue, Verona, Allegheny County, Pennsylvania, 15147, United States of America","place_id":"201285825","datatype":"locationiq"},{"latitude":"41.043618","longitude":"-81.696243","name":"Wadsworth GetGo\/WetGo","address":"\n\t\t\t773 Ambassador Drive<br>\nWadsworth, OH 44281<br>\n\n\t\t\t(330) 334-6081 (Main)<br>\n(330) 334-6105 (Main Fax)<br>\n(330) 334-6409 (Car Wash)<br>\n\n\t\t\tSun-Sat: Open 24 hours<br>\n\n\t\t\t","street_number":null,"street_name":"Akron Road","zip":"44281","city":"Wadsworth","area":null,"county":"Medina County","state":"Ohio","country":"us","formatted_address":"Akron Road, Wadsworth, Wadsworth Township, Medina County, Ohio, 44281, United States of America","place_id":"70840168","datatype":"locationiq"},{"latitude":"41.048729","longitude":"-81.728222","name":"Wadsworth High and Park GetGo Cafe' & Market","address":"\n\t\t\t951 High Street<br>\nWadsworth, OH 44281<br>\n\n\t\t\t(234) 217-6021 (Main)<br>\n(234) 217-6022 (Main Fax)<br>\n\n\t\t\tSun-Sat: Open 24 hours<br>\n\n\t\t\t","street_number":null,"street_name":"Park Centre Drive","zip":"44281","city":"Wadsworth","area":null,"county":"Medina County","state":"Ohio","country":"us","formatted_address":"First Assembly of God Church, Park Centre Drive, Wadsworth, Medina County, Ohio, 44281, United States of America","place_id":"3098332","datatype":"locationiq"},{"latitude":"41.253613","longitude":"-80.792073","name":"Warren Plaza GetGo","address":"\n\t\t\t2109 Elm Rd NE<br>\nWarren, OH 44483<br>\n\n\t\t\t(330) 469-9354 (Main)<br>\n(330) 469-9747 (Main Fax)<br>\n\n\t\t\tSun-Sat: 6:00 AM - 11:00 PM<br>\n\n\t\t\t","street_number":null,"street_name":"Elm Road Northeast","zip":"44483","city":"Warren","area":"Warren Commercial Historic District","county":"Trumbull County","state":"Ohio","country":"us","formatted_address":"GetGo, Elm Road Northeast, Warren Commercial Historic District, Warren, Trumbull County, Ohio, 44483, United States of America","place_id":"53811180","datatype":"locationiq"},{"latitude":"41.424685","longitude":"-81.498869","name":"Warrensville Heights GetGo\/WetGo","address":"\n\t\t\t25500 Miles Road<br>\nWarrensville Heights, OH 44128<br>\n\n\t\t\t(216) 593-0214 (Main)<br>\n\n\t\t\tSun-Sat: Open 24 hours<br>\n\n\t\t\t","street_number":"25427","street_name":"Miles Road","zip":"44128","city":null,"area":null,"county":"Cuyahoga County","state":"Ohio","country":"us","formatted_address":"25427, Miles Road, Warrensville Heights, Cuyahoga County, Ohio, 44128, United States of America","place_id":"199033153","datatype":"locationiq"},{"latitude":"40.187649","longitude":"-80.228382","name":"Washington GetGo","address":"\n\t\t\t333 Washington Road<br>\nWashington, PA 15301<br>\n\n\t\t\t(724) 229-8621 (Main)<br>\n(724) 229-8623 (Main Fax)<br>\n\n\t\t\tSun-Sat: 5:00 AM - 11:00 PM<br>\n\n\t\t\t","street_number":null,"street_name":"Berry Road","zip":"15301","city":null,"area":null,"county":"Washington County","state":"Pennsylvania","country":"us","formatted_address":"GetGo, Berry Road, Manifold, Washington County, Pennsylvania, 15301, United States of America","place_id":"24527810","datatype":"locationiq"},{"latitude":"40.412796","longitude":"-79.909039","name":"Waterfront Road GetGo","address":"\n\t\t\t430 East Waterfront Drive<br>\nHomestead, PA 15120<br>\n\n\t\t\t(412) 462-9092 (Main)<br>\n(412) 462-9094 (Main Fax)<br>\n\n\t\t\tSun-Sat: 6:00 AM - 11:00 PM<br>\n\n\t\t\t","street_number":"430","street_name":"Waterfront Drive East","zip":"15120","city":"Homestead","area":null,"county":"Allegheny County","state":"Pennsylvania","country":"us","formatted_address":"GetGo, 430, Waterfront Drive East, The Waterfront, Homestead, Allegheny County, Pennsylvania, 15120, United States of America","place_id":"26174095","datatype":"locationiq"},{"latitude":"41.028489","longitude":"-81.509172","name":"Waterloo Road GetGo","address":"\n\t\t\t488 East Waterloo Road<br>\nAkron, OH 44319<br>\n\n\t\t\t(330) 724-8865 (Main)<br>\n(330) 724-8873 (Main Fax)<br>\n\n\t\t\tSun-Sat: 6:00 AM - 11:00 PM<br>\n\n\t\t\t","street_number":"2065","street_name":"Redwood Avenue","zip":"44301","city":"Akron","area":null,"county":"Summit County","state":"Ohio","country":"us","formatted_address":"2065, Redwood Avenue, Coventry Crossing, Akron, Summit County, Ohio, 44301, United States of America","place_id":"199932700","datatype":"locationiq"},{"latitude":"41.416084","longitude":"-81.924147","name":"Watertower Square GetGo","address":"\n\t\t\t27268 Lorain Road<br>\nNorth Olmsted, OH 44070<br>\n\n\t\t\t(440) 801-1393 (Main)<br>\n(440) 801-1397 (Main Fax)<br>\n\n\t\t\tSun-Sat: 5:00 AM - 12:00 AM<br>\n\n\t\t\t","street_number":"27232","street_name":"Lorain Road","zip":"44070","city":null,"area":null,"county":"Cuyahoga County","state":"Ohio","country":"us","formatted_address":"27232, Lorain Road, North Olmsted, Cuyahoga County, Ohio, 44070, United States of America","place_id":"198999178","datatype":"locationiq"},{"latitude":"39.899348","longitude":"-80.148060","name":"Waynesburg GetGo","address":"\n\t\t\t269 E Roy Furman Highway<br>\nWaynesburg, PA 15370<br>\n\n\t\t\t(724) 852-3144 (Main)<br>\n\n\t\t\tSun-Sat: 5:00 AM - 11:00 PM<br>\n\n\t\t\t","street_number":null,"street_name":"Stanley Drive","zip":"15370","city":"Franklin Township","area":null,"county":"Greene County","state":"Pennsylvania","country":"us","formatted_address":"KFC, Stanley Drive, Franklin Township, Greene County, Pennsylvania, 15370, United States of America","place_id":"152196386","datatype":"locationiq"},{"latitude":"39.989054","longitude":"-83.055556","name":"West Fifth Avenue GetGo","address":"\n\t\t\t1825 West Fifth Ave<br>\nGrandview Heights, OH 43212<br>\n\n\t\t\t(614) 485-1867 (Main)<br>\n\n\t\t\tSun-Sat: 6:00 AM - 11:00 PM<br>\n\n\t\t\t","street_number":null,"street_name":"West Fifth Avenue","zip":"43212","city":null,"area":"Upper Arlington Historic District","county":"Franklin County","state":"Ohio","country":"us","formatted_address":"Swan Cleaners, West Fifth Avenue, Upper Arlington Historic District, Marble Cliff, Franklin County, Ohio, 43212, United States of America","place_id":"18821049","datatype":"locationiq"},{"latitude":"41.129700","longitude":"-81.614500","name":"West Market GetGo","address":"\n\t\t\t3120 W Market St<br>\nFairlawn, OH 44333<br>\n\n\t\t\t(234) 678-9137 (Main)<br>\n(234) 678-5533 (Main Fax)<br>\n\n\t\t\tSun-Sat: 5:00 AM - 12:00 AM<br>\n\n\t\t\t","street_number":null,"street_name":"West Market Street","zip":"44333","city":"Fairlawn","area":null,"county":"Summit County","state":"Ohio","country":"us","formatted_address":"Cafe Bricco, West Market Street, Fairlawn, Summit County, Ohio, 44333, United States of America","place_id":"44059826","datatype":"locationiq"},{"latitude":"40.361922","longitude":"-79.932162","name":"West Mifflin GetGo\/WetGo","address":"\n\t\t\t1001 Lebanon &amp; Noble Road<br>\nWest Mifflin, PA 15122<br>\n\n\t\t\t(412) 461-2114 (Main)<br>\n\n\t\t\tSun-Sat: Open 24 hours<br>\n\n\t\t\t","street_number":null,"street_name":"Lebanon Road","zip":"15122","city":"West Mifflin","area":null,"county":"Allegheny County","state":"Pennsylvania","country":"us","formatted_address":"GetGo, Lebanon Road, Hays, West Mifflin, Allegheny County, Pennsylvania, 15122, United States of America","place_id":"48681465","datatype":"locationiq"},{"latitude":"40.144348","longitude":"-82.924886","name":"Westerville GetGo","address":"\n\t\t\t672 North State Street<br>\nWesterville, OH 43082<br>\n\n\t\t\t(614) 895-1320 (Main)<br>\n(614) 895-1410 (Main Fax)<br>\n\n\t\t\tSun-Sat: 6:00 AM - 11:00 PM<br>\n\n\t\t\t","street_number":"884","street_name":"North State Street","zip":"43082","city":"Westerville","area":null,"county":"Delaware County","state":"Ohio","country":"us","formatted_address":"884, North State Street, Westerville, Delaware County, Ohio, 43082, United States of America","place_id":"199071845","datatype":"locationiq"},{"latitude":"41.456001","longitude":"-81.902241","name":"Westlake GetGo\/WetGo","address":"\n\t\t\t25476 Center Ridge Rd<br>\nWestlake, OH 44145<br>\n\n\t\t\t(440) 250-8842 (Main)<br>\n(440) 250-8859 (Main Fax)<br>\n\n\t\t\tSun-Sat: 5:30 AM - 2:00 AM<br>\n\n\t\t\t","street_number":null,"street_name":"Center Ridge Road","zip":"44039:44145","city":null,"area":null,"county":"Cuyahoga County","state":"Ohio","country":"us","formatted_address":"Walgreens, Center Ridge Road, Westlake, Cuyahoga County, Ohio, 44039:44145, United States of America","place_id":"152585322","datatype":"locationiq"},{"latitude":"40.871427","longitude":"-81.422667","name":"Whipple Avenue GetGo\/WetGo","address":"\n\t\t\t6215 Whipple Avenue NW<br>\nNorth Canton, OH 44720<br>\n\n\t\t\t(330) 244-9710 (Main)<br>\n(330) 433-1028 (Main Fax)<br>\n\n\t\t\tSun-Sat: 6:00 AM - 11:00 PM<br>\n\n\t\t\t","street_number":"6469","street_name":"Dressler Road Northwest","zip":"44720","city":"North Canton","area":null,"county":"Stark County","state":"Ohio","country":"us","formatted_address":"6469, Dressler Road Northwest, North Canton, Jackson Township, Stark County, Ohio, 44720, United States of America","place_id":"199854229","datatype":"locationiq"},{"latitude":"40.338039","longitude":"-79.807492","name":"White Oak GetGo","address":"\n\t\t\t2811 Jacks Run Road<br>\nMcKeesport, PA 15131<br>\n\n\t\t\t(412) 675-0295 (Main)<br>\n(412) 675-0479 (Main Fax)<br>\n\n\t\t\tSun-Sat: 6:00 AM - 11:00 PM<br>\n\n\t\t\t","street_number":null,"street_name":"Jacks Run Road","zip":"15131","city":"White Oak","area":null,"county":"Allegheny County","state":"Pennsylvania","country":"us","formatted_address":"GetGo, Jacks Run Road, White Oak, Allegheny County, Pennsylvania, 15131, United States of America","place_id":"168467344","datatype":"locationiq"},{"latitude":"40.444971","longitude":"-79.889413","name":"Wilkinsburg GetGo","address":"\n\t\t\t408 Penn Avenue<br>\nWilkinsburg, PA 15221<br>\n\n\t\t\t(412) 243-1060 (Main)<br>\n(412) 243-3543 (Main Fax)<br>\n\n\t\t\tSun-Sat: 5:00 AM - 12:00 AM<br>\n\n\t\t\t","street_number":"408","street_name":"Penn Avenue","zip":"15221","city":"Wilkinsburg","area":"Park Place","county":"Allegheny County","state":"Pennsylvania","country":"us","formatted_address":"Get-Go, 408, Penn Avenue, Park Place, Wilkinsburg, Allegheny County, Pennsylvania, 15221, United States of America","place_id":"122568537","datatype":"locationiq"}]