[{"latitude":" 29.17634","longitude":"-81.02583","name":" Jimmy John's Gourmet Sandwiches","address":" USA-United States","street_number":null,"street_name":"Beville Road","zip":"32119","city":"Daytona Beach","area":null,"county":"Volusia County","state":"Florida","country":"us","formatted_address":"Domino's Pizza, Beville Road, Daytona Beach, Volusia County, Florida, 32119, United States of America","place_id":"171372131","datatype":"locationiq"},{"latitude":" 35.94513","longitude":"-86.82137","name":" Jimmy John's Gourmet Sandwiches","address":" USA-United States","street_number":null,"street_name":"Frazier Drive","zip":"37607","city":"Franklin","area":null,"county":"Williamson County","state":"Tennessee","country":"us","formatted_address":"Cold Stone Creamery, Frazier Drive, Franklin, Williamson County, Tennessee, 37607, United States of America","place_id":"12848860","datatype":"locationiq"},{"latitude":" 32.58521","longitude":"-85.48825","name":" Jimmy John's Gourmet Sandwiches","address":" USA-United States","street_number":"1082","street_name":"South College Street","zip":"36832","city":"Auburn","area":null,"county":"Lee County","state":"Alabama","country":"us","formatted_address":"1082, South College Street, Auburn, Lee County, Alabama, 36832, United States of America","place_id":"176441361","datatype":"locationiq"},{"latitude":" 29.18578","longitude":"-81.07724","name":" Jimmy John's Gourmet Sandwiches","address":" USA-United States","street_number":null,"street_name":"International Speedway Boulevard","zip":"32114","city":"Daytona Beach","area":null,"county":"Volusia County","state":"Florida","country":"us","formatted_address":"Quality Inn, International Speedway Boulevard, Daytona Beach, Volusia County, Florida, 32114, United States of America","place_id":"149403446","datatype":"locationiq"},{"latitude":" 35.90248","longitude":"-84.15113","name":" Jimmy John's Gourmet Sandwiches","address":" USA-United States","street_number":null,"street_name":"Parkside Drive","zip":"37934","city":null,"area":null,"county":"Knox County","state":"Tennessee","country":"us","formatted_address":"Baskin-Robbins, Parkside Drive, Farragut, Knox County, Tennessee, 37934, United States of America","place_id":"49679938","datatype":"locationiq"},{"latitude":" 34.09370","longitude":"-84.27959","name":" Jimmy John's Gourmet Sandwiches","address":" USA-United States","street_number":"875","street_name":"North Main Street","zip":"30004","city":"Alpharetta","area":null,"county":"Fulton County","state":"Georgia","country":"us","formatted_address":"Taco Mac, 875, North Main Street, Alpharetta, Fulton County, Georgia, 30004, United States of America","place_id":"8309673","datatype":"locationiq"},{"latitude":" 33.95870","longitude":"-83.37490","name":" Jimmy John's Gourmet Sandwiches","address":" USA-United States","street_number":"255","street_name":"E Clayton Street","zip":"30601","city":"Athens-Clarke County","area":null,"county":"Athens - Clarke County","state":"Georgia","country":"us","formatted_address":"On The Rocks, 255, E Clayton Street, Athens-Clarke County, Athens - Clarke County, Georgia, 30601, United States of America","place_id":"26314313","datatype":"locationiq"},{"latitude":" 25.75002","longitude":"-80.25734","name":" Jimmy John's Gourmet Sandwiches","address":" USA-United States","street_number":null,"street_name":"Galiano Street","zip":"33134","city":null,"area":null,"county":"Miami-Dade County","state":"Florida","country":"us","formatted_address":"SunTrust, Galiano Street, Coral Gables, Miami-Dade County, Florida, 33134, United States of America","place_id":"140253866","datatype":"locationiq"},{"latitude":" 34.93059","longitude":"-88.54133","name":" Jimmy John's Gourmet Sandwiches","address":" USA-United States","street_number":"1598","street_name":"US 72","zip":"38834","city":null,"area":null,"county":"Alcorn County","state":"Mississippi","country":"us","formatted_address":"1598, US 72, Corinth, Alcorn County, Mississippi, 38834, United States of America","place_id":"192717323","datatype":"locationiq"},{"latitude":" 29.65211","longitude":"-82.34516","name":" Jimmy John's Gourmet Sandwiches","address":" USA-United States","street_number":"1702","street_name":"West University Avenue","zip":"32603","city":"Gainesville","area":"Diamond Village Apartments","county":"Alachua County","state":"Florida","country":"us","formatted_address":"Designer Greens, 1702, West University Avenue, Diamond Village Apartments, Gainesville, Alachua County, Florida, 32603, United States of America","place_id":"30447389","datatype":"locationiq"},{"latitude":" 33.84476","longitude":"-84.36962","name":" Jimmy John's Gourmet Sandwiches","address":" USA-United States","street_number":"3314","street_name":"Peachtree Road","zip":"30326","city":"Atlanta","area":null,"county":"Fulton County","state":"Georgia","country":"us","formatted_address":"Charles Schwab, 3314, Peachtree Road, Buckhead, Atlanta, Fulton County, Georgia, 30326, United States of America","place_id":"59052400","datatype":"locationiq"},{"latitude":" 26.80952","longitude":"-80.12651","name":" Jimmy John's Gourmet Sandwiches","address":" USA-United States","street_number":"5201","street_name":"Northlake Boulevard","zip":"33418","city":null,"area":null,"county":"Palm Beach County","state":"Florida","country":"us","formatted_address":"5201, Northlake Boulevard, North Palm Beach, Palm Beach Gardens, Palm Beach County, Florida, 33418, United States of America","place_id":"182831808","datatype":"locationiq"},{"latitude":" 27.36107","longitude":"-82.54661","name":" Jimmy John's Gourmet Sandwiches","address":" USA-United States","street_number":null,"street_name":"Ringling Oaks","zip":"34234","city":"Sarasota","area":null,"county":"Sarasota County","state":"Florida","country":"us","formatted_address":"Ringling Oaks, Sarasota, Sarasota County, Florida, 34234, United States of America","place_id":"65518717","datatype":"locationiq"},{"latitude":" 33.80716","longitude":"-84.39350","name":" Jimmy John's Gourmet Sandwiches","address":" USA-United States","street_number":null,"street_name":"Peachtree Road","zip":"GA 30309","city":"Atlanta","area":"Brookwood","county":"Fulton County","state":"Georgia","country":"us","formatted_address":"CVS, Peachtree Road, Brookwood, Buckhead, Atlanta, Fulton County, Georgia, GA 30309, United States of America","place_id":"132509275","datatype":"locationiq"},{"latitude":" 27.95989","longitude":"-82.79993","name":" Jimmy John's Gourmet Sandwiches","address":" USA-United States","street_number":"529","street_name":"South Ft Harrison Avenue","zip":"33756","city":null,"area":null,"county":"Pinellas County","state":"Florida","country":"us","formatted_address":"FedEx Office Print and Ship Center, 529, South Ft Harrison Avenue, Belleair, Pinellas County, Florida, 33756, United States of America","place_id":"18834389","datatype":"locationiq"},{"latitude":" 25.77442","longitude":"-80.19454","name":" Jimmy John's Gourmet Sandwiches","address":" USA-United States","street_number":"73","street_name":"West Flagler Street","zip":"33130","city":"Miami","area":null,"county":"Miami-Dade County","state":"Florida","country":"us","formatted_address":"Miami-Dade County Courthouse, 73, West Flagler Street, Miami, Miami-Dade County, Florida, 33130, United States of America","place_id":"136437154","datatype":"locationiq"},{"latitude":" 33.99873","longitude":"-81.01662","name":" Jimmy John's Gourmet Sandwiches","address":" USA-United States","street_number":"2030","street_name":"Devine Street","zip":"29205","city":"Columbia","area":null,"county":"Richland County","state":"South Carolina","country":"us","formatted_address":"Yesterdays, 2030, Devine Street, Columbia, Richland County, South Carolina, 29205, United States of America","place_id":"39981784","datatype":"locationiq"},{"latitude":" 30.43086","longitude":"-84.24740","name":" Jimmy John's Gourmet Sandwiches","address":" USA-United States","street_number":"1925","street_name":"Apalachee Parkway","zip":"32301","city":"Tallahassee","area":null,"county":"Leon County","state":"Florida","country":"us","formatted_address":"Jimmy John's, 1925, Apalachee Parkway, Tallahassee, Leon County, Florida, 32301, United States of America","place_id":"123387076","datatype":"locationiq"},{"latitude":" 30.43086","longitude":"-84.24740","name":" Jimmy John's Gourmet Sandwiches","address":" USA-United States","street_number":"1925","street_name":"Apalachee Parkway","zip":"32301","city":"Tallahassee","area":null,"county":"Leon County","state":"Florida","country":"us","formatted_address":"Jimmy John's, 1925, Apalachee Parkway, Tallahassee, Leon County, Florida, 32301, United States of America","place_id":"123387076","datatype":"locationiq"},{"latitude":" 36.14813","longitude":"-86.80596","name":" Jimmy John's Gourmet Sandwiches","address":" USA-United States","street_number":null,"street_name":"West End Avenue","zip":"37205","city":"Nashville-Davidson","area":null,"county":"Davidson County","state":"Tennessee","country":"us","formatted_address":"Papa John's, West End Avenue, East Nashville, Nashville-Davidson, Davidson County, Tennessee, 37205, United States of America","place_id":"20221704","datatype":"locationiq"},{"latitude":" 30.84686","longitude":"-83.30851","name":" Jimmy John's Gourmet Sandwiches","address":" USA-United States","street_number":null,"street_name":"Baytree Place","zip":"31601","city":"Remerton","area":null,"county":"Lowndes County","state":"Georgia","country":"us","formatted_address":"Remerton Methodist Church, Baytree Place, Remerton, Lowndes County, Georgia, 31601, United States of America","place_id":"3455421","datatype":"locationiq"},{"latitude":" 26.36472","longitude":"-81.78130","name":" Jimmy John's Gourmet Sandwiches","address":" USA-United States","street_number":"10406","street_name":"Morningside Lane","zip":"34135","city":null,"area":null,"county":"Lee County","state":"Florida","country":"us","formatted_address":"10406, Morningside Lane, Bonita Springs, Lee County, Florida, 34135, United States of America","place_id":"182317314","datatype":"locationiq"},{"latitude":" 28.05437","longitude":"-82.43256","name":" Jimmy John's Gourmet Sandwiches","address":" USA-United States","street_number":"2214","street_name":"East Fowler Avenue","zip":"33612","city":null,"area":null,"county":"Hillsborough County","state":"Florida","country":"us","formatted_address":"Panda Express, 2214, East Fowler Avenue, Nowatney, Hillsborough County, Florida, 33612, United States of America","place_id":"49424133","datatype":"locationiq"},{"latitude":" 26.39544","longitude":"-80.10369","name":" Jimmy John's Gourmet Sandwiches","address":" USA-United States","street_number":null,"street_name":"Congress Avenue","zip":"33445","city":"Boca Raton","area":null,"county":"Palm Beach County","state":"Florida","country":"us","formatted_address":"Sal's Italian, Congress Avenue, Boca Raton, Palm Beach County, Florida, 33445, United States of America","place_id":"20255552","datatype":"locationiq"},{"latitude":" 29.63521","longitude":"-82.35476","name":" Jimmy John's Gourmet Sandwiches","address":" USA-United States","street_number":null,"street_name":"Archer Road","zip":"32610","city":"City of Gainesville Municipal Boundaries","area":"Daysville","county":"Alachua County","state":"Florida","country":"us","formatted_address":"Gainesville Fire Station No. 2, Archer Road, Daysville, City of Gainesville Municipal Boundaries, Alachua County, Florida, 32610, United States of America","place_id":"169195366","datatype":"locationiq"},{"latitude":" 35.95545","longitude":"-83.93529","name":" Jimmy John's Gourmet Sandwiches","address":" USA-United States","street_number":"1830","street_name":"Cumberland Avenue","zip":"37916","city":"Knoxville","area":null,"county":"Knox County","state":"Tennessee","country":"us","formatted_address":"First Tennessee Bank, 1830, Cumberland Avenue, Fort Sanders, Knoxville, Knox County, Tennessee, 37916, United States of America","place_id":"131001802","datatype":"locationiq"},{"latitude":" 26.53488","longitude":"-81.87120","name":" Jimmy John's Gourmet Sandwiches","address":" USA-United States","street_number":"14499","street_name":"Tamiami Trail","zip":"33912","city":null,"area":"Jamaica Bay","county":"Lee County","state":"Florida","country":"us","formatted_address":"14499, Tamiami Trail, Jamaica Bay, Forest Island Park, Lee County, Florida, 33912, United States of America","place_id":"182335169","datatype":"locationiq"},{"latitude":" 33.99936","longitude":"-81.04043","name":" Jimmy John's Gourmet Sandwiches","address":" USA-United States","street_number":"715","street_name":"Gervais Street","zip":"29201","city":"Columbia","area":null,"county":"Richland County","state":"South Carolina","country":"us","formatted_address":"Jimmy John's, 715, Gervais Street, Columbia, Richland County, South Carolina, 29201, United States of America","place_id":"45413102","datatype":"locationiq"},{"latitude":" 33.99936","longitude":"-81.04043","name":" Jimmy John's Gourmet Sandwiches","address":" USA-United States","street_number":"715","street_name":"Gervais Street","zip":"29201","city":"Columbia","area":null,"county":"Richland County","state":"South Carolina","country":"us","formatted_address":"Jimmy John's, 715, Gervais Street, Columbia, Richland County, South Carolina, 29201, United States of America","place_id":"45413102","datatype":"locationiq"},{"latitude":" 34.96567","longitude":"-81.93163","name":" Jimmy John's Gourmet Sandwiches","address":" USA-United States","street_number":"845","street_name":"North Pine Street","zip":"29303","city":"Spartanburg","area":"Converse Heights","county":"Spartanburg County","state":"South Carolina","country":"us","formatted_address":"845, North Pine Street, Converse Heights, Spartanburg, Spartanburg County, South Carolina, 29303, United States of America","place_id":"203158027","datatype":"locationiq"},{"latitude":" 28.58687","longitude":"-81.36379","name":" Jimmy John's Gourmet Sandwiches","address":" USA-United States","street_number":null,"street_name":"Orange Avenue","zip":"32789","city":null,"area":null,"county":"Orange County","state":"Florida","country":"us","formatted_address":"Orange Avenue, Winter Park, Orange County, Florida, 32789, United States of America","place_id":"114748900","datatype":"locationiq"},{"latitude":" 33.78009","longitude":"-84.38415","name":" Jimmy John's Gourmet Sandwiches","address":" USA-United States","street_number":"923","street_name":"Peachtree Street Northeast","zip":"30309","city":"Atlanta","area":"Sweet Auburn","county":"Fulton County","state":"Georgia","country":"us","formatted_address":"Metropolis, 923, Peachtree Street Northeast, Sweet Auburn, Virginia Highland, Atlanta, Fulton County, Georgia, 30309, United States of America","place_id":"123994838","datatype":"locationiq"},{"latitude":" 27.94879","longitude":"-82.45894","name":" Jimmy John's Gourmet Sandwiches","address":" USA-United States","street_number":"301","street_name":"East Twiggs Street","zip":"33602","city":"Tampa","area":"Ridgewood Park","county":"Hillsborough County","state":"Florida","country":"us","formatted_address":"Thai Cafe, 301, East Twiggs Street, Ridgewood Park, Harbour Island, Tampa, Hillsborough County, Florida, 33602, United States of America","place_id":"29652989","datatype":"locationiq"},{"latitude":" 27.17907","longitude":"-80.23779","name":" Jimmy John's Gourmet Sandwiches","address":" USA-United States","street_number":"2200","street_name":"Southeast Federal Highway","zip":"34994","city":null,"area":null,"county":"Martin County","state":"Florida","country":"us","formatted_address":"Pollo Tropical, 2200, Southeast Federal Highway, Stuart, Martin County, Florida, 34994, United States of America","place_id":"143934316","datatype":"locationiq"},{"latitude":" 33.96842","longitude":"-84.19435","name":" Jimmy John's Gourmet Sandwiches","address":" USA-United States","street_number":"4890","street_name":"Peachtree Industrial Boulevard","zip":"30518","city":"Norcross","area":"Peachtree North","county":"Gwinnett County","state":"Georgia","country":"us","formatted_address":"Dairy Queen, 4890, Peachtree Industrial Boulevard, Peachtree North, Norcross, Gwinnett County, Georgia, 30518, United States of America","place_id":"155564355","datatype":"locationiq"},{"latitude":" 26.53666","longitude":"-80.09056","name":" Jimmy John's Gourmet Sandwiches","address":" USA-United States","street_number":"970","street_name":"North Congress Avenue","zip":"33426","city":"Boynton Beach","area":null,"county":"Palm Beach County","state":"Florida","country":"us","formatted_address":"Panda Express, 970, North Congress Avenue, Boynton Beach, Palm Beach County, Florida, 33426, United States of America","place_id":"44469977","datatype":"locationiq"},{"latitude":" 33.77813","longitude":"-84.38081","name":" Jimmy John's Gourmet Sandwiches","address":" USA-United States","street_number":"205","street_name":"7th Street Northeast","zip":"30308","city":"Atlanta","area":null,"county":"Fulton County","state":"Georgia","country":"us","formatted_address":"205, 7th Street Northeast, Virginia Highland, Atlanta, Fulton County, Georgia, 30308, United States of America","place_id":"132253391","datatype":"locationiq"},{"latitude":" 30.44883","longitude":"-84.30318","name":" Jimmy John's Gourmet Sandwiches","address":" USA-United States","street_number":null,"street_name":"West Brevard Street","zip":"32304","city":"Tallahassee","area":null,"county":"Leon County","state":"Florida","country":"us","formatted_address":"Jimmy John's, West Brevard Street, Tallahassee, Leon County, Florida, 32304, United States of America","place_id":"160833645","datatype":"locationiq"},{"latitude":" 33.23660","longitude":"-87.55755","name":" Jimmy John's Gourmet Sandwiches","address":" USA-United States","street_number":"441","street_name":"McFarland Boulevard","zip":"35476","city":"Tuscaloosa","area":null,"county":"Tuscaloosa County","state":"Alabama","country":"us","formatted_address":"441, McFarland Boulevard, West End, Tuscaloosa, Tuscaloosa County, Alabama, 35476, United States of America","place_id":"176745926","datatype":"locationiq"},{"latitude":" 35.30165","longitude":"-80.74947","name":" Jimmy John's Gourmet Sandwiches","address":" USA-United States","street_number":"146","street_name":"E McCullough Drive","zip":"28262","city":"Charlotte","area":null,"county":"Mecklenburg County","state":"North Carolina","country":"us","formatted_address":"146, E McCullough Drive, Charlotte, Mecklenburg County, North Carolina, 28262, United States of America","place_id":"197960423","datatype":"locationiq"},{"latitude":" 32.78366","longitude":"-79.93629","name":" Jimmy John's Gourmet Sandwiches","address":" USA-United States","street_number":null,"street_name":"George Street","zip":"29424","city":"Charleston","area":null,"county":"Charleston County","state":"South Carolina","country":"us","formatted_address":"George Street Apartments, George Street, Charleston, Charleston County, South Carolina, 29424, United States of America","place_id":"165785559","datatype":"locationiq"},{"latitude":" 33.98403","longitude":"-80.96820","name":" Jimmy John's Gourmet Sandwiches","address":" USA-United States","street_number":"6025","street_name":"Garners Ferry Road","zip":"29209","city":"Columbia","area":null,"county":"Richland County","state":"South Carolina","country":"us","formatted_address":"6025, Garners Ferry Road, Columbia, Richland County, South Carolina, 29209, United States of America","place_id":"203152894","datatype":"locationiq"},{"latitude":" 34.84921","longitude":"-82.39808","name":" Jimmy John's Gourmet Sandwiches","address":" USA-United States","street_number":null,"street_name":"East McBee Avenue","zip":"29601","city":"Greenville","area":"Downtown","county":"Greenville County","state":"South Carolina","country":"us","formatted_address":"Falls Street & McBee, East McBee Avenue, Downtown, Greenville, Greenville County, South Carolina, 29601, United States of America","place_id":"19770314","datatype":"locationiq"},{"latitude":" 32.50918","longitude":"-84.96204","name":" Jimmy John's Gourmet Sandwiches","address":" USA-United States","street_number":"4700","street_name":"Woodruff Road","zip":"31904","city":"Columbus","area":null,"county":"Muscogee County","state":"Georgia","country":"us","formatted_address":"4700, Woodruff Road, Columbus, Muscogee County, Georgia, 31904, United States of America","place_id":"184089432","datatype":"locationiq"},{"latitude":" 28.59771","longitude":"-81.21922","name":" Jimmy John's Gourmet Sandwiches","address":" USA-United States","street_number":"11551","street_name":"University Boulevard","zip":"32817","city":null,"area":null,"county":"Orange County","state":"Florida","country":"us","formatted_address":"Lazy moon pizza, 11551, University Boulevard, University Park, Orange County, Florida, 32817, United States of America","place_id":"55207425","datatype":"locationiq"},{"latitude":" 33.95005","longitude":"-83.38392","name":" Jimmy John's Gourmet Sandwiches","address":" USA-United States","street_number":"503","street_name":"Baxter Street","zip":"30605","city":"Athens-Clarke County","area":null,"county":"Athens - Clarke County","state":"Georgia","country":"us","formatted_address":"503, Baxter Street, Athens-Clarke County, Athens - Clarke County, Georgia, 30605, United States of America","place_id":"183483557","datatype":"locationiq"},{"latitude":" 27.27178","longitude":"-80.31738","name":" Jimmy John's Gourmet Sandwiches","address":" USA-United States","street_number":"1118","street_name":"Southeast Port Saint Lucie Boulevard","zip":"34952","city":"Port St. Lucie","area":null,"county":"St. Lucie County","state":"Florida","country":"us","formatted_address":"1118, Southeast Port Saint Lucie Boulevard, Port St. Lucie, St. Lucie County, Florida, 34952, United States of America","place_id":"183091074","datatype":"locationiq"},{"latitude":" 35.67193","longitude":"-88.85304","name":" Jimmy John's Gourmet Sandwiches","address":" USA-United States","street_number":null,"street_name":"Country Club Lane","zip":"38305","city":"Jackson","area":null,"county":"Madison County","state":"Tennessee","country":"us","formatted_address":"Back Yard Burgers, Country Club Lane, Jackson, Madison County, Tennessee, 38305, United States of America","place_id":"35840726","datatype":"locationiq"},{"latitude":" 26.21409","longitude":"-80.10629","name":" Jimmy John's Gourmet Sandwiches","address":" USA-United States","street_number":"1296","street_name":"Federal Highway","zip":"33062","city":"Pompano Beach","area":null,"county":"Broward County","state":"Florida","country":"us","formatted_address":"Gallery For Eyes: Nona Kalfayan, OD, 1296, Federal Highway, Pompano Beach, Broward County, Florida, 33062, United States of America","place_id":"58032381","datatype":"locationiq"},{"latitude":" 26.89877","longitude":"-80.10192","name":" Jimmy John's Gourmet Sandwiches","address":" USA-United States","street_number":null,"street_name":"Military Trail","zip":"33458","city":null,"area":null,"county":"Palm Beach County","state":"Florida","country":"us","formatted_address":"Military Trail, Jupiter, Palm Beach County, Florida, 33458, United States of America","place_id":"105465248","datatype":"locationiq"},{"latitude":" 28.40768","longitude":"-81.38280","name":" Jimmy John's Gourmet Sandwiches","address":" USA-United States","street_number":"11000","street_name":"United Way","zip":"32824","city":null,"area":null,"county":"Orange County","state":"Florida","country":"us","formatted_address":"11000, United Way, Regency Industrial Park, Flamingo, Orange County, Florida, 32824, United States of America","place_id":"182716820","datatype":"locationiq"},{"latitude":" 33.78647","longitude":"-84.39901","name":" Jimmy John's Gourmet Sandwiches","address":" USA-United States","street_number":"365","street_name":"14th Street Northwest","zip":"30318","city":"Atlanta","area":null,"county":"Fulton County","state":"Georgia","country":"us","formatted_address":"365, 14th Street Northwest, Atlantic Station, Rockdale, Atlanta, Fulton County, Georgia, 30318, United States of America","place_id":"123278196","datatype":"locationiq"},{"latitude":" 35.12803","longitude":"-80.70246","name":" Jimmy John's Gourmet Sandwiches","address":" USA-United States","street_number":null,"street_name":"Matthews Township Parkway","zip":"28105","city":null,"area":null,"county":"Mecklenburg County","state":"North Carolina","country":"us","formatted_address":"Qdoba, Matthews Township Parkway, Sycamore Commons, Matthews, Mecklenburg County, North Carolina, 28105, United States of America","place_id":"27419329","datatype":"locationiq"},{"latitude":" 27.78545","longitude":"-82.72850","name":" Jimmy John's Gourmet Sandwiches","address":" USA-United States","street_number":null,"street_name":"66th Street North","zip":"33764","city":"Saint Petersburg","area":"Holiday Park","county":"Pinellas County","state":"Florida","country":"us","formatted_address":"66TH ST N & 15TH AVE N, 66th Street North, Holiday Park, Saint Petersburg, Pinellas County, Florida, 33764, United States of America","place_id":"9674787","datatype":"locationiq"},{"latitude":" 35.85695","longitude":"-86.43016","name":" Jimmy John's Gourmet Sandwiches","address":" USA-United States","street_number":"577","street_name":"North Thompson Lane","zip":"37129","city":"Murfreesboro","area":null,"county":"Rutherford County","state":"Tennessee","country":"us","formatted_address":"577, North Thompson Lane, Murfreesboro, Rutherford County, Tennessee, 37129, United States of America","place_id":"136957027","datatype":"locationiq"},{"latitude":" 26.71306","longitude":"-80.05303","name":" Jimmy John's Gourmet Sandwiches","address":" USA-United States","street_number":"319","street_name":"Clematis Street","zip":"33401","city":"West Palm Beach","area":null,"county":"Palm Beach County","state":"Florida","country":"us","formatted_address":"319, Clematis Street, West Palm Beach, Palm Beach County, Florida, 33401, United States of America","place_id":"48079886","datatype":"locationiq"},{"latitude":" 30.68381","longitude":"-88.20255","name":" Jimmy John's Gourmet Sandwiches","address":" USA-United States","street_number":"6926","street_name":"Airport Boulevard","zip":"36608","city":"Mobile","area":null,"county":"Mobile County","state":"Alabama","country":"us","formatted_address":"6926, Airport Boulevard, Mobile, Mobile County, Alabama, 36608, United States of America","place_id":"176542181","datatype":"locationiq"},{"latitude":" 32.60722","longitude":"-85.48173","name":" Jimmy John's Gourmet Sandwiches","address":" USA-United States","street_number":null,"street_name":"North College Street","zip":"36830","city":"Auburn","area":null,"county":"Lee County","state":"Alabama","country":"us","formatted_address":"Tiger Theater, North College Street, Auburn, Lee County, Alabama, 36830, United States of America","place_id":"110423814","datatype":"locationiq"},{"latitude":" 26.67793","longitude":"-80.20251","name":" Jimmy John's Gourmet Sandwiches","address":" USA-United States","street_number":null,"street_name":"State Road 7","zip":"33411","city":null,"area":null,"county":"Palm Beach County","state":"Florida","country":"us","formatted_address":"State Road 7, Royal Palm Beach, Palm Beach County, Florida, 33411, United States of America","place_id":"97950329","datatype":"locationiq"},{"latitude":" 30.44035","longitude":"-84.31884","name":" Jimmy John's Gourmet Sandwiches","address":" USA-United States","street_number":null,"street_name":"West Pensacola Street","zip":"32304-9998","city":"Tallahassee","area":null,"county":"Leon County","state":"Florida","country":"us","formatted_address":"Jimmy John's, West Pensacola Street, Tallahassee, Leon County, Florida, 32304-9998, United States of America","place_id":"172681468","datatype":"locationiq"},{"latitude":" 29.12873","longitude":"-81.02552","name":" Jimmy John's Gourmet Sandwiches","address":" USA-United States","street_number":"4615","street_name":"South Clyde Morris Boulevard","zip":"32129","city":null,"area":null,"county":"Volusia County","state":"Florida","country":"us","formatted_address":"4615, South Clyde Morris Boulevard, Port Orange, Volusia County, Florida, 32129, United States of America","place_id":"183285659","datatype":"locationiq"},{"latitude":" 36.97951","longitude":"-86.46793","name":" Jimmy John's Gourmet Sandwiches","address":" USA-United States","street_number":"1992","street_name":"Russellville Road","zip":"42101","city":"Bowling Green","area":null,"county":"Warren County","state":"Kentucky","country":"us","formatted_address":"1992, Russellville Road, Bowling Green, Warren County, Kentucky, 42101, United States of America","place_id":"188804916","datatype":"locationiq"},{"latitude":" 30.68785","longitude":"-88.13073","name":" Jimmy John's Gourmet Sandwiches","address":" USA-United States","street_number":"2","street_name":"Du Rhu Drive","zip":"36608","city":"Mobile","area":null,"county":"Mobile County","state":"Alabama","country":"us","formatted_address":"2, Du Rhu Drive, Mobile, Mobile County, Alabama, 36608, United States of America","place_id":"176590143","datatype":"locationiq"},{"latitude":" 36.31782","longitude":"-86.59548","name":" Jimmy John's Gourmet Sandwiches","address":" USA-United States","street_number":null,"street_name":"East Main Street","zip":"37075","city":"Hendersonville","area":null,"county":"Sumner County","state":"Tennessee","country":"us","formatted_address":"East Main Street, Hendersonville, Sumner County, Tennessee, 37075, United States of America","place_id":"71021529","datatype":"locationiq"},{"latitude":" 35.22603","longitude":"-80.84546","name":" Jimmy John's Gourmet Sandwiches","address":" USA-United States","street_number":null,"street_name":"South Tryon Street","zip":"28273","city":"Charlotte","area":null,"county":"Mecklenburg County","state":"North Carolina","country":"us","formatted_address":"Courtyard Charlotte City Center, South Tryon Street, Charlotte, Mecklenburg County, North Carolina, 28273, United States of America","place_id":"22269271","datatype":"locationiq"},{"latitude":" 35.10938","longitude":"-89.88926","name":" Jimmy John's Gourmet Sandwiches","address":" USA-United States","street_number":null,"street_name":"Poplar Avenue","zip":"38117","city":"Memphis","area":null,"county":"Shelby County","state":"Tennessee","country":"us","formatted_address":"Jiffy Lube, Poplar Avenue, Memphis, Shelby County, Tennessee, 38117, United States of America","place_id":"6455393","datatype":"locationiq"},{"latitude":" 35.13479","longitude":"-80.73683","name":" Jimmy John's Gourmet Sandwiches","address":" USA-United States","street_number":null,"street_name":"Galleria Boulevard","zip":"28105","city":"Charlotte","area":null,"county":"Mecklenburg County","state":"North Carolina","country":"us","formatted_address":"Tony's Pizza, Galleria Boulevard, Charlotte, Mecklenburg County, North Carolina, 28105, United States of America","place_id":"27101391","datatype":"locationiq"},{"latitude":" 28.03570","longitude":"-80.64127","name":" Jimmy John's Gourmet Sandwiches","address":" USA-United States","street_number":null,"street_name":"Palm Bay Road Northeast","zip":"32907","city":null,"area":null,"county":"Brevard County","state":"Florida","country":"us","formatted_address":"Ne Palm Bay Rd @ Cracker Barrel, Palm Bay Road Northeast, West Melbourne, Brevard County, Florida, 32907, United States of America","place_id":"12345114","datatype":"locationiq"},{"latitude":" 33.21071","longitude":"-87.55264","name":" Jimmy John's Gourmet Sandwiches","address":" USA-United States","street_number":null,"street_name":"University Boulevard","zip":"35487","city":"Tuscaloosa","area":null,"county":"Tuscaloosa County","state":"Alabama","country":"us","formatted_address":"Regions, University Boulevard, West End, Tuscaloosa, Tuscaloosa County, Alabama, 35487, United States of America","place_id":"16063588","datatype":"locationiq"}]