[{"latitude":" 30.41840","longitude":"-97.74721","name":" Joe's Crab Shack","address":" USA-United States","street_number":"11680","street_name":"Research Boulevard","zip":"78759","city":"Austin","area":null,"county":"Travis County","state":"Texas","country":"us","formatted_address":"Chuy's, 11680, Research Boulevard, Jollyville, Austin, Travis County, Texas, 78759, United States of America","place_id":"85881053","datatype":"locationiq"},{"latitude":" 35.19316","longitude":"-89.79783","name":" Joe's Crab Shack","address":" USA-United States","street_number":"7931","street_name":"Horizon Center Boulevard","zip":"38133","city":"Memphis","area":null,"county":"Shelby County","state":"Tennessee","country":"us","formatted_address":"7931, Horizon Center Boulevard, Marketplace at Wolfcreek, Memphis, Shelby County, Tennessee, 38133, United States of America","place_id":"204123094","datatype":"locationiq"},{"latitude":" 29.67725","longitude":"-95.41935","name":" Joe's Crab Shack","address":" USA-United States","street_number":"2856","street_name":"South Loop East Frontage Road","zip":"77054","city":null,"area":null,"county":"Harris County","state":"Texas","country":"us","formatted_address":"2856, South Loop East Frontage Road, Westwood Park, Harris County, Texas, 77054, United States of America","place_id":"205449618","datatype":"locationiq"},{"latitude":" 29.95286","longitude":"-95.53815","name":" Joe's Crab Shack","address":" USA-United States","street_number":null,"street_name":"Tomball Parkway Frontage Road","zip":"77070","city":null,"area":"Willowbrook","county":"Harris County","state":"Texas","country":"us","formatted_address":"Tomball Parkway Frontage Road, Willowbrook, North Houston, Harris County, Texas, 77070, United States of America","place_id":"161534687","datatype":"locationiq"},{"latitude":" 39.65961","longitude":"-86.14371","name":" Joe's Crab Shack","address":" USA-United States","street_number":"7413","street_name":"US 31","zip":"46227","city":"Greenwood","area":null,"county":"Marion County","state":"Indiana","country":"us","formatted_address":"7413, US 31, Greenwood, Marion County, Indiana, 46227, United States of America","place_id":"186565955","datatype":"locationiq"},{"latitude":" 34.04685","longitude":"-84.28561","name":" Joe's Crab Shack","address":" USA-United States","street_number":null,"street_name":"Haynes Bridge Road","zip":"30022","city":"Alpharetta","area":"Alpha Park","county":"Fulton County","state":"Georgia","country":"us","formatted_address":"Haynes Bridge Road, Alpha Park, Alpharetta, Fulton County, Georgia, 30022, United States of America","place_id":"132867887","datatype":"locationiq"},{"latitude":" 36.11498","longitude":"-115.30608","name":" Joe's Crab Shack","address":" USA-United States","street_number":"9829","street_name":"West Flamingo Road","zip":"89147","city":null,"area":null,"county":"Clark County","state":"Nevada","country":"us","formatted_address":"9829, West Flamingo Road, Bridgeport, Spring Valley, Clark County, Nevada, 89147, United States of America","place_id":"194956418","datatype":"locationiq"},{"latitude":" 29.49336","longitude":"-98.47969","name":" Joe's Crab Shack","address":" USA-United States","street_number":"243","street_name":"East Basse Road","zip":"78209","city":"San Antonio","area":null,"county":"Bexar County","state":"Texas","country":"us","formatted_address":"243, East Basse Road, San Antonio, Bexar County, Texas, 78209, United States of America","place_id":"204433615","datatype":"locationiq"},{"latitude":" 30.00778","longitude":"-95.26618","name":" Joe's Crab Shack","address":" USA-United States","street_number":null,"street_name":"Eastex Freeway Frontage Road","zip":"77339","city":"Humble","area":null,"county":"Harris County","state":"Texas","country":"us","formatted_address":"Eastex Freeway Frontage Road, Humble, Harris County, Texas, 77339, United States of America","place_id":"110269160","datatype":"locationiq"},{"latitude":" 32.52090","longitude":"-93.73570","name":" Joe's Crab Shack","address":" USA-United States","street_number":"402","street_name":"East Texas Street","zip":"71111","city":"Bossier City","area":null,"county":"Bossier Parish","state":"Louisiana","country":"us","formatted_address":"402, East Texas Street, Bossier City, Bossier Parish, Louisiana, 71111, United States of America","place_id":"188885029","datatype":"locationiq"},{"latitude":" 33.94415","longitude":"-84.12433","name":" Joe's Crab Shack","address":" USA-United States","street_number":"1548","street_name":"Pleasant Hill Road","zip":"30096","city":null,"area":null,"county":"Gwinnett County","state":"Georgia","country":"us","formatted_address":"1548, Pleasant Hill Road, Luxomni, Pleasant Hill, Gwinnett County, Georgia, 30096, United States of America","place_id":"183851347","datatype":"locationiq"},{"latitude":" 30.25253","longitude":"-97.74227","name":" Joe's Crab Shack","address":" USA-United States","street_number":"508","street_name":"Sunny Lane","zip":"78704","city":"Austin","area":null,"county":"Travis County","state":"Texas","country":"us","formatted_address":"508, Sunny Lane, Austin, Travis County, Texas, 78704, United States of America","place_id":"154239788","datatype":"locationiq"},{"latitude":" 38.86302","longitude":"-77.38422","name":" Joe's Crab Shack","address":" USA-United States","street_number":null,"street_name":"Fair Lakes Parkway","zip":"22033","city":null,"area":"Greens of Fair Lakes","county":"Fairfax County","state":"Virginia","country":"us","formatted_address":"Residence Inn - Fair Lakes, Fair Lakes Parkway, Greens of Fair Lakes, Chantilly, Fairfax County, Virginia, 22033, United States of America","place_id":"114849801","datatype":"locationiq"},{"latitude":" 38.66836","longitude":"-90.60189","name":" Joe's Crab Shack","address":" USA-United States","street_number":"17400","street_name":"Chesterfield Airport Road","zip":"63005","city":"Chesterfield","area":null,"county":"St. Louis County","state":"Missouri","country":"us","formatted_address":"17400, Chesterfield Airport Road, Chesterfield, St. Louis County, Missouri, 63005, United States of America","place_id":"194016573","datatype":"locationiq"},{"latitude":" 30.28849","longitude":"-81.38904","name":" Joe's Crab Shack","address":" USA-United States","street_number":null,"street_name":null,"zip":"32250","city":null,"area":null,"county":"Duval County","state":"Florida","country":"us","formatted_address":"Jacksonville Beach Patrol, Jacksonville Beach Boardwalk, Jacksonville Beach, Duval County, Florida, 32250, United States of America","place_id":"147764014","datatype":"locationiq"},{"latitude":" 29.73192","longitude":"-95.49055","name":" Joe's Crab Shack","address":" USA-United States","street_number":"6220","street_name":"Richmond Avenue","zip":"77057","city":null,"area":null,"county":"Harris County","state":"Texas","country":"us","formatted_address":"6220, Richmond Avenue, Lamar Terrace, Harris County, Texas, 77057, United States of America","place_id":"205351786","datatype":"locationiq"},{"latitude":" 33.01310","longitude":"-96.97872","name":" Joe's Crab Shack","address":" USA-United States","street_number":"2290","street_name":"South Stemmons Freeway","zip":"75067","city":"Lewisville","area":null,"county":"Denton County","state":"Texas","country":"us","formatted_address":"2290, South Stemmons Freeway, Lewisville, Denton County, Texas, 75067, United States of America","place_id":"204985616","datatype":"locationiq"},{"latitude":" 42.37834","longitude":"-87.94230","name":" Joe's Crab Shack","address":" USA-United States","street_number":null,"street_name":"Grand Avenue","zip":"60031","city":null,"area":null,"county":"Lake County","state":"Illinois","country":"us","formatted_address":"Joe's Crab Shack, Grand Avenue, Gurnee, Lake County, Illinois, 60031, United States of America","place_id":"105151463","datatype":"locationiq"},{"latitude":" 35.18749","longitude":"-101.93956","name":" Joe's Crab Shack","address":" USA-United States","street_number":"8720","street_name":"Interstate Highway 40 Access Road","zip":"79124","city":"Amarillo","area":null,"county":"Potter County","state":"Texas","country":"us","formatted_address":"8720, Interstate Highway 40 Access Road, Amarillo, Potter County, Texas, 79124, United States of America","place_id":"111004800","datatype":"locationiq"},{"latitude":" 36.07099","longitude":"-115.08132","name":" Joe's Crab Shack","address":" USA-United States","street_number":"1300 West","street_name":"Sunset Road","zip":"89014","city":"Henderson","area":null,"county":"Clark County","state":"Nevada","country":"us","formatted_address":"Bank of America, 1300 West, Sunset Road, Green Valley, Henderson, Clark County, Nevada, 89014, United States of America","place_id":"59080081","datatype":"locationiq"},{"latitude":" 33.04050","longitude":"-96.70240","name":" Joe's Crab Shack","address":" USA-United States","street_number":null,"street_name":"Central Expressway","zip":"75074","city":"Plano","area":null,"county":"Collin County","state":"Texas","country":"us","formatted_address":"Joe's Crab Shack, Central Expressway, Plano, Collin County, Texas, 75074, United States of America","place_id":"23921168","datatype":"locationiq"},{"latitude":" 32.68231","longitude":"-97.40942","name":" Joe's Crab Shack","address":" USA-United States","street_number":null,"street_name":"Cityview Boulevard East","zip":"76132","city":"Fort Worth","area":null,"county":"Tarrant County","state":"Texas","country":"us","formatted_address":"Fuddruckers, Cityview Boulevard East, Fort Worth, Tarrant County, Texas, 76132, United States of America","place_id":"131538204","datatype":"locationiq"},{"latitude":" 41.56709","longitude":"-93.80948","name":" Joe's Crab Shack","address":" USA-United States","street_number":"177","street_name":"South Jordan Creek Parkway","zip":"50266","city":"West Des Moines","area":null,"county":"Dallas County","state":"Iowa","country":"us","formatted_address":"Fidelity Bank, 177, South Jordan Creek Parkway, Bridgewood Plaza, West Des Moines, Dallas County, Iowa, 50266, United States of America","place_id":"88175065","datatype":"locationiq"},{"latitude":" 39.04103","longitude":"-94.34419","name":" Joe's Crab Shack","address":" USA-United States","street_number":null,"street_name":"East Jackson Drive","zip":"64057","city":"Independence","area":null,"county":"Jackson County","state":"Missouri","country":"us","formatted_address":"Joe's Crab Shack, East Jackson Drive, Independence, Jackson County, Missouri, 64057, United States of America","place_id":"150936242","datatype":"locationiq"},{"latitude":" 42.24153","longitude":"-83.76243","name":" Joe's Crab Shack","address":" USA-United States","street_number":null,"street_name":"Lohr Road","zip":"48108","city":null,"area":null,"county":"Washtenaw County","state":"Michigan","country":"us","formatted_address":"Lohr Road, Pittsfield Charter Township, Washtenaw County, Michigan, 48108, United States of America","place_id":"164827869","datatype":"locationiq"},{"latitude":" 33.71395","longitude":"-78.88295","name":" Joe's Crab Shack","address":" USA-United States","street_number":"1167","street_name":"Celebrity Circle","zip":"29577","city":"Myrtle Beach","area":null,"county":"Horry County","state":"South Carolina","country":"us","formatted_address":"1167, Celebrity Circle, Broadway at the Beach, Myrtle Beach, Horry County, South Carolina, 29577, United States of America","place_id":"202942901","datatype":"locationiq"},{"latitude":" 32.60154","longitude":"-96.93473","name":" Joe's Crab Shack","address":" USA-United States","street_number":"858","street_name":"North Highway 67","zip":"75104","city":"Cedar Hill","area":null,"county":"Dallas County","state":"Texas","country":"us","formatted_address":"858, North Highway 67, Cedar Hill, Dallas County, Texas, 75104, United States of America","place_id":"204871952","datatype":"locationiq"},{"latitude":" 39.67923","longitude":"-104.82601","name":" Joe's Crab Shack","address":" USA-United States","street_number":"14050","street_name":"East Evans Avenue","zip":"80014","city":"Aurora","area":null,"county":"Arapahoe County","state":"Colorado","country":"us","formatted_address":"Afrocentric Restaurant & Lounge, 14050, East Evans Avenue, Aurora, Arapahoe County, Colorado, 80014, United States of America","place_id":"26485840","datatype":"locationiq"},{"latitude":" 40.45471","longitude":"-80.16131","name":" Joe's Crab Shack","address":" USA-United States","street_number":null,"street_name":"Robinson Center Drive","zip":"15275","city":null,"area":null,"county":"Allegheny County","state":"Pennsylvania","country":"us","formatted_address":"Joe's Crab Shack, Robinson Center Drive, Robinson Township, Allegheny County, Pennsylvania, 15275, United States of America","place_id":"26145957","datatype":"locationiq"},{"latitude":" 33.39303","longitude":"-111.91283","name":" Joe's Crab Shack","address":" USA-United States","street_number":null,"street_name":"East Southern Avenue","zip":"85282","city":"Tempe","area":null,"county":"Maricopa County","state":"Arizona","country":"us","formatted_address":"Joe's Crab Shack, East Southern Avenue, Southern Garderns, Tempe, Maricopa County, Arizona, 85282, United States of America","place_id":"1726454","datatype":"locationiq"},{"latitude":" 32.77080","longitude":"-117.15734","name":" Joe's Crab Shack","address":" USA-United States","street_number":"7610","street_name":"Hazard Center Drive","zip":"92108","city":"San Diego","area":null,"county":"San Diego County","state":"California","country":"us","formatted_address":"Barnes & Noble, 7610, Hazard Center Drive, Mission Valley, San Diego, San Diego County, California, 92108, United States of America","place_id":"22682824","datatype":"locationiq"},{"latitude":" 38.91083","longitude":"-94.76717","name":" Joe's Crab Shack","address":" USA-United States","street_number":null,"street_name":"West 119th Plaza","zip":"66061","city":"Olathe","area":null,"county":"Johnson County","state":"Kansas","country":"us","formatted_address":"Wendy's, West 119th Plaza, Olathe, Johnson County, Kansas, 66061, United States of America","place_id":"94386590","datatype":"locationiq"},{"latitude":" 29.98700","longitude":"-95.42410","name":" Joe's Crab Shack","address":" USA-United States","street_number":null,"street_name":"North Freeway Frontage Road","zip":"77090","city":null,"area":null,"county":"Harris County","state":"Texas","country":"us","formatted_address":"Saltgrass Steak House, North Freeway Frontage Road, Westfield, Harris County, Texas, 77090, United States of America","place_id":"147573998","datatype":"locationiq"},{"latitude":" 29.61751","longitude":"-95.21821","name":" Joe's Crab Shack","address":" USA-United States","street_number":null,"street_name":"Gulf Freeway Frontage Road","zip":"77034","city":null,"area":null,"county":"Harris County","state":"Texas","country":"us","formatted_address":"Gulf Freeway Frontage Road, East Haven, Harris County, Texas, 77034, United States of America","place_id":"110383621","datatype":"locationiq"},{"latitude":" 32.86094","longitude":"-97.31630","name":" Joe's Crab Shack","address":" USA-United States","street_number":"3020","street_name":"Western Center Boulevard","zip":"76131","city":"Fort Worth","area":null,"county":"Tarrant County","state":"Texas","country":"us","formatted_address":"Waffle House, 3020, Western Center Boulevard, Fort Worth, Tarrant County, Texas, 76131, United States of America","place_id":"80449916","datatype":"locationiq"},{"latitude":" 35.54983","longitude":"-97.62001","name":" Joe's Crab Shack","address":" USA-United States","street_number":null,"street_name":"Northwest Expressway","zip":"73132","city":"Warr Acres","area":null,"county":"Oklahoma County","state":"Oklahoma","country":"us","formatted_address":"Northwest Expressway, Warr Acres, Oklahoma County, Oklahoma, 73132, United States of America","place_id":"136047454","datatype":"locationiq"},{"latitude":" 35.39108","longitude":"-97.54563","name":" Joe's Crab Shack","address":" USA-United States","street_number":"1800","street_name":"Southwest 74th Street","zip":"73159","city":"Oklahoma City","area":null,"county":"Oklahoma County","state":"Oklahoma","country":"us","formatted_address":"1800, Southwest 74th Street, Oklahoma City, Oklahoma County, Oklahoma, 73159, United States of America","place_id":"200417011","datatype":"locationiq"},{"latitude":" 33.75313","longitude":"-118.10835","name":" Joe's Crab Shack","address":" USA-United States","street_number":"6201","street_name":"North Studebaker Road","zip":"90803","city":"Long Beach","area":"Marina Pacifica","county":"Los Angeles County","state":"California","country":"us","formatted_address":"6201, North Studebaker Road, Marina Pacifica, Naples, Long Beach, Los Angeles County, California, 90803, United States of America","place_id":"178597227","datatype":"locationiq"},{"latitude":" 29.55318","longitude":"-95.38604","name":" Joe's Crab Shack","address":" USA-United States","street_number":"3078","street_name":"Silverlake Village Drive","zip":"77584","city":null,"area":null,"county":"Brazoria County","state":"Texas","country":"us","formatted_address":"3078, Silverlake Village Drive, Brazoria County, Texas, 77584, United States of America","place_id":"204563959","datatype":"locationiq"},{"latitude":" 27.79459","longitude":"-97.38805","name":" Joe's Crab Shack","address":" USA-United States","street_number":null,"street_name":"Schatzell Street","zip":"78401","city":"Corpus Christi","area":null,"county":"Nueces County","state":"Texas","country":"us","formatted_address":"Joe's Crab Shack, Schatzell Street, Corpus Christi, Nueces County, Texas, 78401, United States of America","place_id":"58415856","datatype":"locationiq"},{"latitude":" 40.58053","longitude":"-111.89090","name":" Joe's Crab Shack","address":" USA-United States","street_number":null,"street_name":"9400 South","zip":"84070","city":"Sandy","area":null,"county":"Salt Lake County","state":"Utah","country":"us","formatted_address":"America First Credit Union, 9400 South, Sandy, Salt Lake County, Utah, 84070, United States of America","place_id":"24981045","datatype":"locationiq"},{"latitude":" 32.92191","longitude":"-97.07884","name":" Joe's Crab Shack","address":" USA-United States","street_number":null,"street_name":"South Main Street","zip":"76051","city":"Grapevine","area":null,"county":"Tarrant County","state":"Texas","country":"us","formatted_address":"Olive Garden, South Main Street, Grapevine, Tarrant County, Texas, 76051, United States of America","place_id":"34196899","datatype":"locationiq"},{"latitude":" 33.41792","longitude":"-86.69063","name":" Joe's Crab Shack","address":" USA-United States","street_number":null,"street_name":"US 280","zip":"35242","city":"Hoover","area":null,"county":"Shelby County","state":"Alabama","country":"us","formatted_address":"US 280, Hoover, Shelby County, Alabama, 35242, United States of America","place_id":"97239137","datatype":"locationiq"},{"latitude":" 29.48975","longitude":"-98.57938","name":" Joe's Crab Shack","address":" USA-United States","street_number":"4804","street_name":"Northwest Loop 410","zip":"78229","city":"San Antonio","area":null,"county":"Bexar County","state":"Texas","country":"us","formatted_address":"4804, Northwest Loop 410, San Antonio, Bexar County, Texas, 78229, United States of America","place_id":"204426504","datatype":"locationiq"},{"latitude":" 33.72747","longitude":"-84.73673","name":" Joe's Crab Shack","address":" USA-United States","street_number":null,"street_name":"Chapel Hill Road","zip":"30135","city":"Douglasville","area":"Springwood Village","county":"Douglas County","state":"Georgia","country":"us","formatted_address":"Joe's Crab Shack, Chapel Hill Road, Springwood Village, Douglasville, Douglas County, Georgia, 30135, United States of America","place_id":"139938055","datatype":"locationiq"},{"latitude":" 39.90586","longitude":"-86.09831","name":" Joe's Crab Shack","address":" USA-United States","street_number":"8112","street_name":"Dean Road","zip":"46240","city":null,"area":null,"county":"Marion County","state":"Indiana","country":"us","formatted_address":"8112, Dean Road, Pleasant Acres, Marion County, Indiana, 46240, United States of America","place_id":"186577031","datatype":"locationiq"},{"latitude":" 39.86030","longitude":"-105.05142","name":" Joe's Crab Shack","address":" USA-United States","street_number":"8901","street_name":"Yates Street","zip":"80031","city":null,"area":null,"county":"Adams County","state":"Colorado","country":"us","formatted_address":"8901, Yates Street, Westminster, Adams County, Colorado, 80031, United States of America","place_id":"180570202","datatype":"locationiq"},{"latitude":" 29.74398","longitude":"-95.64457","name":" Joe's Crab Shack","address":" USA-United States","street_number":"2114","street_name":"TX 6","zip":"77077","city":null,"area":null,"county":"Harris County","state":"Texas","country":"us","formatted_address":"2114, TX 6, Addicks, Harris County, Texas, 77077, United States of America","place_id":"205400550","datatype":"locationiq"},{"latitude":" 39.55237","longitude":"-104.77206","name":" Joe's Crab Shack","address":" USA-United States","street_number":"19310","street_name":"East Cottonwood Drive","zip":"80138","city":null,"area":null,"county":"Douglas County","state":"Colorado","country":"us","formatted_address":"Saltgrass Steak House, 19310, East Cottonwood Drive, Parker, Douglas County, Colorado, 80138, United States of America","place_id":"114918439","datatype":"locationiq"},{"latitude":" 33.89997","longitude":"-84.48473","name":" Joe's Crab Shack","address":" USA-United States","street_number":"2003","street_name":"Cobb Parkway South","zip":"30080","city":null,"area":"Northwest Park","county":"Cobb County","state":"Georgia","country":"us","formatted_address":"2003, Cobb Parkway South, Northwest Park, Marietta, Cobb County, Georgia, 30080, United States of America","place_id":"183543023","datatype":"locationiq"},{"latitude":" 36.16137","longitude":"-86.77491","name":" Joe's Crab Shack","address":" USA-United States","street_number":"111","street_name":"Broadway","zip":"37203","city":"Nashville-Davidson","area":null,"county":"Davidson County","state":"Tennessee","country":"us","formatted_address":"Rock Bottom Brewery, 111, Broadway, East Nashville, Nashville-Davidson, Davidson County, Tennessee, 37203, United States of America","place_id":"29790931","datatype":"locationiq"},{"latitude":" 26.17930","longitude":"-80.25161","name":" Joe's Crab Shack","address":" USA-United States","street_number":null,"street_name":"North University Drive","zip":"33321","city":null,"area":null,"county":"Broward County","state":"Florida","country":"us","formatted_address":"Lauderhill Police Department, North University Drive, Tamarac, Broward County, Florida, 33321, United States of America","place_id":"3799071","datatype":"locationiq"},{"latitude":" 29.28161","longitude":"-94.80072","name":" Joe's Crab Shack","address":" USA-United States","street_number":"2698","street_name":"35th Street","zip":"77550","city":null,"area":null,"county":"Galveston County","state":"Texas","country":"us","formatted_address":"2698, 35th Street, Galveston, Galveston County, Texas, 77550, United States of America","place_id":"205199474","datatype":"locationiq"},{"latitude":" 34.10620","longitude":"-117.53600","name":" Joe's Crab Shack","address":" USA-United States","street_number":null,"street_name":"Monet Avenue","zip":"91730","city":"Rancho Cucamonga","area":null,"county":"San Bernardino County","state":"California","country":"us","formatted_address":"Wendy's, Monet Avenue, Rancho Cucamonga, San Bernardino County, California, 91730, United States of America","place_id":"124779216","datatype":"locationiq"},{"latitude":" 36.64051","longitude":"-93.21393","name":" Joe's Crab Shack","address":" USA-United States","street_number":null,"street_name":"Branson Landing","zip":"65616","city":"Branson","area":null,"county":"Taney County","state":"Missouri","country":"us","formatted_address":"Branson Landing, Branson, Taney County, Missouri, 65616, United States of America","place_id":"99558106","datatype":"locationiq"},{"latitude":" 26.14102","longitude":"-81.78785","name":" Joe's Crab Shack","address":" USA-United States","street_number":null,"street_name":"5th Avenue South","zip":"34102","city":"Naples","area":null,"county":"Collier County","state":"Florida","country":"us","formatted_address":"Hyatt House Naples, 5th Avenue South, Naples, Collier County, Florida, 34102, United States of America","place_id":"57955683","datatype":"locationiq"},{"latitude":" 33.84490","longitude":"-118.39518","name":" Joe's Crab Shack","address":" USA-United States","street_number":null,"street_name":"Portofino Way","zip":"90277","city":"Redondo Beach","area":null,"county":"Los Angeles County","state":"California","country":"us","formatted_address":"Joe's Crab Shack, Portofino Way, Redondo Beach, Los Angeles County, California, 90277, United States of America","place_id":"11408672","datatype":"locationiq"},{"latitude":" 36.84488","longitude":"-76.29151","name":" Joe's Crab Shack","address":" USA-United States","street_number":"333","street_name":"Waterside Drive","zip":"23510","city":"Norfolk","area":"Brambleton","county":null,"state":"Virginia","country":"us","formatted_address":"Waterside, 333, Waterside Drive, Brambleton, Berkley, Norfolk, Virginia, 23510, United States of America","place_id":"158964630","datatype":"locationiq"},{"latitude":" 39.80158","longitude":"-86.01355","name":" Joe's Crab Shack","address":" USA-United States","street_number":null,"street_name":"I 70","zip":"46229","city":null,"area":null,"county":"Marion County","state":"Indiana","country":"us","formatted_address":"Outback Steakhouse, I 70, Warren Hills, Marion County, Indiana, 46229, United States of America","place_id":"18915105","datatype":"locationiq"},{"latitude":" 41.47202","longitude":"-87.30234","name":" Joe's Crab Shack","address":" USA-United States","street_number":null,"street_name":"East 81st Avenue","zip":"46410-5468","city":null,"area":"Chapel Manor","county":"Lake County","state":"Indiana","country":"us","formatted_address":"East 81st Avenue, Chapel Manor, Merrillville, Lake County, Indiana, 46410-5468, United States of America","place_id":"104148078","datatype":"locationiq"},{"latitude":" 33.83467","longitude":"-84.07936","name":" Joe's Crab Shack","address":" USA-United States","street_number":null,"street_name":"Main Street West","zip":"33078","city":null,"area":"Lake Lucerne Estates","county":"Gwinnett County","state":"Georgia","country":"us","formatted_address":"Office Depot, Main Street West, Lake Lucerne Estates, Cumberland Forest, Gwinnett County, Georgia, 33078, United States of America","place_id":"88677953","datatype":"locationiq"},{"latitude":" 33.99556","longitude":"-117.93117","name":" Joe's Crab Shack","address":" USA-United States","street_number":null,"street_name":"Azusa Avenue","zip":"91745","city":"Industry","area":null,"county":"Los Angeles County","state":"California","country":"us","formatted_address":"Krispy Kreme Doughnuts, Azusa Avenue, Industry, Los Angeles County, California, 91745, United States of America","place_id":"90663796","datatype":"locationiq"},{"latitude":" 29.42581","longitude":"-98.48960","name":" Joe's Crab Shack","address":" USA-United States","street_number":null,"street_name":"College Street","zip":"78205","city":"San Antonio","area":null,"county":"Bexar County","state":"Texas","country":"us","formatted_address":"Nix Medical Center, College Street, Central Business District, San Antonio, Bexar County, Texas, 78205, United States of America","place_id":"90750139","datatype":"locationiq"},{"latitude":" 33.79772","longitude":"-78.74253","name":" Joe's Crab Shack","address":" USA-United States","street_number":null,"street_name":"North Kings Highway","zip":"29598","city":null,"area":null,"county":"Horry County","state":"South Carolina","country":"us","formatted_address":"North Kings Highway, Briarcliffe Acres, Horry County, South Carolina, 29598, United States of America","place_id":"165938737","datatype":"locationiq"},{"latitude":" 39.11618","longitude":"-77.20337","name":" Joe's Crab Shack","address":" USA-United States","street_number":"9926","street_name":"Shelbourne Terrace","zip":"20877","city":null,"area":"Hunting Hill","county":"Montgomery County","state":"Maryland","country":"us","formatted_address":"9926, Shelbourne Terrace, Hunting Hill, King Farm, Rosemont, Montgomery County, Maryland, 20877, United States of America","place_id":"118939018","datatype":"locationiq"},{"latitude":" 29.31010","longitude":"-94.79070","name":" Joe's Crab Shack","address":" USA-United States","street_number":"1933","street_name":"Wharf Road","zip":"77550","city":null,"area":null,"county":"Galveston County","state":"Texas","country":"us","formatted_address":"1933, Wharf Road, Galveston, Galveston County, Texas, 77550, United States of America","place_id":"205184070","datatype":"locationiq"},{"latitude":" 33.54276","longitude":"-101.93536","name":" Joe's Crab Shack","address":" USA-United States","street_number":"5800","street_name":"Loop 289 Frontage Road","zip":"79424","city":"Lubbock","area":null,"county":"Lubbock County","state":"Texas","country":"us","formatted_address":"5800, Loop 289 Frontage Road, Lubbock, Lubbock County, Texas, 79424, United States of America","place_id":"205864084","datatype":"locationiq"},{"latitude":" 40.61839","longitude":"-111.97927","name":" Joe's Crab Shack","address":" USA-United States","street_number":null,"street_name":"Bangerter Highway","zip":"84084","city":"West Jordan","area":null,"county":"Salt Lake County","state":"Utah","country":"us","formatted_address":"Famous Dave's, Bangerter Highway, West Jordan, Salt Lake County, Utah, 84084, United States of America","place_id":"24205994","datatype":"locationiq"},{"latitude":" 35.06896","longitude":"-78.95102","name":" Joe's Crab Shack","address":" USA-United States","street_number":null,"street_name":"North McPherson Church Road","zip":"28303","city":"Fayetteville","area":null,"county":"Cumberland County","state":"North Carolina","country":"us","formatted_address":"Honey Baked Ham Store, North McPherson Church Road, Fayetteville, Cumberland County, North Carolina, 28303, United States of America","place_id":"162526014","datatype":"locationiq"},{"latitude":" 34.27473","longitude":"-119.28278","name":" Joe's Crab Shack","address":" USA-United States","street_number":"481","street_name":"Sanjon Road","zip":"93001","city":"Ventura","area":null,"county":"Ventura County","state":"California","country":"us","formatted_address":"481, Sanjon Road, Ventura, Ventura County, California, 93001, United States of America","place_id":"180497433","datatype":"locationiq"},{"latitude":" 32.79363","longitude":"-117.25575","name":" Joe's Crab Shack","address":" USA-United States","street_number":"4311","street_name":"Ocean Boulevard","zip":"92109","city":"San Diego","area":null,"county":"San Diego County","state":"California","country":"us","formatted_address":"4311, Ocean Boulevard, Pacific Beach, San Diego, San Diego County, California, 92109, United States of America","place_id":"6253882","datatype":"locationiq"},{"latitude":" 26.64146","longitude":"-81.87462","name":" Joe's Crab Shack","address":" USA-United States","street_number":"2037","street_name":"West First Street","zip":"33901","city":"Fort Myers","area":null,"county":"Lee County","state":"Florida","country":"us","formatted_address":"2037, West First Street, First Street Village, Downtown Fort Myers River District, Fort Myers, Lee County, Florida, 33901, United States of America","place_id":"163136236","datatype":"locationiq"},{"latitude":" 41.83345","longitude":"-88.02315","name":" Joe's Crab Shack","address":" USA-United States","street_number":"1461","street_name":"Butterfield Road","zip":"60515","city":null,"area":null,"county":"DuPage County","state":"Illinois","country":"us","formatted_address":"Brick House Tavern + Tap, 1461, Butterfield Road, Downers Grove, DuPage County, Illinois, 60515, United States of America","place_id":"116271744","datatype":"locationiq"},{"latitude":" 30.48659","longitude":"-97.67528","name":" Joe's Crab Shack","address":" USA-United States","street_number":null,"street_name":"Dell Way","zip":"TX 78758","city":"Round Rock","area":null,"county":"Williamson County","state":"Texas","country":"us","formatted_address":"Dell Way, Round Rock, Williamson County, Texas, TX 78758, United States of America","place_id":"68636372","datatype":"locationiq"},{"latitude":" 33.20437","longitude":"-117.38973","name":" Joe's Crab Shack","address":" USA-United States","street_number":"347","street_name":"South Harbor Drive","zip":"92054","city":"Oceanside","area":null,"county":"San Diego County","state":"California","country":"us","formatted_address":"347, South Harbor Drive, Oceanside, San Diego County, California, 92054, United States of America","place_id":"179814947","datatype":"locationiq"},{"latitude":" 40.09628","longitude":"-83.09003","name":" Joe's Crab Shack","address":" USA-United States","street_number":"3714","street_name":"West Dublin - Granville Road","zip":"43235","city":"Worthington","area":null,"county":"Franklin County","state":"Ohio","country":"us","formatted_address":"3714, West Dublin - Granville Road, Sun Center, Worthington, Franklin County, Ohio, 43235, United States of America","place_id":"199134705","datatype":"locationiq"},{"latitude":" 29.56529","longitude":"-95.67406","name":" Joe's Crab Shack","address":" USA-United States","street_number":null,"street_name":"Southwest Freeway Frontage Road","zip":"77479","city":"Sugar Land","area":null,"county":"Fort Bend County","state":"Texas","country":"us","formatted_address":"Southwest Freeway Frontage Road, Sugar Land, Fort Bend County, Texas, 77479, United States of America","place_id":"161738161","datatype":"locationiq"},{"latitude":" 38.25920","longitude":"-85.74499","name":" Joe's Crab Shack","address":" USA-United States","street_number":"427","street_name":"River Road","zip":"40207","city":"Louisville","area":null,"county":"Jefferson County","state":"Kentucky","country":"us","formatted_address":"427, River Road, Louisville, Jefferson County, Kentucky, 40207, United States of America","place_id":"188581820","datatype":"locationiq"},{"latitude":" 40.68977","longitude":"-89.58760","name":" Joe's Crab Shack","address":" USA-United States","street_number":null,"street_name":"Main Street","zip":"61602","city":"Peoria","area":null,"county":"Peoria County","state":"Illinois","country":"us","formatted_address":"Joe's Crab Shack, Main Street, Peoria, Peoria County, Illinois, 61602, United States of America","place_id":"11408515","datatype":"locationiq"},{"latitude":" 32.78376","longitude":"-96.62609","name":" Joe's Crab Shack","address":" USA-United States","street_number":"1320","street_name":"North Peachtree Road","zip":"75149","city":"Mesquite","area":null,"county":"Dallas County","state":"Texas","country":"us","formatted_address":"Cheddar's Scratch Kitchen, 1320, North Peachtree Road, Mesquite, Dallas County, Texas, 75149, United States of America","place_id":"61810469","datatype":"locationiq"},{"latitude":" 33.78858","longitude":"-117.91502","name":" Joe's Crab Shack","address":" USA-United States","street_number":null,"street_name":"Harbor Boulevard","zip":"92802","city":"Garden Grove","area":null,"county":"Orange County","state":"California","country":"us","formatted_address":"Red Robin, Harbor Boulevard, Garden Grove, Orange County, California, 92802, United States of America","place_id":"105059734","datatype":"locationiq"},{"latitude":" 28.38953","longitude":"-81.50645","name":" Joe's Crab Shack","address":" USA-United States","street_number":"12100","street_name":"Apopka Vineland Road","zip":"32830","city":null,"area":"Cypress Pointe","county":"Orange County","state":"Florida","country":"us","formatted_address":"Walgreens, 12100, Apopka Vineland Road, Cypress Pointe, Vineland, Orange County, Florida, 32830, United States of America","place_id":"85856049","datatype":"locationiq"},{"latitude":" 28.81126","longitude":"-81.33415","name":" Joe's Crab Shack","address":" USA-United States","street_number":null,"street_name":"Towne Center Boulevard","zip":"32771","city":"Sanford","area":null,"county":"Seminole County","state":"Florida","country":"us","formatted_address":"Don Pablo's, Towne Center Boulevard, Sanford, Seminole County, Florida, 32771, United States of America","place_id":"143483089","datatype":"locationiq"},{"latitude":" 42.54258","longitude":"-83.02883","name":" Joe's Crab Shack","address":" USA-United States","street_number":"33767","street_name":"Van Dyke Avenue","zip":"48312","city":"Sterling Heights","area":null,"county":"Macomb County","state":"Michigan","country":"us","formatted_address":"33767, Van Dyke Avenue, Sterling Heights, Macomb County, Michigan, 48312, United States of America","place_id":"191194865","datatype":"locationiq"},{"latitude":" 32.86135","longitude":"-96.89542","name":" Joe's Crab Shack","address":" USA-United States","street_number":"10250","street_name":"Technology Boulevard East","zip":"75220","city":"Dallas","area":null,"county":"Dallas County","state":"Texas","country":"us","formatted_address":"Joe's Crab Shack, 10250, Technology Boulevard East, Dallas, Dallas County, Texas, 75220, United States of America","place_id":"169342779","datatype":"locationiq"},{"latitude":" 33.37844","longitude":"-111.96480","name":" Joe's Crab Shack","address":" USA-United States","street_number":"1530","street_name":"West Baseline Road","zip":"85283","city":null,"area":null,"county":"Maricopa County","state":"Arizona","country":"us","formatted_address":"Claim Jumper, 1530, West Baseline Road, Arizona Mills Mall, The Pointe at South Mountain, Maricopa County, Arizona, 85283, United States of America","place_id":"1522809","datatype":"locationiq"},{"latitude":" 39.73373","longitude":"-75.56178","name":" Joe's Crab Shack","address":" USA-United States","street_number":null,"street_name":"South Justison Street","zip":"19801","city":"Wilmington","area":null,"county":"New Castle County","state":"Delaware","country":"us","formatted_address":"South Justison Street, Wilmington, New Castle County, Delaware, 19801, United States of America","place_id":"162898991","datatype":"locationiq"},{"latitude":" 38.60132","longitude":"-89.98751","name":" Joe's Crab Shack","address":" USA-United States","street_number":"3","street_name":"Ludwig Drive","zip":"62208","city":"Fairview Heights","area":null,"county":"Saint Clair County","state":"Illinois","country":"us","formatted_address":"3, Ludwig Drive, Fairview Heights, Saint Clair County, Illinois, 62208, United States of America","place_id":"185705637","datatype":"locationiq"},{"latitude":" 36.19562","longitude":"-115.24203","name":" Joe's Crab Shack","address":" USA-United States","street_number":"1991","street_name":"North Rainbow Boulevard","zip":"89108","city":"Las Vegas","area":null,"county":"Clark County","state":"Nevada","country":"us","formatted_address":"1991, North Rainbow Boulevard, Inner Northwest, Las Vegas, Clark County, Nevada, 89108, United States of America","place_id":"194877674","datatype":"locationiq"},{"latitude":" 27.96063","longitude":"-82.72465","name":" Joe's Crab Shack","address":" USA-United States","street_number":"2370","street_name":"Gulf to Bay Boulevard","zip":"33759","city":"Clearwater","area":"Bayside Arbors","county":"Pinellas County","state":"Florida","country":"us","formatted_address":"Joe's Crab Shack, 2370, Gulf to Bay Boulevard, Bayside Arbors, Clearwater, Pinellas County, Florida, 33759, United States of America","place_id":"117053521","datatype":"locationiq"},{"latitude":" 29.84307","longitude":"-95.49437","name":" Joe's Crab Shack","address":" USA-United States","street_number":null,"street_name":"Northwest Freeway Frontage Road","zip":"77040","city":null,"area":null,"county":"Harris County","state":"Texas","country":"us","formatted_address":"Northwest Freeway Frontage Road, Northwest Crossing Center, Rosslyn, Harris County, Texas, 77040, United States of America","place_id":"116508928","datatype":"locationiq"},{"latitude":" 32.70661","longitude":"-117.16022","name":" Joe's Crab Shack","address":" USA-United States","street_number":null,"street_name":"East Harbor Drive","zip":"92101","city":"San Diego","area":null,"county":"San Diego County","state":"California","country":"us","formatted_address":"East Harbor Drive, Uptown, San Diego, San Diego County, California, 92101, United States of America","place_id":"149978113","datatype":"locationiq"},{"latitude":" 27.71327","longitude":"-97.38208","name":" Joe's Crab Shack","address":" USA-United States","street_number":null,"street_name":"South Padre Island Drive Frontage Road","zip":"78415","city":"Corpus Christi","area":null,"county":"Nueces County","state":"Texas","country":"us","formatted_address":"South Padre Island Drive Frontage Road, Corpus Christi, Nueces County, Texas, 78415, United States of America","place_id":"71628161","datatype":"locationiq"},{"latitude":" 32.75820","longitude":"-97.08865","name":" Joe's Crab Shack","address":" USA-United States","street_number":null,"street_name":"East Copeland Road","zip":"76011","city":"Arlington","area":null,"county":"Tarrant County","state":"Texas","country":"us","formatted_address":"Joe's Crab Shack Parking, East Copeland Road, Arlington, Tarrant County, Texas, 76011, United States of America","place_id":"90081508","datatype":"locationiq"},{"latitude":" 40.28725","longitude":"-74.69167","name":" Joe's Crab Shack","address":" USA-United States","street_number":"3191","street_name":"Brunswick Pike","zip":"08648","city":"Lawrence Township","area":null,"county":"Mercer County","state":"New Jersey","country":"us","formatted_address":"3191, Brunswick Pike, Lawrence Township, Mercer County, New Jersey, 08648, United States of America","place_id":"55322269","datatype":"locationiq"},{"latitude":" 26.18824","longitude":"-98.21684","name":" Joe's Crab Shack","address":" USA-United States","street_number":"568","street_name":"East Expressway 83","zip":"78501","city":"McAllen","area":null,"county":"Hidalgo County","state":"Texas","country":"us","formatted_address":"568, East Expressway 83, McAllen, Hidalgo County, Texas, 78501, United States of America","place_id":"205602528","datatype":"locationiq"},{"latitude":" 37.03542","longitude":"-76.39386","name":" Joe's Crab Shack","address":" USA-United States","street_number":"1994","street_name":"Power Plant Parkway","zip":"23666","city":"Hampton City","area":"Pine Chapel Village","county":null,"state":"Virginia","country":"us","formatted_address":"1994, Power Plant Parkway, Pine Chapel Village, West Hampton, Hampton, Hampton City, Virginia, 23666, United States of America","place_id":"208024481","datatype":"locationiq"},{"latitude":" 32.22651","longitude":"-110.85776","name":" Joe's Crab Shack","address":" USA-United States","street_number":"418","street_name":"North Wilmot Road","zip":"85711","city":"Tucson","area":"El Gheko","county":"Pima County","state":"Arizona","country":"us","formatted_address":"418, North Wilmot Road, El Gheko, Tucson, Pima County, Arizona, 85711, United States of America","place_id":"177339518","datatype":"locationiq"},{"latitude":" 37.80807","longitude":"-122.41653","name":" Joe's Crab Shack","address":" USA-United States","street_number":null,"street_name":"Jefferson Street","zip":"CA 94133","city":"San Francisco","area":"Russian Hill","county":"San Francisco City and County","state":"California","country":"us","formatted_address":"Eden Fine Art, Jefferson Street, Russian Hill, San Francisco, San Francisco City and County, California, CA 94133, United States of America","place_id":"58241476","datatype":"locationiq"},{"latitude":" 30.38720","longitude":"-86.45721","name":" Joe's Crab Shack","address":" USA-United States","street_number":"1779","street_name":"Emerald Coast Parkway","zip":"32541","city":null,"area":null,"county":"Okaloosa County","state":"Florida","country":"us","formatted_address":"1779, Emerald Coast Parkway, Okaloosa County, Florida, 32541, United States of America","place_id":"182660048","datatype":"locationiq"},{"latitude":" 36.07533","longitude":"-95.89099","name":" Joe's Crab Shack","address":" USA-United States","street_number":null,"street_name":"East 60th Place South","zip":"74145","city":"Tulsa","area":null,"county":"Tulsa County","state":"Oklahoma","country":"us","formatted_address":"82, East 60th Place South, Vista Shadow Mountain Apartments, Tulsa, Tulsa County, Oklahoma, 74145, United States of America","place_id":"90393608","datatype":"locationiq"},{"latitude":" 30.04091","longitude":"-94.15352","name":" Joe's Crab Shack","address":" USA-United States","street_number":null,"street_name":"Interstate Highway 10 Frontage Road","zip":"77704","city":null,"area":null,"county":"Jefferson County","state":"Texas","country":"us","formatted_address":"Joe's Crab Shack, Interstate Highway 10 Frontage Road, Walden, Jefferson County, Texas, 77704, United States of America","place_id":"103630962","datatype":"locationiq"},{"latitude":" 30.37879","longitude":"-91.06748","name":" Joe's Crab Shack","address":" USA-United States","street_number":"7577","street_name":"Siegen Lane","zip":"70810","city":null,"area":null,"county":"East Baton Rouge Parish","state":"Louisiana","country":"us","formatted_address":"7577, Siegen Lane, Inniswold, East Baton Rouge Parish, Louisiana, 70810, United States of America","place_id":"188963462","datatype":"locationiq"},{"latitude":" 34.85820","longitude":"-82.26528","name":" Joe's Crab Shack","address":" USA-United States","street_number":null,"street_name":"East Beacon Drive","zip":"29615","city":null,"area":null,"county":"Greenville County","state":"South Carolina","country":"us","formatted_address":"Palmetto Restaurant and Ale House, East Beacon Drive, Beacon Hill, Greenville County, South Carolina, 29615, United States of America","place_id":"7313137","datatype":"locationiq"},{"latitude":" 38.58128","longitude":"-121.50643","name":" Joe's Crab Shack","address":" USA-United States","street_number":"1200","street_name":"Front Street","zip":"95814","city":"Sacramento","area":null,"county":"Sacramento County","state":"California","country":"us","formatted_address":"Old Sacramento Schoolhouse Museum, 1200, Front Street, Sacramento, Sacramento County, California, 95814, United States of America","place_id":"144466622","datatype":"locationiq"},{"latitude":" 36.78074","longitude":"-76.23392","name":" Joe's Crab Shack","address":" USA-United States","street_number":"1568","street_name":"Crossways Boulevard","zip":"23320","city":"Chesapeake City","area":null,"county":null,"state":"Virginia","country":"us","formatted_address":"Joe's Crab Shack, 1568, Crossways Boulevard, Crossways Shopping Center, South Norfolk, Chesapeake, Chesapeake City, Virginia, 23320, United States of America","place_id":"141009835","datatype":"locationiq"},{"latitude":" 38.29818","longitude":"-77.50778","name":" Joe's Crab Shack","address":" USA-United States","street_number":null,"street_name":"Plank Road","zip":"22402","city":"Fredericksburg","area":null,"county":"Fredericksburg City","state":"Virginia","country":"us","formatted_address":"Joe's Crab Shack, Plank Road, Fredericksburg, Fredericksburg City, Virginia, 22402, United States of America","place_id":"58137738","datatype":"locationiq"},{"latitude":" 33.56534","longitude":"-84.32672","name":" Joe's Crab Shack","address":" USA-United States","street_number":"1967","street_name":"Mount Zion Road","zip":"30260","city":"Morrow","area":"Woodstone","county":"Clayton County","state":"Georgia","country":"us","formatted_address":"1967, Mount Zion Road, Woodstone, Morrow, Clayton County, Georgia, 30260, United States of America","place_id":"183495224","datatype":"locationiq"},{"latitude":" 38.84418","longitude":"-104.75876","name":" Joe's Crab Shack","address":" USA-United States","street_number":null,"street_name":"Portal Drive East","zip":"80909","city":"Colorado Springs","area":null,"county":"El Paso County","state":"Colorado","country":"us","formatted_address":"Joe's Crab Shack, Portal Drive East, Colorado Springs, El Paso County, Colorado, 80909, United States of America","place_id":"117270902","datatype":"locationiq"},{"latitude":" 39.10214","longitude":"-84.48834","name":" Joe's Crab Shack","address":" USA-United States","street_number":null,"street_name":"Fairfield Avenue","zip":"41073","city":null,"area":null,"county":"Campbell County","state":"Kentucky","country":"us","formatted_address":"Fairfield Ave & Riviera Dr, Fairfield Avenue, Bellevue, Campbell County, Kentucky, 41073, United States of America","place_id":"45781688","datatype":"locationiq"},{"latitude":" 33.61971","longitude":"-117.92304","name":" Joe's Crab Shack","address":" USA-United States","street_number":null,"street_name":"Pacific Coast Highway","zip":"92663","city":"Newport Beach","area":null,"county":"Orange County","state":"California","country":"us","formatted_address":"OCTA, Pacific Coast Highway, Balboa Island, Newport Beach, Orange County, California, 92663, United States of America","place_id":"7799095","datatype":"locationiq"},{"latitude":" 34.01097","longitude":"-84.57305","name":" Joe's Crab Shack","address":" USA-United States","street_number":"871","street_name":"Cobb Place Boulevard Northwest","zip":"30114","city":null,"area":null,"county":"Cobb County","state":"Georgia","country":"us","formatted_address":"Hampton Inn, 871, Cobb Place Boulevard Northwest, Elizabeth, Cobb County, Georgia, 30114, United States of America","place_id":"125300177","datatype":"locationiq"},{"latitude":" 40.43111","longitude":"-80.00154","name":" Joe's Crab Shack","address":" USA-United States","street_number":null,"street_name":"East Carson Street","zip":"15203","city":"Pittsburgh","area":null,"county":"Allegheny County","state":"Pennsylvania","country":"us","formatted_address":"Dero, East Carson Street, South Shore, Pittsburgh, Allegheny County, Pennsylvania, 15203, United States of America","place_id":"53576621","datatype":"locationiq"},{"latitude":" 43.62027","longitude":"-116.23288","name":" Joe's Crab Shack","address":" USA-United States","street_number":"2298","street_name":"North Garden Street","zip":"83706","city":"Boise City","area":null,"county":"Ada County","state":"Idaho","country":"us","formatted_address":"2298, North Garden Street, Boise City, Ada County, Idaho, 83706, United States of America","place_id":"184388872","datatype":"locationiq"},{"latitude":" 42.70755","longitude":"-83.30684","name":" Joe's Crab Shack","address":" USA-United States","street_number":"4498","street_name":"Baldwin Road","zip":"48326","city":null,"area":null,"county":"Oakland County","state":"Michigan","country":"us","formatted_address":"4498, Baldwin Road, Orion Township, Oakland County, Michigan, 48326, United States of America","place_id":"191355326","datatype":"locationiq"},{"latitude":" 29.55829","longitude":"-98.58886","name":" Joe's Crab Shack","address":" USA-United States","street_number":"12511","street_name":"Interstate Highway 10 Frontage Road","zip":"78230","city":"San Antonio","area":null,"county":"Bexar County","state":"Texas","country":"us","formatted_address":"Outback Steakhouse, 12511, Interstate Highway 10 Frontage Road, San Antonio, Bexar County, Texas, 78230, United States of America","place_id":"125836758","datatype":"locationiq"},{"latitude":" 38.79822","longitude":"-90.62339","name":" Joe's Crab Shack","address":" USA-United States","street_number":null,"street_name":"Suemandy Road","zip":"63376","city":"St. Peters","area":null,"county":"St. Charles County","state":"Missouri","country":"us","formatted_address":"Steak 'N Shake, Suemandy Road, St. Peters, St. Charles County, Missouri, 63376, United States of America","place_id":"12379924","datatype":"locationiq"},{"latitude":" 28.33220","longitude":"-81.52600","name":" Joe's Crab Shack","address":" USA-United States","street_number":null,"street_name":"Bronson Highway","zip":"34747","city":null,"area":null,"county":"Osceola County","state":"Florida","country":"us","formatted_address":"Cold Stone Creamery, Bronson Highway, Reedy Creek Improvement District, Osceola County, Florida, 34747, United States of America","place_id":"31750832","datatype":"locationiq"}]