[{"latitude":"61.143074","longitude":"-149.879202","name":"Toys\"R\"Us\/Babies\"R\"Us-Anchorage,AK","address":"8600 King St, Anchorage,AK 99515, (907) 344-8697","street_number":"8600","street_name":"King St","zip":"99515","city":"Anchorage","area":null,"county":"Anchorage Municipality","state":"AK","country":"USA","formatted_address":"8600 King St, Anchorage, AK, USA","place_id":"openaddresses:address:us\/ak\/anchorage:6c7006e07fad0cfc","datatype":"openaddresses"},{"latitude":"33.451316","longitude":"-86.730117","name":"Toys\"R\"Us\/Babies\"R\"Us-Birmingham,AL","address":"335 Summit Blvd, Birmingham,AL 35243, (205) 977-2624","street_number":"341","street_name":"Summit Boulevard","zip":"35243","city":"Birmingham","area":null,"county":"Jefferson County","state":"AL","country":"USA","formatted_address":"341 Summit Boulevard, Birmingham, AL, USA","place_id":"openaddresses:address:us\/al\/jefferson:e7e748d79aa309bc","datatype":"openaddresses"},{"latitude":"31.251013","longitude":"-85.426412","name":"Toys\"R\"Us\/Babies\"R\"Us-Dothan,AL","address":"201 Buyers Dr, Dothan,AL 36303, (334) 794-0888","street_number":"2977","street_name":"Montgomery Highway","zip":"36303","city":"Dothan","area":null,"county":"Houston County","state":"AL","country":"USA","formatted_address":"2977 Montgomery Highway, Dothan, AL, USA","place_id":"openstreetmap:address:node:2507673728","datatype":"openstreetmap"},{"latitude":"30.376431","longitude":"-87.683129","name":"Toys\"R\"Us-Foley,AL","address":"2601 S Mckenzie St [Foley Outlet], Foley,AL 36535, (251) 943-3779","street_number":"10421","street_name":"St Hwy 59","zip":null,"city":"Foley","area":null,"county":"Baldwin County","state":"AL","country":"USA","formatted_address":"10421 St Hwy 59, Foley, AL, USA","place_id":"openaddresses:address:us\/al\/baldwin:7a0e49dfb1960721","datatype":"openaddresses"},{"latitude":"33.380477","longitude":"-86.805263","name":"Toys\"R\"Us\/Babies\"R\"Us-Hoover,AL","address":"1715 Montgomery Hwy, Hoover,AL 35226, (205) 733-1551","street_number":"1731","street_name":"Montgomery Hwy","zip":"35216","city":"Hoover","area":null,"county":"Jefferson County","state":"AL","country":"USA","formatted_address":"1731 Montgomery Hwy, Hoover, AL, USA","place_id":"openaddresses:address:us\/al\/jefferson:b04fcaa38f1ce937","datatype":"openaddresses"},{"latitude":"34.702514","longitude":"-86.687434","name":"Toys\"R\"Us\/Babies\"R\"Us-Huntsville,AL","address":"6884 Governors West, Huntsville,AL 35806, (256)971-1216","street_number":"7090","street_name":"Cabela Drive","zip":"35801","city":"Huntsville","area":null,"county":"Madison County","state":"AL","country":"USA","formatted_address":"7090 Cabela Drive, Huntsville, AL, USA","place_id":"openstreetmap:address:way:377623660","datatype":"openstreetmap"},{"latitude":"30.676487","longitude":"-88.131947","name":"Babies\"R\"Us-Mobile,AL","address":"3658 A Airport Blvd, Mobile,AL 36608, (251) 304-0950","street_number":"3660","street_name":"Airport Blvd","zip":"36608","city":"Mobile","area":null,"county":"Mobile County","state":"AL","country":"USA","formatted_address":"3660 Airport Blvd, Mobile, AL, USA","place_id":"openaddresses:address:us\/al\/city_of_mobile:79782186c3d3481f","datatype":"openaddresses"},{"latitude":"30.673373","longitude":"-88.117788","name":"Toys\"R\"Us-Mobile,AL","address":"429 Bel Air Blvd, Mobile,AL 36606, (251) 470-9891","street_number":"410","street_name":"Bel Air Blvd","zip":"36606","city":"Mobile","area":null,"county":"Mobile County","state":"AL","country":"USA","formatted_address":"410 Bel Air Blvd, Mobile, AL, USA","place_id":"openaddresses:address:us\/al\/city_of_mobile:9de60dd183f684d8","datatype":"openaddresses"},{"latitude":"32.38163","longitude":"-86.21258","name":"Toys\"R\"Us-Montgomery,AL","address":"5484 Atlanta Hwy, Montgomery,AL 36109, (334) 272-6706","street_number":"5474","street_name":"Atlanta Hwy","zip":"36109","city":"Montgomery","area":null,"county":"Montgomery County","state":"AL","country":"USA","formatted_address":"5474 Atlanta Hwy, Montgomery, AL, USA","place_id":"openaddresses:address:us\/al\/montgomery:d0ae26a28980543c","datatype":"openaddresses"},{"latitude":"33.185467","longitude":"-87.526304","name":"Toys\"R\"Us-Tuscaloosa,AL","address":"2600 Mcfarland Blvd E, Tuscaloosa,AL 35401, (205) 391-9400","street_number":"2620","street_name":"E Mcfarland Bl","zip":"35401","city":"Tuscaloosa","area":null,"county":"Tuscaloosa County","state":"AL","country":"USA","formatted_address":"2620 E Mcfarland Bl, Tuscaloosa, AL, USA","place_id":"openaddresses:address:us\/al\/tuscaloosa:59086cadcee0e52b","datatype":"openaddresses"},{"latitude":"36.126836","longitude":"-94.144575","name":"Toys\"R\"Us-Fayetteville,AR","address":"4166 N College Ave, Fayetteville,AR 72701, (479) 442-8697","street_number":"4180","street_name":"North College Avenue","zip":"72703","city":"Fayetteville","area":null,"county":"Washington County","state":"AR","country":"USA","formatted_address":"4180 North College Avenue, Fayetteville, AR, USA","place_id":"openstreetmap:address:way:485690223","datatype":"openstreetmap"},{"latitude":"35.362077","longitude":"-94.370575","name":"Toys\"R\"Us-Fort Smith,AR","address":"5609 Rogers Ave, Fort Smith,AR 72903, (479) 484-0002","street_number":"5600","street_name":"Rogers Ave","zip":"72903","city":"Fort Smith","area":null,"county":"Sebastian County","state":"AR","country":"USA","formatted_address":"5600 Rogers Ave, Fort Smith, AR, USA","place_id":"openaddresses:address:us\/ar\/statewide:da0b9f4e63533928","datatype":"openaddresses"},{"latitude":"34.65662","longitude":"-92.4121475","name":"Toys\"R\"Us-Little Rock,AR","address":"11201 Bass Pro Pkwy [Outlets Of Little Rock], Little Rock,AR 72210, (501) 455-6344","street_number":"10","street_name":"Bass Pro Dr","zip":"72210","city":"Little Rock","area":null,"county":"Pulaski County","state":"AR","country":"USA","formatted_address":"10 Bass Pro Dr, Little Rock, AR, USA","place_id":"openaddresses:address:us\/ar\/statewide:fa19c554a57fcf4c","datatype":"openaddresses"},{"latitude":"34.747123","longitude":"-92.401555","name":"Toys\"R\"Us-Little Rock,AR","address":"11500 Financial Centre Pkwy, Little Rock,AR 72211, (501) 954-8697","street_number":"11401","street_name":"Financial Centre Pky","zip":"72211","city":"Little Rock","area":null,"county":"Pulaski County","state":"AR","country":"USA","formatted_address":"11401 Financial Centre Pky, Little Rock, AR, USA","place_id":"openaddresses:address:us\/ar\/statewide:96bbcba5f439eac4","datatype":"openaddresses"},{"latitude":"34.730793","longitude":"-92.395095","name":"Babies\"R\"Us-Little Rock,AR","address":"2616 S Shackleford Rd, Little Rock,AR 72205, (501) 221-0478","street_number":"2628","street_name":"S Shackleford Rd","zip":"72205","city":"Little Rock","area":null,"county":"Pulaski County","state":"AR","country":"USA","formatted_address":"2628 S Shackleford Rd, Little Rock, AR, USA","place_id":"openaddresses:address:us\/ar\/statewide:e273c1aca9232645","datatype":"openaddresses"},{"latitude":"34.789443","longitude":"-92.219361","name":"Toys\"R\"Us-North Little Rock,AR","address":"4239 E McCain Blvd, North Little Rock,AR 72117, (501) 945-8020","street_number":"4281","street_name":"McCain Boulevard","zip":"72116","city":"North Little Rock","area":null,"county":"Pulaski County","state":"AR","country":"USA","formatted_address":"4281 McCain Boulevard, North Little Rock, AR, USA","place_id":"openstreetmap:address:node:3267302694","datatype":"openstreetmap"},{"latitude":"33.316991","longitude":"-111.968635","name":"Toys\"R\"Us-Chandler,AZ","address":"840 N 54th St, Chandler,AZ 85226, (480) 705-7444","street_number":"800","street_name":"N 54th St","zip":"85226","city":"Chandler","area":null,"county":"Maricopa County","state":"AZ","country":"USA","formatted_address":"800 N 54th St, Chandler, AZ, USA","place_id":"openaddresses:address:us\/az\/maricopa:837311","datatype":"openaddresses"},{"latitude":"33.5345656","longitude":"-112.2650439","name":"Toys\"R\"Us-Glendale,AZ","address":"6800 N 95th Ave [Tanger Glendale Outlet], Glendale,AZ 85305, (623) 872-6414","street_number":"6805","street_name":"N 95th Ave","zip":"85305","city":"Glendale","area":null,"county":"Maricopa County","state":"AZ","country":"USA","formatted_address":"6805 N 95th Ave, Glendale, AZ, USA","place_id":"openaddresses:address:us\/az\/maricopa:1276707","datatype":"openaddresses"},{"latitude":"33.638456","longitude":"-112.218118","name":"Toys\"R\"Us-Glendale,AZ","address":"7430 W Bell Rd, Glendale,AZ 85308, (623) 979-3622","street_number":"7410","street_name":"W Bell Rd","zip":"85308","city":"Glendale","area":null,"county":"Maricopa County","state":"AZ","country":"USA","formatted_address":"7410 W Bell Rd, Glendale, AZ, USA","place_id":"openaddresses:address:us\/az\/city_of_glendale:63d65ab0e30b20a7","datatype":"openaddresses"},{"latitude":"33.638452","longitude":"-112.221494","name":"Babies\"R\"Us-Glendale,AZ","address":"7540 W Bell Rd, Glendale,AZ 85308, (623) 878-3810","street_number":"7520","street_name":"W Bell Rd","zip":"85308","city":"Glendale","area":null,"county":"Maricopa County","state":"AZ","country":"USA","formatted_address":"7520 W Bell Rd, Glendale, AZ, USA","place_id":"openaddresses:address:us\/az\/city_of_glendale:b5fe8c67310919ef","datatype":"openaddresses"},{"latitude":"33.464297","longitude":"-112.388707","name":"Toys\"R\"Us\/Babies\"R\"Us-Goodyear,AZ","address":"15325 W McDowell Rd, Goodyear,AZ 85338, (623) 935-5902","street_number":"15320","street_name":"W Mcdowell Rd","zip":"85395","city":"Goodyear","area":null,"county":"Maricopa County","state":"AZ","country":"USA","formatted_address":"15320 W Mcdowell Rd, Goodyear, AZ, USA","place_id":"openaddresses:address:us\/az\/maricopa:1138805","datatype":"openaddresses"},{"latitude":"33.388562","longitude":"-111.685074","name":"Toys\"R\"Us-Mesa,AZ","address":"1516 S Power Rd, Mesa,AZ 85206, (480) 832-8697","street_number":"1516","street_name":"S Power Rd","zip":"85206","city":"Mesa","area":null,"county":"Maricopa County","state":"AZ","country":"USA","formatted_address":"1516 S Power Rd, Mesa, AZ, USA","place_id":"openaddresses:address:us\/az\/city_of_mesa:f6f2fbed7902ed3d","datatype":"openaddresses"},{"latitude":"33.38285","longitude":"-111.599179","name":"Babies\"R\"Us-Mesa,AZ","address":"1764 S Signal Butte Rd, Mesa,AZ 85209, (480) 354-3262","street_number":"1752","street_name":"S Signal Butte Rd","zip":"85209","city":"Mesa","area":null,"county":"Maricopa County","state":"AZ","country":"USA","formatted_address":"1752 S Signal Butte Rd, Mesa, AZ, USA","place_id":"openaddresses:address:us\/az\/city_of_mesa:07222aa5c66b58ff","datatype":"openaddresses"},{"latitude":"33.602659","longitude":"-111.978278","name":"Toys\"R\"Us-Phoenix,AZ","address":"12801 N Tatum Blvd, Phoenix,AZ 85032, (602) 953-0464","street_number":"12811","street_name":"N Tatum Blvd","zip":"85032","city":"Phoenix","area":null,"county":"Maricopa County","state":"AZ","country":"USA","formatted_address":"12811 N Tatum Blvd, Phoenix, AZ, USA","place_id":"openaddresses:address:us\/az\/maricopa:1222701","datatype":"openaddresses"},{"latitude":"33.64018","longitude":"-112.070895","name":"Toys\"R\"Us\/Babies\"R\"Us-Phoenix,AZ","address":"245 E Bell Rd, Phoenix,AZ 85022, (602) 548-0180","street_number":"236","street_name":"E Bell Rd","zip":"85022","city":"Phoenix","area":null,"county":"Maricopa County","state":"AZ","country":"USA","formatted_address":"236 E Bell Rd, Phoenix, AZ, USA","place_id":"openaddresses:address:us\/az\/maricopa:512854","datatype":"openaddresses"},{"latitude":"33.319622","longitude":"-111.979124","name":"Babies\"R\"Us-Phoenix,AZ","address":"4835 East Ray Rd, Phoenix,AZ 95044, (480) 705-0400","street_number":"4843","street_name":"E Ray Rd","zip":"85044","city":"Phoenix","area":null,"county":"Maricopa County","state":"AZ","country":"USA","formatted_address":"4843 E Ray Rd, Phoenix, AZ, USA","place_id":"openaddresses:address:us\/az\/maricopa:445320","datatype":"openaddresses"},{"latitude":"33.655403","longitude":"-111.929452","name":"Babies\"R\"Us-Phoenix,AZ","address":"7000 E Mayo Blvd, Phoenix,AZ 85050, (480) 585-7362","street_number":"18545","street_name":"N Allied Wy","zip":"85054","city":"Phoenix","area":null,"county":"Maricopa County","state":"AZ","country":"USA","formatted_address":"18545 N Allied Wy, Phoenix, AZ, USA","place_id":"openaddresses:address:us\/az\/maricopa:620503","datatype":"openaddresses"},{"latitude":"33.5243187","longitude":"-111.905777","name":"Toys\"R\"Us-Scottsdale,AZ","address":"9139 E Talking Stick Wy, Scottsdale,AZ 85250, (480) 948-6266","street_number":"8103","street_name":"E Rovey Ave","zip":"85250","city":"Scottsdale","area":null,"county":"Maricopa County","state":"AZ","country":"USA","formatted_address":"8103 E Rovey Ave, Scottsdale, AZ, USA","place_id":"openaddresses:address:us\/az\/maricopa:731252","datatype":"openaddresses"},{"latitude":"33.38474","longitude":"-111.966988","name":"Toys\"R\"Us-Tempe,AZ","address":"5000 Arizona Mills Circle, Tempe,AZ 85282, (480) 838-1022","street_number":"4415","street_name":"S Wendler Dr","zip":"85282","city":"Tempe","area":null,"county":"Maricopa County","state":"AZ","country":"USA","formatted_address":"4415 S Wendler Dr, Tempe, AZ, USA","place_id":"openaddresses:address:us\/az\/maricopa:936270","datatype":"openaddresses"},{"latitude":"32.4605713","longitude":"-111.2170334","name":"Toys\"R\"Us-Tucson,AZ","address":"6401 West Marana Center [Tucson Premium Outlets], Tucson,AZ 85742, (520) 744-5665","street_number":"13960","street_name":"North Sandario Road","zip":"85653","city":"Marana","area":null,"county":"Pima County","state":"AZ","country":"USA","formatted_address":"13960 North Sandario Road, Marana, AZ, USA","place_id":"openstreetmap:address:way:377924494","datatype":"openstreetmap"},{"latitude":"32.288809","longitude":"-110.978454","name":"Toys\"R\"Us-Tucson,AZ","address":"4525 N Oracle Rd, Tucson,AZ 85705, (520) 293-8905","street_number":"4535","street_name":"N Oracle Rd","zip":"85705","city":"Tucson","area":null,"county":"Pima County","state":"AZ","country":"USA","formatted_address":"4535 N Oracle Rd, Tucson, AZ, USA","place_id":"openaddresses:address:us\/az\/pima:2072723c2b090b57","datatype":"openaddresses"},{"latitude":"32.290543","longitude":"-110.978473","name":"Babies\"R\"Us-Tucson,AZ","address":"4619 N Oracle Rd, Tucson,AZ 85705, (520) 408-1118","street_number":"4611","street_name":"N Oracle Rd","zip":"85705","city":"Tucson","area":null,"county":"Pima County","state":"AZ","country":"USA","formatted_address":"4611 N Oracle Rd, Tucson, AZ, USA","place_id":"openaddresses:address:us\/az\/pima:5af45534e9af4427","datatype":"openaddresses"},{"latitude":"32.221868","longitude":"-110.878049","name":"Toys\"R\"Us\/Babies\"R\"Us-Tucson,AZ","address":"5355 East Broadway Blvd, Tucson,AZ 85711, (520) 748-8697","street_number":"5353","street_name":"E Broadway Bl","zip":"85711","city":"Tucson","area":null,"county":"Pima County","state":"AZ","country":"USA","formatted_address":"5353 E Broadway Bl, Tucson, AZ, USA","place_id":"openaddresses:address:us\/az\/pima:9c880b06cb39bc4f","datatype":"openaddresses"},{"latitude":"32.669252","longitude":"-114.628921","name":"Toys\"R\"Us-Yuma,AZ","address":"801 W 32nd St, Yuma,AZ 85365, (928) 344-8697","street_number":"820","street_name":"W 32nd St","zip":null,"city":"Yuma","area":null,"county":"Yuma County","state":"AZ","country":"USA","formatted_address":"820 W 32nd St, Yuma, AZ, USA","place_id":"openaddresses:address:us\/az\/yuma:1c700120cfb2a149","datatype":"openaddresses"},{"latitude":"34.087684","longitude":"-118.151591","name":"Toys\"R\"Us\/Babies\"R\"Us-Alhambra,CA","address":"2500 W Commonwealth Ave, Alhambra,CA 91802, (626) 284-8909","street_number":"2588","street_name":"W Commonwealth Ave","zip":"91803","city":"Alhambra","area":null,"county":"Los Angeles County","state":"CA","country":"USA","formatted_address":"2588 W Commonwealth Ave, Alhambra, CA, USA","place_id":"openaddresses:address:us\/ca\/los_angeles:756c30778b267807","datatype":"openaddresses"},{"latitude":"35.383705","longitude":"-119.111214","name":"Babies\"R\"Us-Bakersfield,CA","address":"9820 Rosedale Hwy, Bakersfield,CA 93312, (661) 587-0423","street_number":"2701","street_name":"Calloway","zip":"93312","city":"Bakersfield","area":null,"county":"Kern County","state":"CA","country":"USA","formatted_address":"2701 Calloway, Bakersfield, CA, USA","place_id":"openaddresses:address:us\/ca\/kern:9ec98373ebeb5db5","datatype":"openaddresses"},{"latitude":"35.339741","longitude":"-119.0457","name":"Toys\"R\"Us\/Babies\"R\"Us-Bakersfield,CA","address":"3792 Ming Ave, Bakersfield,CA 93309, (661) 832-8493","street_number":"3800","street_name":"Ming","zip":"93309","city":"Bakersfield","area":null,"county":"Kern County","state":"CA","country":"USA","formatted_address":"3800 Ming, Bakersfield, CA, USA","place_id":"openaddresses:address:us\/ca\/kern:d4d918e6149567f8","datatype":"openaddresses"},{"latitude":"35.385807","longitude":"-119.1053","name":"Babies\"R\"Us-Bakersfield,CA","address":"9280 Rosedale Hwy, Bakersfield,CA 93312, (661) 587-0423","street_number":"9280","street_name":"Rosedale","zip":"93312","city":"Bakersfield","area":null,"county":"Kern County","state":"CA","country":"USA","formatted_address":"9280 Rosedale, Bakersfield, CA, USA","place_id":"openaddresses:address:us\/ca\/kern:793520718266859c","datatype":"openaddresses"},{"latitude":"33.968493","longitude":"-118.164414","name":"Toys\"R\"Us-Bell Gardens,CA","address":"7102 Eastern Ave, Bell Gardens,CA 90201, (323) 771-2135","street_number":"7121","street_name":"Eastern Ave","zip":"90201","city":"Bell Gardens","area":null,"county":"Los Angeles County","state":"CA","country":"USA","formatted_address":"7121 Eastern Ave, Bell Gardens, CA, USA","place_id":"openaddresses:address:us\/ca\/los_angeles:2bd8ffc4a2b345b7","datatype":"openaddresses"},{"latitude":"33.91126","longitude":"-117.864506","name":"Babies\"R\"Us-Brea,CA","address":"2575 East Imperial High, Brea,CA 92821, (714) 255-2924","street_number":"2545","street_name":"E Imperial Hw","zip":"92821","city":"Brea","area":null,"county":"Orange County","state":"CA","country":"USA","formatted_address":"2545 E Imperial Hw, Brea, CA, USA","place_id":"openaddresses:address:us\/ca\/orange:2ccc593d1e32088c","datatype":"openaddresses"},{"latitude":"37.961484","longitude":"-121.749555","name":"Babies\"R\"Us-Brentwood,CA","address":"5461 Lone Tree Way, Brentwood,CA 94513, (925) 513-0398","street_number":"5411","street_name":"Lone Tree Way","zip":"94513","city":"Brentwood","area":null,"county":"Contra Costa County","state":"CA","country":"USA","formatted_address":"5411 Lone Tree Way, Brentwood, CA, USA","place_id":"openaddresses:address:us\/ca\/contra_costa:a1700ec323106cc4","datatype":"openaddresses"},{"latitude":"34.180364","longitude":"-118.319843","name":"Toys\"R\"Us-Burbank,CA","address":"683 North Victory Blvd, Burbank,CA 91502, (818) 841-5037","street_number":"693","street_name":"N Victory Blvd","zip":"91502","city":"Burbank","area":null,"county":"Los Angeles County","state":"CA","country":"USA","formatted_address":"693 N Victory Blvd, Burbank, CA, USA","place_id":"openaddresses:address:us\/ca\/los_angeles:117a4a9f5129e183","datatype":"openaddresses"},{"latitude":"34.155719","longitude":"-118.643969","name":"Babies\"R\"Us-Calabasas,CA","address":"23741 Calabasas Rd, Calabasas,CA 91302, (818) 225-9100","street_number":"23710","street_name":"Calabasas Rd","zip":"91302","city":"Calabasas","area":null,"county":"Los Angeles County","state":"CA","country":"USA","formatted_address":"23710 Calabasas Rd, Calabasas, CA, USA","place_id":"openaddresses:address:us\/ca\/los_angeles:f40430bed7322c43","datatype":"openaddresses"},{"latitude":"32.697833","longitude":"-115.498733","name":"Toys\"R\"Us-Calexico,CA","address":"2600 Rockwood Ave, Calexico,CA 92231, (760) 357-4709","street_number":"2501","street_name":"Scaroni Rd","zip":"92231","city":"Calexico","area":null,"county":"Imperial County","state":"CA","country":"USA","formatted_address":"2501 Scaroni Rd, Calexico, CA, USA","place_id":"openstreetmap:address:way:273537509","datatype":"openstreetmap"},{"latitude":"34.2158427","longitude":"-119.0587138","name":"Toys\"R\"Us-Camarillo,CA","address":"900 Camarillo Center, Camarillo,CA 93010, (805) 482-1238","street_number":"900","street_name":"Camarillo Center Dr","zip":"93010","city":"Camarillo","area":null,"county":"Ventura County","state":"CA","country":"USA","formatted_address":"900 Camarillo Center Dr, Camarillo, CA, USA","place_id":"openaddresses:address:us\/ca\/ventura:5d2e8102d6995177","datatype":"openaddresses"},{"latitude":"33.858187","longitude":"-118.092068","name":"Toys\"R\"Us-Cerritos,CA","address":"11340 South St, Cerritos,CA 90701, (562) 924-7389","street_number":"11338","street_name":"South St","zip":"90703","city":"Cerritos","area":null,"county":"Los Angeles County","state":"CA","country":"USA","formatted_address":"11338 South St, Cerritos, CA, USA","place_id":"openaddresses:address:us\/ca\/los_angeles:a429aa1617327958","datatype":"openaddresses"},{"latitude":"33.858244","longitude":"-118.087914","name":"Babies\"R\"Us-Cerritos,CA","address":"11540 South St, Cerritos,CA 90703, (562) 865-8771","street_number":"11524","street_name":"South St","zip":"90703","city":"Cerritos","area":null,"county":"Los Angeles County","state":"CA","country":"USA","formatted_address":"11524 South St, Cerritos, CA, USA","place_id":"openaddresses:address:us\/ca\/los_angeles:fa9267cbb826f88b","datatype":"openaddresses"},{"latitude":"33.8586998","longitude":"-118.0922928","name":"Toys\"R\"Us-Cerritos,CA","address":"239 Los Cerritos Center [Los Cerritos Center Mall], Cerritos,CA 90703, (562) 402-5031","street_number":"11338","street_name":"South St","zip":"90703","city":"Cerritos","area":null,"county":"Los Angeles County","state":"CA","country":"USA","formatted_address":"11338 South St, Cerritos, CA, USA","place_id":"openaddresses:address:us\/ca\/los_angeles:a429aa1617327958","datatype":"openaddresses"},{"latitude":"39.727105","longitude":"-121.805234","name":"Toys\"R\"Us-Chico,CA","address":"1919 East 20Th Street, Chico,CA 95928, (530) 343-6458","street_number":"1960","street_name":"E 20th St","zip":"95928","city":"Chico","area":null,"county":"Butte County","state":"CA","country":"USA","formatted_address":"1960 E 20th St, Chico, CA, USA","place_id":"openaddresses:address:us\/ca\/butte:20e380d5fe6bda26","datatype":"openaddresses"},{"latitude":"33.982362","longitude":"-117.700674","name":"Toys\"R\"Us\/Babies\"R\"Us-Chino Hills,CA","address":"4635 Chino Hills Pkwy, Chino Hills,CA 91709, (909) 393-6221","street_number":"4767","street_name":"Chino Hills Pkwy","zip":"91709","city":"Chino Hills","area":null,"county":"San Bernardino County","state":"CA","country":"USA","formatted_address":"4767 Chino Hills Pkwy, Chino Hills, CA, USA","place_id":"openaddresses:address:us\/ca\/san_bernardino:f0b4d67d397dd50c","datatype":"openaddresses"},{"latitude":"32.611344","longitude":"-117.088548","name":"Toys\"R\"Us-Chula Vista,CA","address":"1008A Industrial Blvd, Chula Vista,CA 91911, (619) 420-4048","street_number":"1020","street_name":"Colorado Ave","zip":"91911","city":"Chula Vista","area":null,"county":"San Diego County","state":"CA","country":"USA","formatted_address":"1020 Colorado Ave, Chula Vista, CA, USA","place_id":"openaddresses:address:us\/ca\/san_diego:a7ef3cc59f84bb05","datatype":"openaddresses"},{"latitude":"32.593101","longitude":"-117.034599","name":"Babies\"R\"Us-Chula Vista,CA","address":"1860 Main Court, Chula Vista,CA 91911, (619) 421-8556","street_number":"1860","street_name":"Main Court","zip":"91911","city":"Chula Vista","area":null,"county":"San Diego County","state":"CA","country":"USA","formatted_address":"1860 Main Court, Chula Vista, CA, USA","place_id":"openstreetmap:address:node:596741632","datatype":"openstreetmap"},{"latitude":"32.6211809","longitude":"-116.9661013","name":"Toys\"R\"Us-Chula Vista,CA","address":"2015 Birch Rd [Otay Ranch Town Ctr], Chula Vista,CA 91915 (619) 421-4289","street_number":"2015","street_name":"Birch Rd","zip":"91915","city":"Chula Vista","area":null,"county":"San Diego County","state":"CA","country":"USA","formatted_address":"2015 Birch Rd, Chula Vista, CA, USA","place_id":"openaddresses:address:us\/ca\/san_diego:46c7dbbbe465f128","datatype":"openaddresses"},{"latitude":"38.678217","longitude":"-121.275741","name":"Toys\"R\"Us-Citrus Heights,CA","address":"7800 Greenback Lane, Citrus Heights,CA 95610, (916) 969-9727","street_number":"7811","street_name":"Greenback Ln","zip":"95610.0","city":"Citrus Heights","area":null,"county":"Sacramento County","state":"CA","country":"USA","formatted_address":"7811 Greenback Ln, Citrus Heights, CA, USA","place_id":"openaddresses:address:us\/ca\/sacramento:edebed44c2801516","datatype":"openaddresses"},{"latitude":"34.005005","longitude":"-118.152923","name":"Toys\"R\"Us-City of Commerce,CA","address":"100 Citadel Dr Ste 313, City of Commerce,CA 90040, (323) 725-0318","street_number":"2322","street_name":"Commerce Wy","zip":"90040","city":"Commerce","area":null,"county":"Los Angeles County","state":"CA","country":"USA","formatted_address":"2322 Commerce Wy, Commerce, CA, USA","place_id":"openaddresses:address:us\/ca\/los_angeles:72ae3cc4c1c1bb94","datatype":"openaddresses"},{"latitude":"33.993317","longitude":"-117.931461","name":"Toys\"R\"Us\/Babies\"R\"Us-City of Industry,CA","address":"1600 S Azusa Ave, City of Industry,CA 91716, (626) 965-0872","street_number":"1605","street_name":"S Azusa Ave","zip":"91745","city":"Hacienda Heights","area":null,"county":"Los Angeles County","state":"CA","country":"USA","formatted_address":"1605 S Azusa Ave, Hacienda Heights, CA, USA","place_id":"openaddresses:address:us\/ca\/los_angeles:664b1c0f2f669d0f","datatype":"openaddresses"},{"latitude":"36.808799","longitude":"-119.689958","name":"Toys\"R\"Us-Clovis,CA","address":"1425 Shaw Avenue, Clovis,CA 93611, (559) 322-0279 ","street_number":"1420","street_name":"Shaw Ave","zip":"93611","city":"Clovis","area":null,"county":"Fresno County","state":"CA","country":"USA","formatted_address":"1420 Shaw Ave, Clovis, CA, USA","place_id":"openaddresses:address:us\/ca\/fresno:d8991bbd56b9b69c","datatype":"openaddresses"},{"latitude":"37.673641","longitude":"-122.462402","name":"Babies\"R\"Us-Colma,CA","address":"775 Serramonte Boulevard, Colma,CA 94014, (650) 449-5106","street_number":"775","street_name":"Serramonte Blvd","zip":"94014","city":"Colma","area":null,"county":"San Mateo County","state":"CA","country":"USA","formatted_address":"775 Serramonte Blvd, Colma, CA, USA","place_id":"openaddresses:address:us\/ca\/san_mateo:20686","datatype":"openaddresses"},{"latitude":"33.823325","longitude":"-117.513675","name":"Toys\"R\"Us\/Babies\"R\"Us-Corona,CA","address":"3665 Grand Oaks, Corona,CA 92881, (951) 737-5781","street_number":"3579","street_name":"Grand Oaks Ave","zip":"92881","city":"Corona","area":null,"county":"Riverside County","state":"CA","country":"USA","formatted_address":"3579 Grand Oaks Ave, Corona, CA, USA","place_id":"openaddresses:address:us\/ca\/riverside:41275ed345a08ab8","datatype":"openaddresses"},{"latitude":"33.996718","longitude":"-118.395343","name":"Toys\"R\"Us\/Babies\"R\"Us-Culver City,CA","address":"11136 Jefferson Blvd, Culver City,CA 90230, (310) 398-5775","street_number":"5380","street_name":"Sepulveda Blvd","zip":"90230","city":"Culver City","area":null,"county":"Los Angeles County","state":"CA","country":"USA","formatted_address":"5380 Sepulveda Blvd, Culver City, CA, USA","place_id":"openaddresses:address:us\/ca\/los_angeles:7506f6da1cdd2b65","datatype":"openaddresses"},{"latitude":"37.706124","longitude":"-121.88648","name":"Babies\"R\"Us-Dublin,CA","address":"4990 Dublin Boulevard, Dublin,CA 94568, (925) 875-0350","street_number":"5020","street_name":"Haven Pl","zip":"94568","city":"Dublin","area":null,"county":"Alameda County","state":"CA","country":"USA","formatted_address":"5020 Haven Pl, Dublin, CA, USA","place_id":"openaddresses:address:us\/ca\/alameda:49f89961c4ab573e","datatype":"openaddresses"},{"latitude":"37.705382","longitude":"-121.928036","name":"Toys\"R\"Us-Dublin,CA","address":"6850 Amador Plaza Road, Dublin,CA 94568, (925) 833-0131","street_number":"6900","street_name":"Amador Plaza Rd","zip":"94568","city":"Dublin","area":null,"county":"Alameda County","state":"CA","country":"USA","formatted_address":"6900 Amador Plaza Rd, Dublin, CA, USA","place_id":"openaddresses:address:us\/ca\/alameda:950c3407271bba71","datatype":"openaddresses"},{"latitude":"38.423622","longitude":"-121.3884","name":"Toys\"R\"Us\/Babies\"R\"Us-Elk Grove,CA","address":"8507 Bond Rd Bldg A, Elk Grove,CA 95624, (916) 686-0290","street_number":"8529","street_name":"Aspen Crest Ct","zip":"95624.0","city":"Elk Grove","area":null,"county":"Sacramento County","state":"CA","country":"USA","formatted_address":"8529 Aspen Crest Ct, Elk Grove, CA, USA","place_id":"openaddresses:address:us\/ca\/sacramento:e02219b2df443303","datatype":"openaddresses"},{"latitude":"37.828773","longitude":"-122.287174","name":"Toys\"R\"Us\/Babies\"R\"Us-Emeryville,CA","address":"3938 Horton, Emeryville,CA 94608, (510) 637-7003","street_number":"3938","street_name":"Horton Street","zip":"94608","city":"Oakland","area":null,"county":"Alameda County","state":"CA","country":"USA","formatted_address":"3938 Horton Street, Oakland, CA, USA","place_id":"openstreetmap:address:way:23014325","datatype":"openstreetmap"},{"latitude":"33.110811","longitude":"-117.098926","name":"Toys\"R\"Us-Escondido,CA","address":"1240 Auto Parkway S, Escondido,CA 92029, (760) 747-4975","street_number":"1260","street_name":"Auto Park Way","zip":"92029","city":"Escondido","area":null,"county":"San Diego County","state":"CA","country":"USA","formatted_address":"1260 Auto Park Way, Escondido, CA, USA","place_id":"openaddresses:address:us\/ca\/san_diego:47619da8f818125c","datatype":"openaddresses"},{"latitude":"38.263201","longitude":"-122.053131","name":"Babies\"R\"Us-Fairfield,CA","address":"1400 Gateway Boulevard, Fairfield,CA 94533, (707) 207-2049","street_number":"1345","street_name":"Gateway Boulevard","zip":"94533","city":"Fairfield","area":null,"county":"Solano County","state":"CA","country":"USA","formatted_address":"1345 Gateway Boulevard, Fairfield, CA, USA","place_id":"openaddresses:address:us\/ca\/solano:caa3f34a81919ae0","datatype":"openaddresses"},{"latitude":"38.644508","longitude":"-121.189659","name":"Toys\"R\"Us-Folsom,CA","address":"13000 Folsom Blvd [Folsom Outlets], Folsom,CA 95630, (916) 608-4138","street_number":"156","street_name":"Iron Point Rd","zip":"95630.0","city":"Folsom","area":null,"county":"Sacramento County","state":"CA","country":"USA","formatted_address":"156 Iron Point Rd, Folsom, CA, USA","place_id":"openaddresses:address:us\/ca\/sacramento:fde31e29d4be7bb5","datatype":"openaddresses"},{"latitude":"38.65393","longitude":"-121.122733","name":"Babies\"R\"Us-Folsom,CA","address":"2785 E Bidwell Street, Folsom,CA 95630, (916) 817-2022","street_number":"2789","street_name":"E Bidwell St","zip":"95630.0","city":"Folsom","area":null,"county":"Sacramento County","state":"CA","country":"USA","formatted_address":"2789 E Bidwell St, Folsom, CA, USA","place_id":"openaddresses:address:us\/ca\/sacramento:a2aa0ebe44d3673e","datatype":"openaddresses"},{"latitude":"37.502799","longitude":"-121.967791","name":"Toys\"R\"Us\/Babies\"R\"Us-Fremont,CA","address":"43756 Christy St, Fremont,CA 94538, (510) 353-1107","street_number":"43950","street_name":"Pacific Commons Bl","zip":"94538","city":"Fremont","area":null,"county":"Alameda County","state":"CA","country":"USA","formatted_address":"43950 Pacific Commons Bl, Fremont, CA, USA","place_id":"openaddresses:address:us\/ca\/alameda:2084de09af742757","datatype":"openaddresses"},{"latitude":"36.808509","longitude":"-119.85618","name":"Toys\"R\"Us-Fresno,CA","address":"3520 West Shaw Avenue, Fresno,CA 93711, (559) 275-6123 ","street_number":"3520","street_name":"W Shaw Ave","zip":"93711","city":"Fresno","area":null,"county":"Fresno County","state":"CA","country":"USA","formatted_address":"3520 W Shaw Ave, Fresno, CA, USA","place_id":"openaddresses:address:us\/ca\/fresno:37d92732203d5f89","datatype":"openaddresses"},{"latitude":"33.8609","longitude":"-117.92422","name":"Toys\"R\"Us\/Babies\"R\"Us-Fullerton,CA","address":"1100 South Harbor Blvd, Fullerton,CA 92832, (714) 447-4995","street_number":"1020","street_name":"S Harbor Bl","zip":null,"city":"Fullerton","area":null,"county":"Orange County","state":"CA","country":"USA","formatted_address":"1020 S Harbor Bl, Fullerton, CA, USA","place_id":"openaddresses:address:us\/ca\/orange:60ecc0be53d08f59","datatype":"openaddresses"},{"latitude":"37.020164","longitude":"-121.563896","name":"Toys\"R\"Us-Gilroy,CA","address":"8225 Arroyo Circle #27, Gilroy,CA 95020, (408) 842-0512","street_number":"8155","street_name":"Arroyo Cir","zip":"95020","city":"Gilroy","area":null,"county":"Santa Clara County","state":"CA","country":"USA","formatted_address":"8155 Arroyo Cir, Gilroy, CA, USA","place_id":"openaddresses:address:us\/ca\/santa_clara:f95e65aad0c10992","datatype":"openaddresses"},{"latitude":"33.898855","longitude":"-118.367304","name":"Toys\"R\"Us\/Babies\"R\"Us-Hawthorne,CA","address":"14705 Ocean Gate Ave, Hawthorne,CA 90250, (310) 973-6366","street_number":"14501","street_name":"S Ocean Gate Ave","zip":"90250","city":"Hawthorne","area":null,"county":"Los Angeles County","state":"CA","country":"USA","formatted_address":"14501 S Ocean Gate Ave, Hawthorne, CA, USA","place_id":"openaddresses:address:us\/ca\/los_angeles:8cbf942b57b362d2","datatype":"openaddresses"},{"latitude":"37.652358","longitude":"-122.110089","name":"Toys\"R\"Us-Hayward,CA","address":"24011 Hesperian Boulevard, Hayward,CA 94541, (510) 785-5800","street_number":"24107","street_name":"Hesperian Bl","zip":"94545","city":"Hayward","area":null,"county":"Alameda County","state":"CA","country":"USA","formatted_address":"24107 Hesperian Bl, Hayward, CA, USA","place_id":"openaddresses:address:us\/ca\/alameda:b304ca8b3b03783b","datatype":"openaddresses"},{"latitude":"33.729982","longitude":"-118.002902","name":"Toys\"R\"Us-Huntington Beach,CA","address":"7212 Edinger Ave, Huntington Beach,CA 92647, (714) 848-6357","street_number":"7222","street_name":"Edinger Av","zip":null,"city":"Huntington Beach","area":null,"county":"Orange County","state":"CA","country":"USA","formatted_address":"7222 Edinger Av, Huntington Beach, CA, USA","place_id":"openaddresses:address:us\/ca\/orange:9b76585fa812d0b5","datatype":"openaddresses"},{"latitude":"33.741315","longitude":"-116.216559","name":"Toys\"R\"Us\/Babies\"R\"Us-Indio,CA","address":"42500 Jackson St, Indio,CA 92203, (760) 342-9367","street_number":"42250","street_name":"Jackson Street","zip":"92203","city":"Indio","area":null,"county":"Riverside County","state":"CA","country":"USA","formatted_address":"42250 Jackson Street, Indio, CA, USA","place_id":"openstreetmap:address:way:152290499","datatype":"openstreetmap"},{"latitude":"33.724395","longitude":"-117.790101","name":"Babies\"R\"Us-Irvine,CA","address":"13672 Jamboree Rd, Irvine,CA 92620, (714) 832-7545","street_number":"3015","street_name":"El Camino Real","zip":null,"city":"Tustin","area":null,"county":"Orange County","state":"CA","country":"USA","formatted_address":"3015 El Camino Real, Tustin, CA, USA","place_id":"openaddresses:address:us\/ca\/orange:e2a80dc5bb42f538","datatype":"openaddresses"},{"latitude":"32.775737","longitude":"-117.020908","name":"Babies\"R\"Us-La Mesa,CA","address":"8165 Fletcher Pkwy, La Mesa,CA 91942, (619) 589-1880","street_number":"8185","street_name":"Fletcher Parkway","zip":"91942","city":"La Mesa","area":null,"county":"San Diego County","state":"CA","country":"USA","formatted_address":"8185 Fletcher Parkway, La Mesa, CA, USA","place_id":"openstreetmap:address:node:596504244","datatype":"openstreetmap"},{"latitude":"32.77384","longitude":"-117.008133","name":"Toys\"R\"Us-La Mesa,CA","address":"8790 Grossmont Blvd, La Mesa,CA 91941, (619) 461-4901","street_number":"8807","street_name":"Grossmont Boulevard","zip":"91941","city":"La Mesa","area":null,"county":"San Diego County","state":"CA","country":"USA","formatted_address":"8807 Grossmont Boulevard, La Mesa, CA, USA","place_id":"openstreetmap:address:node:597178006","datatype":"openstreetmap"},{"latitude":"34.675041","longitude":"-118.154494","name":"Toys\"R\"Us-Lancaster,CA","address":"1335 W Avenue K, Lancaster,CA 93534, (661) 949-7880","street_number":"1326","street_name":"W Avenue K","zip":"93534","city":"Lancaster","area":null,"county":"Los Angeles County","state":"CA","country":"USA","formatted_address":"1326 W Avenue K, Lancaster, CA, USA","place_id":"openaddresses:address:us\/ca\/los_angeles:6bffde5c2e9eba86","datatype":"openaddresses"},{"latitude":"37.698708","longitude":"-121.845135","name":"Toys\"R\"Us-Livermore,CA","address":"2774 Livermore Outlet, Livermore,CA 94551","street_number":"3400","street_name":"Livermore Outlets Dr","zip":"94551","city":"Livermore","area":null,"county":"Alameda County","state":"CA","country":"USA","formatted_address":"3400 Livermore Outlets Dr, Livermore, CA, USA","place_id":"openaddresses:address:us\/ca\/alameda:178c0c155ae4281e","datatype":"openaddresses"},{"latitude":"34.043521","longitude":"-118.376778","name":"Toys\"R\"Us\/Babies\"R\"Us-Los Angeles,CA","address":"1833 S La Cienega Blvd, Los Angeles,CA 90035, (310) 558-1831","street_number":"1833","street_name":"S La Cienega Blvd","zip":"90035","city":"Los Angeles","area":null,"county":"Los Angeles County","state":"CA","country":"USA","formatted_address":"1833 S La Cienega Blvd, Los Angeles, CA, USA","place_id":"openaddresses:address:us\/ca\/los_angeles:5245627e40f21e72","datatype":"openaddresses"},{"latitude":"34.126467","longitude":"-118.263035","name":"Toys\"R\"Us\/Babies\"R\"Us-Los Angeles,CA","address":"2905 Los Feliz Blvd, Los Angeles,CA 90039, (323) 663-8704","street_number":"2900","street_name":"Los Feliz Blvd","zip":"90039","city":"Los Angeles","area":null,"county":"Los Angeles County","state":"CA","country":"USA","formatted_address":"2900 Los Feliz Blvd, Los Angeles, CA, USA","place_id":"openaddresses:address:us\/ca\/los_angeles:7e9c01658e69f621","datatype":"openaddresses"},{"latitude":"34.010225","longitude":"-118.340467","name":"Toys\"R\"Us-Los Angeles,CA","address":"3650 W Mrtn Luther King [Baldwin H Crenshaw Plaza], Los Angeles,CA 90008, (323) 299-7945","street_number":"4120","street_name":"Marlton Ave","zip":"90008","city":"Los Angeles","area":null,"county":"Los Angeles County","state":"CA","country":"USA","formatted_address":"4120 Marlton Ave, Los Angeles, CA, USA","place_id":"openaddresses:address:us\/ca\/los_angeles:fcb2d6e49eefe522","datatype":"openaddresses"},{"latitude":"37.41625","longitude":"-121.894594","name":"Toys\"R\"Us-Milpitas,CA","address":"447 Great Mall Drive, Milpitas,CA 95035, (408) 719-1274","street_number":"556","street_name":"Gibraltar Dr","zip":"95035","city":"Milpitas","area":null,"county":"Santa Clara County","state":"CA","country":"USA","formatted_address":"556 Gibraltar Dr, Milpitas, CA, USA","place_id":"openaddresses:address:us\/ca\/santa_clara:a4ddddc8e0ce421b","datatype":"openaddresses"},{"latitude":"33.588088","longitude":"-117.673592","name":"Toys\"R\"Us-Mission Viejo,CA","address":"25362 El Paseo, Mission Viejo,CA 92691, (949) 582-7945","street_number":"25732","street_name":"El Paseo","zip":"92691","city":"Mission Viejo","area":null,"county":"Orange County","state":"CA","country":"USA","formatted_address":"25732 El Paseo, Mission Viejo, CA, USA","place_id":"openstreetmap:address:way:165550145","datatype":"openstreetmap"},{"latitude":"37.678956","longitude":"-121.047424","name":"Toys\"R\"Us-Modesto,CA","address":"2700 Sisk Road, Modesto,CA 95350, (209) 527-2288","street_number":"2700","street_name":"Sisk Rd","zip":null,"city":"Modesto","area":null,"county":"Stanislaus County","state":"CA","country":"USA","formatted_address":"2700 Sisk Rd, Modesto, CA, USA","place_id":"openaddresses:address:us\/ca\/stanislaus:9072097d409788be","datatype":"openaddresses"},{"latitude":"37.688144","longitude":"-121.058172","name":"Babies\"R\"Us-Modesto,CA","address":"3500 Sisk Road, Modesto,CA 95356, (209) 543-6803","street_number":"3500","street_name":"Sisk Rd","zip":null,"city":"Modesto","area":null,"county":"Stanislaus County","state":"CA","country":"USA","formatted_address":"3500 Sisk Rd, Modesto, CA, USA","place_id":"openaddresses:address:us\/ca\/stanislaus:fbb8fc6281967246","datatype":"openaddresses"},{"latitude":"34.140082","longitude":"-118.013227","name":"Toys\"R\"Us-Monrovia,CA","address":"660 W Huntington Dr, Monrovia,CA 91016, (626) 303-5507","street_number":"635","street_name":"W Huntington Dr","zip":"91016","city":"Monrovia","area":null,"county":"Los Angeles County","state":"CA","country":"USA","formatted_address":"635 W Huntington Dr, Monrovia, CA, USA","place_id":"openaddresses:address:us\/ca\/los_angeles:5c6d4a5329262a9b","datatype":"openaddresses"},{"latitude":"34.033113","longitude":"-118.092465","name":"Toys\"R\"Us-Montebello,CA","address":"1445 N Montebello Blvd, Montebello,CA 90640, (323) 724-1399","street_number":"1479","street_name":"N Montebello Blvd","zip":"90640","city":"Montebello","area":null,"county":"Los Angeles County","state":"CA","country":"USA","formatted_address":"1479 N Montebello Blvd, Montebello, CA, USA","place_id":"openaddresses:address:us\/ca\/los_angeles:f74a693dd27e870e","datatype":"openaddresses"},{"latitude":"33.566566","longitude":"-117.213327","name":"Babies\"R\"Us-Murrieta,CA","address":"24440 Village Walk Pl, Murrieta,CA 92562, (951) 461-1204","street_number":"24405","street_name":"Village Walk Pl","zip":"92562","city":"Murrieta","area":null,"county":"Riverside County","state":"CA","country":"USA","formatted_address":"24405 Village Walk Pl, Murrieta, CA, USA","place_id":"openaddresses:address:us\/ca\/riverside:b1d6c41bbcdb75fd","datatype":"openaddresses"},{"latitude":"33.589902","longitude":"-117.210845","name":"Toys\"R\"Us\/Babies\"R\"Us-Murrieta,CA","address":"39855 Alta Murietta Dr, Murrieta,CA 92562, (951) 696-0532","street_number":"23770","street_name":"Via Compadres","zip":"92562","city":"Murrieta","area":null,"county":"Riverside County","state":"CA","country":"USA","formatted_address":"23770 Via Compadres, Murrieta, CA, USA","place_id":"openaddresses:address:us\/ca\/riverside:e0aa0d96670c3784","datatype":"openaddresses"},{"latitude":"32.659949","longitude":"-117.088114","name":"Toys\"R\"Us\/Babies\"R\"Us-National City,CA","address":"1100 East 30th St, National City,CA 91950, (619) 477-8383","street_number":"1107","street_name":"E 30th St","zip":"91950","city":"National City","area":null,"county":"San Diego County","state":"CA","country":"USA","formatted_address":"1107 E 30th St, National City, CA, USA","place_id":"openaddresses:address:us\/ca\/san_diego:a93fe0e8c43ae16d","datatype":"openaddresses"},{"latitude":"34.35853","longitude":"-118.554989","name":"Toys\"R\"Us-Newhall,CA","address":"25510 The Old Rd, Newhall,CA 91381, (661) 260-1599","street_number":"24314","street_name":"The Old Rd","zip":"91321","city":"Santa Clarita","area":null,"county":"Los Angeles County","state":"CA","country":"USA","formatted_address":"24314 The Old Rd, Los Angeles County, CA, USA","place_id":"openaddresses:address:us\/ca\/los_angeles:5b4b2501c9f6811d","datatype":"openaddresses"},{"latitude":"34.278273","longitude":"-118.570618","name":"Toys\"R\"Us\/Babies\"R\"Us-Northridge,CA","address":"11460 Porter Ranch Dr, Northridge,CA 91326, (818) 366-8675","street_number":"11413","street_name":"N Vineland Ct","zip":"91326","city":"Los Angeles","area":null,"county":"Los Angeles County","state":"CA","country":"USA","formatted_address":"11413 N Vineland Ct, Los Angeles, CA, USA","place_id":"openaddresses:address:us\/ca\/los_angeles:a691612b22ef843c","datatype":"openaddresses"},{"latitude":"33.183122","longitude":"-117.334816","name":"Toys\"R\"Us-Oceanside,CA","address":"2425 Vista Way, Oceanside,CA 92054, (760) 439-7944","street_number":"2434","street_name":"Vista Way","zip":"92054","city":"Oceanside","area":null,"county":"San Diego County","state":"CA","country":"USA","formatted_address":"2434 Vista Way, Oceanside, CA, USA","place_id":"openaddresses:address:us\/ca\/san_diego:33fd0ba4de53b2bf","datatype":"openaddresses"},{"latitude":"34.069768","longitude":"-117.554406","name":"Babies\"R\"Us-Ontario,CA","address":"4430 Ontario Mills Pkwy, Ontario,CA 91764, (909) 987-4105","street_number":"4422","street_name":"Ontario Mills Pkwy","zip":"91761","city":"Ontario","area":null,"county":"San Bernardino County","state":"CA","country":"USA","formatted_address":"4422 Ontario Mills Pkwy, Ontario, CA, USA","place_id":"openaddresses:address:us\/ca\/san_bernardino:82b8fdb0a93f05f8","datatype":"openaddresses"},{"latitude":"34.069768","longitude":"-117.553584","name":"Toys\"R\"Us-Ontario,CA","address":"4460 Ontario Mills Pkwy, Ontario,CA 91764, (909) 987-8894","street_number":"4421","street_name":"Ontario Mills Pkwy","zip":"91764","city":"Ontario","area":null,"county":"San Bernardino County","state":"CA","country":"USA","formatted_address":"4421 Ontario Mills Pkwy, Ontario, CA, USA","place_id":"openaddresses:address:us\/ca\/san_bernardino:2882c36c6591e257","datatype":"openaddresses"},{"latitude":"34.223175","longitude":"-119.158325","name":"Babies\"R\"Us-Oxnard,CA","address":"2340 North Rose Ave, Oxnard,CA 93030, (805) 988-5951","street_number":"2302","street_name":"N Rose Ave","zip":"93036","city":"Oxnard","area":null,"county":"Ventura County","state":"CA","country":"USA","formatted_address":"2302 N Rose Ave, Oxnard, CA, USA","place_id":"openaddresses:address:us\/ca\/ventura:7504a5ed2abe856d","datatype":"openaddresses"},{"latitude":"36.843836","longitude":"-119.790279","name":"Babies\"R\"Us-Pinedale,CA","address":"7370 North Blackstone Rd, Pinedale,CA 93650, (559) 446-1091","street_number":"7340","street_name":"N Blackstone Ave","zip":"93650","city":"Fresno","area":null,"county":"Fresno County","state":"CA","country":"USA","formatted_address":"7340 N Blackstone Ave, Fresno, CA, USA","place_id":"openaddresses:address:us\/ca\/fresno:eefe13403891f27e","datatype":"openaddresses"},{"latitude":"37.987476","longitude":"-122.311534","name":"Toys\"R\"Us\/Babies\"R\"Us-Pinole,CA","address":"1330 Fitzgerald Drive, Pinole,CA 94564, (510) 758-8697","street_number":"1374","street_name":"Fitzgerald Dr","zip":"94564","city":"Pinole","area":null,"county":"Contra Costa County","state":"CA","country":"USA","formatted_address":"1374 Fitzgerald Dr, Pinole, CA, USA","place_id":"openaddresses:address:us\/ca\/contra_costa:a6068626d2203b64","datatype":"openaddresses"},{"latitude":"38.006301","longitude":"-121.837935","name":"Toys\"R\"Us-Pittsburg,CA","address":"4505 Century Boulevard, Pittsburg,CA 94565, (925) 706-8697","street_number":"4489","street_name":"Century Blvd","zip":"94565","city":"Pittsburg","area":null,"county":"Contra Costa County","state":"CA","country":"USA","formatted_address":"4489 Century Blvd, Pittsburg, CA, USA","place_id":"openaddresses:address:us\/ca\/contra_costa:dffa81bb75c22f5e","datatype":"openaddresses"},{"latitude":"37.977571","longitude":"-122.066009","name":"Toys\"R\"Us\/Babies\"R\"Us-Pleasant Hill,CA","address":"568 Contra Costa Boulevard, Pleasant Hill,CA 94523, (925) 689-9751","street_number":"571","street_name":"Contra Costa Blvd","zip":"94523","city":"Pleasant Hill","area":null,"county":"Contra Costa County","state":"CA","country":"USA","formatted_address":"571 Contra Costa Blvd, Pleasant Hill, CA, USA","place_id":"openaddresses:address:us\/ca\/contra_costa:8fbaf489f9b91aec","datatype":"openaddresses"},{"latitude":"34.073741","longitude":"-117.208884","name":"Toys\"R\"Us\/Babies\"R\"Us-Redlands,CA","address":"9930 Alabama St, Redlands,CA 92374, (909) 307-2316","street_number":"27341","street_name":"San Bernardino Ave","zip":"92374","city":null,"area":null,"county":"San Bernardino County","state":"CA","country":"USA","formatted_address":"27341 San Bernardino Ave, San Bernardino County, CA, USA","place_id":"openaddresses:address:us\/ca\/san_bernardino:5dcc2fa48e528a61","datatype":"openaddresses"},{"latitude":"37.492201","longitude":"-122.222997","name":"Toys\"R\"Us\/Babies\"R\"Us-Redwood City,CA","address":"202 Walnut Street, Redwood City,CA 94063, (650) 367-0186","street_number":"250","street_name":"Walnut Street","zip":"94063","city":"Redwood City","area":null,"county":"San Mateo County","state":"CA","country":"USA","formatted_address":"250 Walnut Street, Redwood City, CA, USA","place_id":"openstreetmap:address:node:2472221277","datatype":"openstreetmap"},{"latitude":"33.911127","longitude":"-117.463256","name":"Toys\"R\"Us-Riverside,CA","address":"10391 Magnolia Ave, Riverside,CA 92505, (951) 687-4542","street_number":"10403","street_name":"Magnolia Av","zip":"92505","city":"Riverside","area":null,"county":"Riverside County","state":"CA","country":"USA","formatted_address":"10403 Magnolia Av, Riverside, CA, USA","place_id":"openaddresses:address:us\/ca\/city_of_riverside:9a23354861f699c8","datatype":"openaddresses"},{"latitude":"33.942353","longitude":"-117.289387","name":"Toys\"R\"Us\/Babies\"R\"Us-Riverside,CA","address":"2550 Canyon Crossings Pkwy, Riverside,CA 92507, (none listed)","street_number":"2550","street_name":"Valley Springs Parkway","zip":"92507","city":"Riverside","area":null,"county":"Riverside County","state":"CA","country":"USA","formatted_address":"2550 Valley Springs Parkway, Riverside, CA, USA","place_id":"openstreetmap:address:way:444490331","datatype":"openstreetmap"},{"latitude":"38.772859","longitude":"-121.265441","name":"Babies\"R\"Us-Roseville,CA","address":"1248 Galleria Boulevard, Roseville,CA 95678, (916) 784-9741","street_number":"1216","street_name":"Galleria Boulevard","zip":"95678","city":"Roseville","area":null,"county":"Placer County","state":"CA","country":"USA","formatted_address":"1216 Galleria Boulevard, Roseville, CA, USA","place_id":"openstreetmap:address:way:45407173","datatype":"openstreetmap"},{"latitude":"38.781307","longitude":"-121.265898","name":"Toys\"R\"Us-Roseville,CA","address":"6780 Stanford Ranch Road, Roseville,CA 95678, (916) 784-8697","street_number":"6720","street_name":"Stanford Ranch Rd","zip":"95678","city":"Roseville","area":null,"county":"Placer County","state":"CA","country":"USA","formatted_address":"6720 Stanford Ranch Rd, Roseville, CA, USA","place_id":"openaddresses:address:us\/ca\/placer:7f02855139d35ca5","datatype":"openaddresses"},{"latitude":"38.597363","longitude":"-121.421917","name":"Toys\"R\"Us-Sacramento,CA","address":"1919 Arden Way, Sacramento,CA 95815, (916) 929-9500","street_number":"1915","street_name":"Arden Way","zip":"95815","city":"Sacramento","area":null,"county":"Sacramento County","state":"CA","country":"USA","formatted_address":"1915 Arden Way, Sacramento, CA, USA","place_id":"openstreetmap:address:way:404221040","datatype":"openstreetmap"},{"latitude":"36.720611","longitude":"-121.666225","name":"Babies\"R\"Us-Salinas,CA","address":"1930 N Davis Road, Salinas,CA 93907, (831) 444-9846","street_number":"1991","street_name":"N Davis Road","zip":"93907","city":"Salinas","area":null,"county":"Monterey County","state":"CA","country":"USA","formatted_address":"1991 N Davis Road, Monterey County, CA, USA","place_id":"openaddresses:address:us\/ca\/monterey:a8217e9aadca92c7","datatype":"openaddresses"},{"latitude":"36.716736","longitude":"-121.65578","name":"Toys\"R\"Us-Salinas,CA","address":"370 North Ridge Center, Salinas,CA 93906, (831) 443-4455","street_number":"1850","street_name":"N Main Street","zip":"93906","city":"Salinas","area":null,"county":"Monterey County","state":"CA","country":"USA","formatted_address":"1850 N Main Street, Salinas, CA, USA","place_id":"openaddresses:address:us\/ca\/monterey:38162cae707effc6","datatype":"openaddresses"},{"latitude":"37.63622","longitude":"-122.420871","name":"Toys\"R\"Us-San Bruno,CA","address":"1150 El Camino Real [Tanforan Park Center], San Bruno,CA 94066, (650) 588-5910","street_number":"1199","street_name":"State Highway 82","zip":null,"city":"San Bruno","area":null,"county":"San Mateo County","state":"CA","country":"USA","formatted_address":"1199 State Highway 82, San Bruno, CA, USA","place_id":"openaddresses:address:us\/ca\/san_mateo:46660","datatype":"openaddresses"},{"latitude":"32.769204","longitude":"-117.203177","name":"Toys\"R\"Us-San Diego,CA","address":"1240 W Morena Blvd, San Diego,CA 92110, (619) 276-7094","street_number":"1210","street_name":"Morena Boulevard","zip":"92110","city":"San Diego","area":null,"county":"San Diego County","state":"CA","country":"USA","formatted_address":"1210 Morena Boulevard, San Diego, CA, USA","place_id":"openstreetmap:address:node:596596042","datatype":"openstreetmap"},{"latitude":"32.5453582","longitude":"-117.0401376","name":"Toys\"R\"Us-San Diego,CA","address":"4345 Camino De La Plaza [Las Americas Outlets], San Diego,CA 92173, (619) 428-7579","street_number":"4319","street_name":"Cam De La Plaza","zip":"92173","city":"San Diego","area":null,"county":"San Diego County","state":"CA","country":"USA","formatted_address":"4319 Cam De La Plaza, San Diego, CA, USA","place_id":"openstreetmap:address:way:297777749","datatype":"openstreetmap"},{"latitude":"32.912452","longitude":"-117.147581","name":"Babies\"R\"Us-San Diego,CA","address":"8181 Mira Mesa Blvd, San Diego,CA 92126, (858) 549-8697","street_number":"8223","street_name":"Mira Mesa Blvd","zip":"92126","city":"San Diego","area":null,"county":"San Diego County","state":"CA","country":"USA","formatted_address":"8223 Mira Mesa Blvd, San Diego, CA, USA","place_id":"openaddresses:address:us\/ca\/san_diego:f9ccd4f7a79cbc29","datatype":"openaddresses"},{"latitude":"37.250567","longitude":"-121.872709","name":"Toys\"R\"Us-San Jose,CA","address":"1082 Blossom Hill Road, San Jose,CA 95123, (408) 266-2600","street_number":"1080","street_name":"Blossom Hill Rd","zip":"95123","city":"San Jose","area":null,"county":"Santa Clara County","state":"CA","country":"USA","formatted_address":"1080 Blossom Hill Rd, San Jose, CA, USA","place_id":"openaddresses:address:us\/ca\/santa_clara:5bafbeb0d53ae1ec","datatype":"openaddresses"},{"latitude":"37.304415","longitude":"-121.862202","name":"Toys\"R\"Us\/Babies\"R\"Us-San Jose,CA","address":"2179 Monterey Highway, San Jose,CA 95125, (408) 292-5140","street_number":"2152","street_name":"Monterey Rd","zip":"95111","city":"San Jose","area":null,"county":"Santa Clara County","state":"CA","country":"USA","formatted_address":"2152 Monterey Rd, San Jose, CA, USA","place_id":"openaddresses:address:us\/ca\/santa_clara:3d91d6a4db0e140c","datatype":"openaddresses"},{"latitude":"37.3241823","longitude":"-121.8117533","name":"Toys\"R\"Us-San Jose,CA","address":"2200 Eastridge Loop, San Jose,CA 95122, (408) 274-2804","street_number":"2189","street_name":"Quimby Rd","zip":"95122","city":"San Jose","area":null,"county":"Santa Clara County","state":"CA","country":"USA","formatted_address":"2189 Quimby Rd, San Jose, CA, USA","place_id":"openaddresses:address:us\/ca\/santa_clara:646d6c858d94a337","datatype":"openaddresses"},{"latitude":"37.250386","longitude":"-121.856373","name":"Babies\"R\"Us-San Jose,CA","address":"865 Blossom Hill Road, San Jose,CA 95123, (408) 281-1710","street_number":"5595","street_name":"Thornwood Dr","zip":"95123","city":"San Jose","area":null,"county":"Santa Clara County","state":"CA","country":"USA","formatted_address":"5595 Thornwood Dr, San Jose, CA, USA","place_id":"openaddresses:address:us\/ca\/santa_clara:f4397bda3528600d","datatype":"openaddresses"},{"latitude":"37.325442","longitude":"-121.813742","name":"Toys\"R\"Us-San Jose,CA","address":"2200 Eastridge Loop [Eastridge Mall], San Jose,CA 95122","street_number":"2200","street_name":"Eastridge Loop","zip":"95122","city":"San Jose","area":null,"county":"Santa Clara County","state":"CA","country":"USA","formatted_address":"2200 Eastridge Loop, San Jose, CA, USA","place_id":"openaddresses:address:us\/ca\/santa_clara:33e55ae78950d3a1","datatype":"openaddresses"},{"latitude":"37.561453","longitude":"-122.282658","name":"Toys\"R\"Us-San Mateo,CA","address":"2270 Bridgepoint Pkwy, San Mateo,CA 94405, (650) 345-4475","street_number":"2206","street_name":"Bridgepointe Parkway","zip":"94404","city":"San Mateo","area":null,"county":"San Mateo County","state":"CA","country":"USA","formatted_address":"2206 Bridgepointe Parkway, San Mateo, CA, USA","place_id":"openstreetmap:address:node:2921462557","datatype":"openstreetmap"},{"latitude":"37.964826","longitude":"-122.513857","name":"Toys\"R\"Us-San Rafael,CA","address":"600 Francisco Boulevard, San Rafael,CA 94901, (415) 721-7188","street_number":"595","street_name":"Francisco Boulevard","zip":"94901","city":"San Rafael","area":null,"county":"Marin County","state":"CA","country":"USA","formatted_address":"595 Francisco Boulevard, San Rafael, CA, USA","place_id":"openstreetmap:address:node:2975820948","datatype":"openstreetmap"},{"latitude":"34.438085","longitude":"-119.746696","name":"Toys\"R\"Us-Santa Barbara,CA","address":"121 South Hope Ave [La Cumbre Plaza], Santa Barbara,CA 93105, (805) 687-0219","street_number":"242","street_name":"Calle Esperanza","zip":"93105","city":"Santa Barbara","area":null,"county":"Santa Barbara County","state":"CA","country":"USA","formatted_address":"242 Calle Esperanza, Santa Barbara, CA, USA","place_id":"openaddresses:address:us\/ca\/santa_barbara:28248","datatype":"openaddresses"},{"latitude":"34.415356","longitude":"-118.505449","name":"Babies\"R\"Us-Santa Clarita,CA","address":"26573 Carl Boyer Dr, Santa Clarita,CA 91350, (661) 253-3940","street_number":"26508","street_name":"Carl Boyer Dr","zip":"91350","city":"Santa Clarita","area":null,"county":"Los Angeles County","state":"CA","country":"USA","formatted_address":"26508 Carl Boyer Dr, Santa Clarita, CA, USA","place_id":"openaddresses:address:us\/ca\/los_angeles:d033ebae91e3ea85","datatype":"openaddresses"},{"latitude":"36.987651","longitude":"-121.981852","name":"Toys\"R\"Us\/Babies\"R\"Us-Santa Cruz,CA","address":"1660 Commercial Way, Santa Cruz,CA 95065, (831) 479-4296","street_number":"1655","street_name":"Commercial Way","zip":"95065-1703","city":"Live Oak","area":null,"county":"Santa Cruz County","state":"CA","country":"USA","formatted_address":"1655 Commercial Way, Live Oak, CA, USA","place_id":"openaddresses:address:us\/ca\/santa_cruz:d87f700ddcff4071","datatype":"openaddresses"},{"latitude":"34.934947","longitude":"-120.418453","name":"Toys\"R\"Us\/Babies\"R\"Us-Santa Maria,CA","address":"1411 S Bradley Rd, Santa Maria,CA 93454, (805) 925-5266","street_number":"1423","street_name":"S Bradley Rd","zip":"93454","city":"Santa Maria","area":null,"county":"Santa Barbara County","state":"CA","country":"USA","formatted_address":"1423 S Bradley Rd, Santa Maria, CA, USA","place_id":"openaddresses:address:us\/ca\/santa_barbara:91525","datatype":"openaddresses"},{"latitude":"38.411532","longitude":"-122.713666","name":"Toys\"R\"Us-Santa Rosa,CA","address":"2705 Santa Rosa Avenue, Santa Rosa,CA 95407, (707) 527-6200","street_number":"2739","street_name":"Santa Rosa Ave","zip":"95407","city":"Santa Rosa","area":null,"county":"Sonoma County","state":"CA","country":"USA","formatted_address":"2739 Santa Rosa Ave, Santa Rosa, CA, USA","place_id":"openaddresses:address:us\/ca\/sonoma:dba7325f9e828c33","datatype":"openaddresses"},{"latitude":"33.782045","longitude":"-118.0721243","name":"Toys\"R\"Us\/Babies\"R\"Us-Seal Beach,CA","address":"12347 Seal Beach Blvd, Seal Beach,CA 90740, (562) 493-9848","street_number":"12320","street_name":"Seal Beach Bl","zip":null,"city":"Seal Beach","area":null,"county":"Orange County","state":"CA","country":"USA","formatted_address":"12320 Seal Beach Bl, Seal Beach, CA, USA","place_id":"openaddresses:address:us\/ca\/orange:673e57fd55b3243b","datatype":"openaddresses"},{"latitude":"34.284203","longitude":"-118.777291","name":"Babies\"R\"Us-Simi Valley,CA","address":"1189 Simi Town Center Way, Simi Valley,CA 93065, (805) 583-1988","street_number":"1161","street_name":"Simi Town Center Way","zip":"93065","city":"Simi Valley","area":null,"county":"Ventura County","state":"CA","country":"USA","formatted_address":"1161 Simi Town Center Way, Simi Valley, CA, USA","place_id":"openaddresses:address:us\/ca\/ventura:8ea6e49427d420e2","datatype":"openaddresses"},{"latitude":"38.052326","longitude":"-121.375048","name":"Babies\"R\"Us-Stockton,CA","address":"10640 Trinity Parkway, Stockton,CA 95219, (209) 473-9858","street_number":"10506","street_name":"Trinity Parkway","zip":null,"city":"Stockton","area":null,"county":"San Joaquin County","state":"CA","country":"USA","formatted_address":"10506 Trinity Parkway, Stockton, CA, USA","place_id":"openstreetmap:address:way:287550109","datatype":"openstreetmap"},{"latitude":"38.020719","longitude":"-121.320978","name":"Toys\"R\"Us-Stockton,CA","address":"718 West Hammer Lane, Stockton,CA 95210, (209) 473-9877 ","street_number":"646","street_name":"W Hammer Ln","zip":null,"city":"Stockton","area":null,"county":"San Joaquin County","state":"CA","country":"USA","formatted_address":"646 W Hammer Ln, Stockton, CA, USA","place_id":"openaddresses:address:us\/ca\/san_joaquin:22549fa6f217dfcd","datatype":"openaddresses"},{"latitude":"37.366886","longitude":"-122.031526","name":"Toys\"R\"Us\/Babies\"R\"Us-Sunnyvale,CA","address":"130 East El Camino Real, Sunnyvale,CA 94087, (408) 732-0331","street_number":"122","street_name":"East El Camino Real","zip":"94087","city":"Sunnyvale","area":null,"county":"Santa Clara County","state":"CA","country":"USA","formatted_address":"122 East El Camino Real, Sunnyvale, CA, USA","place_id":"openstreetmap:address:node:2686080325","datatype":"openstreetmap"},{"latitude":"34.181493","longitude":"-118.876173","name":"Toys\"R\"Us-Thousand Oaks,CA","address":"179 N Moorpark Rd, Thousand Oaks,CA 91360, (805) 496-4981","street_number":"125","street_name":"N Moorpark Rd","zip":"91360","city":"Thousand Oaks","area":null,"county":"Ventura County","state":"CA","country":"USA","formatted_address":"125 N Moorpark Rd, Thousand Oaks, CA, USA","place_id":"openaddresses:address:us\/ca\/ventura:d4e9f86cff518591","datatype":"openaddresses"},{"latitude":"33.849499","longitude":"-118.353504","name":"Babies\"R\"Us-Torrance,CA","address":"20120 Hawthorne Blvd, Torrance,CA 90503, (310) 370-0338","street_number":"-1","street_name":"Hawthorne Blvd","zip":"90503","city":"Torrance","area":null,"county":"Los Angeles County","state":"CA","country":"USA","formatted_address":"-1 Hawthorne Blvd, Torrance, CA, USA","place_id":"openaddresses:address:us\/ca\/los_angeles:9d778ce29d2dc4bb","datatype":"openaddresses"},{"latitude":"33.827189","longitude":"-118.352161","name":"Toys\"R\"Us-Torrance,CA","address":"22035 Hawthorne Blvd, Torrance,CA 90503, (310) 540-2727","street_number":"22035","street_name":"Highway 107","zip":"90503","city":"Torrance","area":null,"county":"Los Angeles County","state":"CA","country":"USA","formatted_address":"22035 Highway 107, Torrance, CA, USA","place_id":"openaddresses:address:us\/ca\/los_angeles:61bf32be567281b3","datatype":"openaddresses"},{"latitude":"37.602028","longitude":"-122.065353","name":"Babies\"R\"Us-Union City,CA","address":"31250 Court House Dr, Union City,CA 94587, (510) 471-0382","street_number":"31200","street_name":"Union Landing Boulevard","zip":"94587","city":"Union City","area":null,"county":"Alameda County","state":"CA","country":"USA","formatted_address":"31200 Union Landing Boulevard, Union City, CA, USA","place_id":"openstreetmap:address:node:1040645050","datatype":"openstreetmap"},{"latitude":"34.1326647","longitude":"-117.6293432","name":"Toys\"R\"Us\/Babies\"R\"Us-Upland,CA","address":"1295 East 19th St, Upland,CA 91784, (909) 981-2081","street_number":"1449","street_name":"Pluma St","zip":"91784","city":"Upland","area":null,"county":"San Bernardino County","state":"CA","country":"USA","formatted_address":"1449 Pluma St, Upland, CA, USA","place_id":"openaddresses:address:us\/ca\/san_bernardino:eb864eb4d0dfe3e1","datatype":"openaddresses"},{"latitude":"38.131633","longitude":"-122.216613","name":"Toys\"R\"Us\/Babies\"R\"Us-Vallejo,CA","address":"105 Plaza Dr, Vallejo,CA 94591, (707) 557-5552","street_number":"105","street_name":"Plaza Drive","zip":"94591","city":"Vallejo","area":null,"county":"Solano County","state":"CA","country":"USA","formatted_address":"105 Plaza Drive, Vallejo, CA, USA","place_id":"openaddresses:address:us\/ca\/solano:eaa7c8bac6098336","datatype":"openaddresses"},{"latitude":"34.200957","longitude":"-118.482637","name":"Toys\"R\"Us-Van Nuys,CA","address":"16040 Sherman Way, Van Nuys,CA 91406, (818) 780-5115","street_number":"16036","street_name":"Sherman Wy","zip":"91406","city":"Los Angeles","area":null,"county":"Los Angeles County","state":"CA","country":"USA","formatted_address":"16036 Sherman Wy, Los Angeles, CA, USA","place_id":"openaddresses:address:us\/ca\/los_angeles:1c855d4d652e8f99","datatype":"openaddresses"},{"latitude":"34.213964","longitude":"-118.448644","name":"Babies\"R\"Us-Van Nuys,CA","address":"7886 N Van Nuys Blvd, Van Nuys,CA 91402, (818) 994-2006","street_number":"7864","street_name":"Van Nuys Blvd","zip":"91402","city":"Los Angeles","area":null,"county":"Los Angeles County","state":"CA","country":"USA","formatted_address":"7864 Van Nuys Blvd, Los Angeles, CA, USA","place_id":"openaddresses:address:us\/ca\/los_angeles:e61453fc0023e2ea","datatype":"openaddresses"},{"latitude":"34.247492","longitude":"-119.19573","name":"Toys\"R\"Us-Ventura,CA","address":"2975 Johnson Dr, Ventura,CA 93004, (805) 642-3764","street_number":"2897","street_name":"Johnson Dr","zip":"93003","city":"San Buenaventura (Ventura)","area":null,"county":"Ventura County","state":"CA","country":"USA","formatted_address":"2897 Johnson Dr, San Buenaventura (Ventura), CA, USA","place_id":"openaddresses:address:us\/ca\/ventura:1262ca9ca3940e8d","datatype":"openaddresses"},{"latitude":"34.475805","longitude":"-117.342657","name":"Toys\"R\"Us\/Babies\"R\"Us-Victorville,CA","address":"12450 Amargosa Rd, Victorville,CA 92392, (760) 951-2955","street_number":"12400","street_name":"Amargosa Rd","zip":"92392","city":"Victorville","area":null,"county":"San Bernardino County","state":"CA","country":"USA","formatted_address":"12400 Amargosa Rd, Victorville, CA, USA","place_id":"openaddresses:address:us\/ca\/san_bernardino:8fa5e1d7a909fd49","datatype":"openaddresses"},{"latitude":"36.3057","longitude":"-119.313606","name":"Toys\"R\"Us-Visalia,CA","address":"2800 S Mooney Boulevard, Visalia,CA 93277, (559) 635-8697 ","street_number":"2736","street_name":"S Mooney Blvd","zip":"93277","city":"Visalia","area":null,"county":"Tulare County","state":"CA","country":"USA","formatted_address":"2736 S Mooney Blvd, Visalia, CA, USA","place_id":"openaddresses:address:us\/ca\/tulare:4efaff07156afcbf","datatype":"openaddresses"},{"latitude":"33.170664","longitude":"-117.22011","name":"Babies\"R\"Us-Vista,CA","address":"1990 University Dr, Vista,CA 92083, (760) 732-3235","street_number":"1980","street_name":"University Drive","zip":"92083","city":"Vista","area":null,"county":"San Diego County","state":"CA","country":"USA","formatted_address":"1980 University Drive, Vista, CA, USA","place_id":"openstreetmap:address:node:596047257","datatype":"openstreetmap"},{"latitude":"34.070771","longitude":"-117.924053","name":"Toys\"R\"Us\/Babies\"R\"Us-West Covina,CA","address":"960 Lakes Dr, West Covina,CA 91790, (626) 917-3038","street_number":"1000","street_name":"Lakes Drive","zip":"91790","city":"West Covina","area":null,"county":"Los Angeles County","state":"CA","country":"USA","formatted_address":"1000 Lakes Drive, West Covina, CA, USA","place_id":"openstreetmap:address:node:4284743090","datatype":"openstreetmap"},{"latitude":"33.748984","longitude":"-118.014649","name":"Babies\"R\"Us-Westminster,CA","address":"530 Westminster Mall, Westminster,CA 92683, (714) 653-7031","street_number":"530","street_name":"Westminster Mall","zip":null,"city":"Westminster","area":null,"county":"Orange County","state":"CA","country":"USA","formatted_address":"530 Westminster Mall, Westminster, CA, USA","place_id":"openaddresses:address:us\/ca\/orange:e7b1de565d50b06b","datatype":"openaddresses"},{"latitude":"34.184301","longitude":"-118.606049","name":"Toys\"R\"Us-Woodland Hills,CA","address":"6245 Topanga Canyon Blvd, Woodland Hills,CA 91367, (818) 346-9751","street_number":"6255","street_name":"State Route 27","zip":"91367","city":"Los Angeles","area":null,"county":"Los Angeles County","state":"CA","country":"USA","formatted_address":"6255 State Route 27, Los Angeles, CA, USA","place_id":"openaddresses:address:us\/ca\/los_angeles:fef27855970d239d","datatype":"openaddresses"},{"latitude":"39.132777","longitude":"-121.635668","name":"Toys\"R\"Us-Yuba City,CA","address":"700 A Onstott Road, Yuba City,CA 95993, (530) 671-2290","street_number":"1301","street_name":"Bridge St","zip":null,"city":"Yuba City","area":null,"county":"Sutter County","state":"CA","country":"USA","formatted_address":"1301 Bridge St, Yuba City, CA, USA","place_id":"openaddresses:address:us\/ca\/sutter:d3678afd14a38a56","datatype":"openaddresses"},{"latitude":"39.7348773","longitude":"-105.1594739","name":"Toys\"R\"Us-Applewood,CO","address":"14500 W Colfax Ave [Colorado Mills], Applewood,CO 80401, (303) 278-0093","street_number":"14255","street_name":"Colfax Drive","zip":"80401","city":"Lakewood","area":null,"county":"Jefferson County","state":"CO","country":"USA","formatted_address":"14255 Colfax Drive, Lakewood, CO, USA","place_id":"openstreetmap:address:node:659540284","datatype":"openstreetmap"},{"latitude":"39.6956983","longitude":"-104.863248","name":"Toys\"R\"Us\/Babies\"R\"Us-Aurora,CO","address":"1150 S Ironton, Aurora,CO 80012, (303) 751-7425","street_number":"1150-#110","street_name":"South Ironton Street","zip":"80012","city":"Aurora","area":null,"county":"Arapahoe County","state":"CO","country":"USA","formatted_address":"1150-#110 South Ironton Street, Aurora, CO, USA","place_id":"openstreetmap:address:way:286004313","datatype":"openstreetmap"},{"latitude":"38.840748","longitude":"-104.76258","name":"Babies\"R\"Us-Colorado Springs,CO","address":"3555 Citadel Drive South, Colorado Springs,CO 80909, (719) 574-7737","street_number":"3555","street_name":"S Citadel Dr","zip":null,"city":"Colorado Springs","area":null,"county":"El Paso County","state":"CO","country":"USA","formatted_address":"3555 S Citadel Dr, Colorado Springs, CO, USA","place_id":"openaddresses:address:us\/co\/el_paso:c393968b018b3c2c","datatype":"openaddresses"},{"latitude":"38.845858","longitude":"-104.75888","name":"Toys\"R\"Us\/Babies\"R\"Us-Colorado Springs,CO","address":"3730 N Citadel Dr, Colorado Springs,CO 80909, (719) 597-8697","street_number":"3730","street_name":"N Citadel Dr","zip":null,"city":"Colorado Springs","area":null,"county":"El Paso County","state":"CO","country":"USA","formatted_address":"3730 N Citadel Dr, Colorado Springs, CO, USA","place_id":"openaddresses:address:us\/co\/el_paso:b396b291b4203a07","datatype":"openaddresses"},{"latitude":"39.566208","longitude":"-104.878846","name":"Toys\"R\"Us-Englewood,CO","address":"9505 E County Line Rd, Englewood,CO 80112, (303) 790-8697","street_number":"8315","street_name":"Chester Street","zip":"80124","city":"Lone Tree","area":null,"county":"Douglas County","state":"CO","country":"USA","formatted_address":"8315 Chester Street, Lone Tree, CO, USA","place_id":"openaddresses:address:us\/co\/statewide:be97434c4370e0bf","datatype":"openaddresses"},{"latitude":"40.527786","longitude":"-105.026609","name":"Toys\"R\"Us\/Babies\"R\"Us-Fort Collins,CO","address":"4250 Corbett Dr, Fort Collins,CO 80525, (970) 223-1020","street_number":"4214","street_name":"Corbett Dr","zip":"80525","city":"Fort Collins","area":null,"county":"Larimer County","state":"CO","country":"USA","formatted_address":"4214 Corbett Dr, Fort Collins, CO, USA","place_id":"openaddresses:address:us\/co\/city_of_fort_collins:63404010b277fe90","datatype":"openaddresses"},{"latitude":"39.560729","longitude":"-104.906118","name":"Babies\"R\"Us-Highlands Ranch,CO","address":"7155 Business Center Dr, Highlands Ranch,CO 80130, (303) 346-6266","street_number":"7155","street_name":"Business Center Drive","zip":"80130","city":"Highlands Ranch","area":null,"county":"Douglas County","state":"CO","country":"USA","formatted_address":"7155 Business Center Drive, Highlands Ranch, CO, USA","place_id":"openaddresses:address:us\/co\/statewide:dc0ba1f93cfdd9cd","datatype":"openaddresses"},{"latitude":"39.622914","longitude":"-105.090889","name":"Toys\"R\"Us\/Babies\"R\"Us-Littleton,CO","address":"5142 South Wadsworth, Littleton,CO 80123, (303) 932-2229","street_number":"5155","street_name":"South Wadsworth Boulevard","zip":"80123","city":"Lakewood","area":null,"county":"Jefferson County","state":"CO","country":"USA","formatted_address":"5155 South Wadsworth Boulevard, Lakewood, CO, USA","place_id":"openstreetmap:address:way:281406282","datatype":"openstreetmap"},{"latitude":"39.995305","longitude":"-104.978173","name":"Toys\"R\"Us\/Babies\"R\"Us-Thornton,CO","address":"16511 N Washington St, Thornton,CO 80023, (303) 451-1284","street_number":"16507","street_name":"Washington Street","zip":"80023","city":"Thornton","area":null,"county":"Adams County","state":"CO","country":"USA","formatted_address":"16507 Washington Street, Thornton, CO, USA","place_id":"openaddresses:address:us\/co\/statewide:b504f1ea2ae49d80","datatype":"openaddresses"},{"latitude":"39.856195","longitude":"-105.049941","name":"Toys\"R\"Us-Westminster,CO","address":"5650 W 88th Ave, Westminster,CO 80030, (303) 426-8697","street_number":"8791","street_name":"Wolff Court","zip":"80031","city":"Westminster","area":null,"county":"Adams County","state":"CO","country":"USA","formatted_address":"8791 Wolff Court, Westminster, CO, USA","place_id":"openaddresses:address:us\/co\/statewide:935ff80ba6d88696","datatype":"openaddresses"},{"latitude":"39.866299","longitude":"-105.052867","name":"Babies\"R\"Us-Westminster,CO","address":"9330 Sheridan Blvd, Westminster,CO 80030, (303) 650-2229","street_number":"9310","street_name":"Sheridan Boulevard","zip":"80030","city":"Westminster","area":null,"county":"Adams County","state":"CO","country":"USA","formatted_address":"9310 Sheridan Boulevard, Westminster, CO, USA","place_id":"openstreetmap:address:way:230750270","datatype":"openstreetmap"},{"latitude":"41.375064","longitude":"-73.487557","name":"Toys\"R\"Us-Danbury,CT","address":"19 Backus Avenue, Danbury,CT 06810, (203) 778-9913","street_number":"40","street_name":"Backus Ave","zip":"06810","city":"Danbury","area":null,"county":"Fairfield County","state":"CT","country":"USA","formatted_address":"40 Backus Ave, Danbury, CT, USA","place_id":"openaddresses:address:us\/ct\/statewide:7d3504615ef5eb9a","datatype":"openaddresses"},{"latitude":"41.375067","longitude":"-73.48756","name":"Babies\"R\"Us-Danbury,CT","address":"19 Backus Avenue, Danbury,CT 06810, (203) 790-8898","street_number":"40","street_name":"Backus Ave","zip":"06810","city":"Danbury","area":null,"county":"Fairfield County","state":"CT","country":"USA","formatted_address":"40 Backus Ave, Danbury, CT, USA","place_id":"openaddresses:address:us\/ct\/statewide:7d3504615ef5eb9a","datatype":"openaddresses"},{"latitude":"41.3786034","longitude":"-73.4770862","name":"Toys\"R\"Us-Danbury,CT","address":"7 Backus Ave [Danbury Mall], Danbury,CT 06810, (203) 730-0473","street_number":"5","street_name":"Sugar Hollow Rd","zip":"06810","city":"Danbury","area":null,"county":"Fairfield County","state":"CT","country":"USA","formatted_address":"5 Sugar Hollow Rd, Danbury, CT, USA","place_id":"openaddresses:address:us\/ct\/statewide:9a3e868a451cd9a7","datatype":"openaddresses"},{"latitude":"41.80454","longitude":"-72.560865","name":"Toys\"R\"Us-Manchester,CT","address":"1460 Pleasant Valley Rd, Manchester,CT 06040, (860) 644-7606","street_number":"1442A","street_name":"Pleasant Valley Rd","zip":"06042","city":null,"area":null,"county":"Hartford County","state":"CT","country":"USA","formatted_address":"1442A Pleasant Valley Rd, Manchester, CT, USA","place_id":"openaddresses:address:us\/ct\/city_of_manchester:f24b914d70043362","datatype":"openaddresses"},{"latitude":"41.811266","longitude":"-72.530855","name":"Babies\"R\"Us-Manchester,CT","address":"169 Hale Road, Manchester,CT 06040, (860) 644-6084","street_number":"147","street_name":"Hale Rd","zip":"06042","city":null,"area":null,"county":"Hartford County","state":"CT","country":"USA","formatted_address":"147 Hale Rd, Manchester, CT, USA","place_id":"openaddresses:address:us\/ct\/statewide:cdca64dd5edfe246","datatype":"openaddresses"},{"latitude":"41.76857","longitude":"-72.520664","name":"Babies\"R\"Us-Milford,CT","address":"1522\/24 Boston Post Rd, Milford,CT 06040, (203) 876-9979","street_number":"983","street_name":"Main St","zip":"06040","city":"Manchester","area":null,"county":"Hartford County","state":"CT","country":"USA","formatted_address":"983 Main St, Manchester, CT, USA","place_id":"openaddresses:address:us\/ct\/statewide:c1ca9ce4977ab579","datatype":"openaddresses"},{"latitude":"41.234796","longitude":"-73.02726","name":"Toys\"R\"Us-Milford,CT","address":"330 Oldgate Lane, Milford,CT 06460, (203) 874-0750","street_number":"322","street_name":"Old Gate Ln","zip":"06460","city":"Milford","area":null,"county":"New Haven County","state":"CT","country":"USA","formatted_address":"322 Old Gate Ln, Milford, CT, USA","place_id":"openaddresses:address:us\/ct\/statewide:e775f0a42c43ac39","datatype":"openaddresses"},{"latitude":"41.651944","longitude":"-72.727888","name":"Toys\"R\"Us-Newington,CT","address":"3491 Berlin Turnpike, Newington,CT 06111, (860) 667-3434","street_number":"3455","street_name":"Berlin Tpke","zip":"06111","city":"Newington","area":null,"county":"Hartford County","state":"CT","country":"USA","formatted_address":"3455 Berlin Tpke, Newington, CT, USA","place_id":"openaddresses:address:us\/ct\/statewide:e1288ea81ab6c975","datatype":"openaddresses"},{"latitude":"41.356506","longitude":"-72.872061","name":"Toys\"R\"Us\/Babies\"R\"Us-North Haven,CT","address":"376 Universal Drive N, North Haven,CT 06473, (203) 407-8697","street_number":"411","street_name":"Universal Dr N","zip":"06473","city":"North Haven","area":null,"county":"New Haven County","state":"CT","country":"USA","formatted_address":"411 Universal Dr N, North Haven, CT, USA","place_id":"openaddresses:address:us\/ct\/statewide:df0dca9836a3e183","datatype":"openaddresses"},{"latitude":"41.107495","longitude":"-73.42201","name":"Toys\"R\"Us\/Babies\"R\"Us-Norwalk,CT","address":"59 Connecticut Ave, Norwalk,CT 06851, (203)852-6988","street_number":"54","street_name":"Connecticut Ave","zip":"06850","city":"Norwalk","area":null,"county":"Fairfield County","state":"CT","country":"USA","formatted_address":"54 Connecticut Ave, Norwalk, CT, USA","place_id":"openaddresses:address:us\/ct\/statewide:abb866615fd62f57","datatype":"openaddresses"},{"latitude":"41.552048","longitude":"-73.03259","name":"Toys\"R\"Us\/Babies\"R\"Us-Waterbury,CT","address":"275 Union St, Waterbury,CT 06706, (203) 574-4457","street_number":"235","street_name":"Union St","zip":"06706","city":"Waterbury","area":null,"county":"New Haven County","state":"CT","country":"USA","formatted_address":"235 Union St, Waterbury, CT, USA","place_id":"openaddresses:address:us\/ct\/statewide:157208534cf21422","datatype":"openaddresses"},{"latitude":"41.37251","longitude":"-72.136135","name":"Toys\"R\"Us-Waterford,CT","address":"5 Dayton Road, Waterford,CT 06385, (860) 443-6637","street_number":null,"street_name":null,"zip":null,"city":null,"area":null,"county":null,"state":null,"country":null,"formatted_address":null,"place_id":null,"datatype":null},{"latitude":"41.381833","longitude":"-72.153464","name":"Babies\"R\"Us-Waterford,CT","address":"915 Hartford Tpke, Waterford,CT 06385, (860) 447-4589","street_number":null,"street_name":null,"zip":null,"city":null,"area":null,"county":null,"state":null,"country":null,"formatted_address":null,"place_id":null,"datatype":null},{"latitude":"41.72444","longitude":"-72.760061","name":"Toys\"R\"Us-West Hartford,CT","address":"1471 New Britain Ave, West Hartford,CT 06110, (860) 521-4880","street_number":"1479","street_name":"New Britain Ave","zip":"06110","city":"West Hartford","area":null,"county":"Hartford County","state":"CT","country":"USA","formatted_address":"1479 New Britain Ave, West Hartford, CT, USA","place_id":"openaddresses:address:us\/ct\/statewide:a14a1b8e7479d490","datatype":"openaddresses"},{"latitude":"41.719773","longitude":"-72.761531","name":"Babies\"R\"Us-West Hartford,CT","address":"1559 New Britain Avenue, West Hartford,CT 06110, (860) 561-0329","street_number":"21","street_name":"Glenn Ln","zip":"06110","city":"West Hartford","area":null,"county":"Hartford County","state":"CT","country":"USA","formatted_address":"21 Glenn Ln, West Hartford, CT, USA","place_id":"openaddresses:address:us\/ct\/statewide:ea80157971d51c80","datatype":"openaddresses"},{"latitude":"39.185728","longitude":"-75.53526","name":"Toys\"R\"Us-Dover,DE","address":"1061 N Dupont Hwy, Dover,DE 19901, (302) 736-3343","street_number":"1001","street_name":"N Dupont Hwy","zip":"19901","city":"Dover","area":null,"county":"Kent County","state":"DE","country":"USA","formatted_address":"1001 N Dupont Hwy, Dover, DE, USA","place_id":"openaddresses:address:us\/de\/kent:0bbd97107a0c5f9c","datatype":"openaddresses"},{"latitude":"39.68745","longitude":"-75.652905","name":"Toys\"R\"Us-Newark,DE","address":"10 Geoffrey Dr, Newark,DE 19702, (302) 731-4566","street_number":"51","street_name":"Geoffrey Dr","zip":"19713","city":null,"area":null,"county":"New Castle County","state":"DE","country":"USA","formatted_address":"51 Geoffrey Dr, New Castle County, DE, USA","place_id":"openaddresses:address:us\/de\/new_castle:255e3c8444a11787","datatype":"openaddresses"},{"latitude":"39.691248","longitude":"-75.665225","name":"Babies\"R\"Us-Newark,DE","address":"1317 New Churchmans Rd, Newark,DE 19713, (302) 266-8194","street_number":"1327","street_name":"Churchmans Rd","zip":"19713","city":null,"area":null,"county":"New Castle County","state":"DE","country":"USA","formatted_address":"1327 Churchmans Rd, New Castle County, DE, USA","place_id":"openaddresses:address:us\/de\/new_castle:0b142ec7d21f1f9b","datatype":"openaddresses"},{"latitude":"28.662851","longitude":"-81.38005","name":"Toys\"R\"Us-Altamonte Springs,FL","address":"350 E Altamonte Dr, Altamonte Springs,FL 32701, (407) 834-7300","street_number":"350","street_name":"E Altamonte Dr","zip":"32701.0","city":"Altamonte Springs","area":null,"county":"Seminole County","state":"FL","country":"USA","formatted_address":"350 E Altamonte Dr, Altamonte Springs, FL, USA","place_id":"openaddresses:address:us\/fl\/seminole:62bfe8aa94618ddc","datatype":"openaddresses"},{"latitude":"28.662721","longitude":"-81.410913","name":"Babies\"R\"Us-Altamonte Springs,FL","address":"708 W SR 436, Altamonte Springs,FL 32714, (407) 772-9190","street_number":"700","street_name":"W Sr 436","zip":"32714.0","city":null,"area":null,"county":"Seminole County","state":"FL","country":"USA","formatted_address":"700 W Sr 436, Seminole County, FL, USA","place_id":"openaddresses:address:us\/fl\/seminole:d2849a768df670d3","datatype":"openaddresses"},{"latitude":"25.954141","longitude":"-80.145729","name":"Babies\"R\"Us-Aventura,FL","address":"2745 NE 193rd St, Aventura,FL 33180, (305) 705-9893","street_number":"19275","street_name":"Biscayne Boulevard Aventura","zip":"33180","city":"Aventura","area":null,"county":"Miami-Dade County","state":"FL","country":"USA","formatted_address":"19275 Biscayne Boulevard Aventura, Aventura, FL, USA","place_id":"openstreetmap:address:node:3585015593","datatype":"openstreetmap"},{"latitude":"25.9540529","longitude":"-80.1456841","name":"Toys\"R\"Us-Aventura,FL","address":"2747 NE 193rd St [Tru Aventura], Aventura,FL 33180, (305) 682-8986","street_number":"19275","street_name":"Biscayne Boulevard Aventura","zip":"33180","city":"Aventura","area":null,"county":"Miami-Dade County","state":"FL","country":"USA","formatted_address":"19275 Biscayne Boulevard Aventura, Aventura, FL, USA","place_id":"openstreetmap:address:node:3585015593","datatype":"openstreetmap"},{"latitude":"26.353571","longitude":"-80.203568","name":"Babies\"R\"Us-Boca Raton,FL","address":"21697 SR 7, Boca Raton,FL 33428, (561) 477-3337","street_number":"21669","street_name":"S State Road 7","zip":"33428","city":null,"area":null,"county":"Palm Beach County","state":"FL","country":"USA","formatted_address":"21669 S State Road 7, Palm Beach County, FL, USA","place_id":"openaddresses:address:us\/fl\/palm_beach_county:66dd08bc011bb7d3","datatype":"openaddresses"},{"latitude":"26.533962","longitude":"-80.090842","name":"Toys\"R\"Us-Boynton Beach,FL","address":"601 N Congress Ave, Boynton Beach,FL 33435, (561) 369-1559","street_number":"555","street_name":"N Congress Ave","zip":"33426","city":"Boynton Beach","area":null,"county":"Palm Beach County","state":"FL","country":"USA","formatted_address":"555 N Congress Ave, Boynton Beach, FL, USA","place_id":"openaddresses:address:us\/fl\/palm_beach_county:b0b4423b33bc1bee","datatype":"openaddresses"},{"latitude":"27.462553","longitude":"-82.56735","name":"Toys\"R\"Us-Bradenton,FL","address":"512 Cortez Rd W, Bradenton,FL 34207, (941) 753-6151","street_number":"505","street_name":"W Cortez Rd","zip":"34207","city":"South Bradenton","area":null,"county":"Manatee County","state":"FL","country":"USA","formatted_address":"505 W Cortez Rd, South Bradenton, FL, USA","place_id":"openaddresses:address:us\/fl\/_loveland:4ea42808cddb4abf","datatype":"openaddresses"},{"latitude":"27.966021","longitude":"-82.729418","name":"Babies\"R\"Us-Clearwater,FL","address":"21315 US 19 North, Clearwater,FL 33765, (727) 726-6333","street_number":"21315","street_name":"Us Highway 19 N","zip":"33765","city":"Clearwater","area":null,"county":"Pinellas County","state":"FL","country":"USA","formatted_address":"21315 Us Highway 19 N, Clearwater, FL, USA","place_id":"openaddresses:address:us\/fl\/pinellas:8379721030da17b8","datatype":"openaddresses"},{"latitude":"28.010625","longitude":"-82.733216","name":"Toys\"R\"Us-Clearwater,FL","address":"26286 Us 19N, Clearwater,FL 33761, (727) 797-5222","street_number":"26210","street_name":"Us Highway 19 N","zip":"33761","city":"Clearwater","area":null,"county":"Pinellas County","state":"FL","country":"USA","formatted_address":"26210 Us Highway 19 N, Clearwater, FL, USA","place_id":"openaddresses:address:us\/fl\/pinellas:c04f2dcf1ce9be3c","datatype":"openaddresses"},{"latitude":"26.274327","longitude":"-80.204835","name":"Toys\"R\"Us\/Babies\"R\"Us-Coral Springs,FL","address":"6001 West Sample Rd, Coral Springs,FL 33067, (954) 341-2583","street_number":"6166","street_name":"W Sample Rd","zip":"33067","city":"Coral Springs","area":null,"county":"Broward County","state":"FL","country":"USA","formatted_address":"6166 W Sample Rd, Coral Springs, FL, USA","place_id":"openaddresses:address:us\/fl\/broward:7c2e142e685c4a0d","datatype":"openaddresses"},{"latitude":"25.586209","longitude":"-80.362188","name":"Toys\"R\"Us\/Babies\"R\"Us-Cutler Bay,FL","address":"19525 South Dixie Hwy, Cutler Bay,FL 33157, (305) 233-6122","street_number":"19525","street_name":"South Dixie Highway","zip":"33157","city":"Cutler Bay","area":null,"county":"Miami-Dade County","state":"FL","country":"USA","formatted_address":"19525 South Dixie Highway, Cutler Bay, FL, USA","place_id":"openstreetmap:address:way:435540598","datatype":"openstreetmap"},{"latitude":"29.181008","longitude":"-81.079403","name":"Toys\"R\"Us\/Babies\"R\"Us-Daytona Beach,FL","address":"2455 W International Speedway Blvd, Daytona Beach,FL 32114, (386) 255-9828","street_number":"2453","street_name":"W Intl Speedway Blvd","zip":"32114","city":"Daytona Beach","area":null,"county":"Volusia County","state":"FL","country":"USA","formatted_address":"2453 W Intl Speedway Blvd, Daytona Beach, FL, USA","place_id":"openaddresses:address:us\/fl\/volusia:3222751eac5963c7","datatype":"openaddresses"},{"latitude":"26.483815","longitude":"-81.788164","name":"Babies\"R\"Us-Fort Myers,FL","address":"10002 Gulf Center Dr, Fort Myers,FL 33913, (239) 433-6837","street_number":"10002","street_name":"Gulf Center Drive","zip":"Fort Myers, FL  33913","city":null,"area":null,"county":"Lee County","state":"FL","country":"USA","formatted_address":"10002 Gulf Center Drive, Lee County, FL, USA","place_id":"openstreetmap:address:way:165614223","datatype":"openstreetmap"},{"latitude":"26.587673","longitude":"-81.871648","name":"Toys\"R\"Us-Fort Myers,FL","address":"4983 S Cleveland Ave, Fort Myers,FL 33907, (239) 275-7409","street_number":"5030","street_name":"S Cleveland Ave","zip":"33907","city":"Fort Myers","area":null,"county":"Lee County","state":"FL","country":"USA","formatted_address":"5030 S Cleveland Ave, Fort Myers, FL, USA","place_id":"openaddresses:address:us\/fl\/lee:059d9d8b5e0b3ccb","datatype":"openaddresses"},{"latitude":"29.659442","longitude":"-82.414903","name":"Toys\"R\"Us-Gainesville,FL","address":"6711 W Newberry Rd, Gainesville,FL 32605, (352) 331-7778","street_number":"6815","street_name":"W Newberry Rd","zip":"32605","city":"Gainesville","area":null,"county":"Alachua County","state":"FL","country":"USA","formatted_address":"6815 W Newberry Rd, Gainesville, FL, USA","place_id":"openaddresses:address:us\/fl\/alachua:aa6eb80cdc1c6148","datatype":"openaddresses"},{"latitude":"25.86651","longitude":"-80.293139","name":"Toys\"R\"Us-Hialeah,FL","address":"500 W 49th St, Hialeah,FL 33012, (305) 557-6704","street_number":"611","street_name":"West 49th Street","zip":"33012","city":"Hialeah","area":null,"county":"Miami-Dade County","state":"FL","country":"USA","formatted_address":"611 West 49th Street, Hialeah, FL, USA","place_id":"openstreetmap:address:way:435884435","datatype":"openstreetmap"},{"latitude":"30.254613","longitude":"-81.535056","name":"Toys\"R\"Us\/Babies\"R\"Us-Jacksonville,FL","address":"4875 Town Center Pkwy, Jacksonville,FL 32246, (904) 997-6291","street_number":"4897","street_name":"Town Center Pkwy","zip":"32246","city":"Jacksonville","area":null,"county":"Duval County","state":"FL","country":"USA","formatted_address":"4897 Town Center Pkwy, Jacksonville, FL, USA","place_id":"openaddresses:address:us\/fl\/duval:f40cec68603ef162","datatype":"openaddresses"},{"latitude":"30.191449","longitude":"-81.741699","name":"Babies\"R\"Us-Jacksonville,FL","address":"6001 Argyle Forest Blvd, Jacksonville,FL 32244, (904) 908-9696","street_number":"6007","street_name":"Argyle Forest Blvd","zip":"32244","city":"Jacksonville","area":null,"county":"Duval County","state":"FL","country":"USA","formatted_address":"6007 Argyle Forest Blvd, Jacksonville, FL, USA","place_id":"openaddresses:address:us\/fl\/duval:1074f000626b712d","datatype":"openaddresses"},{"latitude":"27.248964","longitude":"-80.27467","name":"Toys\"R\"Us\/Babies\"R\"Us-Jensen Beach,FL","address":"3550 NW Federal Hwy, Jensen Beach,FL 34957, (772) 692-1952","street_number":"3554","street_name":"Nw Federal Hwy","zip":"34957","city":null,"area":null,"county":"Martin County","state":"FL","country":"USA","formatted_address":"3554 Nw Federal Hwy, Martin County, FL, USA","place_id":"openaddresses:address:us\/fl\/statewide:c5021bb43899f5f0","datatype":"openaddresses"},{"latitude":"28.342249","longitude":"-81.428396","name":"Babies\"R\"Us-Kissimmee,FL","address":"2601 W Osceola Pkwy, Kissimmee,FL 34741, (407) 846-1433","street_number":"2431","street_name":"W Osceola Pkwy","zip":"34741","city":"Kissimmee","area":null,"county":"Osceola County","state":"FL","country":"USA","formatted_address":"2431 W Osceola Pkwy, Kissimmee, FL, USA","place_id":"openaddresses:address:us\/fl\/osceola:65bda7a4dd654e0a","datatype":"openaddresses"},{"latitude":"26.193579","longitude":"-80.249133","name":"Babies\"R\"Us-Lauderhill,FL","address":"7350 W Commercial Blvd, Lauderhill,FL 33319, (954) 741-4300","street_number":"7346","street_name":"W Commercial Blvd","zip":"33319","city":"Lauderhill","area":null,"county":"Broward County","state":"FL","country":"USA","formatted_address":"7346 W Commercial Blvd, Lauderhill, FL, USA","place_id":"openaddresses:address:us\/fl\/broward:2ce2b654a441de35","datatype":"openaddresses"},{"latitude":"28.1170406","longitude":"-82.7374268","name":"Toys\"R\"Us-Lutz,FL","address":"2398 Grand Cypress Dr [Tampa Premium Outlets], Lutz,FL 33558, (813) 949-7569","street_number":"2617","street_name":"Grand Cypress Blvd","zip":"34684","city":"Palm Harbor","area":null,"county":"Pinellas County","state":"FL","country":"USA","formatted_address":"2617 Grand Cypress Blvd, Palm Harbor, FL, USA","place_id":"openaddresses:address:us\/fl\/pinellas:b6972cb3d6bfda52","datatype":"openaddresses"},{"latitude":"28.078542","longitude":"-80.64233","name":"Toys\"R\"Us-Melbourne,FL","address":"1275 W New Haven Ave, Melbourne,FL 32904, (321) 952-2412","street_number":"1220","street_name":"W New Haven Ave","zip":"32904","city":"West Melbourne","area":null,"county":"Brevard County","state":"FL","country":"USA","formatted_address":"1220 W New Haven Ave, West Melbourne, FL, USA","place_id":"openaddresses:address:us\/fl\/statewide:82c6760ec4536672","datatype":"openaddresses"},{"latitude":"25.7828099","longitude":"-80.3768275","name":"Toys\"R\"Us-Miami,FL","address":"11401 NW 12th St [Dolphin Mall], Miami,FL 33172, (305) 471-0283","street_number":"1030","street_name":"Northwest 111th Avenue","zip":"33172","city":"Sweetwater","area":null,"county":"Miami-Dade County","state":"FL","country":"USA","formatted_address":"1030 Northwest 111th Avenue, Sweetwater, FL, USA","place_id":"openstreetmap:address:way:435390282","datatype":"openstreetmap"},{"latitude":"25.684627","longitude":"-80.444971","name":"Babies\"R\"Us-Miami,FL","address":"15625 North Kendall Dr, Miami,FL 33196, (305) 382-4060","street_number":"15699","street_name":"Southwest 88th Street","zip":"33196","city":"Kendall West","area":null,"county":"Miami-Dade County","state":"FL","country":"USA","formatted_address":"15699 Southwest 88th Street, Kendall West, FL, USA","place_id":"openstreetmap:address:way:435530239","datatype":"openstreetmap"},{"latitude":"25.790059","longitude":"-80.36858","name":"Toys\"R\"Us-Miami,FL","address":"1645 Northwest 107th Ave, Miami,FL 33172, (305) 593-1517","street_number":"1750","street_name":"Northwest 107th Avenue","zip":"33172","city":"Sweetwater","area":null,"county":"Miami-Dade County","state":"FL","country":"USA","formatted_address":"1750 Northwest 107th Avenue, Sweetwater, FL, USA","place_id":"openstreetmap:address:node:4127401999","datatype":"openstreetmap"},{"latitude":"25.750463","longitude":"-80.249671","name":"Toys\"R\"Us-Miami,FL","address":"3301 Coral Way [Miracle Marketplace], Miami,FL 33145, (305) 443-9004","street_number":"3400","street_name":"Southwest 22nd Street","zip":"33145","city":"Miami","area":null,"county":"Miami-Dade County","state":"FL","country":"USA","formatted_address":"3400 Southwest 22nd Street, Miami, FL, USA","place_id":"openstreetmap:address:way:435847075","datatype":"openstreetmap"},{"latitude":"25.693116","longitude":"-80.302834","name":"Toys\"R\"Us-Miami,FL","address":"8325 S Dixie Hwy, Miami,FL 33143, (305) 662-1911","street_number":"8345","street_name":"South Dixie Highway","zip":"33143","city":"Glenvar Heights","area":null,"county":"Miami-Dade County","state":"FL","country":"USA","formatted_address":"8345 South Dixie Highway, Glenvar Heights, FL, USA","place_id":"openstreetmap:address:way:435518583","datatype":"openstreetmap"},{"latitude":"25.747809","longitude":"-80.337044","name":"Babies\"R\"Us-Miami,FL","address":"8755 SW 24th St, Miami,FL 33165, (305) 226-8334","street_number":"8717","street_name":"Southwest 24th Street","zip":"33165","city":"Westchester","area":null,"county":"Miami-Dade County","state":"FL","country":"USA","formatted_address":"8717 Southwest 24th Street, Westchester, FL, USA","place_id":"openstreetmap:address:way:435731355","datatype":"openstreetmap"},{"latitude":"25.686903","longitude":"-80.384263","name":"Toys\"R\"Us-Miami,FL","address":"8789 SW 117th Ave, Miami,FL 33183, (305) 273-9311","street_number":"11800","street_name":"Sherri Lane","zip":"33183","city":"Kendall","area":null,"county":"Miami-Dade County","state":"FL","country":"USA","formatted_address":"11800 Sherri Lane, Kendall, FL, USA","place_id":"openstreetmap:address:way:435532161","datatype":"openstreetmap"},{"latitude":"26.211984","longitude":"-81.768664","name":"Toys\"R\"Us-Naples,FL","address":"5305 Airport Pulling Rd N, Naples,FL 34109, (239) 514-8697","street_number":"2495","street_name":"Pine Ridge Rd","zip":null,"city":null,"area":null,"county":"Collier County","state":"FL","country":"USA","formatted_address":"2495 Pine Ridge Rd, Collier County, FL, USA","place_id":"openaddresses:address:us\/fl\/collier:6ee712f085719f2f","datatype":"openaddresses"},{"latitude":"25.928754","longitude":"-80.189231","name":"Toys\"R\"Us-North Miami Beach,FL","address":"551 NE 167th St, North Miami Beach,FL 33162, (305) 653-8697","street_number":"599","street_name":"Northeast 167th Street","zip":"33162","city":"North Miami Beach","area":null,"county":"Miami-Dade County","state":"FL","country":"USA","formatted_address":"599 Northeast 167th Street, North Miami Beach, FL, USA","place_id":"openstreetmap:address:way:435532048","datatype":"openstreetmap"},{"latitude":"29.164086","longitude":"-82.170758","name":"Toys\"R\"Us\/Babies\"R\"Us-Ocala,FL","address":"2800 SW College Rd, Ocala,FL 34474, (352) 237-4644","street_number":"2811","street_name":"Sw College Rd","zip":"34474","city":"Ocala","area":null,"county":"Marion County","state":"FL","country":"USA","formatted_address":"2811 Sw College Rd, Ocala, FL, USA","place_id":"openaddresses:address:us\/fl\/statewide:ac9a03cead8513a9","datatype":"openaddresses"},{"latitude":"30.186792","longitude":"-81.741376","name":"Toys\"R\"Us-Orange Park,FL","address":"1972 Wells Rd, Orange Park,FL 32073, (904) 276-5492","street_number":"1980","street_name":"Wells Rd","zip":"32073","city":"Bellair-Meadowbrook Terrace","area":null,"county":"Clay County","state":"FL","country":"USA","formatted_address":"1980 Wells Rd, Bellair-Meadowbrook Terrace, FL, USA","place_id":"openaddresses:address:us\/fl\/clay:4f091c92f6153c98","datatype":"openaddresses"},{"latitude":"28.4747245","longitude":"-81.4490727","name":"Toys\"R\"Us-Orlando,FL","address":"4951 International Dr [Orlando Intl Outlets], Orlando,FL 32819, (407) 204-8786","street_number":"4954","street_name":"International Drive","zip":"32819","city":"Orlando","area":null,"county":"Orange County","state":"FL","country":"USA","formatted_address":"4954 International Drive, Orlando, FL, USA","place_id":"openaddresses:address:us\/fl\/orange_county:b0e5df553414d3c0","datatype":"openaddresses"},{"latitude":"28.560553","longitude":"-81.207219","name":"Toys\"R\"Us\/Babies\"R\"Us-Orlando,FL","address":"1250 Alafaya Trail, Orlando,FL 32828, (407) 736-8089","street_number":"1200","street_name":"N Alafaya Trl","zip":"32828","city":"Alafaya","area":null,"county":"Orange County","state":"FL","country":"USA","formatted_address":"1200 N Alafaya Trl, Alafaya, FL, USA","place_id":"openaddresses:address:us\/fl\/_loveland:67442a451f604a62","datatype":"openaddresses"},