[{"name":"Uno's Pizzeria and Grill","code":null,"latitude":44.8271975,"longitude":-68.7518979,"address":"725 Stillwater Ave, Bangor ME","chain_name":null,"distance":0,"street_number":"320","street_name":"Bangor Mall Boulevard","zip":"04401","city":"Bangor","area":null,"county":"Penobscot County","state":"Maine","country":"us","formatted_address":"Oriental Jade, 320, Bangor Mall Boulevard, Bangor, Penobscot County, Maine, 04401, United States of America","place_id":"91562988","datatype":"locationiq"},{"name":"Uno's Pizzeria and Grill","code":null,"latitude":42.2217222,"longitude":-71.0220568,"address":"250 Granite Street, Braintree MA","chain_name":null,"distance":0,"street_number":null,"street_name":"South Shore Plaza Road","zip":"02184","city":null,"area":null,"county":"Norfolk County","state":"Massachusetts","country":"us","formatted_address":"South Shore Plaza Road, South Shore Plaza, Braintree, Norfolk County, Massachusetts, 02184, United States of America","place_id":"142702952","datatype":"locationiq"},{"name":"Uno's Pizzeria and Grill","code":null,"latitude":40.134634,"longitude":-75.449111,"address":"106 Black Rock Road, Oaks PA","chain_name":null,"distance":0,"street_number":null,"street_name":"Black Rock Road","zip":"19460","city":"Upper Providence Township","area":null,"county":"Montgomery County","state":"Pennsylvania","country":"us","formatted_address":"UNO Chicago Style Pizza, Black Rock Road, Upper Providence Township, Montgomery County, Pennsylvania, 19460, United States of America","place_id":"150649163","datatype":"locationiq"},{"name":"Uno's Pizzeria and Grill","code":null,"latitude":39.2494194,"longitude":-76.8163498,"address":"4470 Long Gate Parkway, Ellicott City MD","chain_name":null,"distance":0,"street_number":"4470","street_name":"Long Gate Parkway","zip":"21043","city":null,"area":"Autumn Hill","county":"Howard County","state":"Maryland","country":"us","formatted_address":"Uno Chicago Grill, 4470, Long Gate Parkway, Autumn Hill, Dorsey's Search, Ellicott City, Howard County, Maryland, 21043, United States of America","place_id":"100310755","datatype":"locationiq"},{"name":"Uno's Pizzeria and Grill","code":null,"latitude":40.5479817,"longitude":-74.3267569,"address":"61 US Highway #1, Metuchen NJ","chain_name":null,"distance":0,"street_number":null,"street_name":"US 1","zip":"08830","city":"Woodbridge Township","area":null,"county":"Middlesex County","state":"New Jersey","country":"us","formatted_address":"Uno Chicago Grill and Brewery, US 1, Woodbridge Township, Middlesex County, New Jersey, 08830, United States of America","place_id":"112932244","datatype":"locationiq"},{"name":"Uno's Pizzeria and Grill","code":null,"latitude":39.2153947,"longitude":-76.8602836,"address":"10300 Little Patuxent Parkway, Suite 3030, Columbia MD","chain_name":null,"distance":0,"street_number":"10300","street_name":"Little Patuxent Parkway","zip":"21044","city":"Columbia","area":"Talbott Springs","county":"Howard County","state":"Maryland","country":"us","formatted_address":"The Mall in Columbia, 10300, Little Patuxent Parkway, Talbott Springs, Columbia Town Center, Columbia, Howard County, Maryland, 21044, United States of America","place_id":"101765989","datatype":"locationiq"},{"name":"Uno's Pizzeria and Grill","code":null,"latitude":41.6953487,"longitude":-73.8964161,"address":"842 Main Street, Poughkeepsie NY","chain_name":null,"distance":0,"street_number":null,"street_name":"Fairmont Avenue","zip":"12603","city":null,"area":null,"county":"Dutchess County","state":"New York","country":"us","formatted_address":"Uno, Fairmont Avenue, Arlington, Town of Poughkeepsie, Dutchess County, New York, 12603, United States of America","place_id":"2710244","datatype":"locationiq"},{"name":"Uno's Pizzeria and Grill","code":null,"latitude":39.7619111,"longitude":-84.1918682,"address":"126 North Main Street, Dayton OH","chain_name":null,"distance":0,"street_number":null,"street_name":"East 2nd Street","zip":"45402","city":"Dayton","area":"East Second Street Historic District","county":"Montgomery County","state":"Ohio","country":"us","formatted_address":"Fifth Third Center, East 2nd Street, East Second Street Historic District, Dayton, Montgomery County, Ohio, 45402, United States of America","place_id":"103458710","datatype":"locationiq"},{"name":"Uno's Pizzeria and Grill","code":null,"latitude":44.4342658,"longitude":-73.2100689,"address":"1330 Shelburne Road, S. Burlington VT","chain_name":null,"distance":0,"street_number":"7","street_name":"Imperial Drive","zip":"05403","city":"South Burlington","area":null,"county":"Chittenden County","state":"Vermont","country":"us","formatted_address":"7, Imperial Drive, South Burlington, Chittenden County, Vermont, 05403, United States of America","place_id":"207016398","datatype":"locationiq"},{"name":"Uno's Pizzeria and Grill","code":null,"latitude":32.3434379,"longitude":-106.7651895,"address":"2102 Telshor Court, Las Cruces NM","chain_name":null,"distance":0,"street_number":"2102","street_name":"Telshor Court","zip":"88011","city":"Las Cruces","area":null,"county":"Do\u00f1a Ana County","state":"New Mexico","country":"us","formatted_address":"Uno's Chicago Pizzaria, 2102, Telshor Court, Northrise Business Park, Las Cruces, Do\u00f1a Ana County, New Mexico, 88011, United States of America","place_id":"82174956","datatype":"locationiq"},{"name":"Uno's Pizzeria and Grill","code":null,"latitude":42.3818017,"longitude":-71.2648211,"address":"155 Bear Hill Road, Waltham MA","chain_name":null,"distance":0,"street_number":null,"street_name":"Bear Hill Road","zip":"02451","city":null,"area":null,"county":"Middlesex County","state":"Massachusetts","country":"us","formatted_address":"Uno, Bear Hill Road, Waltham, Middlesex County, Massachusetts, 02451, United States of America","place_id":"40637646","datatype":"locationiq"},{"name":"Uno's Pizzeria and Grill","code":null,"latitude":36.8588971,"longitude":-76.2057865,"address":"5900 East Virginia Beach Blvd, Norfolk VA","chain_name":null,"distance":0,"street_number":null,"street_name":"East Virginia Beach Boulevard","zip":"23502","city":"Norfolk","area":"Glen Rock","county":null,"state":"Virginia","country":"us","formatted_address":"East Virginia Beach Boulevard, Glen Rock, Military Circle, Broad Creek, Norfolk, Virginia, 23502, United States of America","place_id":"156378083","datatype":"locationiq"},{"name":"Uno's Pizzeria and Grill","code":null,"latitude":41.8783822,"longitude":-71.0623216,"address":"904 County St., Taunton MA","chain_name":null,"distance":0,"street_number":"818","street_name":"County Street","zip":"02780","city":null,"area":null,"county":"Bristol County","state":"Massachusetts","country":"us","formatted_address":"818, County Street, Taunton, Bristol County, Massachusetts, 02780, United States of America","place_id":"190159760","datatype":"locationiq"},{"name":"Uno's Pizzeria and Grill","code":null,"latitude":40.0746093,"longitude":-83.1394051,"address":"5930 Britton Parkway, Dublin OH","chain_name":null,"distance":0,"street_number":"5930","street_name":"Britton Parkway","zip":"43016","city":"Columbus","area":null,"county":"Franklin County","state":"Ohio","country":"us","formatted_address":"Uno Chicago Grill, 5930, Britton Parkway, Columbus, Franklin County, Ohio, 43016, United States of America","place_id":"128410063","datatype":"locationiq"},{"name":"Uno's Pizzeria and Grill","code":null,"latitude":43.0601823,"longitude":-89.5138753,"address":"7601 Mineral Point Road, Madison WI","chain_name":null,"distance":0,"street_number":null,"street_name":"Mineral Point Road","zip":"53717:53719","city":"Madison","area":null,"county":"Dane County","state":"Wisconsin","country":"us","formatted_address":"Uno's Pizza, Mineral Point Road, High Point Center, Madison, Dane County, Wisconsin, 53717:53719, United States of America","place_id":"80556262","datatype":"locationiq"},{"name":"Uno's Pizzeria and Grill","code":null,"latitude":43.0807173,"longitude":-77.628233,"address":"1000 Hylan Drive, Henrietta NY","chain_name":null,"distance":0,"street_number":"1000","street_name":"Hylan Drive","zip":"14623","city":null,"area":null,"county":"Monroe County","state":"New York","country":"us","formatted_address":"Sushi Palace Restaurant, 1000, Hylan Drive, Ridgeland, Henrietta Town, Monroe County, New York, 14623, United States of America","place_id":"97843015","datatype":"locationiq"},{"name":"Uno's Pizzeria and Grill","code":null,"latitude":39.380722,"longitude":-77.3987733,"address":"5449 Urbana Pike, Frederick MD","chain_name":null,"distance":0,"street_number":"5449","street_name":"Urbana Pike","zip":"21704","city":null,"area":null,"county":"Frederick County","state":"Maryland","country":"us","formatted_address":"Uno Chicago Bar & Grill, 5449, Urbana Pike, Evergreen Point, Frederick County, Maryland, 21704, United States of America","place_id":"106764399","datatype":"locationiq"},{"name":"Uno's Pizzeria and Grill","code":null,"latitude":42.7029414,"longitude":-71.4405465,"address":"304 Daniel Webster Highway, Nashua NH","chain_name":null,"distance":0,"street_number":"304","street_name":"Daniel Webster Highway","zip":"03060","city":"Nashua","area":null,"county":"Hillsborough County","state":"New Hampshire","country":"us","formatted_address":"Uno Chicago Grill, 304, Daniel Webster Highway, South Nashua, Ward 7, Nashua, Hillsborough County, New Hampshire, 03060, United States of America","place_id":"82191025","datatype":"locationiq"},{"name":"Uno's Pizzeria and Grill","code":null,"latitude":42.0952985,"longitude":-76.0092164,"address":"2503 Vestal Parkway E., Vestal NY","chain_name":null,"distance":0,"street_number":"2503","street_name":"Vestal Parkway East","zip":"13850","city":null,"area":null,"county":"Broome County","state":"New York","country":"us","formatted_address":"Uno Pizzeria & Grill, 2503, Vestal Parkway East, Campus Plaza, Vestal, Vestal Town, Broome County, New York, 13850, United States of America","place_id":"119786429","datatype":"locationiq"},{"name":"Uno's Pizzeria and Grill","code":null,"latitude":42.3495939,"longitude":-71.080256,"address":"731 Boylston Street, Boston MA","chain_name":null,"distance":0,"street_number":null,"street_name":"Public Alley 441","zip":"02199","city":"Boston","area":"Chinatown","county":"Suffolk County","state":"Massachusetts","country":"us","formatted_address":"Dunin' Donuts, Public Alley 441, Chinatown, Back Bay, Boston, Suffolk County, Massachusetts, 02199, United States of America","place_id":"56494834","datatype":"locationiq"},{"name":"Uno's Pizzeria and Grill","code":null,"latitude":40.1384398,"longitude":-74.9579914,"address":"801 Neshaminy Mall, Bensalem PA","chain_name":null,"distance":0,"street_number":null,"street_name":"Rockhill Drive","zip":"19053","city":"Bensalem Township","area":null,"county":"Bucks County","state":"Pennsylvania","country":"us","formatted_address":"On The Border, Rockhill Drive, Bensalem Township, Bucks County, Pennsylvania, 19053, United States of America","place_id":"21079873","datatype":"locationiq"},{"name":"Uno's Pizzeria and Grill","code":null,"latitude":28.3319953,"longitude":-81.4977987,"address":"5350 W. Irlo Bronson Memorial Hwy, Kissimmee FL","chain_name":null,"distance":0,"street_number":null,"street_name":"Elese Drive","zip":"33746","city":null,"area":null,"county":"Osceola County","state":"Florida","country":"us","formatted_address":"Uno, Elese Drive, Osceola County, Florida, 33746, United States of America","place_id":"140283130","datatype":"locationiq"},{"name":"Uno's Pizzeria and Grill","code":null,"latitude":43.0692261,"longitude":-76.1740719,"address":"9558 Destiny USA Drive, Syracuse NY","chain_name":null,"distance":0,"street_number":"9090","street_name":"Destiny USA Drive","zip":"13290","city":"Syracuse","area":null,"county":"Onondaga County","state":"New York","country":"us","formatted_address":"Uno Pizzeria & Grill Syracuse #311, 9090, Destiny USA Drive, Destiny USA Mall, Syracuse, Onondaga County, New York, 13290, United States of America","place_id":"47002041","datatype":"locationiq"},{"name":"Uno's Pizzeria and Grill","code":null,"latitude":41.8931229,"longitude":-87.6264408,"address":"619 North Wabash Avenue, Chicago IL","chain_name":null,"distance":0,"street_number":"619","street_name":"North Wabash Avenue","zip":"60611","city":"Chicago","area":"Magnificent Mile","county":"Cook County","state":"Illinois","country":"us","formatted_address":"Pizzeria Due, 619, North Wabash Avenue, Magnificent Mile, Chicago, Cook County, Illinois, 60611, United States of America","place_id":"105219940","datatype":"locationiq"},{"name":"Uno's Pizzeria and Grill","code":null,"latitude":28.5225575,"longitude":-81.587566,"address":"3167 Daniels Road, Winter Garden FL","chain_name":null,"distance":0,"street_number":null,"street_name":"Daniels Road","zip":"34787","city":null,"area":null,"county":"Orange County","state":"Florida","country":"us","formatted_address":"Panda Express, Daniels Road, Winter Garden, Orange County, Florida, 34787, United States of America","place_id":"23150759","datatype":"locationiq"},{"name":"Uno's Pizzeria and Grill","code":null,"latitude":42.1281472,"longitude":-72.0600509,"address":"100 Charlton Road, Sturbridge MA","chain_name":null,"distance":0,"street_number":"100","street_name":"Massachusetts Turnpike","zip":"01566","city":null,"area":null,"county":"Worcester County","state":"Massachusetts","country":"us","formatted_address":"Walmart, 100, Massachusetts Turnpike, Sturbridge, Worcester County, Massachusetts, 01566, United States of America","place_id":"55944319","datatype":"locationiq"},{"name":"Uno's Pizzeria and Grill","code":null,"latitude":43.0915625,"longitude":-75.3149901,"address":"8645 Clinton Street, New Hartford NY","chain_name":null,"distance":0,"street_number":null,"street_name":"Ellenwood Drive","zip":"13492","city":null,"area":null,"county":"Oneida County","state":"New York","country":"us","formatted_address":"Unos, Ellenwood Drive, New Hartford, Town of New Hartford, Oneida County, New York, 13492, United States of America","place_id":"49318492","datatype":"locationiq"},{"name":"Uno's Pizzeria and Grill","code":null,"latitude":42.167247,"longitude":-72.6413271,"address":"50 Holyoke Street, Holyoke MA","chain_name":null,"distance":0,"street_number":null,"street_name":"Mall Drive","zip":"01013","city":null,"area":null,"county":"Hampden County","state":"Massachusetts","country":"us","formatted_address":"Holyoke Mall, Mall Drive, Holyoke, Hampden County, Massachusetts, 01013, United States of America","place_id":"77533491","datatype":"locationiq"},{"name":"Uno's Pizzeria and Grill","code":null,"latitude":44.2577152,"longitude":-88.3523585,"address":"W3254 Van Roy Road, Appleton WI","chain_name":null,"distance":0,"street_number":"W3254","street_name":"Van Roy Road","zip":"54915","city":null,"area":null,"county":"Outagamie County","state":"Wisconsin","country":"us","formatted_address":"Uno Pizzeria & Grill, W3254, Van Roy Road, Town of Buchanan, Outagamie County, Wisconsin, 54915, United States of America","place_id":"40431886","datatype":"locationiq"},{"name":"Uno's Pizzeria and Grill","code":null,"latitude":42.8004935,"longitude":-71.5354327,"address":"593 Amherst Street, Nashua NH","chain_name":null,"distance":0,"street_number":"593","street_name":"Amherst Street","zip":"03063","city":null,"area":null,"county":"Hillsborough County","state":"New Hampshire","country":"us","formatted_address":"Uno Chicago Grill, 593, Amherst Street, Ward 2, Merrimack, Hillsborough County, New Hampshire, 03063, United States of America","place_id":"116463584","datatype":"locationiq"},{"name":"Uno's Pizzeria and Grill","code":null,"latitude":42.0499882,"longitude":-88.044548,"address":"1160 Plaza Drive, Schaumburg IL","chain_name":null,"distance":0,"street_number":"1160","street_name":"North Plaza Drive","zip":"60173","city":null,"area":null,"county":"Cook County","state":"Illinois","country":"us","formatted_address":"Uno Chicago Grill, 1160, North Plaza Drive, Schaumburg, Cook County, Illinois, 60173, United States of America","place_id":"73779005","datatype":"locationiq"},{"name":"Uno's Pizzeria and Grill","code":null,"latitude":43.4789512,"longitude":-83.9622993,"address":"4960 Towne Centre Road, Saginaw MI","chain_name":null,"distance":0,"street_number":"2263","street_name":"Tittabawassee Road","zip":"48604","city":null,"area":null,"county":"Saginaw County","state":"Michigan","country":"us","formatted_address":"2263, Tittabawassee Road, Kochville Township, Saginaw County, Michigan, 48604, United States of America","place_id":"191517627","datatype":"locationiq"},{"name":"Uno's Pizzeria and Grill","code":null,"latitude":42.2670401,"longitude":-71.7985515,"address":"25 Major Taylor Blvd, Worcester MA","chain_name":null,"distance":0,"street_number":null,"street_name":"Major Taylor Boulevard","zip":"01608","city":"Worcester","area":"Green Island","county":"Worcester County","state":"Massachusetts","country":"us","formatted_address":"Hilton Garden Inn Worcester, Major Taylor Boulevard, Green Island, Worcester, Worcester County, Massachusetts, 01608, United States of America","place_id":"87884087","datatype":"locationiq"},{"name":"Uno's Pizzeria and Grill","code":null,"latitude":43.6245656,"longitude":-83.9397803,"address":"2795 E. Wilder Road, Bay City MI","chain_name":null,"distance":0,"street_number":"2795","street_name":"Wilder Road","zip":"48706","city":null,"area":null,"county":"Bay County","state":"Michigan","country":"us","formatted_address":"2795, Wilder Road, Bangor Township, Bay County, Michigan, 48706, United States of America","place_id":"150582050","datatype":"locationiq"},{"name":"Uno's Pizzeria and Grill","code":null,"latitude":42.195447,"longitude":-71.778282,"address":"70 Worcester Providence Highway, Suite 447, Millbury MA","chain_name":null,"distance":0,"street_number":null,"street_name":"Gagliardi Way","zip":"01527","city":null,"area":null,"county":"Worcester County","state":"Massachusetts","country":"us","formatted_address":"Gagliardi Way, Millbury, Worcester County, Massachusetts, 01527, United States of America","place_id":"64733198","datatype":"locationiq"},{"name":"Uno's Pizzeria and Grill","code":null,"latitude":42.1136649,"longitude":-71.4691858,"address":"205 Hartford Avenue, Bellingham MA","chain_name":null,"distance":0,"street_number":"210","street_name":"Hartford Avenue","zip":"02019","city":null,"area":"North Bellingham","county":"Norfolk County","state":"Massachusetts","country":"us","formatted_address":"210, Hartford Avenue, North Bellingham, Bellingham, Norfolk County, Massachusetts, 02019, United States of America","place_id":"190423746","datatype":"locationiq"},{"name":"Uno's Pizzeria and Grill","code":null,"latitude":40.4109576,"longitude":-79.9141568,"address":"205 East Waterfront Drive, Homestead PA","chain_name":null,"distance":0,"street_number":null,"street_name":null,"zip":"15218","city":"Homestead","area":null,"county":"Allegheny County","state":"Pennsylvania","country":"us","formatted_address":"Uno Chicago Grill, Great Allegheny Passage, The Waterfront, Homestead, Allegheny County, Pennsylvania, 15218, United States of America","place_id":"26456253","datatype":"locationiq"},{"name":"Uno's Pizzeria and Grill","code":null,"latitude":41.8922896,"longitude":-87.6269045,"address":"29 East Ohio, Chicago IL","chain_name":null,"distance":0,"street_number":"29","street_name":"East Ohio Street","zip":"60611","city":"Chicago","area":"Magnificent Mile","county":"Cook County","state":"Illinois","country":"us","formatted_address":"Pizzeria Uno, 29, East Ohio Street, Magnificent Mile, Chicago, Cook County, Illinois, 60611, United States of America","place_id":"118244716","datatype":"locationiq"},{"name":"Uno's Pizzeria and Grill","code":null,"latitude":42.0374718,"longitude":-71.3479329,"address":"1048 South Street, Suite 30, Wrentham MA","chain_name":null,"distance":0,"street_number":null,"street_name":"South Street","zip":"02093","city":null,"area":null,"county":"Norfolk County","state":"Massachusetts","country":"us","formatted_address":"Dunkin' Donuts, South Street, Wrentham, Norfolk County, Massachusetts, 02093, United States of America","place_id":"55725428","datatype":"locationiq"},{"name":"Uno's Pizzeria and Grill","code":null,"latitude":43.2480416,"longitude":-83.7819873,"address":"8975 Marketplace Dr, Suite F600, Birch Run MI","chain_name":null,"distance":0,"street_number":null,"street_name":"South Beyer Road","zip":"48415","city":null,"area":null,"county":"Saginaw County","state":"Michigan","country":"us","formatted_address":"Dairy Queen, South Beyer Road, Birch Run Premium Outlets, Village of Birch Run, Birch Run Township, Saginaw County, Michigan, 48415, United States of America","place_id":"55946914","datatype":"locationiq"},{"name":"Uno's Pizzeria and Grill","code":null,"latitude":43.031469,"longitude":-76.0177226,"address":"520 Towne Drive, Fayetteville NY","chain_name":null,"distance":0,"street_number":"520","street_name":"Towne Drive","zip":"13066","city":null,"area":null,"county":"Onondaga County","state":"New York","country":"us","formatted_address":"Uno Chicago Grill, 520, Towne Drive, Fayetteville Towne Center, High Bridge, Town of Manlius, Onondaga County, New York, 13066, United States of America","place_id":"105534459","datatype":"locationiq"},{"name":"Uno's Pizzeria and Grill","code":null,"latitude":32.7551845,"longitude":-97.3329579,"address":"300 Houston Street, Fort Worth TX","chain_name":null,"distance":0,"street_number":"333","street_name":"Throckmorton Street","zip":"76102","city":"Fort Worth","area":null,"county":"Tarrant County","state":"Texas","country":"us","formatted_address":"333, Throckmorton Street, Fort Worth, Tarrant County, Texas, 76102, United States of America","place_id":"173435518","datatype":"locationiq"},{"name":"Uno's Pizzeria and Grill","code":null,"latitude":43.1899677,"longitude":-88.1340665,"address":"W180 N9455 Premier Lane, Menomonee Falls WI","chain_name":null,"distance":0,"street_number":null,"street_name":"Appleton Avenue","zip":"53051","city":null,"area":null,"county":"Waukesha County","state":"Wisconsin","country":"us","formatted_address":"Appleton Avenue, Menomonee Falls, Waukesha County, Wisconsin, 53051, United States of America","place_id":"72506192","datatype":"locationiq"},{"name":"Uno's Pizzeria and Grill","code":null,"latitude":42.5053848,"longitude":-71.1329919,"address":"300 Mishawum Road, Woburn MA","chain_name":null,"distance":0,"street_number":"296;300;310","street_name":"Mishawum Road","zip":"01801","city":null,"area":null,"county":"Middlesex County","state":"Massachusetts","country":"us","formatted_address":"Woburn Mall Shopping Center, 296;300;310, Mishawum Road, Woburn, Middlesex County, Massachusetts, 01801, United States of America","place_id":"75930790","datatype":"locationiq"},{"name":"Uno's Pizzeria and Grill","code":null,"latitude":42.2842183,"longitude":-71.6353932,"address":"225 Turnpike Road, Westborough MA","chain_name":null,"distance":0,"street_number":null,"street_name":"Turnpike Road","zip":"01581","city":null,"area":null,"county":"Worcester County","state":"Massachusetts","country":"us","formatted_address":"Turnpike Road, Westborough, Worcester County, Massachusetts, 01581, United States of America","place_id":"83636482","datatype":"locationiq"},{"name":"Uno's Pizzeria and Grill","code":null,"latitude":28.4465277,"longitude":-81.4716378,"address":"8250 International Drive, Orlando FL","chain_name":null,"distance":0,"street_number":"8250","street_name":"International Drive","zip":"32819-8902","city":null,"area":null,"county":"Orange County","state":"Florida","country":"us","formatted_address":"Uno Pizzeria & Grill, 8250, International Drive, Dr. Phillips, Orange County, Florida, 32819-8902, United States of America","place_id":"103218619","datatype":"locationiq"},{"name":"Uno's Pizzeria and Grill","code":null,"latitude":36.8157276,"longitude":-76.0721947,"address":"1005 Lynnhaven Mall Loop, Virginia Beach VA","chain_name":null,"distance":0,"street_number":"1005","street_name":"Lynnhaven Mall Loop","zip":"23452","city":"Virginia Beach","area":null,"county":null,"state":"Virginia","country":"us","formatted_address":"Uno Chicago Grill, 1005, Lynnhaven Mall Loop, Lynnhaven Mall, Lynnhaven, Lamplight Manor, Virginia Beach, Virginia, 23452, United States of America","place_id":"157599551","datatype":"locationiq"},{"name":"Uno's Pizzeria and Grill","code":null,"latitude":40.9865444,"longitude":-73.8250128,"address":"2650 Central Park Ave, Yonkers NY","chain_name":null,"distance":0,"street_number":"2798","street_name":"Central Park Avenue N","zip":"10710","city":null,"area":null,"county":"Westchester County","state":"New York","country":"us","formatted_address":"2798, Central Park Avenue N, Greenville, Town of Greenburgh, Westchester County, New York, 10710, United States of America","place_id":"197077144","datatype":"locationiq"},{"name":"Uno's Pizzeria and Grill","code":null,"latitude":42.3729198,"longitude":-71.1195813,"address":"22 JFK Street, Cambridge MA","chain_name":null,"distance":0,"street_number":null,"street_name":"John F. Kennedy Street","zip":"02138-2903","city":null,"area":"Harvard Square","county":"Middlesex County","state":"Massachusetts","country":"us","formatted_address":"Lush Cosmetics, John F. Kennedy Street, Harvard Square, Cambridge, Middlesex County, Massachusetts, 02138-2903, United States of America","place_id":"54696444","datatype":"locationiq"},{"name":"Uno's Pizzeria and Grill","code":null,"latitude":42.5522828,"longitude":-71.7801505,"address":"905 Merriam Ave., Leominster MA","chain_name":null,"distance":0,"street_number":null,"street_name":"Concord Turnpike","zip":"01420","city":"Leominster","area":"West Leominster","county":"Worcester County","state":"Massachusetts","country":"us","formatted_address":"Concord Turnpike, West Leominster, Leominster, Worcester County, Massachusetts, 01420, United States of America","place_id":"113038230","datatype":"locationiq"},{"name":"Uno's Pizzeria and Grill","code":null,"latitude":39.666455,"longitude":-86.08733,"address":"4740 East Southport Road, Southport IN","chain_name":null,"distance":0,"street_number":"4610","street_name":"Southport Terrace","zip":"46237","city":null,"area":null,"county":"Marion County","state":"Indiana","country":"us","formatted_address":"4610, Southport Terrace, Perry Manor, Marion County, Indiana, 46237, United States of America","place_id":"186588025","datatype":"locationiq"},{"name":"Uno's Pizzeria and Grill","code":null,"latitude":38.8663891,"longitude":-77.2290702,"address":"3058 Gatehouse Plaza, Falls Church VA","chain_name":null,"distance":0,"street_number":null,"street_name":"Gatehouse Plz","zip":"22031","city":null,"area":null,"county":"Fairfax County","state":"Virginia","country":"us","formatted_address":"Uno Chicago Grill, Gatehouse Plz, Merrifield, Fairfax County, Virginia, 22031, United States of America","place_id":"13185310","datatype":"locationiq"},{"name":"Uno's Pizzeria and Grill","code":null,"latitude":41.4647693,"longitude":-75.6390467,"address":"3905 Commerce Blvd., Dickson City PA","chain_name":null,"distance":0,"street_number":null,"street_name":"Commerce Boulevard","zip":"18519","city":"Dickson City","area":null,"county":"Lackawanna County","state":"Pennsylvania","country":"us","formatted_address":"Commerce Boulevard, Dickson City, Lackawanna County, Pennsylvania, 18519, United States of America","place_id":"167702902","datatype":"locationiq"},{"name":"Uno's Pizzeria and Grill","code":null,"latitude":42.0923097,"longitude":-72.5831824,"address":"820 Hall of Fame Avenue, Springfield MA","chain_name":null,"distance":0,"street_number":"800","street_name":"West Broad Street","zip":"01105","city":"Springfield","area":null,"county":"Hampden County","state":"Massachusetts","country":"us","formatted_address":"Hilton Garden Inn Springfield, 800, West Broad Street, Springfield, Hampden County, Massachusetts, 01105, United States of America","place_id":"119526391","datatype":"locationiq"},{"name":"Uno's Pizzeria and Grill","code":null,"latitude":44.6964001,"longitude":-73.5042327,"address":"578 State Route 3, Plattsburgh NY","chain_name":null,"distance":0,"street_number":"608","street_name":"Route 3","zip":"12901","city":null,"area":null,"county":"Clinton County","state":"New York","country":"us","formatted_address":"608, Route 3, Plattsburgh West, Clinton County, New York, 12901, United States of America","place_id":"196197005","datatype":"locationiq"},{"name":"Uno's Pizzeria and Grill","code":null,"latitude":43.0244384,"longitude":-77.4387502,"address":"7724 Victor-Pittsford Road, Victor NY","chain_name":null,"distance":0,"street_number":"7727","street_name":"Victor-Pittsford Road","zip":"14564","city":null,"area":null,"county":"Ontario County","state":"New York","country":"us","formatted_address":"7727, Victor-Pittsford Road, Fishers, Victor Town, Ontario County, New York, 14564, United States of America","place_id":"196662926","datatype":"locationiq"},{"name":"Uno's Pizzeria and Grill","code":null,"latitude":42.2983614,"longitude":-71.39604,"address":"70 Worcester Road, Framingham MA","chain_name":null,"distance":0,"street_number":null,"street_name":"Worcester Road","zip":"01701","city":null,"area":null,"county":"Middlesex County","state":"Massachusetts","country":"us","formatted_address":"Uno, Worcester Road, Framingham, Middlesex County, Massachusetts, 01701, United States of America","place_id":"44144896","datatype":"locationiq"},{"name":"Uno's Pizzeria and Grill","code":null,"latitude":41.9249846,"longitude":-71.3569746,"address":"221 Washington Street, Attleboro MA","chain_name":null,"distance":0,"street_number":"280","street_name":"May Street","zip":"02703","city":null,"area":null,"county":"Bristol County","state":"Massachusetts","country":"us","formatted_address":"280, May Street, Attleboro, Bristol County, Massachusetts, 02703, United States of America","place_id":"190124478","datatype":"locationiq"},{"name":"Uno's Pizzeria and Grill","code":null,"latitude":39.5049212,"longitude":-79.3249222,"address":"19746 Garrett Highway, Oakland MD","chain_name":null,"distance":0,"street_number":"19814","street_name":"Garrett Highway","zip":"21550","city":null,"area":null,"county":"Garrett County","state":"Maryland","country":"us","formatted_address":"19814, Garrett Highway, Thayerville, Garrett County, Maryland, 21550, United States of America","place_id":"148410858","datatype":"locationiq"},{"name":"Uno's Pizzeria and Grill","code":null,"latitude":41.0301107,"longitude":-73.7728752,"address":"14 Martine Ave, White Plains NY","chain_name":null,"distance":0,"street_number":"64","street_name":"Martine Avenue","zip":"10606","city":"White Plains","area":null,"county":"Westchester County","state":"New York","country":"us","formatted_address":"64, Martine Avenue, White Plains, Westchester County, New York, 10606, United States of America","place_id":"197084681","datatype":"locationiq"},{"name":"Uno's Pizzeria and Grill","code":null,"latitude":40.617883,"longitude":-74.0297941,"address":"9201 Fourth Ave, Brooklyn NY","chain_name":null,"distance":0,"street_number":"410","street_name":"92nd Street","zip":"11209","city":"New York City","area":"Fort Hamilton","county":"Kings County","state":"New York","country":"us","formatted_address":"410, 92nd Street, Fort Hamilton, Kings County, New York City, New York, 11209, United States of America","place_id":"26893898","datatype":"locationiq"},{"name":"Uno's Pizzeria and Grill","code":null,"latitude":41.826605,"longitude":-71.415922,"address":"82 Providence Place, Providence RI","chain_name":null,"distance":0,"street_number":null,"street_name":null,"zip":"02903","city":"Providence","area":null,"county":"Providence County","state":"Rhode Island","country":"us","formatted_address":"providence mall, Woonasquatucket Greenway Ramp, Providence, Providence County, Rhode Island, 02903, United States of America","place_id":"165141385","datatype":"locationiq"},{"name":"Uno's Pizzeria and Grill","code":null,"latitude":39.3217492,"longitude":-84.4270614,"address":"9246 Schulze Drive, West Chester OH","chain_name":null,"distance":0,"street_number":null,"street_name":"Schultze Drive","zip":"45069","city":null,"area":null,"county":"Butler County","state":"Ohio","country":"us","formatted_address":"Uno\u2019s Pizzeria, Schultze Drive, West Chester, West Chester Township, Butler County, Ohio, 45069, United States of America","place_id":"101422253","datatype":"locationiq"},{"name":"Uno's Pizzeria and Grill","code":null,"latitude":41.8711276,"longitude":-71.5213696,"address":"371 Putnam Pike, Suite 200, Smithfield RI","chain_name":null,"distance":0,"street_number":null,"street_name":"Levi Lane","zip":"02917","city":null,"area":null,"county":"Providence County","state":"Rhode Island","country":"us","formatted_address":"Pizzeria Uno, Levi Lane, Fountain Spring, Providence County, Rhode Island, 02917, United States of America","place_id":"25336822","datatype":"locationiq"},{"name":"Uno's Pizzeria and Grill","code":null,"latitude":39.7732578,"longitude":-104.7963245,"address":"16375 E. 40th Avenue, Denver CO","chain_name":null,"distance":0,"street_number":null,"street_name":"Airport Way","zip":"80011","city":"Denver","area":null,"county":"Denver County","state":"Colorado","country":"us","formatted_address":"Uno Chicago Grill, Airport Way, Gateway Park, Denver, Denver County, Colorado, 80011, United States of America","place_id":"5522281","datatype":"locationiq"},{"name":"Uno's Pizzeria and Grill","code":null,"latitude":43.1848573,"longitude":-76.2344482,"address":"3974 State Route 31, Liverpool NY","chain_name":null,"distance":0,"street_number":null,"street_name":"State Route 31","zip":"13041","city":null,"area":null,"county":"Onondaga County","state":"New York","country":"us","formatted_address":"State Route 31, Euclid, Town of Clay, Onondaga County, New York, 13041, United States of America","place_id":"141596234","datatype":"locationiq"},{"name":"Uno's Pizzeria and Grill","code":null,"latitude":28.230757,"longitude":-80.7141255,"address":"8260 Wickham Road, Melbourne FL","chain_name":null,"distance":0,"street_number":null,"street_name":"Cabot Court","zip":"32940","city":null,"area":null,"county":"Brevard County","state":"Florida","country":"us","formatted_address":"Uno Chicago Grill, Cabot Court, Viera, Brevard County, Florida, 32940, United States of America","place_id":"26565142","datatype":"locationiq"},{"name":"Uno's Pizzeria and Grill","code":null,"latitude":38.7707549,"longitude":-77.1405139,"address":"5935 Kingstowne Center, Kingstowne VA","chain_name":null,"distance":0,"street_number":null,"street_name":"Kingstowne Towne Center","zip":"22315","city":null,"area":"Walhaven","county":"Fairfax County","state":"Virginia","country":"us","formatted_address":"Kingstowne Towne Center, Walhaven, Franconia, Fairfax County, Virginia, 22315, United States of America","place_id":"102357274","datatype":"locationiq"},{"name":"Uno's Pizzeria and Grill","code":null,"latitude":42.384845,"longitude":-87.9665878,"address":"6593 Grand Ave, Gurnee IL","chain_name":null,"distance":0,"street_number":"6507","street_name":"Grand Avenue","zip":"60031","city":null,"area":null,"county":"Lake County","state":"Illinois","country":"us","formatted_address":"6507, Grand Avenue, Gurnee Mills Mall, Gurnee, Lake County, Illinois, 60031, United States of America","place_id":"185325953","datatype":"locationiq"},{"name":"Uno's Pizzeria and Grill","code":null,"latitude":42.482538,"longitude":-71.2135082,"address":"75 Middlesex Turnpike, Burlington MA","chain_name":null,"distance":0,"street_number":"75","street_name":"Middlesex Turnpike","zip":"01803-5327","city":null,"area":null,"county":"Middlesex County","state":"Massachusetts","country":"us","formatted_address":"Burlington Mall, 75, Middlesex Turnpike, Burlington, Middlesex County, Massachusetts, 01803-5327, United States of America","place_id":"98417769","datatype":"locationiq"},{"name":"Uno's Pizzeria and Grill","code":null,"latitude":39.2862128,"longitude":-76.6106955,"address":"201 East Pratt Street, Baltimore MD","chain_name":null,"distance":0,"street_number":"201","street_name":"East Pratt Street","zip":"21202","city":"Baltimore","area":"Inner Harbor","county":null,"state":"Maryland","country":"us","formatted_address":"Pratt Street Pavilion (Harbor Place), 201, East Pratt Street, Inner Harbor, Baltimore, Maryland, 21202, United States of America","place_id":"110763723","datatype":"locationiq"},{"name":"Uno's Pizzeria and Grill","code":null,"latitude":40.2681501,"longitude":-75.1292095,"address":"1661 Easton Road, Warrington PA","chain_name":null,"distance":0,"street_number":"1661","street_name":"South Easton Road","zip":"18901","city":"Doylestown Township","area":null,"county":"Bucks County","state":"Pennsylvania","country":"us","formatted_address":"Mei Ting Asian Fusion, 1661, South Easton Road, Doylestown Township, Bucks County, Pennsylvania, 18901, United States of America","place_id":"59494121","datatype":"locationiq"},{"name":"Uno's Pizzeria and Grill","code":null,"latitude":40.8308892,"longitude":-74.1396481,"address":"426 Highway 3 West, Clifton NJ","chain_name":null,"distance":0,"street_number":null,"street_name":"NJ 3","zip":"07014","city":"Clifton","area":null,"county":"Passaic County","state":"New Jersey","country":"us","formatted_address":"Chicago Pizzeria Uno, NJ 3, Clifton, Passaic County, New Jersey, 07014, United States of America","place_id":"133802221","datatype":"locationiq"},{"name":"Uno's Pizzeria and Grill","code":null,"latitude":40.7650324,"longitude":-73.7720632,"address":"39-02 Bell Blvd, Bayside NY","chain_name":null,"distance":0,"street_number":"213-16","street_name":"39th Avenue","zip":"11361","city":"New York City","area":"Bayside","county":"Queens County","state":"New York","country":"us","formatted_address":"213-16, 39th Avenue, Bayside, Queens, Queens County, New York City, New York, 11361, United States of America","place_id":"37856637","datatype":"locationiq"},{"name":"Uno's Pizzeria and Grill","code":null,"latitude":39.8335256,"longitude":-75.0892934,"address":"1162 Hurffville Road, Deptford NJ","chain_name":null,"distance":0,"street_number":null,"street_name":"North-South Freeway","zip":"08096","city":null,"area":null,"county":"Gloucester County","state":"New Jersey","country":"us","formatted_address":"Pizzaria Uno, North-South Freeway, Gloucester County, New Jersey, 08096, United States of America","place_id":"38562654","datatype":"locationiq"},{"name":"Uno's Pizzeria and Grill","code":null,"latitude":43.5794359,"longitude":-89.7793492,"address":"1000 Wisconsin Dells Parkway South, Lake Delton WI","chain_name":null,"distance":0,"street_number":"1000","street_name":"Wisconsin Dells Parkway South","zip":"53940","city":null,"area":null,"county":"Sauk County","state":"Wisconsin","country":"us","formatted_address":"Uno Chicago Grill, 1000, Wisconsin Dells Parkway South, Dells Strip, Lake Delton, Sauk County, Wisconsin, 53940, United States of America","place_id":"84855601","datatype":"locationiq"},{"name":"Uno's Pizzeria and Grill","code":null,"latitude":42.2556529,"longitude":-71.1701016,"address":"270 Providence Highway, Dedham MA","chain_name":null,"distance":0,"street_number":null,"street_name":"Incinerator Road","zip":"02026","city":null,"area":"East Dedham","county":"Norfolk County","state":"Massachusetts","country":"us","formatted_address":"Incinerator Road, East Dedham, Dedham, Norfolk County, Massachusetts, 02026, United States of America","place_id":"117793454","datatype":"locationiq"},{"name":"Uno's Pizzeria and Grill","code":null,"latitude":38.8042745,"longitude":-77.5223573,"address":"10701 Bulloch Drive, Manassas VA","chain_name":null,"distance":0,"street_number":null,"street_name":"Bulloch Drive","zip":"20109","city":null,"area":null,"county":"Prince William County","state":"Virginia","country":"us","formatted_address":"Uno's, Bulloch Drive, West Gate, Coverstone, Prince William County, Virginia, 20109, United States of America","place_id":"80997891","datatype":"locationiq"},{"name":"Uno's Pizzeria and Grill","code":null,"latitude":40.7781906,"longitude":-73.9532285,"address":"220 E.86th Street, New York NY","chain_name":null,"distance":0,"street_number":"220","street_name":"East 86th Street","zip":"10028","city":"New York City","area":"Yorkville","county":"New York County","state":"New York","country":"us","formatted_address":"220, East 86th Street, Yorkville, Manhattan, New York County, New York City, New York, 10028, United States of America","place_id":"131611679","datatype":"locationiq"},{"name":"Uno's Pizzeria and Grill","code":null,"latitude":42.8141637,"longitude":-71.1034251,"address":"30 Cushing Avenue, Haverhill MA","chain_name":null,"distance":0,"street_number":"30","street_name":"Cushing Avenue","zip":"01830","city":null,"area":null,"county":"Essex County","state":"Massachusetts","country":"us","formatted_address":"Uno Chicago Grill, 30, Cushing Avenue, Haverhill, Essex County, Massachusetts, 01830, United States of America","place_id":"21486849","datatype":"locationiq"},{"name":"Uno's Pizzeria and Grill","code":null,"latitude":43.2127522,"longitude":-77.4474955,"address":"931 Holt Road, Webster NY","chain_name":null,"distance":0,"street_number":"931","street_name":"Holt Road","zip":"14580","city":null,"area":null,"county":"Monroe County","state":"New York","country":"us","formatted_address":"UNO Chicago Grill, 931, Holt Road, Webster Town, Monroe County, New York, 14580, United States of America","place_id":"102591722","datatype":"locationiq"},{"name":"Uno's Pizzeria and Grill","code":null,"latitude":42.3416917,"longitude":-71.0858404,"address":"280 Huntington Ave, Boston MA","chain_name":null,"distance":0,"street_number":null,"street_name":"Huntington Avenue","zip":"MA 02118","city":"Boston","area":"Roxbury Crossing","county":"Suffolk County","state":"Massachusetts","country":"us","formatted_address":"Dr. Weiner's Pet Care Center, Huntington Avenue, Roxbury Crossing, South End, Boston, Suffolk County, Massachusetts, MA 02118, United States of America","place_id":"20234930","datatype":"locationiq"},{"name":"Uno's Pizzeria and Grill","code":null,"latitude":40.1002405,"longitude":-75.3045961,"address":"1009 Ridge Pike, Conshohocken PA","chain_name":null,"distance":0,"street_number":null,"street_name":"W Ridge Pike","zip":"19462","city":"Plymouth Township","area":null,"county":"Montgomery County","state":"Pennsylvania","country":"us","formatted_address":"Uno Chicago Grill, W Ridge Pike, Plymouth Township, Montgomery County, Pennsylvania, 19462, United States of America","place_id":"122132178","datatype":"locationiq"},{"name":"Uno's Pizzeria and Grill","code":null,"latitude":28.381566,"longitude":-81.5046213,"address":"12553 Sr-535, Orlando FL","chain_name":null,"distance":0,"street_number":"12553","street_name":"Kissimmee Vineland Road","zip":"32830","city":null,"area":null,"county":"Orange County","state":"Florida","country":"us","formatted_address":"Pizzeria Uno Restaurant & Grill, 12553, Kissimmee Vineland Road, Lake Buena Vista, Reedy Creek Improvement District, Orange County, Florida, 32830, United States of America","place_id":"80379038","datatype":"locationiq"},{"name":"Uno's Pizzeria and Grill","code":null,"latitude":43.2102981,"longitude":-71.5322129,"address":"15 Fort Eddy Road, Concord NH","chain_name":null,"distance":0,"street_number":null,"street_name":"Fort Eddy Road","zip":"03301","city":"Concord","area":null,"county":"Merrimack County","state":"New Hampshire","country":"us","formatted_address":"Uno's, Fort Eddy Road, Concord, Merrimack County, New Hampshire, 03301, United States of America","place_id":"273578","datatype":"locationiq"},{"name":"Uno's Pizzeria and Grill","code":null,"latitude":42.1442654,"longitude":-72.4871234,"address":"1722 Boston Road, Springfield MA","chain_name":null,"distance":0,"street_number":"1690","street_name":"Boston Road","zip":"01129","city":"Springfield","area":null,"county":"Hampden County","state":"Massachusetts","country":"us","formatted_address":"1690, Boston Road, Springfield, Hampden County, Massachusetts, 01129, United States of America","place_id":"190281034","datatype":"locationiq"},{"name":"Uno's Pizzeria and Grill","code":null,"latitude":40.7833,"longitude":-73.9749567,"address":"432 Columbus Avenue, New York NY","chain_name":null,"distance":0,"street_number":"100","street_name":"West 81st Street","zip":"10024","city":"New York City","area":"Upper West Side","county":"New York County","state":"New York","country":"us","formatted_address":"100, West 81st Street, Upper West Side, Manhattan, New York County, New York City, New York, 10024, United States of America","place_id":"30954810","datatype":"locationiq"},{"name":"Uno's Pizzeria and Grill","code":null,"latitude":39.9375606,"longitude":-74.9709761,"address":"2803 S. Route 73, Maple Shade NJ","chain_name":null,"distance":0,"street_number":null,"street_name":"NJ 73","zip":"08057","city":"Maple Shade Township","area":null,"county":"Burlington County","state":"New Jersey","country":"us","formatted_address":"Uno Chicago Grill, NJ 73, Maple Shade Township, Burlington County, New Jersey, 08057, United States of America","place_id":"171588302","datatype":"locationiq"},{"name":"Uno's Pizzeria and Grill","code":null,"latitude":42.623257,"longitude":-83.0529163,"address":"44805 Mound Road, Sterling Heights MI","chain_name":null,"distance":0,"street_number":"44349","street_name":"Mound Road","zip":"48314","city":"Sterling Heights","area":null,"county":"Macomb County","state":"Michigan","country":"us","formatted_address":"44349, Mound Road, Sterling Heights, Macomb County, Michigan, 48314, United States of America","place_id":"191161212","datatype":"locationiq"},{"name":"Uno's Pizzeria and Grill","code":null,"latitude":34.0043259,"longitude":-81.2066686,"address":"5304 Sunset Blvd., Lexington SC","chain_name":null,"distance":0,"street_number":null,"street_name":"Sunset Boulevard","zip":"29071","city":null,"area":null,"county":"Lexington County","state":"South Carolina","country":"us","formatted_address":"Uno's Chicago Grill, Sunset Boulevard, Lexington, Lexington County, South Carolina, 29071, United States of America","place_id":"49368320","datatype":"locationiq"},{"name":"Uno's Pizzeria and Grill","code":null,"latitude":43.6365724,"longitude":-70.3353061,"address":"280 Maine Mall Road, S. Portland ME","chain_name":null,"distance":0,"street_number":"280","street_name":"Maine Mall Road","zip":"ME 04106","city":"South Portland","area":null,"county":"Cumberland County","state":"Maine","country":"us","formatted_address":"UNO, 280, Maine Mall Road, South Portland, Cumberland County, Maine, ME 04106, United States of America","place_id":"28584579","datatype":"locationiq"},{"name":"Uno's Pizzeria and Grill","code":null,"latitude":39.9852372,"longitude":-75.4141731,"address":"3910 West Chester Pike, Newtown Square PA","chain_name":null,"distance":0,"street_number":null,"street_name":"West Chester Pike","zip":"19073","city":"Newtown Township","area":null,"county":"Delaware County","state":"Pennsylvania","country":"us","formatted_address":"Uno Chicago Grill, West Chester Pike, Newtown Township, Delaware County, Pennsylvania, 19073, United States of America","place_id":"17718456","datatype":"locationiq"},{"name":"Uno's Pizzeria and Grill","code":null,"latitude":42.6896278,"longitude":-73.8507596,"address":"1 Crossgate Mall Road, Albany NY","chain_name":null,"distance":0,"street_number":"1","street_name":"Crossgates Mall Road","zip":"12203","city":null,"area":null,"county":"Albany County","state":"New York","country":"us","formatted_address":"Crossgates Mall, 1, Crossgates Mall Road, Crossgates Mall, Westmere, Town of Guilderland, Albany County, New York, 12203, United States of America","place_id":"83415072","datatype":"locationiq"},{"name":"Uno's Pizzeria and Grill","code":null,"latitude":42.4829407,"longitude":-70.9019142,"address":"970 Paradise Road, Swampscott MA","chain_name":null,"distance":0,"street_number":"940","street_name":"Paradise Road","zip":"01907","city":null,"area":null,"county":"Essex County","state":"Massachusetts","country":"us","formatted_address":"940, Paradise Road, Swampscott, Essex County, Massachusetts, 01907, United States of America","place_id":"190188963","datatype":"locationiq"},{"name":"Uno's Pizzeria and Grill","code":null,"latitude":43.335663,"longitude":-73.6781056,"address":"900 State Route 9, Queensbury NY","chain_name":null,"distance":0,"street_number":null,"street_name":"Lake George Road","zip":"12804","city":null,"area":"Whispering Pines Apartments","county":"Warren County","state":"New York","country":"us","formatted_address":"Lake George Road, Whispering Pines Apartments, Queensbury, Warren County, New York, 12804, United States of America","place_id":"96485507","datatype":"locationiq"},{"name":"Uno's Pizzeria and Grill","code":null,"latitude":41.3136871,"longitude":-74.1345236,"address":"20 Centre Drive, Central Valley NY","chain_name":null,"distance":0,"street_number":"72","street_name":"Centre Drive","zip":"10917","city":null,"area":null,"county":"Orange County","state":"New York","country":"us","formatted_address":"72, Centre Drive, Woodbury, Town of Woodbury, Orange County, New York, 10917, United States of America","place_id":"196679861","datatype":"locationiq"},{"name":"Uno's Pizzeria and Grill","code":null,"latitude":37.1135021,"longitude":-76.4668864,"address":"5007 Victory Blvd, Tabb VA","chain_name":null,"distance":0,"street_number":null,"street_name":"Village Avenue","zip":"23602","city":null,"area":null,"county":"York County","state":"Virginia","country":"us","formatted_address":"Super K-Mart, Village Avenue, Tabb, York County, Virginia, 23602, United States of America","place_id":"151084615","datatype":"locationiq"},{"name":"Uno's Pizzeria and Grill","code":null,"latitude":40.249754,"longitude":-74.6913352,"address":"225 Sloan Avenue, Hamilton NJ","chain_name":null,"distance":0,"street_number":null,"street_name":"Sloan Avenue","zip":"08619","city":"Hamilton Township","area":null,"county":"Mercer County","state":"New Jersey","country":"us","formatted_address":"Uno Pizzeria, Sloan Avenue, Hamilton Township, Mercer County, New Jersey, 08619, United States of America","place_id":"47381188","datatype":"locationiq"},{"name":"Uno's Pizzeria and Grill","code":null,"latitude":39.654336,"longitude":-77.7527025,"address":"17734 Garland Groh Blvd, Hagerstown MD","chain_name":null,"distance":0,"street_number":null,"street_name":"Garland Groh Boulevard","zip":"21740","city":"Hagerstown","area":null,"county":"Washington County","state":"Maryland","country":"us","formatted_address":"Uno's, Garland Groh Boulevard, Hagerstown, Washington County, Maryland, 21740, United States of America","place_id":"101510027","datatype":"locationiq"},{"name":"Uno's Pizzeria and Grill","code":null,"latitude":43.1354903,"longitude":-89.2908119,"address":"3010 Crossroads Drive, Madison WI","chain_name":null,"distance":0,"street_number":null,"street_name":"High Crossing Boulevard","zip":"53704","city":"Madison","area":null,"county":"Dane County","state":"Wisconsin","country":"us","formatted_address":"Uno's Chicago Grill, High Crossing Boulevard, Madison, Dane County, Wisconsin, 53704, United States of America","place_id":"92043925","datatype":"locationiq"},{"name":"Uno's Pizzeria and Grill","code":null,"latitude":41.7263147,"longitude":-71.4812332,"address":"399 Bald Hill Road, Warwick RI","chain_name":null,"distance":0,"street_number":null,"street_name":"Bald Hill Road","zip":"02893","city":"Warwick","area":null,"county":"Kent County","state":"Rhode Island","country":"us","formatted_address":"Bald Hill Road, Warwick, Kent County, Rhode Island, 02893, United States of America","place_id":"70978318","datatype":"locationiq"},{"name":"Uno's Pizzeria and Grill","code":null,"latitude":40.056767,"longitude":-75.6605991,"address":"8 North Pottstown Pike, Exton PA","chain_name":null,"distance":0,"street_number":null,"street_name":"Pottstown Pike","zip":"19341","city":"Uwchlan Township","area":null,"county":"Chester County","state":"Pennsylvania","country":"us","formatted_address":"Pottstown Pike, Uwchlan Township, Chester County, Pennsylvania, 19341, United States of America","place_id":"125622000","datatype":"locationiq"},{"name":"Uno's Pizzeria and Grill","code":null,"latitude":43.4586863,"longitude":-71.560925,"address":"122 Laconia Road, Tilton NH","chain_name":null,"distance":0,"street_number":"120","street_name":"Laconia Road","zip":"03276","city":null,"area":null,"county":"Belknap County","state":"New Hampshire","country":"us","formatted_address":"UNO Chicago Grill, 120, Laconia Road, Tilton, Belknap County, New Hampshire, 03276, United States of America","place_id":"98218848","datatype":"locationiq"},{"name":"Uno's Pizzeria and Grill","code":null,"latitude":37.6666115,"longitude":-120.9582256,"address":"1533 Oakdale Road, Modesto CA","chain_name":null,"distance":0,"street_number":"1533","street_name":"Oakdale Road","zip":"95355","city":"Modesto","area":null,"county":"Stanislaus County","state":"California","country":"us","formatted_address":"UNO Pizzaria and Grill, 1533, Oakdale Road, Modesto, Stanislaus County, California, 95355, United States of America","place_id":"167884336","datatype":"locationiq"},{"name":"Uno's Pizzeria and Grill","code":null,"latitude":42.7530096,"longitude":-73.7673835,"address":"601 Troy-Schenectady Road, Latham NY","chain_name":null,"distance":0,"street_number":"601","street_name":"Troy Schenectady Road","zip":"12110","city":null,"area":null,"county":"Albany County","state":"New York","country":"us","formatted_address":"Uno Chicago Grill, 601, Troy Schenectady Road, Latham, Town of Colonie, Albany County, New York, 12110, United States of America","place_id":"83863287","datatype":"locationiq"},{"name":"Uno's Pizzeria and Grill","code":null,"latitude":40.7558005,"longitude":-73.9231103,"address":"37-11 35th Avenue, Long Island City NY","chain_name":null,"distance":0,"street_number":"37-11","street_name":"35th Avenue","zip":"11101","city":"New York City","area":"Sunnyside Gardens","county":"Queens County","state":"New York","country":"us","formatted_address":"Life Health & Fitness, 37-11, 35th Avenue, Sunnyside Gardens, Queens County, New York City, New York, 11101, United States of America","place_id":"36657046","datatype":"locationiq"},{"name":"Uno's Pizzeria and Grill","code":null,"latitude":42.3484278,"longitude":-71.0977677,"address":"645 Beacon Street, Boston MA","chain_name":null,"distance":0,"street_number":"645","street_name":"Beacon Street","zip":"02115","city":"Boston","area":"Roxbury Crossing","county":"Suffolk County","state":"Massachusetts","country":"us","formatted_address":"Boston Hotel Buckminster, 645, Beacon Street, Roxbury Crossing, Fenway, Boston, Suffolk County, Massachusetts, 02115, United States of America","place_id":"135323714","datatype":"locationiq"},{"name":"Uno's Pizzeria and Grill","code":null,"latitude":42.4280359,"longitude":-71.0127787,"address":"339 Squire Road, Revere MA","chain_name":null,"distance":0,"street_number":null,"street_name":"Squire Road","zip":"02151","city":null,"area":null,"county":"Suffolk County","state":"Massachusetts","country":"us","formatted_address":"Squire Road, Revere, Suffolk County, Massachusetts, 02151, United States of America","place_id":"162356179","datatype":"locationiq"}]