[{"name":"Wendy's","code":null,"latitude":35.253149,"longitude":-81.026808,"address":"660 Park Street, Belmont NC","chain_name":null,"distance":0,"street_number":"614","street_name":"Park Street","zip":"28012","city":"Belmont","area":null,"county":"Gaston County","state":"North Carolina","country":"us","formatted_address":"614, Park Street, Belmont, Gaston County, North Carolina, 28012, United States of America","place_id":"197588498","datatype":"locationiq"},{"name":"Wendy's","code":null,"latitude":39.713473,"longitude":-82.5785,"address":"1200 E.Main St, Lancaster OH","chain_name":null,"distance":0,"street_number":null,"street_name":"Zane","zip":"43130","city":"Lancaster","area":"Lancaster Historic District","county":"Fairfield County","state":"Ohio","country":"us","formatted_address":"Zane, Lancaster Historic District, Lancaster, Fairfield County, Ohio, 43130, United States of America","place_id":"70676982","datatype":"locationiq"},{"name":"Wendy's","code":null,"latitude":39.97151,"longitude":-104.824794,"address":"70 W Bromley Ln, Brighton CO","chain_name":null,"distance":0,"street_number":"70","street_name":"West Bromley Lane","zip":"80601","city":"Brighton","area":null,"county":"Adams County","state":"Colorado","country":"us","formatted_address":"Wendy's, 70, West Bromley Lane, Brighton, Adams County, Colorado, 80601, United States of America","place_id":"120692938","datatype":"locationiq"},{"name":"Wendy's","code":null,"latitude":31.7837484,"longitude":-85.9596902,"address":"1101 Highway 231 S, Troy AL","chain_name":null,"distance":0,"street_number":"1001","street_name":"US 231;SR 10","zip":"36081","city":"Troy","area":null,"county":"Pike County","state":"Alabama","country":"us","formatted_address":"1001, US 231;SR 10, Troy, Pike County, Alabama, 36081, United States of America","place_id":"176642130","datatype":"locationiq"},{"name":"Wendy's","code":null,"latitude":41.6539614,"longitude":-74.682241,"address":"17-25 Pleasant St, Monticello NY","chain_name":null,"distance":0,"street_number":null,"street_name":"Broadway","zip":"12701","city":null,"area":null,"county":"Sullivan County","state":"New York","country":"us","formatted_address":"CVS Pharmacy, Broadway, Monticello, Town of Thompson, Sullivan County, New York, 12701, United States of America","place_id":"136567064","datatype":"locationiq"},{"name":"Wendy's","code":null,"latitude":40.451745,"longitude":-109.507683,"address":"1120 W. US Hwy 40, Vernal UT","chain_name":null,"distance":0,"street_number":null,"street_name":"US 40","zip":"84078","city":"Naples","area":null,"county":"Uintah County","state":"Utah","country":"us","formatted_address":"US 40, Naples, Uintah County, Utah, 84078, United States of America","place_id":"65239486","datatype":"locationiq"},{"name":"Wendy's","code":null,"latitude":41.076816,"longitude":-85.136866,"address":"1021 South Clinton Street, Ft.Wayne IN","chain_name":null,"distance":0,"street_number":null,"street_name":"East Jefferson Boulevard","zip":"46802","city":"Fort Wayne","area":null,"county":"Allen County","state":"Indiana","country":"us","formatted_address":"Wendy's, East Jefferson Boulevard, Fort Wayne, Allen County, Indiana, 46802, United States of America","place_id":"88234734","datatype":"locationiq"},{"name":"Wendy's","code":null,"latitude":52.6806299,"longitude":-113.5827707,"address":"4750 Highway #2A, Ponoka AB","chain_name":null,"distance":0,"street_number":"5304","street_name":"53 Avenue","zip":"T4J1M1","city":null,"area":null,"county":"Ponoka County","state":"Alberta","country":"ca","formatted_address":"5304, 53 Avenue, Ponoka, Ponoka County, Alberta, T4J1M1, Canada","place_id":"13583851","datatype":"locationiq"},{"name":"Wendy's","code":null,"latitude":40.7250445,"longitude":-111.5400262,"address":"1620 West Ute Blvd., Park City UT","chain_name":null,"distance":0,"street_number":null,"street_name":"Ute Boulevard","zip":"84098","city":null,"area":null,"county":"Summit County","state":"Utah","country":"us","formatted_address":"Holiday Inn Express, Ute Boulevard, South Snyderville Basin, Summit County, Utah, 84098, United States of America","place_id":"24365279","datatype":"locationiq"},{"name":"Wendy's","code":null,"latitude":34.2602157,"longitude":-83.4657184,"address":"30462 Highway 441 South, Commerce GA","chain_name":null,"distance":0,"street_number":"30465","street_name":"US 441;SR 15","zip":"30529","city":null,"area":null,"county":"Banks County","state":"Georgia","country":"us","formatted_address":"Boots Etc., 30465, US 441;SR 15, Banks Crossing, Banks County, Georgia, 30529, United States of America","place_id":"41985082","datatype":"locationiq"},{"name":"Wendy's","code":null,"latitude":27.700785,"longitude":-97.3462545,"address":"5934 S Spid Dr, Corpus Christi TX","chain_name":null,"distance":0,"street_number":"6722","street_name":"McArdle Road","zip":"78412","city":"Corpus Christi","area":null,"county":"Nueces County","state":"Texas","country":"us","formatted_address":"6722, McArdle Road, Corpus Christi, Nueces County, Texas, 78412, United States of America","place_id":"206049411","datatype":"locationiq"},{"name":"Wendy's","code":null,"latitude":38.584134,"longitude":-92.253358,"address":"3536 Country Club Dr, Jefferson City MO","chain_name":null,"distance":0,"street_number":"4232","street_name":"Country Club Drive","zip":"65109","city":"Jefferson City","area":null,"county":"Cole County","state":"Missouri","country":"us","formatted_address":"4232, Country Club Drive, Jefferson City, Cole County, Missouri, 65109, United States of America","place_id":"193430285","datatype":"locationiq"},{"name":"Wendy's","code":null,"latitude":41.0198334,"longitude":-73.6432688,"address":"460 W. Putnam, Greenwich CT","chain_name":null,"distance":0,"street_number":"459","street_name":"West Putnam Avenue","zip":"06830","city":"Greenwich","area":null,"county":"Fairfield County","state":"Connecticut","country":"us","formatted_address":"459, West Putnam Avenue, Greenwich, Fairfield County, Connecticut, 06830, United States of America","place_id":"181260045","datatype":"locationiq"},{"name":"Wendy's","code":null,"latitude":27.893906,"longitude":-82.7598749,"address":"8770 Ulmerton Road, Largo FL","chain_name":null,"distance":0,"street_number":null,"street_name":"Ulmerton Road","zip":"33771","city":"Largo","area":"Monterey Lakes Apartments","county":"Pinellas County","state":"Florida","country":"us","formatted_address":"Wendy's, Ulmerton Road, Monterey Lakes Apartments, Largo, Pinellas County, Florida, 33771, United States of America","place_id":"23516354","datatype":"locationiq"},{"name":"Wendy's","code":null,"latitude":42.0708141,"longitude":-70.9479278,"address":"362 Bedford Street, Whitman MA","chain_name":null,"distance":0,"street_number":"370","street_name":"Bedford Street","zip":"02382","city":null,"area":null,"county":"Plymouth County","state":"Massachusetts","country":"us","formatted_address":"370, Bedford Street, Whitman, Plymouth County, Massachusetts, 02382, United States of America","place_id":"190497880","datatype":"locationiq"},{"name":"Wendy's","code":null,"latitude":43.510432,"longitude":-70.434141,"address":"528 Main Street, Saco ME","chain_name":null,"distance":0,"street_number":null,"street_name":"Main Street","zip":"04072","city":null,"area":null,"county":"York County","state":"Maine","country":"us","formatted_address":"Wendy's, Main Street, Saco, York County, Maine, 04072, United States of America","place_id":"27974327","datatype":"locationiq"},{"name":"Wendy's","code":null,"latitude":41.0743035,"longitude":-85.2012506,"address":"1702 Apple Glen Blvd, Ft.Wayne IN","chain_name":null,"distance":0,"street_number":"1207","street_name":"Apple Glen Boulevard","zip":"46804","city":"Fort Wayne","area":null,"county":"Allen County","state":"Indiana","country":"us","formatted_address":"1207, Apple Glen Boulevard, Fort Wayne, Allen County, Indiana, 46804, United States of America","place_id":"186005757","datatype":"locationiq"},{"name":"Wendy's","code":null,"latitude":34.426344,"longitude":-103.195966,"address":"2833 N Prince St, Clovis NM","chain_name":null,"distance":0,"street_number":null,"street_name":"North Plains Mall","zip":"88101","city":"Clovis","area":null,"county":"Curry County","state":"New Mexico","country":"us","formatted_address":"Taco Bell, North Plains Mall, Clovis, Curry County, New Mexico, 88101, United States of America","place_id":"49286476","datatype":"locationiq"},{"name":"Wendy's","code":null,"latitude":30.4949694,"longitude":-92.4358516,"address":"1921 West Laurel Street, Eunice LA","chain_name":null,"distance":0,"street_number":"1915","street_name":"West Laurel Avenue","zip":"70535","city":null,"area":null,"county":"St. Landry Parish","state":"Louisiana","country":"us","formatted_address":"1915, West Laurel Avenue, Eunice, St. Landry Parish, Louisiana, 70535, United States of America","place_id":"189249591","datatype":"locationiq"},{"name":"Wendy's","code":null,"latitude":38.668069,"longitude":-94.367031,"address":"1800 N State Route 291, Harrisonville MO","chain_name":null,"distance":0,"street_number":null,"street_name":"MO 291","zip":"64701","city":"Harrisonville","area":null,"county":"Cass County","state":"Missouri","country":"us","formatted_address":"Wendy's, MO 291, Harrisonville, Cass County, Missouri, 64701, United States of America","place_id":"23627661","datatype":"locationiq"},{"name":"Wendy's","code":null,"latitude":38.9324439,"longitude":-94.379554,"address":"1100 NE Douglas St., Lees Summit MO","chain_name":null,"distance":0,"street_number":null,"street_name":"Northeast Douglas Street","zip":"64064","city":"Lee's Summit","area":null,"county":"Jackson County","state":"Missouri","country":"us","formatted_address":"Wendy's, Northeast Douglas Street, Lee's Summit, Jackson County, Missouri, 64064, United States of America","place_id":"20288922","datatype":"locationiq"},{"name":"Wendy's","code":null,"latitude":43.4579609,"longitude":-71.5613621,"address":"156 Laconia Rd, Tilton NH","chain_name":null,"distance":0,"street_number":"120","street_name":"Laconia Road","zip":"03276","city":null,"area":null,"county":"Belknap County","state":"New Hampshire","country":"us","formatted_address":"Old Navy, 120, Laconia Road, Tilton, Belknap County, New Hampshire, 03276, United States of America","place_id":"97894412","datatype":"locationiq"},{"name":"Wendy's","code":null,"latitude":43.3454922,"longitude":-79.7997061,"address":"2387 Fairview Rd., Burlington ON","chain_name":null,"distance":0,"street_number":"2373","street_name":"Fairview Street","zip":"L7R 2E4","city":"Burlington","area":"Glenwood Park","county":"Halton Region","state":"Ontario","country":"ca","formatted_address":"2373, Fairview Street, Glenwood Park, Headon Forest, Burlington, Halton Region, Ontario, L7R 2E4, Canada","place_id":"2646373","datatype":"locationiq"},{"name":"Wendy's","code":null,"latitude":32.803347,"longitude":-80.013596,"address":"1721 Sam Rittenberg Blvd, Charleston SC","chain_name":null,"distance":0,"street_number":"1742","street_name":"Sam Rittenberg Boulevard","zip":"29407","city":"Charleston","area":null,"county":"Charleston County","state":"South Carolina","country":"us","formatted_address":"1742, Sam Rittenberg Boulevard, Charleston, Charleston County, South Carolina, 29407, United States of America","place_id":"202730476","datatype":"locationiq"},{"name":"Wendy's","code":null,"latitude":40.58905,"longitude":-74.191737,"address":"141 E Service Rd, Staten Island NY","chain_name":null,"distance":0,"street_number":"145","street_name":"Beresford Avenue","zip":"10314","city":"New York City","area":"Travis","county":"Richmond County","state":"New York","country":"us","formatted_address":"145, Beresford Avenue, Travis, Staten Island, Richmond County, New York City, New York, 10314, United States of America","place_id":"126360439","datatype":"locationiq"},{"name":"Wendy's","code":null,"latitude":42.012752,"longitude":-87.806228,"address":"7243 N. Harlem, Niles IL","chain_name":null,"distance":0,"street_number":"7243","street_name":"North Harlem Avenue","zip":"60712","city":"Chicago","area":null,"county":"Cook County","state":"Illinois","country":"us","formatted_address":"Wendy's, 7243, North Harlem Avenue, Edison Park, Chicago, Cook County, Illinois, 60712, United States of America","place_id":"166721142","datatype":"locationiq"},{"name":"Wendy's","code":null,"latitude":38.603019,"longitude":-121.267817,"address":"2710 Sunrise Blvd., Rancho Cordova CA","chain_name":null,"distance":0,"street_number":"2710","street_name":"Sunrise Boulevard","zip":"95742","city":"Rancho Cordova","area":null,"county":"Sacramento County","state":"California","country":"us","formatted_address":"Wendy's, 2710, Sunrise Boulevard, Rancho Cordova, Sacramento County, California, 95742, United States of America","place_id":"162634229","datatype":"locationiq"},{"name":"Wendy's","code":null,"latitude":40.7437123,"longitude":-73.6108249,"address":"820 Old Country Road, Garden City NY","chain_name":null,"distance":0,"street_number":null,"street_name":"Old Country Road","zip":"11514","city":null,"area":null,"county":"Nassau","state":"New York","country":"us","formatted_address":"Old Country Road, East Garden City, Nassau, New York, 11514, United States of America","place_id":"160403731","datatype":"locationiq"},{"name":"Wendy's","code":null,"latitude":40.9315166,"longitude":-72.6777001,"address":"1165 Rt 58, Riverhead NY","chain_name":null,"distance":0,"street_number":"1133","street_name":"Old Country Road","zip":"11901","city":null,"area":null,"county":"Suffolk County","state":"New York","country":"us","formatted_address":"1133, Old Country Road, Riverhead, Suffolk County, New York, 11901, United States of America","place_id":"167935817","datatype":"locationiq"},{"name":"Wendy's","code":null,"latitude":42.1567744,"longitude":-75.8962057,"address":"1251 Front Street, Binghamton NY","chain_name":null,"distance":0,"street_number":null,"street_name":"Upper Front Street","zip":"13905","city":null,"area":null,"county":"Broome County","state":"New York","country":"us","formatted_address":"Wendy's, Upper Front Street, Hinmans Corners, Chenango Town, Broome County, New York, 13905, United States of America","place_id":"56196658","datatype":"locationiq"},{"name":"Wendy's","code":null,"latitude":42.1016007,"longitude":-75.8357825,"address":"2 Industrial Drive, Binghamton NY","chain_name":null,"distance":0,"street_number":null,"street_name":"Industrial Park Drive","zip":"13904","city":null,"area":null,"county":"Broome County","state":"New York","country":"us","formatted_address":"Loves' #403 - Binghamton, Industrial Park Drive, Fivemile Point, Kirkwood Town, Broome County, New York, 13904, United States of America","place_id":"119901776","datatype":"locationiq"},{"name":"Wendy's","code":null,"latitude":39.331005,"longitude":-74.593709,"address":"22 Bethel Road, Somers Point NJ","chain_name":null,"distance":0,"street_number":null,"street_name":"Bethel Road","zip":"08244","city":"Somers Point","area":null,"county":"Atlantic County","state":"New Jersey","country":"us","formatted_address":"Cape Savings Bank, Bethel Road, Somers Point Plaza, Somers Point, Atlantic County, New Jersey, 08244, United States of America","place_id":"1491560","datatype":"locationiq"},{"name":"Wendy's","code":null,"latitude":36.900942,"longitude":-82.0801309,"address":"Rt 4 Box 27C, Lebanon VA","chain_name":null,"distance":0,"street_number":"551","street_name":"Main Street","zip":"24266","city":null,"area":null,"county":"Russell County","state":"Virginia","country":"us","formatted_address":"551, Main Street, Lebanon, Russell County, Virginia, 24266, United States of America","place_id":"10317744","datatype":"locationiq"},{"name":"Wendy's","code":null,"latitude":28.059374,"longitude":-81.815308,"address":"2124 US Highway 92 W, Auburndale FL","chain_name":null,"distance":0,"street_number":null,"street_name":"Gabarone Boulevard","zip":"33823","city":null,"area":null,"county":"Polk County","state":"Florida","country":"us","formatted_address":"Gabarone Boulevard, Auburndale, Polk County, Florida, 33823, United States of America","place_id":"65985394","datatype":"locationiq"},{"name":"Wendy's","code":null,"latitude":33.6982039,"longitude":-84.408426,"address":"2096 Stewart Avenue Sw, Atlanta GA","chain_name":null,"distance":0,"street_number":"2091","street_name":"Metropolitan Parkway Southwest","zip":"30315","city":"Atlanta","area":"Greenwood Trailer Park","county":"Fulton County","state":"Georgia","country":"us","formatted_address":"2091, Metropolitan Parkway Southwest, Greenwood Trailer Park, Plunket Town, Atlanta, Fulton County, Georgia, 30315, United States of America","place_id":"132647070","datatype":"locationiq"},{"name":"Wendy's","code":null,"latitude":35.95113,"longitude":-83.9150389,"address":"2401 Chapman Highway, Knoxville TN","chain_name":null,"distance":0,"street_number":"132","street_name":"Fort Avenue","zip":"37920","city":"Knoxville","area":null,"county":"Knox County","state":"Tennessee","country":"us","formatted_address":"132, Fort Avenue, Fort Sanders, Knoxville, Knox County, Tennessee, 37920, United States of America","place_id":"203850425","datatype":"locationiq"},{"name":"Wendy's","code":null,"latitude":40.751134,"longitude":-73.421415,"address":"2123 Broadhollow Rd., Farmingdale NY","chain_name":null,"distance":0,"street_number":"2125","street_name":"Broad Hollow Road","zip":"11735","city":null,"area":null,"county":"Suffolk County","state":"New York","country":"us","formatted_address":"2125, Broad Hollow Road, Melville, Suffolk County, New York, 11735, United States of America","place_id":"169122662","datatype":"locationiq"},{"name":"Wendy's","code":null,"latitude":41.534368,"longitude":-73.898861,"address":"25 Elm Street, Fishkill NY","chain_name":null,"distance":0,"street_number":null,"street_name":"Elm Street","zip":"12524","city":null,"area":null,"county":"Dutchess County","state":"New York","country":"us","formatted_address":"Wendy's, Elm Street, Fishkill, Town of Fishkill, Dutchess County, New York, 12524, United States of America","place_id":"2775755","datatype":"locationiq"},{"name":"Wendy's","code":null,"latitude":33.639882,"longitude":-86.613538,"address":"1101 N Chalkville Rd, Trussville AL","chain_name":null,"distance":0,"street_number":null,"street_name":"Chalkville Road","zip":"35173","city":"Trussville","area":null,"county":"Jefferson County","state":"Alabama","country":"us","formatted_address":"Wendy's, Chalkville Road, Trussville, Jefferson County, Alabama, 35173, United States of America","place_id":"22347721","datatype":"locationiq"},{"name":"Wendy's","code":null,"latitude":41.7839511,"longitude":-74.7288934,"address":"43 Sullivan Avenue, Liberty NY","chain_name":null,"distance":0,"street_number":null,"street_name":"Sullivan Avenue","zip":"12754","city":null,"area":null,"county":"Sullivan County","state":"New York","country":"us","formatted_address":"Wendy's, Sullivan Avenue, Liberty, Town of Liberty, Sullivan County, New York, 12754, United States of America","place_id":"124006832","datatype":"locationiq"},{"name":"Wendy's","code":null,"latitude":37.932487,"longitude":-79.231081,"address":"713 Oakland Circle, Raphine VA","chain_name":null,"distance":0,"street_number":"788","street_name":"Oakland Circle","zip":"24472","city":null,"area":null,"county":"Rockbridge County","state":"Virginia","country":"us","formatted_address":"788, Oakland Circle, Raphine, Rockbridge County, Virginia, 24472, United States of America","place_id":"207810929","datatype":"locationiq"},{"name":"Wendy's","code":null,"latitude":37.66406,"longitude":-97.293891,"address":"3601 East Harry Street, Wichita KS","chain_name":null,"distance":0,"street_number":"3601","street_name":"East Harry Street","zip":"67218","city":"Wichita","area":null,"county":"Sedgwick County","state":"Kansas","country":"us","formatted_address":"Wendy's, 3601, East Harry Street, Wichita, Sedgwick County, Kansas, 67218, United States of America","place_id":"18159239","datatype":"locationiq"},{"name":"Wendy's","code":null,"latitude":42.964992,"longitude":-71.4471548,"address":"675 South Willow St., Manchester NH","chain_name":null,"distance":0,"street_number":"675","street_name":"South Willow Street","zip":"03103","city":"Manchester","area":null,"county":"Hillsborough County","state":"New Hampshire","country":"us","formatted_address":"Wendy's, 675, South Willow Street, Willow Tree Plaza, Manchester, Hillsborough County, New Hampshire, 03103, United States of America","place_id":"87600917","datatype":"locationiq"},{"name":"Wendy's","code":null,"latitude":36.0895129,"longitude":-95.905342,"address":"6148 E. 51ST Street, Tulsa OK","chain_name":null,"distance":0,"street_number":"5116","street_name":"South Sheridan Road","zip":"74145","city":"Tulsa","area":"Park Plaza 6 & 7","county":"Tulsa County","state":"Oklahoma","country":"us","formatted_address":"5116, South Sheridan Road, Park Plaza 6 & 7, Tulsa, Tulsa County, Oklahoma, 74145, United States of America","place_id":"124275293","datatype":"locationiq"},{"name":"Wendy's","code":null,"latitude":36.0345358,"longitude":-115.0470444,"address":"76 N. Stephanie Street, Henderson NV","chain_name":null,"distance":0,"street_number":"1501","street_name":"Wigwam Parkway","zip":"89074","city":"Henderson","area":null,"county":"Clark County","state":"Nevada","country":"us","formatted_address":"1501, Wigwam Parkway, Macdonald Ranch, Henderson, Clark County, Nevada, 89074, United States of America","place_id":"194874265","datatype":"locationiq"},{"name":"Wendy's","code":null,"latitude":40.777471,"longitude":-82.474299,"address":"1145 Ashland Rd., Mansfield OH","chain_name":null,"distance":0,"street_number":"1125","street_name":"Ashland Road","zip":"44905","city":"Mansfield","area":null,"county":"Richland County","state":"Ohio","country":"us","formatted_address":"1125, Ashland Road, Mansfield, Madison Township, Richland County, Ohio, 44905, United States of America","place_id":"199783142","datatype":"locationiq"},{"name":"Wendy's","code":null,"latitude":34.565028,"longitude":-87.009348,"address":"1422 Beltline Sw, Decatur AL","chain_name":null,"distance":0,"street_number":"1579","street_name":"Beltline Road Southwest","zip":"35601","city":"Decatur","area":null,"county":"Morgan County","state":"Alabama","country":"us","formatted_address":"1579, Beltline Road Southwest, Decatur, Morgan County, Alabama, 35601, United States of America","place_id":"176633562","datatype":"locationiq"},{"name":"Wendy's","code":null,"latitude":36.060471,"longitude":-87.375594,"address":"530 Highway 46 S, Dickson TN","chain_name":null,"distance":0,"street_number":null,"street_name":"SR 46","zip":"37055","city":null,"area":null,"county":"Dickson County","state":"Tennessee","country":"us","formatted_address":"SR 46, Dickson, Dickson County, Tennessee, 37055, United States of America","place_id":"63339026","datatype":"locationiq"},{"name":"Wendy's","code":null,"latitude":41.4121623,"longitude":-82.2092208,"address":"604 North Levitt, Amherst OH","chain_name":null,"distance":0,"street_number":"550","street_name":"North Leavitt Road","zip":"44001","city":"Amherst","area":null,"county":"Lorain County","state":"Ohio","country":"us","formatted_address":"550, North Leavitt Road, Amherst, Amherst Township, Lorain County, Ohio, 44001, United States of America","place_id":"199478213","datatype":"locationiq"},{"name":"Wendy's","code":null,"latitude":33.509136,"longitude":-82.026797,"address":"2738 Washington Rd., Augusta GA","chain_name":null,"distance":0,"street_number":"2744","street_name":"Washington Road","zip":"30909","city":null,"area":null,"county":"Richmond County","state":"Georgia","country":"us","formatted_address":"2744, Washington Road, Windsor Court, Richmond County, Georgia, 30909, United States of America","place_id":"184162894","datatype":"locationiq"},{"name":"Wendy's","code":null,"latitude":31.24527,"longitude":-85.427649,"address":"3456 Ross Clark Circle Nw, Dothan AL","chain_name":null,"distance":0,"street_number":"3458","street_name":"Ross Clark Circle","zip":"36303","city":"Dothan","area":null,"county":"Houston County","state":"Alabama","country":"us","formatted_address":"3458, Ross Clark Circle, Dothan, Houston County, Alabama, 36303, United States of America","place_id":"176296125","datatype":"locationiq"},{"name":"Wendy's","code":null,"latitude":45.7845622,"longitude":-108.6196611,"address":"4077 Grand Avenue, Billings MT","chain_name":null,"distance":0,"street_number":null,"street_name":"Grand Avenue","zip":"59102","city":"Billings","area":null,"county":"Yellowstone County","state":"Montana","country":"us","formatted_address":"Wendy's, Grand Avenue, Billings, Yellowstone County, Montana, 59102, United States of America","place_id":"55215956","datatype":"locationiq"},{"name":"Wendy's","code":null,"latitude":45.0361809,"longitude":-92.8118373,"address":"14560 No 60th Street, Oak Park Hts. MN","chain_name":null,"distance":0,"street_number":null,"street_name":"60th Street North (North Frontage Road)","zip":"55082","city":"Oak Park Heights","area":null,"county":"Washington County","state":"Minnesota","country":"us","formatted_address":"60th Street North (North Frontage Road), Oak Park Heights, Washington County, Minnesota, 55082, United States of America","place_id":"70308866","datatype":"locationiq"},{"name":"Wendy's","code":null,"latitude":38.252073,"longitude":-85.756873,"address":"411 S. 4th St, Louisville KY","chain_name":null,"distance":0,"street_number":null,"street_name":"South 4th Street","zip":"40214","city":"Louisville","area":null,"county":"Jefferson County","state":"Kentucky","country":"us","formatted_address":"Kaufman-Strauss Building, South 4th Street, Fourth Street Live!, Louisville, Jefferson County, Kentucky, 40214, United States of America","place_id":"144937140","datatype":"locationiq"},{"name":"Wendy's","code":null,"latitude":41.2332776,"longitude":-77.020619,"address":"111 Maynard St, Williamsport PA","chain_name":null,"distance":0,"street_number":null,"street_name":"Maynard Street","zip":"17702","city":"Williamsport","area":null,"county":"Lycoming County","state":"Pennsylvania","country":"us","formatted_address":"Maynard Street, Williamsport, Lycoming County, Pennsylvania, 17702, United States of America","place_id":"173184136","datatype":"locationiq"},{"name":"Wendy's","code":null,"latitude":36.106008,"longitude":-79.827138,"address":"2517 Battleground Ave, Greensboro NC","chain_name":null,"distance":0,"street_number":"2701","street_name":"Pinedale Road","zip":"27408","city":"Greensboro","area":null,"county":"Guilford County","state":"North Carolina","country":"us","formatted_address":"2701, Pinedale Road, Greensboro, Guilford County, North Carolina, 27408, United States of America","place_id":"197648071","datatype":"locationiq"},{"name":"Wendy's","code":null,"latitude":38.8117563,"longitude":-104.8219015,"address":"1541 S. Nevada Ave., Colorado Spgs. CO","chain_name":null,"distance":0,"street_number":"1599","street_name":"South Nevada Avenue","zip":"80905","city":"Colorado Springs","area":"Lowell Neighborhood","county":"El Paso County","state":"Colorado","country":"us","formatted_address":"1599, South Nevada Avenue, Lowell Neighborhood, Colorado Springs, El Paso County, Colorado, 80905, United States of America","place_id":"180824667","datatype":"locationiq"},{"name":"Wendy's","code":null,"latitude":25.849423,"longitude":-80.2413849,"address":"8295 Northwest 27th Ave, Miami FL","chain_name":null,"distance":0,"street_number":"8295","street_name":"Northwest 27th Avenue","zip":"33147","city":null,"area":null,"county":"Miami-Dade County","state":"Florida","country":"us","formatted_address":"8295, Northwest 27th Avenue, Opa-locka, Northwest Trailer Park, Miami-Dade County, Florida, 33147, United States of America","place_id":"163286384","datatype":"locationiq"},{"name":"Wendy's","code":null,"latitude":33.9819624,"longitude":-81.0627569,"address":"823 Knox Abbott Dr., Cayce SC","chain_name":null,"distance":0,"street_number":"859","street_name":"Knox Abbott Drive","zip":"29033","city":"West Columbia","area":"Triangle City","county":"Lexington County","state":"South Carolina","country":"us","formatted_address":"859, Knox Abbott Drive, Triangle City, West Columbia, Lexington County, South Carolina, 29033, United States of America","place_id":"203011196","datatype":"locationiq"},{"name":"Wendy's","code":null,"latitude":39.009011,"longitude":-94.466637,"address":"9708 E 63RD St., Raytown MO","chain_name":null,"distance":0,"street_number":"6282","street_name":"Raytown Trafficway","zip":"64133","city":"Raytown","area":null,"county":"Jackson County","state":"Missouri","country":"us","formatted_address":"6282, Raytown Trafficway, Raytown, Jackson County, Missouri, 64133, United States of America","place_id":"193650900","datatype":"locationiq"},{"name":"Wendy's","code":null,"latitude":34.201838,"longitude":-92.032693,"address":"2909 West 28th Avenue, Pine Bluff AR","chain_name":null,"distance":0,"street_number":"2911","street_name":"West 28th Avenue","zip":"71603","city":null,"area":null,"county":"Jefferson County","state":"Arkansas","country":"us","formatted_address":"2911, West 28th Avenue, Pine Bluff, Jefferson County, Arkansas, 71603, United States of America","place_id":"177781261","datatype":"locationiq"},{"name":"Wendy's","code":null,"latitude":40.4329367,"longitude":-78.4157532,"address":"1230 Old Route 220 North, Duncansville PA","chain_name":null,"distance":0,"street_number":null,"street_name":"Old Rt 220 North","zip":"16635","city":null,"area":null,"county":"Blair County","state":"Pennsylvania","country":"us","formatted_address":"Hoss's Steak & Sea, Old Rt 220 North, Stiffler, Blair County, Pennsylvania, 16635, United States of America","place_id":"41090295","datatype":"locationiq"},{"name":"Wendy's","code":null,"latitude":46.4013775,"longitude":-117.0011657,"address":"1819 21ST St, Lewiston ID","chain_name":null,"distance":0,"street_number":null,"street_name":"21st Street","zip":"83501","city":"Lewiston","area":null,"county":"Nez Perce County","state":"Idaho","country":"us","formatted_address":"Wendy's, 21st Street, Lewiston, Nez Perce County, Idaho, 83501, United States of America","place_id":"129253613","datatype":"locationiq"},{"name":"Wendy's","code":null,"latitude":34.4184182,"longitude":-117.2841384,"address":"17375 Main Street, Hesperia CA","chain_name":null,"distance":0,"street_number":"17341","street_name":"Main Street","zip":"92345","city":null,"area":null,"county":"San Bernardino County","state":"California","country":"us","formatted_address":"17341, Main Street, Hesperia, San Bernardino County, California, 92345, United States of America","place_id":"179601510","datatype":"locationiq"},{"name":"Wendy's","code":null,"latitude":39.031112,"longitude":-76.913578,"address":"10634 Baltimore Boulevard, Beltsville MD","chain_name":null,"distance":0,"street_number":null,"street_name":"Baltimore Avenue","zip":"20705; 20740","city":null,"area":"Orchard View","county":"Prince George's County","state":"Maryland","country":"us","formatted_address":"Wendy's, Baltimore Avenue, Orchard View, Beltsville, Prince George's County, Maryland, 20705; 20740, United States of America","place_id":"45419876","datatype":"locationiq"},{"name":"Wendy's","code":null,"latitude":27.7509781,"longitude":-97.4182334,"address":"4105 Ayers, Corpus Christi TX","chain_name":null,"distance":0,"street_number":"4155","street_name":"Ayers Street","zip":"78415","city":"Corpus Christi","area":null,"county":"Nueces County","state":"Texas","country":"us","formatted_address":"4155, Ayers Street, Corpus Christi, Nueces County, Texas, 78415, United States of America","place_id":"206061190","datatype":"locationiq"},{"name":"Wendy's","code":null,"latitude":40.4059128,"longitude":-74.2994194,"address":"2617 Route 516, Old Bridge NJ","chain_name":null,"distance":0,"street_number":"136","street_name":"Rock Hill Road","zip":"08857","city":"Old Bridge Township","area":"Cottrell Corners","county":"Middlesex County","state":"New Jersey","country":"us","formatted_address":"136, Rock Hill Road, Cottrell Corners, Old Bridge Township, Middlesex County, New Jersey, 08857, United States of America","place_id":"195519408","datatype":"locationiq"},{"name":"Wendy's","code":null,"latitude":37.240467,"longitude":-93.307046,"address":"1312 W. Kearney, Springfield MO","chain_name":null,"distance":0,"street_number":"1330","street_name":"West Kearney Street","zip":"65803","city":"Springfield","area":null,"county":"Greene County","state":"Missouri","country":"us","formatted_address":"1330, West Kearney Street, Springfield, Greene County, Missouri, 65803, United States of America","place_id":"193518701","datatype":"locationiq"},{"name":"Wendy's","code":null,"latitude":35.306868,"longitude":-82.457672,"address":"607 Spartanburg Hwy, Hendersonville NC","chain_name":null,"distance":0,"street_number":"601","street_name":"Spartanburg Highway","zip":"28792","city":null,"area":null,"county":"Henderson County","state":"North Carolina","country":"us","formatted_address":"601, Spartanburg Highway, Hendersonville, Henderson County, North Carolina, 28792, United States of America","place_id":"197751963","datatype":"locationiq"},{"name":"Wendy's","code":null,"latitude":40.822928,"longitude":-96.6531621,"address":"930 North 48th Street, Lincoln NE","chain_name":null,"distance":0,"street_number":null,"street_name":"Wilshire Boulevard","zip":"68504","city":"Lincoln","area":null,"county":"Lancaster County","state":"Nebraska","country":"us","formatted_address":"Wendy's, Wilshire Boulevard, Lincoln, Lancaster County, Nebraska, 68504, United States of America","place_id":"23077290","datatype":"locationiq"},{"name":"Wendy's","code":null,"latitude":27.838819,"longitude":-82.695586,"address":"4590 Park Blvd, Pinellas Park FL","chain_name":null,"distance":0,"street_number":null,"street_name":"Park Boulevard","zip":"33781","city":null,"area":"Millbrooke Ranch","county":"Pinellas County","state":"Florida","country":"us","formatted_address":"PARK BLVD & 46TH ST, Park Boulevard, Millbrooke Ranch, Pinellas Park, Pinellas County, Florida, 33781, United States of America","place_id":"9673073","datatype":"locationiq"},{"name":"Wendy's","code":null,"latitude":41.1649511,"longitude":-73.2193755,"address":"2162 Fairfield Avenue, Bridgeport CT","chain_name":null,"distance":0,"street_number":"2162","street_name":"Fairfield Avenue","zip":"06605","city":"Bridgeport","area":null,"county":"Fairfield County","state":"Connecticut","country":"us","formatted_address":"Wendy's, 2162, Fairfield Avenue, Bridgeport, Fairfield County, Connecticut, 06605, United States of America","place_id":"117307935","datatype":"locationiq"},{"name":"Wendy's","code":null,"latitude":36.089636,"longitude":-78.301755,"address":"328 S. Bickett Blvd., Louisburg NC","chain_name":null,"distance":0,"street_number":"328","street_name":"South Bickett Boulevard","zip":"27549","city":null,"area":null,"county":"Franklin County","state":"North Carolina","country":"us","formatted_address":"Wendy's, 328, South Bickett Boulevard, Louisburg, Franklin County, North Carolina, 27549, United States of America","place_id":"156178512","datatype":"locationiq"},{"name":"Wendy's","code":null,"latitude":41.134082,"longitude":-81.643052,"address":"126 Flight Memorial Drive, Fairlawn OH","chain_name":null,"distance":0,"street_number":null,"street_name":"Flight Memorial Parkway","zip":"44333","city":null,"area":null,"county":"Summit County","state":"Ohio","country":"us","formatted_address":"Wendy's, Flight Memorial Parkway, Montrose-Ghent, Bath Township, Summit County, Ohio, 44333, United States of America","place_id":"139938406","datatype":"locationiq"},{"name":"Wendy's","code":null,"latitude":32.730597,"longitude":-97.4119042,"address":"5900 Camp Bowie Blvd., Ft.Worth TX","chain_name":null,"distance":0,"street_number":null,"street_name":"US 377","zip":"76171","city":"Fort Worth","area":null,"county":"Tarrant County","state":"Texas","country":"us","formatted_address":"Wendy's, US 377, Fort Worth, Tarrant County, Texas, 76171, United States of America","place_id":"46136626","datatype":"locationiq"},{"name":"Wendy's","code":null,"latitude":39.3380447,"longitude":-82.9509287,"address":"1137 E. Main Street, Chillicothe OH","chain_name":null,"distance":0,"street_number":"1195","street_name":"East Main Street","zip":"45601","city":"Chillicothe","area":null,"county":"Ross County","state":"Ohio","country":"us","formatted_address":"1195, East Main Street, Chillicothe, Ross County, Ohio, 45601, United States of America","place_id":"199795323","datatype":"locationiq"},{"name":"Wendy's","code":null,"latitude":31.2859547,"longitude":-92.4750794,"address":"4015 Jackson Street, Alexandria LA","chain_name":null,"distance":0,"street_number":"3501","street_name":"Jackson Street","zip":"71303","city":"Alexandria","area":null,"county":"Rapides Parish","state":"Louisiana","country":"us","formatted_address":"3501, Jackson Street, Alexandria, Rapides Parish, Louisiana, 71303, United States of America","place_id":"189199647","datatype":"locationiq"},{"name":"Wendy's","code":null,"latitude":35.5114719,"longitude":-84.3717521,"address":"711 Englewood Road, Madisonville TN","chain_name":null,"distance":0,"street_number":"751","street_name":"Englewood Road","zip":"37354","city":"Madisonville","area":null,"county":"Monroe County","state":"Tennessee","country":"us","formatted_address":"751, Englewood Road, Madisonville, Monroe County, Tennessee, 37354, United States of America","place_id":"203954034","datatype":"locationiq"},{"name":"Wendy's","code":null,"latitude":34.0625033,"longitude":-83.5275474,"address":"5270 Highway 129 North, Jefferson GA","chain_name":null,"distance":0,"street_number":null,"street_name":"Athens Highway","zip":"30549","city":"Arcade","area":null,"county":"Jackson County","state":"Georgia","country":"us","formatted_address":"Athens Highway, Arcade, Jackson County, Georgia, 30549, United States of America","place_id":"132584148","datatype":"locationiq"},{"name":"Wendy's","code":null,"latitude":36.6024246,"longitude":-121.8482634,"address":"1180 Fremont, Seaside CA","chain_name":null,"distance":0,"street_number":"1180","street_name":"Fremont Boulevard","zip":"93955","city":"Del Rey Oaks","area":null,"county":"Monterey County","state":"California","country":"us","formatted_address":"Wendy's, 1180, Fremont Boulevard, Del Rey Oaks, Monterey County, California, 93955, United States of America","place_id":"103812649","datatype":"locationiq"},{"name":"Wendy's","code":null,"latitude":46.0650329,"longitude":-64.8005912,"address":"430 Coverdale Road, Riverview NB","chain_name":null,"distance":0,"street_number":"429","street_name":"Coverdale Road","zip":"E1B3J9","city":null,"area":null,"county":"Albert County","state":"New Brunswick","country":"ca","formatted_address":"Atlantic Superstore, 429, Coverdale Road, Riverview, Albert County, New Brunswick, E1B3J9, Canada","place_id":"111221114","datatype":"locationiq"},{"name":"Wendy's","code":null,"latitude":35.567609,"longitude":-77.355878,"address":"1825 E. Arlington Blvd., Greenville NC","chain_name":null,"distance":0,"street_number":null,"street_name":"Smythwyck Drive","zip":"27858","city":null,"area":null,"county":"Pitt County","state":"North Carolina","country":"us","formatted_address":"Arby's, Smythwyck Drive, Greenville, Pitt County, North Carolina, 27858, United States of America","place_id":"27841606","datatype":"locationiq"},{"name":"Wendy's","code":null,"latitude":40.7976645,"longitude":-73.9399398,"address":"2121-2123 Third Ave., New York NY","chain_name":null,"distance":0,"street_number":"2119","street_name":"3rd Avenue","zip":"10029","city":"New York City","area":"Upper East Side","county":"New York County","state":"New York","country":"us","formatted_address":"2119, 3rd Avenue, Upper East Side, Manhattan, New York County, New York City, New York, 10029, United States of America","place_id":"132809821","datatype":"locationiq"},{"name":"Wendy's","code":null,"latitude":44.6988679,"longitude":-63.5856511,"address":"106 Ilsley Ave Burnside, Dartmouth NS","chain_name":null,"distance":0,"street_number":null,"street_name":"Ilsley Avenue","zip":"B3B 1V8","city":"Dartmouth","area":null,"county":"Halifax Regional Municipality","state":"Nova Scotia","country":"ca","formatted_address":"Wendy's \/ Tim Horton's, Ilsley Avenue, Burnside Industrial Park, Burnside, Dartmouth, Halifax Regional Municipality, Halifax County, Nova Scotia, B3B 1V8, Canada","place_id":"6780188","datatype":"locationiq"},{"name":"Wendy's","code":null,"latitude":30.190122,"longitude":-85.668989,"address":"610 W. 23RD Street, Panama City FL","chain_name":null,"distance":0,"street_number":"568","street_name":"West 23rd Street","zip":"32405","city":"Panama City","area":null,"county":"Bay County","state":"Florida","country":"us","formatted_address":"568, West 23rd Street, Panama City, Bay County, Florida, 32405, United States of America","place_id":"181624987","datatype":"locationiq"},{"name":"Wendy's","code":null,"latitude":33.47154,"longitude":-86.821586,"address":"345 Valley Ave, Birmingham AL","chain_name":null,"distance":0,"street_number":null,"street_name":"Valley Avenue","zip":"35209","city":"Homewood","area":null,"county":"Jefferson County","state":"Alabama","country":"us","formatted_address":"Wendy's, Valley Avenue, Homewood, Jefferson County, Alabama, 35209, United States of America","place_id":"61027439","datatype":"locationiq"},{"name":"Wendy's","code":null,"latitude":36.3505604,"longitude":-92.3664642,"address":"1123 Highway 62 East, Mountain Home AR","chain_name":null,"distance":0,"street_number":"708","street_name":"Cooper Estates Drive","zip":"72653","city":null,"area":null,"county":"Baxter County","state":"Arkansas","country":"us","formatted_address":"708, Cooper Estates Drive, Mountain Home, Baxter County, Arkansas, 72653, United States of America","place_id":"13103642","datatype":"locationiq"},{"name":"Wendy's","code":null,"latitude":31.514039,"longitude":-97.187333,"address":"6001 West Waco Drive, Waco TX","chain_name":null,"distance":0,"street_number":null,"street_name":"West Waco Drive","zip":"76710","city":"Waco","area":null,"county":"McLennan County","state":"Texas","country":"us","formatted_address":"Red Lobster, West Waco Drive, Waco, McLennan County, Texas, 76710, United States of America","place_id":"145026008","datatype":"locationiq"},{"name":"Wendy's","code":null,"latitude":41.1235312,"longitude":-100.7639898,"address":"1202 S. Jeffers St., N.Platte NE","chain_name":null,"distance":0,"street_number":"1234","street_name":"South Jeffers Street","zip":"69101","city":"North Platte","area":null,"county":"Lincoln County","state":"Nebraska","country":"us","formatted_address":"1234, South Jeffers Street, North Platte, Lincoln County, Nebraska, 69101, United States of America","place_id":"194696228","datatype":"locationiq"},{"name":"Wendy's","code":null,"latitude":37.2741471,"longitude":-121.9341574,"address":"2624 S. Bascom, San Jose CA","chain_name":null,"distance":0,"street_number":null,"street_name":"South Bascom Avenue","zip":"95124","city":"San Jos\u00e9","area":null,"county":"Santa Clara County","state":"California","country":"us","formatted_address":"Campbell Cigars, South Bascom Avenue, Buena Vista, San Jos\u00e9, Santa Clara County, California, 95124, United States of America","place_id":"26220267","datatype":"locationiq"},{"name":"Wendy's","code":null,"latitude":37.2465339,"longitude":-76.657295,"address":"1907 Pocahontas Trail, Williamsburg VA","chain_name":null,"distance":0,"street_number":"1907","street_name":"Pocahontas Trail","zip":"23185","city":null,"area":null,"county":"James City County","state":"Virginia","country":"us","formatted_address":"Wendys, 1907, Pocahontas Trail, James City County, Virginia, 23185, United States of America","place_id":"151715237","datatype":"locationiq"},{"name":"Wendy's","code":null,"latitude":35.3916761,"longitude":-97.7067635,"address":"901 E Hwy 152, Mustang OK","chain_name":null,"distance":0,"street_number":null,"street_name":"East SH-152","zip":"73064","city":"Mustang","area":null,"county":"Canadian County","state":"Oklahoma","country":"us","formatted_address":"East SH-152, Mustang, Canadian County, Oklahoma, 73064, United States of America","place_id":"97113807","datatype":"locationiq"},{"name":"Wendy's","code":null,"latitude":38.608519,"longitude":-90.366663,"address":"9604 Manchester Road, Rock Hill MO","chain_name":null,"distance":0,"street_number":null,"street_name":"Manchester Road","zip":"63011","city":"Rock Hill","area":null,"county":"St. Louis County","state":"Missouri","country":"us","formatted_address":"Rock Hill Fire Department, Manchester Road, Rock Hill, St. Louis County, Missouri, 63011, United States of America","place_id":"3605018","datatype":"locationiq"},{"name":"Wendy's","code":null,"latitude":37.28336,"longitude":-83.2254853,"address":"181 Village Ln, Hazard KY","chain_name":null,"distance":0,"street_number":null,"street_name":"Christopher Road","zip":"41729","city":"Hazard","area":null,"county":"Perry County","state":"Kentucky","country":"us","formatted_address":"Christopher Road, Hazard, Perry County, Kentucky, 41729, United States of America","place_id":"69089981","datatype":"locationiq"},{"name":"Wendy's","code":null,"latitude":40.0371693,"longitude":-75.1084699,"address":"501 Adams Ave, Philadelphia PA","chain_name":null,"distance":0,"street_number":"553","street_name":"Adams Avenue","zip":"19120","city":"Philadelphia","area":"Cedar Grove","county":"Philadelphia County","state":"Pennsylvania","country":"us","formatted_address":"553, Adams Avenue, Cedar Grove, Philadelphia, Philadelphia County, Pennsylvania, 19120, United States of America","place_id":"202217666","datatype":"locationiq"},{"name":"Wendy's","code":null,"latitude":36.8379996,"longitude":-75.991855,"address":"5808 N. Hampton, Virginia Beach VA","chain_name":null,"distance":0,"street_number":"997","street_name":"Atlantis Drive","zip":"23451","city":"Virginia Beach","area":"Lake View","county":null,"state":"Virginia","country":"us","formatted_address":"997, Atlantis Drive, Lake View, Seatack, Virginia Beach, Virginia, 23451, United States of America","place_id":"157258584","datatype":"locationiq"},{"name":"Wendy's","code":null,"latitude":38.908945,"longitude":-77.00536,"address":"100 New York Ave Ne, Washington DC","chain_name":null,"distance":0,"street_number":null,"street_name":"New York Avenue Northeast","zip":"20401","city":"Washington","area":"NoMa","county":null,"state":"District of Columbia","country":"us","formatted_address":"Wendy's, New York Avenue Northeast, NoMa, Capitol Hill, Washington, District of Columbia, 20401, United States of America","place_id":"84380943","datatype":"locationiq"},{"name":"Wendy's","code":null,"latitude":32.5693901,"longitude":-116.9525796,"address":"1497 Piper Ranch Road, San Diego CA","chain_name":null,"distance":0,"street_number":"1497","street_name":"Piper Ranch Road","zip":"91254","city":"San Diego","area":null,"county":"San Diego County","state":"California","country":"us","formatted_address":"1497, Piper Ranch Road, San Diego, San Diego County, California, 91254, United States of America","place_id":"6576234","datatype":"locationiq"},{"name":"Wendy's","code":null,"latitude":39.085422,"longitude":-84.480774,"address":"57 Carothers Rd, Newport KY","chain_name":null,"distance":0,"street_number":null,"street_name":"Carothers Road","zip":"41071","city":"Newport","area":null,"county":"Campbell County","state":"Kentucky","country":"us","formatted_address":"Wendy's, Carothers Road, Newport, Campbell County, Kentucky, 41071, United States of America","place_id":"110283549","datatype":"locationiq"},{"name":"Wendy's","code":null,"latitude":30.430884,"longitude":-84.2479,"address":"1901 Apalachee Pkwy., Tallahassee FL","chain_name":null,"distance":0,"street_number":null,"street_name":"Apalachee Parkway","zip":"32301","city":"Tallahassee","area":null,"county":"Leon County","state":"Florida","country":"us","formatted_address":"Wendy's, Apalachee Parkway, Tallahassee, Leon County, Florida, 32301, United States of America","place_id":"123839240","datatype":"locationiq"},{"name":"Wendy's","code":null,"latitude":27.6862535,"longitude":-97.3828252,"address":"6438 S. Staples, Corpus Christi TX","chain_name":null,"distance":0,"street_number":null,"street_name":"South Staples Street","zip":"78412","city":"Corpus Christi","area":null,"county":"Nueces County","state":"Texas","country":"us","formatted_address":"Wendy's, South Staples Street, Corpus Christi, Nueces County, Texas, 78412, United States of America","place_id":"135964455","datatype":"locationiq"},{"name":"Wendy's","code":null,"latitude":46.5375685,"longitude":-84.3189734,"address":"389 Great Northern Road, Sault Ste Marie ON","chain_name":null,"distance":0,"street_number":"371","street_name":"Great Northern Road","zip":"P6B 4Z5","city":"Sault Ste. Marie","area":null,"county":null,"state":"Ontario","country":"ca","formatted_address":"371, Great Northern Road, Sault Ste. Marie, Ontario, P6B 4Z5, Canada","place_id":"9393954","datatype":"locationiq"},{"name":"Wendy's","code":null,"latitude":40.7348599,"longitude":-96.6027175,"address":"8601 Andermatt Drive, Lincoln NE","chain_name":null,"distance":0,"street_number":null,"street_name":"Andermatt Drive","zip":"68526","city":"Lincoln","area":null,"county":"Lancaster County","state":"Nebraska","country":"us","formatted_address":"Wendy's, Andermatt Drive, Lincoln, Lancaster County, Nebraska, 68526, United States of America","place_id":"114769596","datatype":"locationiq"},{"name":"Wendy's","code":null,"latitude":37.5205583,"longitude":-82.5681238,"address":"3868 North Mayo Trail, Pikeville KY","chain_name":null,"distance":0,"street_number":null,"street_name":"North Mayo Trail","zip":"41501","city":"Coal Run Village","area":null,"county":"Pike County","state":"Kentucky","country":"us","formatted_address":"North Mayo Trail, Coal Run Village, Pike County, Kentucky, 41501, United States of America","place_id":"81956729","datatype":"locationiq"},{"name":"Wendy's","code":null,"latitude":45.001642,"longitude":-93.2113477,"address":"1251 Industrial Boulevard, Minneapolis MN","chain_name":null,"distance":0,"street_number":null,"street_name":"Northeast Industrial Boulevard","zip":"55413","city":"Minneapolis","area":"Northeast Park","county":"Hennepin County","state":"Minnesota","country":"us","formatted_address":"Wendy's, Northeast Industrial Boulevard, Northeast Park, Northeast, Minneapolis, Hennepin County, Minnesota, 55413, United States of America","place_id":"95920477","datatype":"locationiq"},{"name":"Wendy's","code":null,"latitude":34.2623498,"longitude":-119.2119342,"address":"1401 Victoria, Ventura CA","chain_name":null,"distance":0,"street_number":null,"street_name":"South Victoria Avenue","zip":"93009","city":"Ventura","area":null,"county":"Ventura County","state":"California","country":"us","formatted_address":"Wendy's, South Victoria Avenue, Ventura, Ventura County, California, 93009, United States of America","place_id":"157627024","datatype":"locationiq"},{"name":"Wendy's","code":null,"latitude":40.8904279,"longitude":-74.2606576,"address":"3107 Willowbrook Mall, Wayne NJ","chain_name":null,"distance":0,"street_number":null,"street_name":"Willowbrook Boulevard","zip":"07470","city":"Wayne","area":null,"county":"Passaic County","state":"New Jersey","country":"us","formatted_address":"Sears, Willowbrook Boulevard, Wayne, Passaic County, New Jersey, 07470, United States of America","place_id":"24544894","datatype":"locationiq"},{"name":"Wendy's","code":null,"latitude":41.8531092,"longitude":-90.1866201,"address":"825 N. Second St., Clinton IA","chain_name":null,"distance":0,"street_number":null,"street_name":"9th Avenue North","zip":"52732","city":"Clinton","area":null,"county":"Clinton County","state":"Iowa","country":"us","formatted_address":"Jimmy John's, 9th Avenue North, Clinton, Clinton County, Iowa, 52732, United States of America","place_id":"165182205","datatype":"locationiq"},{"name":"Wendy's","code":null,"latitude":42.1890547,"longitude":-71.8911885,"address":"688 South Bridge Street, Auburn MA","chain_name":null,"distance":0,"street_number":"55","street_name":"Bridge Street","zip":"01501","city":null,"area":null,"county":"Worcester County","state":"Massachusetts","country":"us","formatted_address":"55, Bridge Street, Auburn, Worcester County, Massachusetts, 01501, United States of America","place_id":"190605336","datatype":"locationiq"},{"name":"Wendy's","code":null,"latitude":40.8933989,"longitude":-74.1157076,"address":"231 US Highway 46, Elmwood Park NJ","chain_name":null,"distance":0,"street_number":"217","street_name":"US 46","zip":"07407","city":"Elmwood Park","area":null,"county":"Bergen County","state":"New Jersey","country":"us","formatted_address":"217, US 46, Elmwood Park, Bergen County, New Jersey, 07407, United States of America","place_id":"195276442","datatype":"locationiq"},{"name":"Wendy's","code":null,"latitude":36.1602636,"longitude":-115.1712859,"address":"844 Rancho Rd, Las Vegas NV","chain_name":null,"distance":0,"street_number":"2160","street_name":"West Charleston Boulevard","zip":"89106","city":"Las Vegas","area":"18b Arts District","county":"Clark County","state":"Nevada","country":"us","formatted_address":"Omelet House, 2160, West Charleston Boulevard, 18b Arts District, Twin Lakes, Las Vegas, Clark County, Nevada, 89106, United States of America","place_id":"43993733","datatype":"locationiq"},{"name":"Wendy's","code":null,"latitude":44.4226943,"longitude":-69.0259695,"address":"22 Belmont Avenue, Belfast ME","chain_name":null,"distance":0,"street_number":"44","street_name":"Belmont Avenue","zip":"04915","city":"Belfast","area":null,"county":"Waldo County","state":"Maine","country":"us","formatted_address":"44, Belmont Avenue, Belfast, Waldo County, Maine, 04915, United States of America","place_id":"189545198","datatype":"locationiq"},{"name":"Wendy's","code":null,"latitude":40.6921305,"longitude":-73.3954544,"address":"1255 Sunrise Highway, Copiague NY","chain_name":null,"distance":0,"street_number":"34","street_name":"35th Street","zip":"11726","city":null,"area":null,"county":"Suffolk County","state":"New York","country":"us","formatted_address":"34, 35th Street, Copiague, Suffolk County, New York, 11726, United States of America","place_id":"169378199","datatype":"locationiq"},{"name":"Wendy's","code":null,"latitude":40.501572,"longitude":-86.8679241,"address":"2029 Northgate Dr, W.Lafayette IN","chain_name":null,"distance":0,"street_number":null,"street_name":"N River Road","zip":"47920","city":null,"area":null,"county":"Tippecanoe County","state":"Indiana","country":"us","formatted_address":"Speedway, N River Road, Battle Ground, Tippecanoe County, Indiana, 47920, United States of America","place_id":"44085325","datatype":"locationiq"},{"name":"Wendy's","code":null,"latitude":38.7881831,"longitude":-90.5658197,"address":"2760 Muegge Road, St.Charles MO","chain_name":null,"distance":0,"street_number":"2717","street_name":"New Muegge Road","zip":"63303","city":"St. Peters","area":null,"county":"St. Charles County","state":"Missouri","country":"us","formatted_address":"2717, New Muegge Road, St. Peters, St. Charles County, Missouri, 63303, United States of America","place_id":"193945925","datatype":"locationiq"},{"name":"Wendy's","code":null,"latitude":46.241563,"longitude":-63.1147445,"address":"385 Grafton St., Charlottetown PE","chain_name":null,"distance":0,"street_number":"385","street_name":"Grafton Street","zip":"C1A 9M5","city":"Charlottetown","area":"Downtown","county":"Queens County","state":"Prince Edward Island","country":"ca","formatted_address":"385, Grafton Street, Downtown, Charlottetown, Queens County, Prince Edward Island, C1A 9M5, Canada","place_id":"21510697","datatype":"locationiq"},{"name":"Wendy's","code":null,"latitude":47.4805752,"longitude":-122.2167825,"address":"230 Rainier Ave. South, Renton WA","chain_name":null,"distance":0,"street_number":null,"street_name":"Rainier Avenue South","zip":"98057","city":"Renton","area":null,"county":"King County","state":"Washington","country":"us","formatted_address":"Wendy's, Rainier Avenue South, Renton, King County, Washington, 98057, United States of America","place_id":"21356192","datatype":"locationiq"},{"name":"Wendy's","code":null,"latitude":41.8035217,"longitude":-89.665254,"address":"2602 E. Lincolnway, Sterling IL","chain_name":null,"distance":0,"street_number":"2640","street_name":"Merrill Street","zip":"61081","city":"Sterling","area":null,"county":"Whiteside County","state":"Illinois","country":"us","formatted_address":"2640, Merrill Street, Sterling, Whiteside County, Illinois, 61081, United States of America","place_id":"185850481","datatype":"locationiq"},{"name":"Wendy's","code":null,"latitude":43.088695,"longitude":-87.902691,"address":"627 E. Capitol Drive, Milwaukee WI","chain_name":null,"distance":0,"street_number":null,"street_name":"West Capitol Drive","zip":"53222","city":"Milwaukee","area":null,"county":"Milwaukee County","state":"Wisconsin","country":"us","formatted_address":"Wendy's, West Capitol Drive, Williamsburg Heights, Milwaukee, Milwaukee County, Wisconsin, 53222, United States of America","place_id":"121942734","datatype":"locationiq"},{"name":"Wendy's","code":null,"latitude":39.774116,"longitude":-104.809142,"address":"4020 Chambers Road, Denver CO","chain_name":null,"distance":0,"street_number":null,"street_name":"Chambers Road","zip":"80239","city":"Denver","area":null,"county":"Denver County","state":"Colorado","country":"us","formatted_address":"Wendy's, Chambers Road, Denver, Denver County, Colorado, 80239, United States of America","place_id":"21443188","datatype":"locationiq"},{"name":"Wendy's","code":null,"latitude":41.471617,"longitude":-87.295646,"address":"3310 East Lincoln Hwy, Merrillville IN","chain_name":null,"distance":0,"street_number":"3364","street_name":"East 81st Avenue","zip":"46410","city":null,"area":null,"county":"Lake County","state":"Indiana","country":"us","formatted_address":"3364, East 81st Avenue, Merrillville, Lake County, Indiana, 46410, United States of America","place_id":"186444717","datatype":"locationiq"},{"name":"Wendy's","code":null,"latitude":33.6243185,"longitude":-97.1500482,"address":"600 W California, Gainesville TX","chain_name":null,"distance":0,"street_number":"600","street_name":"West California Street","zip":"76240","city":"Gainesville","area":null,"county":"Cooke County","state":"Texas","country":"us","formatted_address":"600, West California Street, Gainesville, Cooke County, Texas, 76240, United States of America","place_id":"204771594","datatype":"locationiq"},{"name":"Wendy's","code":null,"latitude":35.569638,"longitude":-82.544301,"address":"776 Biltmore Ave., Asheville NC","chain_name":null,"distance":0,"street_number":"842","street_name":"Biltmore Avenue","zip":"28803","city":"Asheville","area":null,"county":"Buncombe County","state":"North Carolina","country":"us","formatted_address":"842, Biltmore Avenue, Asheville, Buncombe County, North Carolina, 28803, United States of America","place_id":"197242953","datatype":"locationiq"},{"name":"Wendy's","code":null,"latitude":38.3750087,"longitude":-97.6665239,"address":"610 North Main Street, Mcpherson KS","chain_name":null,"distance":0,"street_number":"648","street_name":"North Main Street","zip":"67460","city":null,"area":null,"county":"McPherson County","state":"Kansas","country":"us","formatted_address":"648, North Main Street, McPherson, McPherson County, Kansas, 67460, United States of America","place_id":"188004643","datatype":"locationiq"},{"name":"Wendy's","code":null,"latitude":39.943404,"longitude":-104.938421,"address":"4101 E. 136th Avenue, Thornton CO","chain_name":null,"distance":0,"street_number":null,"street_name":"East 136th Avenue","zip":"80241","city":null,"area":null,"county":"Adams County","state":"Colorado","country":"us","formatted_address":"Wendy's, East 136th Avenue, Hilltop Village, Thornton, Adams County, Colorado, 80241, United States of America","place_id":"80987581","datatype":"locationiq"},{"name":"Wendy's","code":null,"latitude":30.569326,"longitude":-87.289643,"address":"2200 Highway 29 South, Cantonment FL","chain_name":null,"distance":0,"street_number":"2300","street_name":"South Highway 29","zip":"32533","city":null,"area":null,"county":"Escambia County","state":"Florida","country":"us","formatted_address":"Whataburger, 2300, South Highway 29, Gonzalez, Escambia County, Florida, 32533, United States of America","place_id":"130725868","datatype":"locationiq"},{"name":"Wendy's","code":null,"latitude":38.433574,"longitude":-78.844271,"address":"1694 East Market St, Harrisonburg VA","chain_name":null,"distance":0,"street_number":null,"street_name":"East Market Street","zip":"22801","city":"Harrisonburg","area":"Skyline Area","county":null,"state":"Virginia","country":"us","formatted_address":"Wendy's, East Market Street, Skyline Area, Harrisonburg, Virginia, 22801, United States of America","place_id":"57587041","datatype":"locationiq"},{"name":"Wendy's","code":null,"latitude":41.030619,"longitude":-81.490718,"address":"1521 S. Arlington St., Akron OH","chain_name":null,"distance":0,"street_number":"1539","street_name":"South Arlington Street","zip":"44306","city":"Akron","area":"Thomastown","county":"Summit County","state":"Ohio","country":"us","formatted_address":"1539, South Arlington Street, Thomastown, East Akron, Akron, Summit County, Ohio, 44306, United States of America","place_id":"199928341","datatype":"locationiq"},{"name":"Wendy's","code":null,"latitude":32.5058231,"longitude":-93.7389842,"address":"1529 North Market St., Shreveport LA","chain_name":null,"distance":0,"street_number":"1594","street_name":"Market Street","zip":"71101","city":"Shreveport","area":null,"county":"Caddo Parish","state":"Louisiana","country":"us","formatted_address":"1594, Market Street, Shreveport, Caddo Parish, Louisiana, 71101, United States of America","place_id":"188912328","datatype":"locationiq"},{"name":"Wendy's","code":null,"latitude":43.0510499,"longitude":-89.502386,"address":"633 S. Gammon Road, Madison WI","chain_name":null,"distance":0,"street_number":null,"street_name":"South Gammon Road","zip":"53719","city":"Madison","area":null,"county":"Dane County","state":"Wisconsin","country":"us","formatted_address":"Wendy's, South Gammon Road, Madison, Town of Middleton, Dane County, Wisconsin, 53719, United States of America","place_id":"80915577","datatype":"locationiq"},{"name":"Wendy's","code":null,"latitude":41.0733205,"longitude":-74.1421084,"address":"1358 Route 17 North, Ramsey NJ","chain_name":null,"distance":0,"street_number":null,"street_name":"Route 17","zip":"07451","city":"Ramsey","area":"Bear's Cove","county":"Bergen County","state":"New Jersey","country":"us","formatted_address":"Route 17, Bear's Cove, Ramsey, Bergen County, New Jersey, 07451, United States of America","place_id":"149165262","datatype":"locationiq"},{"name":"Wendy's","code":null,"latitude":32.7951734,"longitude":-79.8613551,"address":"935 Chuck Dawley Blvd, Mt.Pleasant SC","chain_name":null,"distance":0,"street_number":null,"street_name":"Ben Sawyer Boulevard","zip":"29464","city":null,"area":null,"county":"Charleston County","state":"South Carolina","country":"us","formatted_address":"Regions Bank, Ben Sawyer Boulevard, Mount Pleasant, Charleston County, South Carolina, 29464, United States of America","place_id":"17670726","datatype":"locationiq"},{"name":"Wendy's","code":null,"latitude":29.3751023,"longitude":-98.4557287,"address":"2422 East Southcross Blvd., San Antonio TX","chain_name":null,"distance":0,"street_number":"2450","street_name":"East Southcross Boulevard","zip":"78223","city":"San Antonio","area":null,"county":"Bexar County","state":"Texas","country":"us","formatted_address":"2450, East Southcross Boulevard, San Antonio, Bexar County, Texas, 78223, United States of America","place_id":"204404908","datatype":"locationiq"},{"name":"Wendy's","code":null,"latitude":39.537171,"longitude":-82.406407,"address":"170 E. Bowen St., Logan OH","chain_name":null,"distance":0,"street_number":null,"street_name":"Bowen Street","zip":"43138","city":"Logan","area":null,"county":"Hocking County","state":"Ohio","country":"us","formatted_address":"Wendy's, Bowen Street, Logan, Hocking County, Ohio, 43138, United States of America","place_id":"25525068","datatype":"locationiq"},{"name":"Wendy's","code":null,"latitude":45.5770681,"longitude":-62.6680935,"address":"750 Westville Road, New Glasgow NS","chain_name":null,"distance":0,"street_number":"754","street_name":"Westville Road","zip":"N1R8L4","city":null,"area":null,"county":"Pictou County","state":"Nova Scotia","country":"ca","formatted_address":"754, Westville Road, New Glasgow, Pictou County, Nova Scotia, N1R8L4, Canada","place_id":"9025250","datatype":"locationiq"},{"name":"Wendy's","code":null,"latitude":34.2721107,"longitude":-118.7672096,"address":"1613 Los Angeles Ave., Simi Valley CA","chain_name":null,"distance":0,"street_number":"1591","street_name":"East Los Angeles Avenue","zip":"93063","city":"Simi Valley","area":null,"county":"Ventura County","state":"California","country":"us","formatted_address":"1591, East Los Angeles Avenue, Simi Valley, Ventura County, California, 93063, United States of America","place_id":"180487027","datatype":"locationiq"},{"name":"Wendy's","code":null,"latitude":34.794704,"longitude":-85.003372,"address":"2080 Chattanooga Road, Dalton GA","chain_name":null,"distance":0,"street_number":null,"street_name":"Chattanooga Road","zip":"30722","city":null,"area":null,"county":"Whitfield County","state":"Georgia","country":"us","formatted_address":"Chattanooga Road, Dalton, Whitfield County, Georgia, 30722, United States of America","place_id":"88081737","datatype":"locationiq"},{"name":"Wendy's","code":null,"latitude":40.858137,"longitude":-74.340721,"address":"23 Route 46 East, Pine Brook NJ","chain_name":null,"distance":0,"street_number":"12","street_name":"Chapin Road","zip":"07058","city":"Montville Township","area":null,"county":"Morris County","state":"New Jersey","country":"us","formatted_address":"12, Chapin Road, Montville Township, Morris County, New Jersey, 07058, United States of America","place_id":"195619656","datatype":"locationiq"},{"name":"Wendy's","code":null,"latitude":40.1608793,"longitude":-111.5769079,"address":"1739 West 400 South, Springville UT","chain_name":null,"distance":0,"street_number":"1778","street_name":"East 400 South Street","zip":"84663","city":"Springville","area":null,"county":"Utah County","state":"Utah","country":"us","formatted_address":"1778, East 400 South Street, Springville, Utah County, Utah, 84663, United States of America","place_id":"206925405","datatype":"locationiq"},{"name":"Wendy's","code":null,"latitude":36.8666523,"longitude":-88.3589916,"address":"312 West 5th Street, Benton KY","chain_name":null,"distance":0,"street_number":"188","street_name":"West 5th Street","zip":"42025","city":"Benton","area":null,"county":"Marshall County","state":"Kentucky","country":"us","formatted_address":"188, West 5th Street, Benton, Marshall County, Kentucky, 42025, United States of America","place_id":"188679879","datatype":"locationiq"},{"name":"Wendy's","code":null,"latitude":37.311556,"longitude":-77.39096,"address":"2126 Ruffin Mill Road, Colonial Hts. VA","chain_name":null,"distance":0,"street_number":null,"street_name":"Ruffin Mill Road","zip":"23834","city":null,"area":null,"county":"Chesterfield County","state":"Virginia","country":"us","formatted_address":"Pilot - Richmond, Ruffin Mill Road, Walthall, Chesterfield County, Virginia, 23834, United States of America","place_id":"120485905","datatype":"locationiq"},{"name":"Wendy's","code":null,"latitude":38.8917173,"longitude":-77.0834846,"address":"2038 Wilson Blvd, Arlington VA","chain_name":null,"distance":0,"street_number":null,"street_name":"North Wilson Boulevard","zip":"22205","city":null,"area":null,"county":"Arlington County","state":"Virginia","country":"us","formatted_address":"Courthouse Post Office, North Wilson Boulevard, Court House, Arlington, Arlington County, Virginia, 22205, United States of America","place_id":"2906555","datatype":"locationiq"},{"name":"Wendy's","code":null,"latitude":42.8925381,"longitude":-112.4517265,"address":"929 Yellowstone Ave., Pocatello ID","chain_name":null,"distance":0,"street_number":"1077","street_name":"Yellowstone Avenue","zip":"83201","city":"Pocatello","area":null,"county":"Bannock County","state":"Idaho","country":"us","formatted_address":"1077, Yellowstone Avenue, Pocatello, Bannock County, Idaho, 83201, United States of America","place_id":"184426936","datatype":"locationiq"},{"name":"Wendy's","code":null,"latitude":40.89681,"longitude":-79.907459,"address":"122 Clearview Avenue, Butler PA","chain_name":null,"distance":0,"street_number":null,"street_name":"Clearview Circle","zip":"16001","city":null,"area":null,"county":"Butler County","state":"Pennsylvania","country":"us","formatted_address":"Wendy's, Clearview Circle, Shanor-Northvue, Butler County, Pennsylvania, 16001, United States of America","place_id":"121467599","datatype":"locationiq"},{"name":"Wendy's","code":null,"latitude":32.2365436,"longitude":-110.8779538,"address":"5391 E Speedway, Tucson AZ","chain_name":null,"distance":0,"street_number":"5389","street_name":"East Speedway Boulevard","zip":"85712","city":"Tucson","area":"El Gheko","county":"Pima County","state":"Arizona","country":"us","formatted_address":"5389, East Speedway Boulevard, El Gheko, Tucson, Pima County, Arizona, 85712, United States of America","place_id":"177341325","datatype":"locationiq"},{"name":"Wendy's","code":null,"latitude":40.6891089,"longitude":-80.3191132,"address":"1635 Third Street, Beaver PA","chain_name":null,"distance":0,"street_number":null,"street_name":"3rd Street","zip":"15009","city":"Beaver","area":null,"county":"Beaver County","state":"Pennsylvania","country":"us","formatted_address":"Wendy's, 3rd Street, Beaver, Beaver County, Pennsylvania, 15009, United States of America","place_id":"32651552","datatype":"locationiq"},{"name":"Wendy's","code":null,"latitude":41.508366,"longitude":-87.918672,"address":"2430 E Lincoln Hwy, New Lenox IL","chain_name":null,"distance":0,"street_number":"2432","street_name":"Lincoln Highway","zip":"60451","city":null,"area":null,"county":"Will County","state":"Illinois","country":"us","formatted_address":"2432, Lincoln Highway, Frankfort, Will County, Illinois, 60451, United States of America","place_id":"185876678","datatype":"locationiq"},{"name":"Wendy's","code":null,"latitude":46.093433,"longitude":-64.7579706,"address":"477 Paul St, Dieppe NB","chain_name":null,"distance":0,"street_number":null,"street_name":null,"zip":"E1C1B8","city":"Dieppe","area":null,"county":"Westmorland County","state":"New Brunswick","country":"ca","formatted_address":"TransCanada Trail, Dieppe, Westmorland County, New Brunswick, E1C1B8, Canada","place_id":"140949171","datatype":"locationiq"},{"name":"Wendy's","code":null,"latitude":39.7696479,"longitude":-84.123415,"address":"4873 Airway Road, Dayton OH","chain_name":null,"distance":0,"street_number":"9","street_name":"Harshman Avenue","zip":"45431","city":"Riverside","area":null,"county":"Montgomery County","state":"Ohio","country":"us","formatted_address":"9, Harshman Avenue, Riverside, Montgomery County, Ohio, 45431, United States of America","place_id":"199659939","datatype":"locationiq"},{"name":"Wendy's","code":null,"latitude":32.382684,"longitude":-86.20268,"address":"5755 Atlanta Highway, Montgomery AL","chain_name":null,"distance":0,"street_number":"5715","street_name":"Atlanta Highway","zip":"36117","city":"Montgomery","area":null,"county":"Montgomery County","state":"Alabama","country":"us","formatted_address":"5715, Atlanta Highway, Montgomery, Montgomery County, Alabama, 36117, United States of America","place_id":"176615236","datatype":"locationiq"},{"name":"Wendy's","code":null,"latitude":35.9435984,"longitude":-79.0120799,"address":"100 Scarlet Dr., Chapel Hill NC","chain_name":null,"distance":0,"street_number":null,"street_name":"Old Durham Road","zip":"27517","city":null,"area":null,"county":"Orange County","state":"North Carolina","country":"us","formatted_address":"R&H Mini Mart, Old Durham Road, Chapel Hill, Orange County, North Carolina, 27517, United States of America","place_id":"80622793","datatype":"locationiq"},{"name":"Wendy's","code":null,"latitude":34.2010611,"longitude":-118.5184869,"address":"17684 Sherman Way, Van Nuys CA","chain_name":null,"distance":0,"street_number":"17699","street_name":"Sherman Way","zip":"91406","city":"Los Angeles","area":"Reseda","county":"Los Angeles County","state":"California","country":"us","formatted_address":"17699, Sherman Way, Reseda, Los Angeles, Los Angeles County, California, 91406, United States of America","place_id":"178718518","datatype":"locationiq"},{"name":"Wendy's","code":null,"latitude":36.7506479,"longitude":-95.9399151,"address":"3425 E Frank Phillips Blvd, Bartlesville OK","chain_name":null,"distance":0,"street_number":"3434","street_name":"Southeast Frank Phillips Boulevard","zip":"74006","city":"Bartlesville","area":null,"county":"Washington County","state":"Oklahoma","country":"us","formatted_address":"3434, Southeast Frank Phillips Boulevard, Bartlesville, Washington County, Oklahoma, 74006, United States of America","place_id":"200662351","datatype":"locationiq"},{"name":"Wendy's","code":null,"latitude":41.124169,"longitude":-73.400891,"address":"149 Westport Avenue, Norwalk CT","chain_name":null,"distance":0,"street_number":"133","street_name":"Westport Avenue","zip":"06851","city":"Norwalk","area":null,"county":"Fairfield County","state":"Connecticut","country":"us","formatted_address":"133, Westport Avenue, Norwalk, Fairfield County, Connecticut, 06851, United States of America","place_id":"181201327","datatype":"locationiq"},{"name":"Wendy's","code":null,"latitude":52.1149884,"longitude":-106.6261901,"address":"Grosvenor Pk 2105 8th St, Saskatoon SK","chain_name":null,"distance":0,"street_number":null,"street_name":"8th Street East","zip":"S7H 3C2","city":"Saskatoon","area":"Brevoort Park","county":"Census Division No. 11","state":"Saskatchewan","country":"ca","formatted_address":"7-Eleven, 8th Street East, Brevoort Park, Nutana Suburban Development Area, Saskatoon, Census Division No. 11, Saskatchewan, S7H 3C2, Canada","place_id":"16653804","datatype":"locationiq"},{"name":"Wendy's","code":null,"latitude":32.4288444,"longitude":-94.8643038,"address":"4401 N State Hwy 42, Kilgore TX","chain_name":null,"distance":0,"street_number":"4300","street_name":"Powderhorn Road","zip":"75662","city":null,"area":null,"county":"Gregg County","state":"Texas","country":"us","formatted_address":"4300, Powderhorn Road, Kilgore, Gregg County, Texas, 75662, United States of America","place_id":"205261278","datatype":"locationiq"},{"name":"Wendy's","code":null,"latitude":27.3107174,"longitude":-80.4076342,"address":"1790 SW Saint Lucie West Blvd, Port St.Lucie FL","chain_name":null,"distance":0,"street_number":null,"street_name":"Southwest Paramount Drive","zip":"34986","city":"Port St. Lucie","area":null,"county":"St. Lucie County","state":"Florida","country":"us","formatted_address":"Southwest Paramount Drive, Port St. Lucie, St. Lucie County, Florida, 34986, United States of America","place_id":"97301797","datatype":"locationiq"},{"name":"Wendy's","code":null,"latitude":42.9154103,"longitude":-112.4663316,"address":"4519 Yellowstone Avenue, Chubbuck ID","chain_name":null,"distance":0,"street_number":null,"street_name":"Parrish Lane","zip":"83202","city":"Chubbuck","area":null,"county":"Bannock County","state":"Idaho","country":"us","formatted_address":"Wendy's, Parrish Lane, Chubbuck, Bannock County, Idaho, 83202, United States of America","place_id":"16544545","datatype":"locationiq"},{"name":"Wendy's","code":null,"latitude":26.664218,"longitude":-81.833472,"address":"3900 Palm Beach Blvd, Ft.Myers FL","chain_name":null,"distance":0,"street_number":"3904","street_name":"Palm Beach Boulevard","zip":"33916","city":"Fort Myers","area":null,"county":"Lee County","state":"Florida","country":"us","formatted_address":"3904, Palm Beach Boulevard, Fort Myers, Lee County, Florida, 33916, United States of America","place_id":"182299353","datatype":"locationiq"},{"name":"Wendy's","code":null,"latitude":40.840532,"longitude":-73.9184845,"address":"19 West 170th Street, Bronx NY","chain_name":null,"distance":0,"street_number":"5","street_name":"West 170th Street","zip":"10452","city":"New York City","area":"High Bridge","county":"Bronx County","state":"New York","country":"us","formatted_address":"5, West 170th Street, High Bridge, Bronx County, New York City, New York, 10452, United States of America","place_id":"34237043","datatype":"locationiq"},{"name":"Wendy's","code":null,"latitude":28.2302127,"longitude":-80.7139134,"address":"8245 North Wickham Rd, Melbourne FL","chain_name":null,"distance":0,"street_number":null,"street_name":"North Wickham Road","zip":"32940","city":null,"area":null,"county":"Brevard County","state":"Florida","country":"us","formatted_address":"Wendy's, North Wickham Road, Pineda, Brevard County, Florida, 32940, United States of America","place_id":"109078473","datatype":"locationiq"},{"name":"Wendy's","code":null,"latitude":37.580525,"longitude":-77.4928709,"address":"4805 W Broad Street, Richmond VA","chain_name":null,"distance":0,"street_number":null,"street_name":"West Broad Street","zip":"23230","city":"Richmond City","area":null,"county":null,"state":"Virginia","country":"us","formatted_address":"Wendy's, West Broad Street, Scott's Addition, Richmond, Richmond City, Virginia, 23230, United States of America","place_id":"168925508","datatype":"locationiq"},{"name":"Wendy's","code":null,"latitude":32.6421053,"longitude":-96.7802795,"address":"8787 S. Lancaster Road, Dallas TX","chain_name":null,"distance":0,"street_number":"8787","street_name":"South Lancaster Road","zip":"75241","city":"Dallas","area":null,"county":"Dallas County","state":"Texas","country":"us","formatted_address":"8787, South Lancaster Road, Dallas, Dallas County, Texas, 75241, United States of America","place_id":"136697057","datatype":"locationiq"},{"name":"Wendy's","code":null,"latitude":40.3712202,"longitude":-80.685375,"address":"100 Main Street, Wintersville OH","chain_name":null,"distance":0,"street_number":"2206","street_name":"Sunset Boulevard","zip":"43953","city":null,"area":null,"county":"Jefferson County","state":"Ohio","country":"us","formatted_address":"Wendy's, 2206, Sunset Boulevard, Wintersville, Jefferson County, Ohio, 43953, United States of America","place_id":"55316866","datatype":"locationiq"},{"name":"Wendy's","code":null,"latitude":38.833256,"longitude":-77.206153,"address":"7530 Little River Tpke, Annandale VA","chain_name":null,"distance":0,"street_number":null,"street_name":"Little River Turnpike","zip":"22031","city":null,"area":null,"county":"Fairfax County","state":"Virginia","country":"us","formatted_address":"Wendy's, Little River Turnpike, Annandale, Fairfax County, Virginia, 22031, United States of America","place_id":"125758065","datatype":"locationiq"},{"name":"Wendy's","code":null,"latitude":38.8932669,"longitude":-77.427421,"address":"13902 Lee Jackson Mem Hwy, Chantilly VA","chain_name":null,"distance":0,"street_number":null,"street_name":"Lee Jackson Memorial Highway","zip":"20151","city":null,"area":null,"county":"Fairfax County","state":"Virginia","country":"us","formatted_address":"Wendy's, Lee Jackson Memorial Highway, Chantilly, Fairfax County, Virginia, 20151, United States of America","place_id":"103772485","datatype":"locationiq"},{"name":"Wendy's","code":null,"latitude":45.2565457,"longitude":-66.0941492,"address":"158 Main Street, Saint John NB","chain_name":null,"distance":0,"street_number":"150","street_name":"Main Street West","zip":"E5K1Z1","city":"Saint John","area":null,"county":"Saint John County","state":"New Brunswick","country":"ca","formatted_address":"Romano's Pizza, 150, Main Street West, Irving Pulp and Paper, Purdys Corner, Saint John, Saint John County, New Brunswick, E5K1Z1, Canada","place_id":"111111001","datatype":"locationiq"},{"name":"Wendy's","code":null,"latitude":32.042107,"longitude":-81.064671,"address":"2020 Victory Dr, Savannah GA","chain_name":null,"distance":0,"street_number":"2070","street_name":"East Victory Drive","zip":"31404","city":null,"area":null,"county":"Chatham County","state":"Georgia","country":"us","formatted_address":"2070, East Victory Drive, Thunderbolt, Chatham County, Georgia, 31404, United States of America","place_id":"183437582","datatype":"locationiq"},{"name":"Wendy's","code":null,"latitude":43.6987359,"longitude":-79.7773625,"address":"353 Main St North, Brampton ON","chain_name":null,"distance":0,"street_number":"485","street_name":"Main Street North","zip":"L6X 3P1","city":"Brampton","area":null,"county":"Peel Region","state":"Ontario","country":"ca","formatted_address":"485, Main Street North, Ridgehill, Brampton, Peel Region, Ontario, L6X 3P1, Canada","place_id":"8467885","datatype":"locationiq"},{"name":"Wendy's","code":null,"latitude":32.617775,"longitude":-83.685577,"address":"2925 Watson Road, Warner Robins GA","chain_name":null,"distance":0,"street_number":null,"street_name":"Watson Boulevard","zip":"31028:31088","city":"Warner Robins","area":null,"county":"Houston County","state":"Georgia","country":"us","formatted_address":"Wendy's, Watson Boulevard, Warner Robins, Houston County, Georgia, 31028:31088, United States of America","place_id":"52995948","datatype":"locationiq"},{"name":"Wendy's","code":null,"latitude":33.7893489,"longitude":-117.8920548,"address":"3739 W. Chapman Ave., Orange CA","chain_name":null,"distance":0,"street_number":null,"street_name":"Chapman Avenue","zip":"92868","city":"Orange","area":null,"county":"Orange County","state":"California","country":"us","formatted_address":"Wendy's, Chapman Avenue, Orange, Orange County, California, 92868, United States of America","place_id":"111954453","datatype":"locationiq"},{"name":"Wendy's","code":null,"latitude":38.8295811,"longitude":-77.1896182,"address":"7042 Little River Turnpike, Annandale VA","chain_name":null,"distance":0,"street_number":null,"street_name":"John Marr Drive","zip":"22003","city":null,"area":null,"county":"Fairfax County","state":"Virginia","country":"us","formatted_address":"Wendy's, John Marr Drive, Annandale, Fairfax County, Virginia, 22003, United States of America","place_id":"104088553","datatype":"locationiq"},{"name":"Wendy's","code":null,"latitude":33.9752539,"longitude":-117.5592589,"address":"12614 Limonite Ave, Corona CA","chain_name":null,"distance":0,"street_number":null,"street_name":"Limonite Avenue","zip":"92880","city":"Eastvale","area":null,"county":"Riverside County","state":"California","country":"us","formatted_address":"US Bank, Limonite Avenue, Mira Loma, Eastvale, Riverside County, California, 92880, United States of America","place_id":"172046955","datatype":"locationiq"},{"name":"Wendy's","code":null,"latitude":29.440552,"longitude":-81.511736,"address":"775 North Summit Street, Crescent City FL","chain_name":null,"distance":0,"street_number":null,"street_name":"Summit Street","zip":"32112","city":null,"area":null,"county":"Putnam County","state":"Florida","country":"us","formatted_address":"Summit Street, Crescent City, Putnam County, Florida, 32112, United States of America","place_id":"98308320","datatype":"locationiq"},{"name":"Wendy's","code":null,"latitude":47.2194528,"longitude":-122.467984,"address":"4112 S. Steele St., Tacoma WA","chain_name":null,"distance":0,"street_number":"4112","street_name":"South Steele Street","zip":"98409","city":"Tacoma","area":null,"county":"Pierce County","state":"Washington","country":"us","formatted_address":"Wendy's, 4112, South Steele Street, Tacoma, Pierce County, Washington, 98409, United States of America","place_id":"79237015","datatype":"locationiq"},{"name":"Wendy's","code":null,"latitude":40.0251013,"longitude":-86.9020218,"address":"1511 S Washington St, Crawfordsville IN","chain_name":null,"distance":0,"street_number":null,"street_name":"East South Boulevard","zip":"47933","city":"Crawfordsville","area":null,"county":"Montgomery County","state":"Indiana","country":"us","formatted_address":"Gas America, East South Boulevard, Crawfordsville, Montgomery County, Indiana, 47933, United States of America","place_id":"16964888","datatype":"locationiq"},{"name":"Wendy's","code":null,"latitude":45.9746543,"longitude":-66.6438672,"address":"370 Main Street, Fredericton NB","chain_name":null,"distance":0,"street_number":"366","street_name":"Main Street","zip":"G1M3H6","city":"Fredericton","area":null,"county":"York County","state":"New Brunswick","country":"ca","formatted_address":"366, Main Street, Nashwaaksis, Fredericton, York County, New Brunswick, G1M3H6, Canada","place_id":"115251679","datatype":"locationiq"},{"name":"Wendy's","code":null,"latitude":40.409749,"longitude":-79.901866,"address":"610 William Marks Drive, Homestead PA","chain_name":null,"distance":0,"street_number":"174","street_name":"William Marks Way","zip":"15120","city":"Homestead","area":"Homestead Park","county":"Allegheny County","state":"Pennsylvania","country":"us","formatted_address":"174, William Marks Way, Homestead Park, Homestead, Allegheny County, Pennsylvania, 15120, United States of America","place_id":"201211945","datatype":"locationiq"},{"name":"Wendy's","code":null,"latitude":36.17484,"longitude":-94.181612,"address":"4621 West Sunset Drive, Springdale AR","chain_name":null,"distance":0,"street_number":"4621","street_name":"West Sunset Avenue","zip":"72762","city":"Springdale","area":null,"county":"Washington County","state":"Arkansas","country":"us","formatted_address":"4621, West Sunset Avenue, Springdale, Washington County, Arkansas, 72762, United States of America","place_id":"13107725","datatype":"locationiq"},{"name":"Wendy's","code":null,"latitude":43.6915087,"longitude":-85.4838182,"address":"614 South State St, Big Rapids MI","chain_name":null,"distance":0,"street_number":"544","street_name":"South State Street","zip":"49307","city":"Big Rapids","area":null,"county":"Mecosta County","state":"Michigan","country":"us","formatted_address":"544, South State Street, Big Rapids, Mecosta County, Michigan, 49307, United States of America","place_id":"191233230","datatype":"locationiq"},{"name":"Wendy's","code":null,"latitude":39.125921,"longitude":-76.531892,"address":"8098 Edwin Raynor Blvd., Pasadena MD","chain_name":null,"distance":0,"street_number":"8088","street_name":"Edwin Raynor Boulevard","zip":"21122","city":null,"area":"Turf Valley","county":"Anne Arundel County","state":"Maryland","country":"us","formatted_address":"8088, Edwin Raynor Boulevard, Turf Valley, Green Haven, Anne Arundel County, Maryland, 21122, United States of America","place_id":"189602548","datatype":"locationiq"},{"name":"Wendy's","code":null,"latitude":46.8516575,"longitude":-96.85108,"address":"4430 18th Avenue Sw, Fargo ND","chain_name":null,"distance":0,"street_number":null,"street_name":"18th Avenue South","zip":"58104","city":"Fargo","area":null,"county":"Cass County","state":"North Dakota","country":"us","formatted_address":"18th Avenue South, Fargo, Cass County, North Dakota, 58104, United States of America","place_id":"65489637","datatype":"locationiq"},{"name":"Wendy's","code":null,"latitude":44.2369249,"longitude":-76.5678706,"address":"485 Gardiners Road, Kingston ON","chain_name":null,"distance":0,"street_number":"1671","street_name":"Bath Road","zip":"L3B4N4","city":"Kingston","area":"LaSalle Park","county":null,"state":"Ontario","country":"ca","formatted_address":"1671, Bath Road, LaSalle Park, Kingston, Ontario, L3B4N4, Canada","place_id":"1628023","datatype":"locationiq"},{"name":"Wendy's","code":null,"latitude":42.826143,"longitude":-86.090317,"address":"3176 Westshore Drive, Holland MI","chain_name":null,"distance":0,"street_number":"12466","street_name":"Riley Street","zip":"49424","city":"Zeeland","area":null,"county":"Ottawa County","state":"Michigan","country":"us","formatted_address":"12466, Riley Street, Zeeland, Ottawa County, Michigan, 49424, United States of America","place_id":"191470657","datatype":"locationiq"},{"name":"Wendy's","code":null,"latitude":32.0695389,"longitude":-81.1013497,"address":"615 W. Broad St, Savannah GA","chain_name":null,"distance":0,"street_number":null,"street_name":"Martin Luther King Jr Boulevard","zip":"31405","city":"Savannah","area":"Ardsley Park-Chatham Crescent Historic District","county":"Chatham County","state":"Georgia","country":"us","formatted_address":"Saint Philip African Methodist Episcopal Church, Martin Luther King Jr Boulevard, Ardsley Park-Chatham Crescent Historic District, Savannah, Chatham County, Georgia, 31405, United States of America","place_id":"3409406","datatype":"locationiq"},{"name":"Wendy's","code":null,"latitude":42.6919239,"longitude":-114.5175158,"address":"2816 South Lincoln, Jerome ID","chain_name":null,"distance":0,"street_number":null,"street_name":"South Lincoln Avenue","zip":"83338","city":null,"area":"Village West Mobile Home Park","county":"Jerome County","state":"Idaho","country":"us","formatted_address":"South Lincoln Avenue, Village West Mobile Home Park, Jerome, Jerome County, Idaho, 83338, United States of America","place_id":"67521770","datatype":"locationiq"},{"name":"Wendy's","code":null,"latitude":42.722107,"longitude":-84.417232,"address":"4850 Marsh Rd., Okemos MI","chain_name":null,"distance":0,"street_number":"4796","street_name":"Marsh Road","zip":"48864","city":null,"area":null,"county":"Ingham County","state":"Michigan","country":"us","formatted_address":"4796, Marsh Road, Haslett, Ingham County, Michigan, 48864, United States of America","place_id":"190925158","datatype":"locationiq"},{"name":"Wendy's","code":null,"latitude":32.6408557,"longitude":-117.094074,"address":"618 E Street, Chula Vista CA","chain_name":null,"distance":0,"street_number":"610","street_name":"E Street","zip":"91910","city":"Chula Vista","area":null,"county":"San Diego County","state":"California","country":"us","formatted_address":"610, E Street, Chula Vista, San Diego County, California, 91910, United States of America","place_id":"6088197","datatype":"locationiq"},{"name":"Wendy's","code":null,"latitude":27.412697,"longitude":-80.396855,"address":"7085 Ockeechobee Rd, Ft.Pierce FL","chain_name":null,"distance":0,"street_number":null,"street_name":"Okeechobee Road","zip":"34981","city":null,"area":null,"county":"St. Lucie County","state":"Florida","country":"us","formatted_address":"Wendy's, Okeechobee Road, Fort Pierce, St. Lucie County, Florida, 34981, United States of America","place_id":"134529490","datatype":"locationiq"},{"name":"Wendy's","code":null,"latitude":31.5509289,"longitude":-97.1249763,"address":"811 South 5Th, Waco TX","chain_name":null,"distance":0,"street_number":null,"street_name":"South 5th Street","zip":"76701","city":"Waco","area":null,"county":"McLennan County","state":"Texas","country":"us","formatted_address":"Torchy's Tacos, South 5th Street, Waco, McLennan County, Texas, 76701, United States of America","place_id":"163193214","datatype":"locationiq"},{"name":"Wendy's","code":null,"latitude":40.1510142,"longitude":-76.2895164,"address":"40 Peters Road, Lititz PA","chain_name":null,"distance":0,"street_number":"34","street_name":"Saint Peter Circle","zip":"17543","city":null,"area":null,"county":"Lancaster County","state":"Pennsylvania","country":"us","formatted_address":"34, Saint Peter Circle, Kissell Hill, Lancaster County, Pennsylvania, 17543, United States of America","place_id":"201910162","datatype":"locationiq"},{"name":"Wendy's","code":null,"latitude":40.5784655,"longitude":-75.4547653,"address":"1980 S 4th St, Allentown PA","chain_name":null,"distance":0,"street_number":"1999","street_name":"South 4th Street","zip":"18103","city":"Allentown","area":null,"county":"Lehigh County","state":"Pennsylvania","country":"us","formatted_address":"1999, South 4th Street, Allentown, Lehigh County, Pennsylvania, 18103, United States of America","place_id":"201988755","datatype":"locationiq"},{"name":"Wendy's","code":null,"latitude":36.34267,"longitude":-88.8585,"address":"308 University Street, Martin TN","chain_name":null,"distance":0,"street_number":"360","street_name":"University Street","zip":"38237","city":null,"area":null,"county":"Weakley County","state":"Tennessee","country":"us","formatted_address":"360, University Street, Martin, Weakley County, Tennessee, 38237, United States of America","place_id":"204263948","datatype":"locationiq"},{"name":"Wendy's","code":null,"latitude":40.335627,"longitude":-75.952385,"address":"712 Penn Avenue, Reading PA","chain_name":null,"distance":0,"street_number":null,"street_name":"Penn Avenue","zip":"19610","city":"Wyomissing","area":null,"county":"Berks County","state":"Pennsylvania","country":"us","formatted_address":"Woman's Exchange of Reading, Penn Avenue, Wyomissing, Berks County, Pennsylvania, 19610, United States of America","place_id":"3641269","datatype":"locationiq"},{"name":"Wendy's","code":null,"latitude":42.3782,"longitude":-83.014459,"address":"7850 Gratiot, Detroit MI","chain_name":null,"distance":0,"street_number":"5251","street_name":"Van Dyke Street","zip":"48213","city":"Detroit","area":null,"county":"Wayne County","state":"Michigan","country":"us","formatted_address":"5251, Van Dyke Street, Detroit, Wayne County, Michigan, 48213, United States of America","place_id":"191703367","datatype":"locationiq"},{"name":"Wendy's","code":null,"latitude":33.5245019,"longitude":-112.1321282,"address":"3330 W. Bethany Home Rd., Phoenix AZ","chain_name":null,"distance":0,"street_number":"3330","street_name":"West Bethany Home Road","zip":"85017","city":"Phoenix","area":null,"county":"Maricopa County","state":"Arizona","country":"us","formatted_address":"Wendy's, 3330, West Bethany Home Road, Alhambra, Phoenix, Maricopa County, Arizona, 85017, United States of America","place_id":"161987803","datatype":"locationiq"},{"name":"Wendy's","code":null,"latitude":45.569936,"longitude":-94.140996,"address":"10 Highway 10 N, St.Cloud MN","chain_name":null,"distance":0,"street_number":"863","street_name":"East Saint Germain Street","zip":"56304","city":"Saint Cloud","area":null,"county":"Benton County","state":"Minnesota","country":"us","formatted_address":"863, East Saint Germain Street, Saint Cloud, Benton County, Minnesota, 56304, United States of America","place_id":"191854477","datatype":"locationiq"},{"name":"Wendy's","code":null,"latitude":42.8486073,"longitude":-106.2712474,"address":"4281 East Second Street, Casper WY","chain_name":null,"distance":0,"street_number":"4281","street_name":"East 2nd Street","zip":"82609","city":"Casper","area":null,"county":"Natrona County","state":"Wyoming","country":"us","formatted_address":"Wendy's, 4281, East 2nd Street, Casper, Natrona County, Wyoming, 82609, United States of America","place_id":"135902502","datatype":"locationiq"},{"name":"Wendy's","code":null,"latitude":40.319478,"longitude":-75.1307114,"address":"400 N. Main Street, Doylestown PA","chain_name":null,"distance":0,"street_number":"435","street_name":"North Main Street","zip":"18901","city":"Doylestown","area":null,"county":"Bucks County","state":"Pennsylvania","country":"us","formatted_address":"435, North Main Street, Doylestown, Bucks County, Pennsylvania, 18901, United States of America","place_id":"155928958","datatype":"locationiq"},{"name":"Wendy's","code":null,"latitude":30.172868,"longitude":-81.602169,"address":"4160 Losco Road, Jacksonville FL","chain_name":null,"distance":0,"street_number":"3849","street_name":"Losco Road","zip":"32257","city":"Jacksonville","area":"Abigail Estates","county":"Duval County","state":"Florida","country":"us","formatted_address":"3849, Losco Road, Abigail Estates, Jacksonville, Duval County, Florida, 32257, United States of America","place_id":"181979653","datatype":"locationiq"},{"name":"Wendy's","code":null,"latitude":29.8016555,"longitude":-82.5156444,"address":"16070 Northwest US Highway 441, Alachua FL","chain_name":null,"distance":0,"street_number":null,"street_name":"ML King Memorial Highway","zip":"32615-6393","city":null,"area":null,"county":"Alachua County","state":"Florida","country":"us","formatted_address":"Marathon, ML King Memorial Highway, Alachua, Alachua County, Florida, 32615-6393, United States of America","place_id":"52946890","datatype":"locationiq"},{"name":"Wendy's","code":null,"latitude":40.4519605,"longitude":-76.5126709,"address":"#2 Everest Lane, Jonestown PA","chain_name":null,"distance":0,"street_number":null,"street_name":"Fisher Avenue","zip":"17038","city":null,"area":null,"county":"Lebanon County","state":"Pennsylvania","country":"us","formatted_address":"Wendy's, Fisher Avenue, Lickdale, Lebanon County, Pennsylvania, 17038, United States of America","place_id":"60864738","datatype":"locationiq"},{"name":"Wendy's","code":null,"latitude":46.5124334,"longitude":-87.3752817,"address":"2025 US 41 W, Marquette MI","chain_name":null,"distance":0,"street_number":"3037","street_name":"South Front Street","zip":"49855","city":"Marquette","area":null,"county":"Marquette County","state":"Michigan","country":"us","formatted_address":"3037, South Front Street, Marquette, Marquette County, Michigan, 49855, United States of America","place_id":"191217361","datatype":"locationiq"},{"name":"Wendy's","code":null,"latitude":42.094721,"longitude":-72.512404,"address":"1420 Allen St., Springfield MA","chain_name":null,"distance":0,"street_number":"1536","street_name":"Allen Street","zip":"01118","city":"Springfield","area":null,"county":"Hampden County","state":"Massachusetts","country":"us","formatted_address":"1536, Allen Street, Springfield, Hampden County, Massachusetts, 01118, United States of America","place_id":"190276795","datatype":"locationiq"},{"name":"Wendy's","code":null,"latitude":30.5810049,"longitude":-91.128499,"address":"6418 Groom Rd., Baker LA","chain_name":null,"distance":0,"street_number":"6432","street_name":"Groom Road","zip":"70714","city":"Baker","area":null,"county":"East Baton Rouge Parish","state":"Louisiana","country":"us","formatted_address":"6432, Groom Road, Baker, East Baton Rouge Parish, Louisiana, 70714, United States of America","place_id":"188988865","datatype":"locationiq"},{"name":"Wendy's","code":null,"latitude":46.2632717,"longitude":-63.1462213,"address":"643 University Avenue, Charlottetown PE","chain_name":null,"distance":0,"street_number":null,"street_name":"University Avenue","zip":"S7S1P4","city":"Charlottetown","area":"Sherwood","county":"Queens County","state":"Prince Edward Island","country":"ca","formatted_address":"Starbucks, University Avenue, Sherwood, Charlottetown, Queens County, Prince Edward Island, S7S1P4, Canada","place_id":"157015630","datatype":"locationiq"},{"name":"Wendy's","code":null,"latitude":37.239574,"longitude":-81.249946,"address":"508 Commerce Dr, Bluefield VA","chain_name":null,"distance":0,"street_number":null,"street_name":"Commerce Drive","zip":"24605","city":null,"area":null,"county":"Tazewell County","state":"Virginia","country":"us","formatted_address":"Wendy's, Commerce Drive, Bluefield, Tazewell County, Virginia, 24605, United States of America","place_id":"59371470","datatype":"locationiq"},