[{"latitude":"61.221606","longitude":"-149.73381","name":"Andy's Ace Hardware-Anchorage,AK","address":"240 Muldoon Road, Anchorage,AK 99504, (907) 333-6648"},{"latitude":"53.887116","longitude":"-166.544634","name":"Alaska Ship Supply-Dutch Harbor,AK","address":"487 Salmon Way, Dutch Harbor,AK 99692, (907) 581-1284"},{"latitude":"59.2354","longitude":"-135.442834","name":"Lutak Lumber and Supply-Haines,AK","address":"15 Beach Rd, Haines,AK 99827, (907) 766-2700"},{"latitude":"58.3006306","longitude":"-134.4181008","name":"Foodland Ace Hardware-Juneau,AK","address":"615 W Willoughby Ave, Juneau,AK 99801, (907) 586-3101"},{"latitude":"58.370844","longitude":"-134.604367","name":"Don Abel Bldg Supply-Juneau,AK","address":"9999 Glacier Highway, Juneau,AK 99801, (907) 789-2155"},{"latitude":"56.814234","longitude":"-132.957464","name":"The Trading Union Inc-Petersburg,AK","address":"401 North Nordic Drive, Petersburg,AK 99833, (907) 772-3881"},{"latitude":"60.127625","longitude":"-149.432849","name":"Seward Ship's Chandlery-Seward,AK","address":"1714 Leirer Road, Seward,AK 99664, (907) 204-5640"},{"latitude":"61.126573","longitude":"-146.23281","name":"Harris Sand & Gravel Ace-Valdez,AK","address":"260 Airport Rd, Valdez,AK 99686, (907) 835-4756"},{"latitude":"31.5706","longitude":"-85.249611","name":"Trawick Ace Hardware-Abbeville,AL","address":"112 S Doswell St, Abbeville,AL 36310, (334) 585-2415"},{"latitude":"34.27496","longitude":"-86.201214","name":"Cook & Sons Ace Hardware-Albertville,AL","address":"7008 US Highway 431, Albertville,AL 35950, (256) 878-2241"},{"latitude":"31.304316","longitude":"-86.499066","name":"Breedlove Bldg Supply-Andalusia,AL","address":"541 W Bypass, Andalusia,AL 36420, (334) 222-1106"},{"latitude":"31.02378","longitude":"-87.495007","name":"Bondurant Ace Hdwe-Atmore,AL","address":"209 W Nashville Ave, Atmore,AL 36502, (251) 446-1535"},{"latitude":"33.559842","longitude":"-86.891495","name":"Ace Hardware & Building Supply-Birmingham,AL","address":"1215 A Forestdale Blvd, Birmingham,AL 35214, (205) 798-3013"},{"latitude":"33.647307","longitude":"-86.632463","name":"Chalkville Ace Hardware Inc-Birmingham,AL","address":"5715 Chalkville Rd, Birmingham,AL 35235, (205) 853-1066"},{"latitude":"34.198283","longitude":"-86.164842","name":"Weathers Hardware & Appliance-Boaz,AL","address":"202 W Mill Ave, Boaz,AL 35957, (256) 593-4218"},{"latitude":"31.0495","longitude":"-87.170549","name":"Bondurant Lumber & Hardware-Brewton,AL","address":"601 Hwy 31 South , Brewton,AL 36427, (251) 867-2135"},{"latitude":"32.090024","longitude":"-88.222928","name":"Ace Farm & Home Supply-Butler,AL","address":"231 W Pushmataha St, Butler,AL 36904, (205) 459-8300"},{"latitude":"34.755017","longitude":"-87.975794","name":"Cherokee Ace Hardware-Cherokee,AL","address":"8075 Hwy 72, Cherokee,AL 35616, (256) 359-6551"},{"latitude":"31.102704","longitude":"-88.237957","name":"Andrews Ace Hardware-Citronelle,AL","address":"19750 N 3rd St, Citronelle,AL 36522, (251) 866-5554"},{"latitude":"33.196625","longitude":"-86.590175","name":"Brown Lumber & Building Supply-Columbiana,AL","address":"21891 Highway 25 Bypass, Columbiana,AL 35051, (205) 669-6715"},{"latitude":"34.566502","longitude":"-86.97315","name":"Ace Hardware of Decatur-Decatur,AL","address":"2306 6th Avenue Southeast, Decatur,AL 35601, (256) 350-7060"},{"latitude":"31.199687","longitude":"-85.415844","name":"Dothan Ace Hardware-Dothan,AL","address":"2451 Ross Clark Cir, Dothan,AL 36301, (334) 792-4121"},{"latitude":"30.52299","longitude":"-87.898421","name":"Jubilee Ace Home Cntr Inc-Fairhope,AL","address":"560 Fairhope Ave, Fairhope,AL 36532, (251) 990-6665"},{"latitude":"34.81588","longitude":"-87.679976","name":"Peck Ace Hardware-Florence,AL","address":"1118 N Wood Avenue, Florence,AL 35630, (256) 764-3282"},{"latitude":"30.397676","longitude":"-87.683144","name":"Reynolds Ace Hardware-Foley,AL","address":"803 S Mckenzie St, Foley,AL 36535, (251) 943-1212"},{"latitude":"31.877414","longitude":"-88.322108","name":"Ace Farm & Home-Gilbertown,AL","address":"74 Front Street, Gilbertown,AL 36908, (251) 843-2826"},{"latitude":"31.704968","longitude":"-87.776332","name":"Grove Hill Ace Hardware-Grove Hill,AL","address":"170 S Jackson St, Grove Hill,AL 36451, (251) 275-8080"},{"latitude":"30.2658176","longitude":"-87.687912","name":"Paris Ace Hardware-Gulf Shores,AL","address":"1524 Gulf Shores Pkwy, Gulf Shores,AL 36542, (251) 968-7458"},{"latitude":"34.343756","longitude":"-86.304549","name":"Braggs Ace Hardware-Guntersville,AL","address":"1536 Blount Ave, Guntersville,AL 35976, (256) 582-3353"},{"latitude":"34.970182","longitude":"-86.56889","name":"Hazel Green Bldg Supply-Hazel Green,AL","address":"15409 Hwy 231\/431 N, Hazel Green,AL 35750, (256) 828-2779"},{"latitude":"31.338138","longitude":"-85.333413","name":"Headland Ace Hardware Inc-Headland,AL","address":"17902 Us 431, Headland,AL 36345, (334) 693-2140"},{"latitude":"33.28091","longitude":"-86.854295","name":"Ace of Helena-Helena,AL","address":"101 Ace Place, Helena,AL 35080, (205) 605-0600"},{"latitude":"34.685914","longitude":"-85.677002","name":"Smith's Ace Hardware-Ider,AL","address":"11725 Al Highway 75, Ider,AL 35981, (256) 657-5399"},{"latitude":"31.522794","longitude":"-87.895537","name":"Ace Hardware-Jackson,AL","address":"1126 College Ave, Jackson,AL 36545, (251) 246-2471"},{"latitude":"33.796525","longitude":"-85.761003","name":"Warren Ace Hardware-Jacksonville,AL","address":"1420 Pelham Rd S, Jacksonville,AL 36265, (256) 435-6383"},{"latitude":"33.940822","longitude":"-87.220482","name":"Curry Ace Hardware-Jasper,AL","address":"5100 Curry Rd Ste 100, Jasper,AL 35503, (205) 384-1828"},{"latitude":"32.82937","longitude":"-85.223024","name":"Bladwin Ace Home Center-Lanett,AL","address":"3736 S Philllips Rd, Lanett,AL 36863, (334) 576-2985"},{"latitude":"32.292915","longitude":"-87.79504","name":"Gardner Hardware-Linden,AL","address":"1137 S Shiloh Street, Linden,AL 36748, (334) 295-5911"},{"latitude":"30.63623","longitude":"-88.088937","name":"Wigman's Ace Hardware-Mobile,AL","address":"1623 Dauphin Island Pkwy, Mobile,AL 36605, (251) 471-3138"},{"latitude":"30.697676","longitude":"-88.142795","name":"Ace Hardware-Mobile,AL","address":"4364 Old Shell Rd, Mobile,AL 36608, (251) 342-7420"},{"latitude":"30.648961","longitude":"-88.158883","name":"Ace Hardware of Cottage Hill-Mobile,AL","address":"5017 A Cottage Hill Rd, Mobile,AL 36609, (251) 660-8291"},{"latitude":"30.755703","longitude":"-88.215668","name":"Moffett Road Ace Hdwe-Mobile,AL","address":"7380 Moffett Rd, Mobile,AL 36618, (251) 645-1001"},{"latitude":"31.508871","longitude":"-87.317702","name":"McNiders Ace Hardware-Monroeville,AL","address":"1788 S Highway 21 Bypass, Monroeville,AL 36460, (251) 575-4896"},{"latitude":"32.986466","longitude":"-87.624614","name":"Moundville Ace Hardware & Building-Moundville,AL","address":"39609 Hwy 69 S, Moundville,AL 35474, (205) 371-4283"},{"latitude":"34.761011","longitude":"-87.528955","name":"Ford City Ace Hardware-Muscle Shoals,AL","address":"14497 County Line Road, Muscle Shoals,AL 35661, (256) 446-9729"},{"latitude":"33.944729","longitude":"-86.477536","name":"Wittmeier Ace Hardware-Oneonta,AL","address":"109 2nd Ave E, Oneonta,AL 35121, (205) 625-3171"},{"latitude":"31.27877","longitude":"-86.244076","name":"Breedlove's Ace Lumber & Bldg Supply-Opp,AL","address":"704 Old Perry Store Rd, Opp,AL 36467, (334) 493-3514"},{"latitude":"33.607473","longitude":"-85.838376","name":"Oxford Ace Hardware-Oxford,AL","address":"1400 Barry St, Oxford,AL 36203, (256) 831-0540"},{"latitude":"31.449423","longitude":"-85.659692","name":"Ace Hardware of Ozark-Ozark,AL","address":"918 US 231 South, Ozark,AL 36360, (334) 445-4401"},{"latitude":"32.475223","longitude":"-85.027648","name":"W T Harvey Lumber-Phenix City,AL","address":"2506 Crawford Road, Phenix City,AL 36867, (334) 297-6302"},{"latitude":"32.281628","longitude":"-86.103864","name":"Ace Hardware and The Feedlot-Pike Road,AL","address":"2050 Meriwether Road, Pike Road,AL 36064, (334) 284-1788"},{"latitude":"33.126629","longitude":"-85.357288","name":"Roanoke Ace Home Supply-Roanoke,AL","address":"1370 Highway 431, Roanoke,AL 36274, (334) 863-8145"},{"latitude":"30.938155","longitude":"-88.124199","name":"Andrews Ace Hardware-Saraland,AL","address":"11865 Celeste Rd, Saraland,AL 36571, (251) 675-5771"},{"latitude":"34.87394","longitude":"-85.813034","name":"Ace Hardware of Stevenson-Stevenson,AL","address":"43146 Us Highway 72, Stevenson,AL 35772, (256) 437-9088"},{"latitude":"33.743564","longitude":"-87.043896","name":"Ace Hardware & Bldg Supply-Sumiton,AL","address":"765 Highway 78 W, Sumiton,AL 35148, (205) 648-5536"},{"latitude":"33.429277","longitude":"-86.080574","name":"Talladega Home Center Inc-Talladega,AL","address":"1104 Ashland Hwy, Talladega,AL 35160, (256) 362-2208"},{"latitude":"31.913561","longitude":"-87.735882","name":"Jackson Home Supply-Thomasville,AL","address":"14 Wilson Ave W, Thomasville,AL 36784, (334) 636-2557"},{"latitude":"33.80876","longitude":"-86.810419","name":"Warrior Ace Hardware-Warrior,AL","address":"427 Caldwell Dr, Warrior,AL 35180, (205) 647-9231"},{"latitude":"33.935479","longitude":"-87.835641","name":"Ace Hardware of Winfield-Winfield,AL","address":"2250 Us Highway 43, Winfield,AL 35594, (205) 487-5280"},{"latitude":"34.118908","longitude":"-93.089727","name":"Hardman Lumber Co-Arkadelphia,AR","address":"3026 Pine St, Arkadelphia,AR 71923, (870) 246-5824"},{"latitude":"36.354406","longitude":"-93.550367","name":"Powell Ace Hardware-Berryville,AR","address":"1107 S Main St, Berryville,AR 72616, (870) 423-2096"},{"latitude":"35.139438","longitude":"-93.923381","name":"Tom Wiggins Hardware-Booneville,AR","address":"215 N Bennett Ave , Booneville,AR 72927, (479) 675-3590"},{"latitude":"33.586388","longitude":"-92.877037","name":"Country Discount Store-Camden,AR","address":"2212 Hwy 278 W, Camden,AR 71701, (870) 836-5362"},{"latitude":"35.093495","longitude":"-92.466314","name":"Haynes Hardware-Conway,AR","address":"1085 Morningside Drive, Conway,AR 72034, (501) 327-2400"},{"latitude":"36.418183","longitude":"-90.58628","name":"Harold Impl & Ace Hardware-Corning,AR","address":"701 N Missouri Ave, Corning,AR 72422, (870) 857-3931"},{"latitude":"33.221902","longitude":"-92.663296","name":"Timmins Hardware-El Dorado,AR","address":"101 E 5th St, El Dorado,AR 71730, (870) 863-7104"},{"latitude":"36.376329","longitude":"-93.74697","name":"Accord's Home Center-Eureka Springs,AR","address":"251 Huntsville Rd [Hwy 23s], Eureka Springs,AR 72632, (479) 253-9642"},{"latitude":"35.376546","longitude":"-94.404802","name":"Yeager Ace Hardware-Fort Smith,AR","address":"2619 Rogers Avenue, Fort Smith,AR 72901, (479) 783-4629"},{"latitude":"35.336991","longitude":"-94.413969","name":"Yeager Hardware-Fort Smith,AR","address":"4910 Jenny Lind Road, Fort Smith,AR 72901, (479) 646-1209"},{"latitude":"36.267399","longitude":"-94.483254","name":"Bever's Ace Hardware-Gentry,AR","address":"229 E Main St, Gentry,AR 72734, (479) 736-3000"},{"latitude":"35.216497","longitude":"-94.269249","name":"Yeager Hardware-Greenwood,AR","address":"814 W Center Street, Greenwood,AR 72936, (479) 996-0670"},{"latitude":"35.581499","longitude":"-92.164126","name":"F L Davis Bldg Center-Greers Ferry,AR","address":"7379 Greers Ferry Rd, Greers Ferry,AR 72067, (501) 825-6238"},{"latitude":"36.254733","longitude":"-93.12267","name":"Thompson's Ace Hardware-Harrison,AR","address":"920 N Highway 62\/65, Harrison,AR 72601, (870) 741-3670"},{"latitude":"35.512195","longitude":"-92.029362","name":"F L Davis Ace Home Center-Heber Springs,AR","address":"1916 Hwy 25 Business N, Heber Springs,AR 72543, (501) 206-4223"},{"latitude":"35.864064","longitude":"-90.639883","name":"Hilltop Ace Hardware-Jonesboro,AR","address":"4827 E Johnson Avenue, Jonesboro,AR 72401, (870) 932-1311"},{"latitude":"34.7386208","longitude":"-92.2718201","name":"Besser Ace Hardware-Little Rock,AR","address":"1015 Main St, Little Rock,AR 72202, (501) 375-7623"},{"latitude":"34.566183","longitude":"-92.336505","name":"Sanders Ace Hardware-Little Rock,AR","address":"20191 Arch St, Little Rock,AR 72206, (501) 888-6500"},{"latitude":"34.7582699","longitude":"-92.3036152","name":"Cantrell Ace Hardware-Little Rock,AR","address":"2516 Cantrell Rd, Little Rock,AR 72202, (501) 280-0626"},{"latitude":"33.266608","longitude":"-93.224093","name":"S & S Home Center-Magnolia,AR","address":"1315 E Main St, Magnolia,AR 71753, (870) 234-6060"},{"latitude":"34.774538","longitude":"-90.76929","name":"Harveys Ace Hardware-Marianna,AR","address":"373 W Chestnut St, Marianna,AR 72360, (870) 295-3457"},{"latitude":"34.950859","longitude":"-92.424809","name":"Lumber One Home Center-Mayflower,AR","address":"682 Hwy 365, Mayflower,AR 72106, (501) 470-1122"},{"latitude":"35.167404","longitude":"-92.724419","name":"Haynes Home Center-Morrilton,AR","address":"4 Davis Dr, Morrilton,AR 72110, (501) 354-1239"},{"latitude":"36.318717","longitude":"-92.382718","name":"Marchant Bldg Center-Mountain Home,AR","address":"1815 Hwy 201 S Spur, Mountain Home,AR 72653, (870) 425-3168"},{"latitude":"35.619059","longitude":"-91.251703","name":"Churchman Bldg Center-Newport ,AR","address":"1500 Hwy 367 N, Newport ,AR 72112, (870) 523-2735"},{"latitude":"35.029323","longitude":"-93.223668","name":"Ace Hardware-Ola,AR","address":"414 South Scenic 7 Dr, Ola,AR 72853, (479) 489-5614"},{"latitude":"36.059768","longitude":"-90.519814","name":"Gazaway Lumber Co-Paragould,AR","address":"2620 W Kingshighway, Paragould,AR 72450, (870) 236-7666"},{"latitude":"36.255382","longitude":"-90.972267","name":"Ace Hardware-Pocahontas,AR","address":"828 Highway 67 South, Pocahontas,AR 72455, (870) 892-4591"},{"latitude":"35.266487","longitude":"-93.134012","name":"Leonards Hardware-Russellville,AR","address":"1319 S Arkansas Ave, Russellville,AR 72801, (479) 968-2142"},{"latitude":"35.247444","longitude":"-91.7642","name":"Homer's Ace Hardware-Searcy,AR","address":"2128 West Beebe Capps Expressway, Searcy,AR 72143, (501) 268-3515"},{"latitude":"34.8330421","longitude":"-92.2017975","name":"F L Davis Sherwood Ace Hdwe-Sherwood,AR","address":"2913 E Kiehl Ave, Sherwood,AR 72120, (501) 834-4223"},{"latitude":"34.501989","longitude":"-91.551418","name":"Stedman's Ace Hardware-Stuttgart,AR","address":"110 South College Street, Stuttgart,AR 72160, (870) 673-2676"},{"latitude":"34.509405","longitude":"-91.549877","name":"Lumber One Home Center-Stuttgart,AR","address":"301 E Michigan St, Stuttgart,AR 72160, (870) 673-3601"},{"latitude":"35.436477","longitude":"-94.342423","name":"Yeager Ace Hardware-Van Buren,AR","address":"1610 Main Street, Van Buren,AR 72956, (479) 474-5278"},{"latitude":"34.554419","longitude":"-90.653698","name":"H & M Lumber-West Helena,AR","address":"700 N Sebastian, West Helena,AR 72390, (870) 572-3777"},{"latitude":"33.865177","longitude":"-112.134025","name":"Anthem Ace Hardware-Anthem,AZ","address":"3440 W Anthem Way, Anthem,AZ 85086, (623) 551-6800"},{"latitude":"33.42303","longitude":"-111.546119","name":"Frontier Ace Hardware-Apache Junction,AZ","address":"725 W Apache Trail Rd, Apache Junction,AZ 85120, (480) 983-9223"},{"latitude":"31.97025","longitude":"-110.306854","name":"Benson Ace Hardware-Benson,AZ","address":"591 W 4th Street, Benson,AZ 85602, (520) 586-7345"},{"latitude":"31.39568","longitude":"-109.919244","name":"Ace Hardware-Bisbee,AZ","address":"1220 S Naco Hwy, Bisbee,AZ 85603, (520) 432-4975"},{"latitude":"35.10204","longitude":"-114.597039","name":"Tri State Ace Home Center-Bullhead City,AZ","address":"2350 Miracle Mile 160, Bullhead City,AZ 86442, (928) 758-2816"},{"latitude":"35.025513","longitude":"-114.598114","name":"Tri State Bldg Mtls Inc-Bullhead City,AZ","address":"4515 Highway 95, Bullhead City,AZ 86426, (928) 763-6696"},{"latitude":"34.56505","longitude":"-111.854815","name":"Camp Verde Ace Hardware-Camp Verde,AZ","address":"285 S Main St, Camp Verde,AZ 86322, (928) 567-4172"},{"latitude":"33.821008","longitude":"-111.924062","name":"Karsten's Ace Hardware-Carefree,AZ","address":"36889 N Tom Darlington Drive, Carefree,AZ 85377, (480) 488-4400"},{"latitude":"32.87973","longitude":"-111.729325","name":"Valley Ace Hardware-Casa Grande,AZ","address":"1346 E Florence Boulevard 1, Casa Grande,AZ 85122, (520) 421-1225"},{"latitude":"33.741886","longitude":"-111.978412","name":"Karsten's Ace Hardware-Cave Creek,AZ","address":"28220 N Tatum Blvd, Cave Creek,AZ 85331, (480) 513-7020"},{"latitude":"33.335917","longitude":"-111.859266","name":"Valley Ace Hardware-Chandler,AZ","address":"2050 N Alma School Rd Ste 18, Chandler,AZ 85224, (480) 899-4885"},{"latitude":"33.263377","longitude":"-111.858316","name":"Ace Hardware-Chandler,AZ","address":"2925 S Alma School Rd Ste 5, Chandler,AZ 85286, (480) 855-5500"},{"latitude":"33.236218","longitude":"-111.789571","name":"Ace Hardware-Chandler,AZ","address":"4870 S Gilbert Road, Chandler,AZ 85249, (480) 802-2100"},{"latitude":"34.724755","longitude":"-112.453535","name":"Arizona General Ace Hardware-Chino Valley,AZ","address":"1395 S Hwy 89, Chino Valley,AZ 86323, (928) 636-4401"},{"latitude":"32.987355","longitude":"-111.524124","name":"Ace Hardware-Coolidge,AZ","address":"1030 N Arizona Blvd, Coolidge,AZ 85228, (520) 723-2906"},{"latitude":"31.959252","longitude":"-110.772294","name":"Ace Hardware-Corona De Tucson,AZ","address":"16335 S Houghton Rd, Corona De Tucson,AZ 85641, (520) 762-0909"},{"latitude":"34.729789","longitude":"-112.013952","name":"Verde Valley Hardware-Cottonwood,AZ","address":"545 S 12th St, Cottonwood,AZ 86326, (928) 634-7868"},{"latitude":"35.191054","longitude":"-111.63166","name":"Homco Ace Home Center-Flagstaff,AZ","address":"1763 E Butler Ave, Flagstaff,AZ 86001, (928) 779-6111"},{"latitude":"33.608842","longitude":"-111.721181","name":"Paul's Ace Hardware-Fountain Hills,AZ","address":"16605 E Palisades Blvd, Fountain Hills,AZ 85268, (480) 837-1080"},{"latitude":"33.37878","longitude":"-111.790066","name":"Paul's Ace Hardware-Gilbert,AZ","address":"1927 E Baseline Rd, Gilbert,AZ 85233, (480) 539-5563"},{"latitude":"33.336212","longitude":"-111.807113","name":"Gilbert Ace Hardware-Gilbert,AZ","address":"750 South Cooper Road, Gilbert,AZ 85233, (480) 240-3000"},{"latitude":"33.665424","longitude":"-112.202179","name":"Ace Hardware-Glendale,AZ","address":"20165 N 67th Avenue, Glendale,AZ 85308, (623) 376-8216"},{"latitude":"33.682263","longitude":"-112.134879","name":"Deer Valley Ace Hardware-Glendale,AZ","address":"21610 N 35th Ave, Glendale,AZ 85308, (623) 869-9250"},{"latitude":"33.582082","longitude":"-112.156035","name":"T & M Hardware-Glendale,AZ","address":"4498 W Peoria Avenue, Glendale,AZ 85302, (623) 931-3685"},{"latitude":"33.610761","longitude":"-112.16957","name":"Ace Hardware-Glendale,AZ","address":"5140 West Thunderbird Road, Glendale,AZ 85306, (602) 978-8892"},{"latitude":"33.541107","longitude":"-112.168755","name":"Sine Ace Hardware-Glendale,AZ","address":"7150 North 51st Avenue, Glendale,AZ 85301, (623) 937-1485"},{"latitude":"33.385217","longitude":"-110.758009","name":"Globe Ace Hardware-Globe,AZ","address":"1930 E Ash St , Globe,AZ 85501, (928) 425-0060"},{"latitude":"33.45334","longitude":"-112.392756","name":"Goodyear Ace Hardware-Goodyear,AZ","address":"610 N Estrella Pkwy, Goodyear,AZ 85338, (623) 932-1017"},{"latitude":"31.870243","longitude":"-110.992715","name":"Ace Hardware-Green Valley,AZ","address":"115 W Esperanza Blvd, Green Valley,AZ 85614, (520) 625-4772"},{"latitude":"33.058966","longitude":"-110.905344","name":"Ace Hardware-Kearny,AZ","address":"346 Alden Road, Kearny,AZ 85237, (520) 363-7346"},{"latitude":"35.255224","longitude":"-114.037662","name":"Kingman Ace Hdwe & Lbr-Kingman,AZ","address":"4550 N Stockton Hill Rd, Kingman,AZ 86409, (928) 757-2154"},{"latitude":"34.50313","longitude":"-114.350816","name":"Crown Ace Hardware-Lake Havasu City,AZ","address":"1799 Kiowa Ave, Lake Havasu City,AZ 86403, (928) 680-6020"},{"latitude":"34.453189","longitude":"-114.267208","name":"Crown Ace Hardware-Lake Havasu City,AZ","address":"3530 Sweetwater Ave, Lake Havasu City,AZ 86406, (928) 453-7800"},{"latitude":"33.509596","longitude":"-112.341096","name":"Ace Hardware-Litchfield Park,AZ","address":"5110 N Dysart Road, Litchfield Park,AZ 85340, (623) 535-1303"},{"latitude":"33.075177","longitude":"-112.043095","name":"Ace Hardware-Maricopa,AZ","address":"21542 N John Wayne Parkway, Maricopa,AZ 85139, (520) 494-7805"},{"latitude":"33.434389","longitude":"-111.719192","name":"Eberson Ace Hardware-Mesa,AZ","address":"1050 N Higley Road, Mesa,AZ 85205, (480) 396-8382"},{"latitude":"33.412778","longitude":"-111.834735","name":"Lenhart's Ace Hardware-Mesa,AZ","address":"119 W 1st Avenue, Mesa,AZ 85210, (480) 969-5581"},{"latitude":"33.437044","longitude":"-111.789237","name":"Rod's Ace Hardware-Mesa,AZ","address":"1941 E Brown Rd, Mesa,AZ 85203, (480) 890-1900"},{"latitude":"33.467436","longitude":"-111.68405","name":"Dave's Ace Hardware-Mesa,AZ","address":"2842 N Power Rd, Mesa,AZ 85215, (480) 854-7000"},{"latitude":"32.397441","longitude":"-110.995544","name":"Ace Hardware-Oro Valley,AZ","address":"10560 N La Canada Dr, Oro Valley,AZ 85737, (520) 624-4059"},{"latitude":"32.422865","longitude":"-110.961414","name":"Ace Hardware-Oro Valley,AZ","address":"11921 N 1st Ave, Oro Valley,AZ 85737, (520) 297-0222"},{"latitude":"34.403837","longitude":"-110.564492","name":"Ace Hardware-Overgaard,AZ","address":"2837 Hwy 260 Overgaard, Overgaard,AZ 85933, (928) 535-6335"},{"latitude":"34.145639","longitude":"-114.287939","name":"Davis Building Supply & Ace Hdwe-Parker,AZ","address":"1408 S Joshua Ave, Parker,AZ 85344, (928) 669-2239"},{"latitude":"34.245129","longitude":"-111.32265","name":"Ace Hardware & Nursery-Payson,AZ","address":"507 N Beeline Hwy, Payson,AZ 85541, (928) 474-5238"},{"latitude":"33.5945091","longitude":"-112.2197418","name":"Carl's Ace Hardware-Peoria,AZ","address":"7465 W Cactus Rd, Peoria,AZ 85381, (623) 486-0041"},{"latitude":"33.577033","longitude":"-112.099435","name":"Six Points Hardware-Phoenix,AZ","address":"10009 N 19th Ave, Phoenix,AZ 85021, (602) 861-3195"},{"latitude":"33.30541","longitude":"-112.054301","name":"Foothills Ace Hardware-Phoenix,AZ","address":"1335 E Chandler Boulevard, Phoenix,AZ 85048, (480) 460-4223"},{"latitude":"33.61195","longitude":"-111.977643","name":"Paradise Valley Ace Hardware-Phoenix,AZ","address":"13811 North Tatum Boulevard, Phoenix,AZ 85032, (602) 953-2600"},{"latitude":"33.464266","longitude":"-112.099822","name":"Six Points Hardware-Phoenix,AZ","address":"1409 N 19th Ave, Phoenix,AZ 85009, (602) 252-6157"},{"latitude":"33.653923","longitude":"-112.099909","name":"Union Hills Ace Hardware-Phoenix,AZ","address":"18416 N 19th Avenue, Phoenix,AZ 85023, (602) 863-9002"},{"latitude":"33.538567","longitude":"-112.100811","name":"Barry's Ace Hardware-Phoenix,AZ","address":"1929 W Glendale Avenue, Phoenix,AZ 85021, (602) 249-2818"},{"latitude":"33.495177","longitude":"-112.100763","name":"Walt's Ace Hardware-Phoenix,AZ","address":"1940 W Indian School Rd, Phoenix,AZ 85015, (602) 274-6503"},{"latitude":"33.377951","longitude":"-112.037905","name":"Homco Ace Hardware-Phoenix,AZ","address":"2030 E Baseline Road, Phoenix,AZ 85042, (602) 232-2344"},{"latitude":"33.472243","longitude":"-112.030386","name":"Ace Hardware-Phoenix,AZ","address":"2242 N 24th St, Phoenix,AZ 85008, (602) 244-8031"},{"latitude":"33.406871","longitude":"-112.072977","name":"Broadway Central Hardware-Phoenix,AZ","address":"28 E Broadway Rd, Phoenix,AZ 85040, (602) 243-6227"},{"latitude":"33.495031","longitude":"-112.014806","name":"Howard's Ace Hardware-Phoenix,AZ","address":"3111 E Indian School Rd, Phoenix,AZ 85016, (602) 952-0058"},{"latitude":"33.330891","longitude":"-111.982219","name":"Ace Hardware & Rental-Phoenix,AZ","address":"4730 E Warner Road, Phoenix,AZ 85044, (480) 496-0058"},{"latitude":"33.494829","longitude":"-112.170114","name":"Western Hardware LLC-Phoenix,AZ","address":"5127 West Indian School Road, Phoenix,AZ 85031, (623) 873-3600"},{"latitude":"33.517587","longitude":"-112.06487","name":"Ace Hardware-Phoenix,AZ","address":"5555 N 7th St Ste 106, Phoenix,AZ 85014, (602) 241-4000"},{"latitude":"33.383577","longitude":"-112.073246","name":"South Mountain Ace Hardware-Phoenix,AZ","address":"6841 S Central Avenue, Phoenix,AZ 85042, (602) 276-8563"},{"latitude":"33.423165","longitude":"-112.223607","name":"Ace Hardware-Phoenix,AZ","address":"7620 W Lower Buckeye Rd, Phoenix,AZ 85043, (623) 889-2260"},{"latitude":"34.107646","longitude":"-109.912268","name":"Ace Hardware Pinetop-Pinetop,AZ","address":"95 W White Mountain Blvd, Pinetop,AZ 85935, (928) 367-0404"},{"latitude":"34.583287","longitude":"-112.33895","name":"Prescott Valley Ace Hardware-Prescott Valley,AZ","address":"7211 E 1st St, Prescott Valley,AZ 86314, (928) 772-8111"},{"latitude":"33.21956","longitude":"-111.685879","name":"Jim's Ace Hardware-Queen Creek,AZ","address":"23954 S Power Rd, Queen Creek,AZ 85242, (480) 840-3452"},{"latitude":"32.832097","longitude":"-109.713731","name":"Safford Building & Ace Hardware-Safford,AZ","address":"707 S 6th Ave, Safford,AZ 85546, (928) 428-1033"},{"latitude":"34.5076485","longitude":"-109.3841019","name":"St Johns Market & Ace Hardware-Saint Johns,AZ","address":"1135 West Cleveland St, Saint Johns,AZ 85936, (928) 337-2261"},{"latitude":"32.489681","longitude":"-114.785676","name":"Iga Grocery & Ace Hardware-San Luis,AZ","address":"656 San Luis Plaza Dr, San Luis,AZ 85349, (928) 627-8033"},{"latitude":"33.579522","longitude":"-111.926284","name":"Ace Hardware & Rental-Scottsdale,AZ","address":"10300 N Scottsdale Rd, Scottsdale,AZ 85253, (480) 368-8343"},{"latitude":"33.588201","longitude":"-111.837519","name":"Ace Hardware-Scottsdale,AZ","address":"11323 E Via Linda, Scottsdale,AZ 85259, (480) 661-1900"},{"latitude":"33.46738","longitude":"-111.926236","name":"Paul's Ace Hardware-Scottsdale,AZ","address":"1800 North Scottsdale Road, Scottsdale,AZ 85257, (480) 947-7281"},{"latitude":"33.701465","longitude":"-111.925154","name":"Pinnacle Peak Ace Hardware-Scottsdale,AZ","address":"23623 N Scottsdale Rd, Scottsdale,AZ 85255, (480) 563-3212"},{"latitude":"33.523729","longitude":"-111.899144","name":"Paul's Ace Hardware-Scottsdale,AZ","address":"8449 E McDonald Drive, Scottsdale,AZ 85250, (480) 948-3102"},{"latitude":"33.569071","longitude":"-111.886291","name":"Artie's Ace-Scottsdale,AZ","address":"9015 E Via Linda Ste 101, Scottsdale,AZ 85258, (480) 860-9100"},{"latitude":"34.86325","longitude":"-111.78766","name":"Sedona Ace Hardware-Sedona,AZ","address":"1570 W Highway 89a, Sedona,AZ 86336, (928) 282-0263"},{"latitude":"34.788648","longitude":"-111.762859","name":"Village Ace Hardware & Supply-Sedona,AZ","address":"6085 Highway 179, Sedona,AZ 86351, (928) 284-1177"},{"latitude":"34.248744","longitude":"-110.045627","name":"Ace Hardware-Show Low,AZ","address":"221 W Deuce Of Clubs, Show Low,AZ 85901, (928) 537-5443"},{"latitude":"31.554472","longitude":"-110.260915","name":"Sierra Vista Ace Hardware-Sierra Vista,AZ","address":"3756 E Fry Boulevard, Sierra Vista,AZ 85635, (520) 458-3650"},{"latitude":"34.498621","longitude":"-110.07889","name":"Ace Hardware-Snowflake,AZ","address":"791 S Main St, Snowflake,AZ 85937, (928) 536-2733"},{"latitude":"33.638289","longitude":"-112.275998","name":"Ace Hardware-Sun City,AZ","address":"10050 W Bell Road Ste 26A, Sun City,AZ 85351, (623) 972-4343"},{"latitude":"33.65722","longitude":"-112.361343","name":"Ace Hardware-Sun City West,AZ","address":"13850 W Camino Del Sol, Sun City West,AZ 85375, (623) 544-1020"},{"latitude":"33.21825","longitude":"-111.874453","name":"Ace Hardware-Sun Lakes,AZ","address":"9666 E Riggs Rd, Sun Lakes,AZ 85248, (480) 895-0641"},{"latitude":"33.639067","longitude":"-112.425052","name":"Ace Hardware-Surprise,AZ","address":"17026 W Bell Rd, Surprise,AZ 85374, (623) 214-6500"},{"latitude":"33.40727","longitude":"-111.956076","name":"Paul's Ace Hardware-Tempe,AZ","address":"1153 West Broadway Road, Tempe,AZ 85282, (480) 966-1791"},{"latitude":"33.378297","longitude":"-111.908635","name":"Valley Ace Hardware-Tempe,AZ","address":"1805 E Baseline Road A, Tempe,AZ 85283, (480) 839-2623"},{"latitude":"33.407681","longitude":"-111.92587","name":"Homco Ace Hardware-Tempe,AZ","address":"929 E Broadway Rd, Tempe,AZ 85282, (480) 968-4544"},{"latitude":"32.229451","longitude":"-110.990137","name":"Ace Hardware-Tucson,AZ","address":"1215 W Saint Marys Rd, Tucson,AZ 85745, (520) 792-4338"},{"latitude":"32.076907","longitude":"-111.31237","name":"Three Points General Store-Tucson,AZ","address":"16225 W Ajo Hwy, Tucson,AZ 85735, (520) 822-1071"},{"latitude":"32.250459","longitude":"-111.006909","name":"Ace Hardware-Tucson,AZ","address":"1899 W Grant Rd, Tucson,AZ 85745, (520) 620-0704"},{"latitude":"32.163449","longitude":"-110.939083","name":"Ace Hardware-Tucson,AZ","address":"2185 E Irvington Rd, Tucson,AZ 85714, (520) 434-9000"},{"latitude":"32.248951","longitude":"-110.926947","name":"Ace Hardware-Tucson,AZ","address":"2221 N Country Club Rd, Tucson,AZ 85716, (520) 326-4323"},{"latitude":"32.134018","longitude":"-111.026654","name":"Valencia Ace Hardware-Tucson,AZ","address":"2820 W Valencia Rd, Tucson,AZ 85746, (520) 883-4074"},{"latitude":"32.258197","longitude":"-110.943709","name":"Al's Ace Hardware-Tucson,AZ","address":"2830 N Campbell Ave, Tucson,AZ 85719, (520) 325-2432"},{"latitude":"32.260034","longitude":"-110.802324","name":"Ace Hardware-Tucson,AZ","address":"2931 N Bear Canyon Rd, Tucson,AZ 85749, (520) 749-0288"},{"latitude":"32.337311","longitude":"-111.045519","name":"Ina Ace Hardware-Tucson,AZ","address":"3749 W Ina Rd, Tucson,AZ 85741, (520) 742-0010"},{"latitude":"32.199675","longitude":"-110.906195","name":"Al's Ace Hardware-Tucson,AZ","address":"4010 E 29th St, Tucson,AZ 85711, (520) 747-8144"},{"latitude":"32.221298","longitude":"-110.89166","name":"Ace Hardware-Tucson,AZ","address":"4722 E Broadway Blvd, Tucson,AZ 85711, (520) 318-0414"},{"latitude":"32.308616","longitude":"-110.891355","name":"Ace Hardware-Tucson,AZ","address":"4751 E Sunrise Dr, Tucson,AZ 85718, (520) 529-0303"},{"latitude":"32.154847","longitude":"-110.977696","name":"Ace Hardware-Tucson,AZ","address":"5344 S 12th Ave, Tucson,AZ 85706, (520) 294-2594"},{"latitude":"32.243302","longitude":"-110.877051","name":"Ace Hardware-Tucson,AZ","address":"5424 E Pima St, Tucson,AZ 85712, (520) 325-7093"},{"latitude":"32.32436","longitude":"-110.974895","name":"Ace Hardware-Tucson,AZ","address":"6488 N Oracle Rd, Tucson,AZ 85704, (520) 797-7100"},{"latitude":"32.206759","longitude":"-110.84341","name":"Ace Hardware-Tucson,AZ","address":"6959 E 22nd St, Tucson,AZ 85710, (520) 747-9473"},{"latitude":"32.251009","longitude":"-110.840132","name":"Ace Hardware-Tucson,AZ","address":"7119 E Tanque Verde Rd, Tucson,AZ 85715, (520) 886-5457"},{"latitude":"32.223959","longitude":"-110.96027","name":"Ace Hardware-Tucson,AZ","address":"745 E 9th St, Tucson,AZ 85719, (520) 882-5700"},{"latitude":"32.116204","longitude":"-110.772567","name":"Ace Hardware-Tucson,AZ","address":"7451 S Houghton Rd, Tucson,AZ 85747, (520) 574-3300"},{"latitude":"32.355206","longitude":"-111.094952","name":"Continental Ranch Ace Hardware-Tucson,AZ","address":"8165 N Courtney Page Way, Tucson,AZ 85743, (520) 579-0133"},{"latitude":"32.220721","longitude":"-110.8092","name":"Berkshire Ace Hardware Inc-Tucson,AZ","address":"8600 E Broadway Blvd, Tucson,AZ 85710, (520) 296-5435"},{"latitude":"32.191998","longitude":"-110.787949","name":"Ace Hardware-Tucson,AZ","address":"9581 E Golf Links Rd, Tucson,AZ 85730, (520) 722-1218"},{"latitude":"32.677165","longitude":"-114.112195","name":"Wellton Mohawk Co Op Ace-Wellton,AZ","address":"30570 E Wellton Mohawk Dr, Wellton,AZ 85356, (928) 785-3351"},{"latitude":"33.970709","longitude":"-112.732308","name":"Ace Hardware-Wickenburg,AZ","address":"275 N Tegner #2, Wickenburg,AZ 85390, (928) 684-5488"},{"latitude":"32.264183","longitude":"-109.837217","name":"Ace Hardware-Willcox,AZ","address":"914 W Rex Allen Dr, Willcox,AZ 85643, (520) 384-4446"},{"latitude":"33.592718","longitude":"-112.299323","name":"Ace Hardware-Youngtown,AZ","address":"11125 W Arizona Ave, Youngtown,AZ 85363, (623) 933-6984"},{"latitude":"34.467199","longitude":"-118.197155","name":"Acton Hardware-Acton,CA","address":"31814 Crown Valley Rd, Acton,CA 93510, (661) 269-4223"},{"latitude":"34.14517","longitude":"-118.758602","name":"Roadside Lmbr & Hardware-Agoura Hills,CA","address":"29112 Roadside Dr, Agoura Hills,CA 91301, (818) 991-1880"},{"latitude":"37.849368","longitude":"-122.032184","name":"Alamo Hardware-Alamo,CA","address":"3211 Danville Blvd, Alamo,CA 94507, (925) 837-2420"},{"latitude":"32.825727","longitude":"-116.731393","name":"Ace Hardware-Alpine,CA","address":"1347 Tavern Rd Ste C 4\/5, Alpine,CA 91901, (619) 445-8100"},{"latitude":"34.181828","longitude":"-118.143192","name":"Masters Bldg Su Home Cntr-Altadena,CA","address":"370 E Woodbury Rd, Altadena,CA 91001, (626) 794-1177"},{"latitude":"33.8519","longitude":"-117.787971","name":"Crown Ace Hardware-Anaheim,CA","address":"5765 E Santa Ana Canyon Rd, Anaheim,CA 92807, (714) 998-5282"},{"latitude":"40.44035","longitude":"-122.292519","name":"Hardware Express-Anderson,CA","address":"1900 Marx Way, Anderson,CA 96007, (530) 365-3783"},{"latitude":"38.080697","longitude":"-120.556228","name":"Calaveras Lumber-Angels Camp,CA","address":"155 South Main Street, Angels Camp,CA 95221, (209) 736-4601"},{"latitude":"38.570357","longitude":"-122.442064","name":"College Hardware-Angwin,CA","address":"15 Angwin Plz, Angwin,CA 94508, (707) 965-7537"},{"latitude":"37.998427","longitude":"-121.794934","name":"Antioch Ace Hardware-Antioch,CA","address":"501 Sunset Dr, Antioch,CA 94509, (925) 757-2500"},{"latitude":"36.978645","longitude":"-121.90771","name":"Aptos Ace Hardware-Aptos,CA","address":"72 Rancho Del Mar, Aptos,CA 95003, (831) 662-0222"},{"latitude":"39.015852","longitude":"-122.056255","name":"Alsco Geyer Irrigation-Arbuckle,CA","address":"600 5th St, Arbuckle,CA 95912, (530) 476-3003"},{"latitude":"40.86743","longitude":"-124.085154","name":"Sunnybrae Ace Hardware-Arcata,CA","address":"86 Sunnybrae Ctr, Arcata,CA 95521, (707) 822-7009"},{"latitude":"40.869348","longitude":"-124.087689","name":"Hensels Ace Hardware-Arcata,CA","address":"884 9th St, Arcata,CA 95521, (707) 822-2965"},{"latitude":"38.257003","longitude":"-120.348412","name":"Arnold Ace Home Center-Arnold,CA","address":"981 Blagen, Arnold,CA 95223, (209) 795-1331"},{"latitude":"35.120433","longitude":"-120.579232","name":"Miner's Ace Hardware-Arroyo Grande,CA","address":"186 Station Way, Arroyo Grande,CA 93420, (805) 489-9100"},{"latitude":"35.469781","longitude":"-120.652173","name":"De Cou Lumber & Ace Hardware-Atascadero,CA","address":"8965 El Camino Real, Atascadero,CA 93422, (805) 466-2535"},{"latitude":"35.467733","longitude":"-120.650713","name":"Miner's Ace Hardware-Atascadero,CA","address":"9370 El Camino Real, Atascadero,CA 93422, (805) 466-0270"},{"latitude":"37.34683","longitude":"-120.609054","name":"Passadoris Store-Atwater,CA","address":"1200 Broadway, Atwater,CA 95301, (209) 358-6488"},{"latitude":"39.039387","longitude":"-121.078771","name":"Lake of The Pines Ace Hardware-Auburn,CA","address":"10868 Combie Rd, Auburn,CA 95602, (530) 268-3484"},{"latitude":"35.383164","longitude":"-119.119869","name":"Ace Hardware-Bakersfield,CA","address":"10511 Rosedale Hwy, Bakersfield,CA 93312, (661) 589-4400"},{"latitude":"35.336789","longitude":"-119.016802","name":"Floyd's General Store-Bakersfield,CA","address":"2020 S Chester Ave, Bakersfield,CA 93304, (661) 833-5450"},{"latitude":"35.392984","longitude":"-119.018524","name":"Floyd's General Store-Bakersfield,CA","address":"3650 Chester Ave, Bakersfield,CA 93301, (661) 327-5105"},{"latitude":"35.376184","longitude":"-118.941834","name":"Floyd's General Store-Bakersfield,CA","address":"3810 Niles Street, Bakersfield,CA 93306, (661) 871-2314"},{"latitude":"34.066054","longitude":"-117.981486","name":"Nichols Lumber & Hardware Co-Baldwin Park,CA","address":"13470 Dalewood St, Baldwin Park,CA 91706, (626) 960-4802"},{"latitude":"34.885422","longitude":"-116.990624","name":"Bcs Ace Hardware-Barstow,CA","address":"2180 E Main St, Barstow,CA 92311, (760) 252-4546"},{"latitude":"37.51148","longitude":"-122.293874","name":"Carlmont Ace Hardware-Belmont,CA","address":"1029 Alameda, Belmont,CA 94002, (650) 593-4072"},{"latitude":"37.089797","longitude":"-122.089268","name":"Scarborough Home Center-Ben Lomond,CA","address":"9470 Highway 9, Ben Lomond,CA 95005, (831) 336-5142"},{"latitude":"38.066729","longitude":"-122.166165","name":"Pedrotti Ace Hardware-Benicia,CA","address":"830 Southampton Rd, Benicia,CA 94510, (707) 745-6887"},{"latitude":"37.872424","longitude":"-122.267062","name":"Berkeley Ace Hardware-Berkeley,CA","address":"2145 University Ave, Berkeley,CA 94704, (510) 845-0410"},{"latitude":"34.25952","longitude":"-116.876329","name":"Riffenburgh Lumber-Big Bear Lake,CA","address":"42800 Big Bear Blvd, Big Bear Lake,CA 92315, (909) 866-4675"},{"latitude":"37.357819","longitude":"-118.395149","name":"High Country Lumber-Bishop,CA","address":"444 S Main St, Bishop,CA 93514, (760) 873-5874"},{"latitude":"39.780842","longitude":"-120.616692","name":"Mountain Hardware & Sports-Blairsden,CA","address":"282 Bonta Street, Blairsden,CA 96103, (530) 836-2589"},{"latitude":"33.610027","longitude":"-114.610465","name":"Inland Builders Sply Inc-Blythe,CA","address":"1224 W Hobsonway, Blythe,CA 92225, (760) 922-0361"},{"latitude":"37.12256","longitude":"-122.121214","name":"Scarborough Lumber-Boulder Creek,CA","address":"12990 Highway 9, Boulder Creek,CA 95006, (831) 338-6467"},{"latitude":"38.31345","longitude":"-122.4813","name":"Parsons Lumber & Hardware-Boyes Hot Sprgs,CA","address":"17800 Sonoma Highway, Boyes Hot Sprgs,CA 95416, (707) 996-1008"},{"latitude":"37.95988","longitude":"-121.696013","name":"Big B Lumber-Brentwood,CA","address":"6600 Brentwood Blvd, Brentwood,CA 94513, (925) 634-2442"},{"latitude":"37.921518","longitude":"-121.686729","name":"Brentwood Ace Hardware-Brentwood,CA","address":"8900 Brentwood Blvd Ste J, Brentwood,CA 94513, (925) 634-3201"},{"latitude":"37.684624","longitude":"-122.402279","name":"Brisbane Hardware & Sply Inc-Brisbane,CA","address":"1 Visitacion Ave, Brisbane,CA 94005, (415) 467-2707"},{"latitude":"37.577494","longitude":"-122.34619","name":"Burlingame Ace Hardware-Burlingame,CA","address":"235 Park Rd, Burlingame,CA 94010, (650) 340-1818"},{"latitude":"40.881852","longitude":"-121.666056","name":"Hovis Ace Hardware-Burney,CA","address":"37113 State Highway 299 E, Burney,CA 96013, (530) 335-5471"},{"latitude":"35.125561","longitude":"-117.99263","name":"Ace City Hardware-California City,CA","address":"7594 California City Blvd, California City,CA 93505, (760) 373-1116"},{"latitude":"38.579398","longitude":"-122.578438","name":"Silverado Ace Hardware-Calistoga,CA","address":"1450 Lincoln Ave, Calistoga,CA 94515, (707) 942-4396"},{"latitude":"38.655803","longitude":"-120.968814","name":"Gold Country Ace Hardware-Cameron Park,CA","address":"4121 Cameron Park Dr, Cameron Park,CA 95682, (530) 677-4417"},{"latitude":"37.288196","longitude":"-121.976435","name":"Campbell Ace Hdw-Campbell,CA","address":"148 N San Tomas Aquino Rd, Campbell,CA 95008, (408) 866-5980"},{"latitude":"33.099637","longitude":"-117.310819","name":"Ace Hardware-Carlsbad,CA","address":"7188 Avenida Encinas, Carlsbad,CA 92011, (760) 602-0400"},{"latitude":"38.63705","longitude":"-121.328156","name":"Ace Hardware-Carmichael,CA","address":"4005 Manzanita Ave Ste 24, Carmichael,CA 95608, (916) 489-1999"},{"latitude":"36.54718","longitude":"-119.836739","name":"Clevenger Mercantile Co-Caruthers,CA","address":"Corner Of Oak And Tahoe, Caruthers,CA 93609, (559) 864-3019"},{"latitude":"37.69321","longitude":"-122.088494","name":"Pete's Ace Hardware-Castro Valley,CA","address":"2569 Castro Valley Blvd, Castro Valley,CA 94546, (510) 581-7633"},{"latitude":"36.762231","longitude":"-121.753527","name":"Ace Hardware-Castroville,CA","address":"11262 Merritt St, Castroville,CA 95012, (831) 633-4773"},{"latitude":"37.594861","longitude":"-120.949099","name":"Richland Ace Hardware-Ceres,CA","address":"2531 E Whitmore Ave, Ceres,CA 95307, (209) 537-4811"},{"latitude":"37.589482","longitude":"-120.955736","name":"Bill's Drywall-Ceres,CA","address":"3115 Railroad Ave, Ceres,CA 95307, (209) 537-9164"},{"latitude":"40.310538","longitude":"-121.228514","name":"Ayoobs Ace Hardware-Chester,CA","address":"201 Main, Chester,CA 96020, (530) 258-2611"},{"latitude":"38.944696","longitude":"-122.631412","name":"Mendo Mill & Lumber Co-Clearlake,CA","address":"5255 Old Highway 53, Clearlake,CA 95422, (707) 994-1014"},{"latitude":"38.792293","longitude":"-123.017505","name":"Ace Hardware-Cloverdale,CA","address":"750 S Cloverdale Blvd, Cloverdale,CA 95425, (707) 894-2165"},{"latitude":"34.068451","longitude":"-117.322235","name":"Squires Lumber Co-Colton,CA","address":"370 N 9th St, Colton,CA 92324, (909) 825-1882"},{"latitude":"39.214637","longitude":"-122.011223","name":"Messick Ace Hardware-Colusa,CA","address":"729 Market St, Colusa,CA 95932, (530) 458-5144"},{"latitude":"37.994742","longitude":"-122.031398","name":"Bill's Ace Hardware-Concord,CA","address":"3375 Port Chicago Hwy, Concord,CA 94520, (925) 726-0333"},{"latitude":"37.963611","longitude":"-121.988768","name":"Bill's Ace Hardware-Concord,CA","address":"4451 Clayton Rd, Concord,CA 94521, (925) 825-4100"},{"latitude":"33.877129","longitude":"-117.583948","name":"Ace Hardware-Corona,CA","address":"1124 W 6th St, Corona,CA 92882, (951) 734-9970"},{"latitude":"33.597635","longitude":"-117.871764","name":"Crown Ace Hardware-Corona Del Mar,CA","address":"3107 E Coast Hwy, Corona Del Mar,CA 92625, (949) 673-2800"},{"latitude":"32.686522","longitude":"-117.179209","name":"Village Ace Hardware-Coronado,CA","address":"949 Orange Ave, Coronado,CA 92118, (619) 435-8032"},{"latitude":"33.669565","longitude":"-117.918963","name":"Crown Ace Hardware-Costa Mesa,CA","address":"2666 Harbor Blvd, Costa Mesa,CA 92626, (714) 546-7080"},{"latitude":"40.389201","longitude":"-122.287648","name":"Valley West Ace Hardware-Cottonwood,CA","address":"20639 Gas Point Rd, Cottonwood,CA 96022, (530) 347-2900"},{"latitude":"41.772805","longitude":"-124.193655","name":"Crescent Ace Hardware-Crescent City,CA","address":"840 E Washington Blvd, Crescent City,CA 95531, (707) 465-5865"},{"latitude":"34.243013","longitude":"-117.282043","name":"Lake Drive Hardware-Crestline,CA","address":"23895 Lake Drive, Crestline,CA 92325, (909) 338-1617"},{"latitude":"33.994006","longitude":"-118.395525","name":"Culver City Industrl Hardware-Culver City,CA","address":"5429 Sepulveda Blvd, Culver City,CA 90230, (310) 398-1251"},{"latitude":"38.544223","longitude":"-121.738898","name":"Davis Ace Hardware-Davis,CA","address":"240 G St, Davis,CA 95616, (530) 758-8000"},{"latitude":"35.771736","longitude":"-119.24779","name":"Floyd's General Store-Delano,CA","address":"1215 High St, Delano,CA 93215, (661) 725-2551"},{"latitude":"34.020433","longitude":"-117.809944","name":"Ace Hardware-Diamond Bar,CA","address":"303 S Diamond Bar Blvd, Diamond Bar,CA 91765, (909) 861-5861"},{"latitude":"38.694863","longitude":"-120.812846","name":"Diamond Springs Ace Hardware-Diamond Springs,CA","address":"552 Main St, Diamond Springs,CA 95619, (530) 622-0108"},{"latitude":"36.538351","longitude":"-119.393849","name":"Dinuba Lumber Co-Dinuba,CA","address":"441 W Tulare Street, Dinuba,CA 93618, (559) 591-4485"},{"latitude":"38.461001","longitude":"-121.822604","name":"Dixon Hardware & Lbr Co-Dixon,CA","address":"1505 N 1st St, Dixon,CA 95620, (707) 678-5521"},{"latitude":"34.13992","longitude":"-117.958788","name":"Frontier Hardware Co Inc-Duarte,CA","address":"2137 Huntington Dr, Duarte,CA 91010, (626) 357-8773"},{"latitude":"37.901289","longitude":"-122.30307","name":"Pastime Hardware-El Cerrito,CA","address":"10057 San Pablo Ave, El Cerrito,CA 94530, (510) 526-6615"},{"latitude":"34.07227","longitude":"-118.042041","name":"Max's Hardware Inc-El Monte,CA","address":"3508 Santa Anita Ave, El Monte,CA 91731, (626) 443-6178"},{"latitude":"37.966217","longitude":"-122.310106","name":"Oliver's Ace Hardware-El Sobrante,CA","address":"4071 San Pablo Dam Rd, El Sobrante,CA 94803, (510) 223-4450"},{"latitude":"38.429993","longitude":"-121.301493","name":"Sheldon Ace Hardware-Elk Grove,CA","address":"9021 Grant Line Rd, Elk Grove,CA 95624, (916) 686-4650"},{"latitude":"38.406858","longitude":"-121.371352","name":"Elk Grove Ace Hardware-Elk Grove,CA","address":"9661 Elk Grove Florin Rd, Elk Grove,CA 95624, (916) 685-3982"},{"latitude":"33.054179","longitude":"-117.267489","name":"Crown Ace Hardware-Encinitas,CA","address":"745 S Coast Hwy Ste J104, Encinitas,CA 92024, (760) 334-0300"},{"latitude":"37.7857","longitude":"-120.996349","name":"Strands Ace Hardware Inc-Escalon,CA","address":"3360 McHenry Ave, Escalon,CA 95320, (209) 838-7992"},{"latitude":"38.694911","longitude":"-122.016062","name":"Esparto Ace Hardware-Esparto,CA","address":"16851 Yolo Ave, Esparto,CA 95627, (530) 787-3800"},{"latitude":"40.783378","longitude":"-124.164833","name":"Shafers Ace Hardware-Eureka,CA","address":"2760 E St, Eureka,CA 95501, (707) 442-5734"},{"latitude":"36.296459","longitude":"-119.140113","name":"Exeter Mercantile Co-Exeter,CA","address":"258 E Pine St, Exeter,CA 93221, (559) 592-2121"},{"latitude":"37.987237","longitude":"-122.590365","name":"Fairfax Lumber Company-Fairfax,CA","address":"109 Broadway Blvd, Fairfax,CA 94930, (415) 453-4410"},{"latitude":"38.677906","longitude":"-121.197868","name":"American River Ace Hardware-Folsom,CA","address":"9500 Greenback Ln Ste 24, Folsom,CA 95630, (916) 988-5188"},{"latitude":"39.441036","longitude":"-123.806156","name":"Mendo Mill & Lumber Co-Fort Bragg,CA","address":"125 S Main St, Fort Bragg,CA 95437, (707) 964-0215"},{"latitude":"39.451026","longitude":"-123.807439","name":"Shop our adRossis Building Materials-Fort Bragg,CA","address":"835 Stewart St, Fort Bragg,CA 95437, (707) 964-4086"},{"latitude":"40.591358","longitude":"-124.147031","name":"Fortuna Ace Hardware & Garden Inc-Fortuna,CA","address":"140 S Fortuna Blvd, Fortuna,CA 95540, (707) 725-8647"},{"latitude":"36.629749","longitude":"-119.679719","name":"Fowler Ace Hardware-Fowler,CA","address":"101 E Merced Ave, Fowler,CA 93625, (559) 834-3512"},{"latitude":"34.821508","longitude":"-118.941392","name":"Frazier Park Lumber & Hardware-Frazier Park,CA","address":"3320 Mt Pinos, Frazier Park,CA 93225, (661) 245-3301"},{"latitude":"36.937978","longitude":"-121.776921","name":"Freedom Ace Hardware-Freedom,CA","address":"1984 Freedom Blvd, Freedom,CA 95019, (831) 724-4740"},{"latitude":"37.561221","longitude":"-122.009458","name":"Dale Hardware Inc-Fremont,CA","address":"37100 Post St, Fremont,CA 94536, (510) 797-3700"},{"latitude":"37.532471","longitude":"-121.921109","name":"Mc Ivors Ace Hardware-Fremont,CA","address":"43350 Ellsworth St, Fremont,CA 94539, (510) 656-0211"},{"latitude":"36.852308","longitude":"-119.731219","name":"Willow Ace Hardware-Fresno,CA","address":"2930 E Nees Suite 105, Fresno,CA 93720, (559) 297-1121"},{"latitude":"36.8265","longitude":"-119.869449","name":"Mayson Ace Hardware-Fresno,CA","address":"6360 N Figarden Dr, Fresno,CA 93722, (559) 498-6192"},{"latitude":"33.870492","longitude":"-117.924834","name":"Fullerton Ace Hardware-Fullerton,CA","address":"117 W Commonwealth Ave, Fullerton,CA 92832, (714) 526-3351"},{"latitude":"38.252745","longitude":"-121.300814","name":"Galt Ace Hardware-Galt,CA","address":"1067 C St Ste 108, Galt,CA 95632, (209) 745-1111"},{"latitude":"40.101959","longitude":"-123.795395","name":"So Humboldt Builders Service-Garberville,CA","address":"690 Thomas Dr, Garberville,CA 95542, (707) 923-2781"},{"latitude":"38.909204","longitude":"-120.85226","name":"Georgetown Ace Hardware-Georgetown,CA","address":"6023-B Front St, Georgetown,CA 95634, (530) 333-4450"},{"latitude":"37.013397","longitude":"-121.594808","name":"Ace Hardware of Gilroy-Gilroy,CA","address":"1260 First St Ste B, Gilroy,CA 95020, (408) 847-5890"},{"latitude":"34.129706","longitude":"-117.863957","name":"Mission Ace Hardware-Glendora,CA","address":"531 S Glendora Ave, Glendora,CA 91741, (626) 914-7980"},{"latitude":"38.741645","longitude":"-121.170428","name":"Granite Bay Ace Hardware-Granite Bay,CA","address":"8665 Auburn Folsom Rd, Granite Bay,CA 95746, (916) 797-3993"},{"latitude":"39.229208","longitude":"-121.079847","name":"A to Z Supply-Grass Valley,CA","address":"13396 Ridge Rd, Grass Valley,CA 95945, (530) 273-6608"},{"latitude":"40.140663","longitude":"-120.950092","name":"Hunter Ace Hardware-Greenville,CA","address":"406 Main Street, Greenville,CA 95947, (530) 284-7913"},{"latitude":"38.907149","longitude":"-120.920024","name":"Divide Supply Inc-Greenwood,CA","address":"3923 Courageous Rd, Greenwood,CA 95635, (530) 885-7421"},{"latitude":"39.364462","longitude":"-121.687747","name":"Harshbarger Ace Hardware-Gridley,CA","address":"1626 State Highway 99, Gridley,CA 95948, (530) 846-3625"},{"latitude":"35.121282","longitude":"-120.618328","name":"Miner's Ace Hardware Inc.-Grover Beach,CA","address":"1056 W Grand Ave, Grover Beach,CA 93433, (805) 489-2931"},{"latitude":"37.671716","longitude":"-122.084939","name":"Hayward Ace-Hayward,CA","address":"808 B St, Hayward,CA 94541, (510) 581-5010"},{"latitude":"38.626969","longitude":"-122.87247","name":"Garrett Hardware & Plbg Co-Healdsburg,CA","address":"1340 Healdsburg Ave, Healdsburg,CA 95448, (707) 433-5593"},{"latitude":"33.858015","longitude":"-118.391157","name":"Triangle Hardware-Hermosa Beach,CA","address":"403 Pacific Coast Hwy, Hermosa Beach,CA 90254, (310) 372-2414"},{"latitude":"37.406563","longitude":"-120.849928","name":"Hilmar Lumber-Hilmar,CA","address":"8150 Lander Ave, Hilmar,CA 95324, (209) 668-8123"},{"latitude":"36.837044","longitude":"-121.389189","name":"Hollister Ace Hardware-Hollister,CA","address":"1707 Airline Hwy # A, Hollister,CA 95023, (831) 634-1590"},{"latitude":"33.730277","longitude":"-118.023971","name":"Springdale Ace Hardware-Huntington Beach,CA","address":"15960 Springdale St, Huntington Beach,CA 92649, (714) 892-4463"},{"latitude":"33.672455","longitude":"-117.969971","name":"Crown Ace Hardware-Huntington Beach,CA","address":"9045 Adams Ave, Huntington Beach,CA 92646, (714) 962-1850"},{"latitude":"38.353816","longitude":"-120.935619","name":"Ione Ace Hardware-Ione,CA","address":"347 Preston Ave, Ione,CA 95640, (209) 274-2101"},{"latitude":"33.663967","longitude":"-117.827167","name":"Crown Ace Hardware-Irvine,CA","address":"18102 Culver Dr, Irvine,CA 92612, (949) 786-8100"},{"latitude":"33.66859","longitude":"-117.786228","name":"Crown Ace Hardware-Irvine,CA","address":"5705 Alton Pkwy, Irvine,CA 92618, (949) 654-0611"},{"latitude":"37.903251","longitude":"-122.277912","name":"Kensington Home & Hdwe-Kensington,CA","address":"303 Arlington Ave, Kensington,CA 94707, (510) 525-2222"},{"latitude":"39.237843","longitude":"-120.029728","name":"North Shore Ace Hardware-Kings Beach,CA","address":"200 Secline St, Kings Beach,CA 96143, (530) 546-3505"},{"latitude":"33.931698","longitude":"-117.9488","name":"Cannings Ace Hardware-La Habra,CA","address":"344 W La Habra Blvd, La Habra,CA 90631, (562) 697-8118"},{"latitude":"32.844383","longitude":"-117.273895","name":"Meanley & Son Hardware-La Jolla,CA","address":"7756 Girard Ave, La Jolla,CA 92037, (858) 454-6101"},{"latitude":"34.044027","longitude":"-117.94909","name":"Merritt's Ace Hardware-La Puente,CA","address":"1302 N Hacienda Blvd, La Puente,CA 91744, (626) 917-2228"},{"latitude":"33.678018","longitude":"-116.304096","name":"La Quinta Ace Hardware-La Quinta,CA","address":"77975 Calle Tampico, La Quinta,CA 92253, (760) 564-1596"},{"latitude":"37.896023","longitude":"-122.102655","name":"Lafayette Ace Hardware-Lafayette,CA","address":"3311 Mt Diablo Blvd, Lafayette,CA 94549, (925) 283-3600"},{"latitude":"33.543481","longitude":"-117.784854","name":"Coast Hardware-Laguna Beach,CA","address":"240 Broadway St, Laguna Beach,CA 92651, (949) 497-4404"},{"latitude":"33.523446","longitude":"-117.68599","name":"Crown Ace Hardware-Laguna Niguel,CA","address":"30281 Golden Lantern, Laguna Niguel,CA 92677, (949) 363-9000"},{"latitude":"33.645932","longitude":"-117.688566","name":"Crown Ace Hardware-Lake Forest,CA","address":"21791 Lake Forest Dr, Lake Forest,CA 92630, (949) 588-7644"},{"latitude":"35.605588","longitude":"-118.485551","name":"L & M Lumber-Lake Isabella,CA","address":"4700 Lake Isabella Blvd, Lake Isabella,CA 93240, (760) 379-4631"},{"latitude":"39.021384","longitude":"-122.914155","name":"Mendo Mill & Lumber Co-Lakeport,CA","address":"2465 S Main Street, Lakeport,CA 95453, (707) 263-8400"},{"latitude":"37.943124","longitude":"-122.54031","name":"Jim Corbet's Store-Larkspur,CA","address":"800 Magnolia Ave, Larkspur,CA 94939, (415) 924-7013"},{"latitude":"39.687145","longitude":"-123.482358","name":"Geiger's Ace Hardware-Laytonville,CA","address":"44951 Highway 101, Laytonville,CA 95454, (707) 984-6911"},{"latitude":"38.891949","longitude":"-121.293613","name":"Lincoln Ace Hardware-Lincoln,CA","address":"720 5th St, Lincoln,CA 95648, (916) 645-2364"},{"latitude":"34.654371","longitude":"-120.457521","name":"Lompoc Ace Hardware-Lompoc,CA","address":"1040 N H St, Lompoc,CA 93436, (805) 735-9424"},{"latitude":"33.782473","longitude":"-118.159785","name":"Anaheim Ace Hardware-Long Beach,CA","address":"2720 E Anaheim St, Long Beach,CA 90804, (562) 438-8983"},{"latitude":"33.76087","longitude":"-118.136613","name":"Billings Paint & Hardware Inc-Long Beach,CA","address":"5006-5004 E 2nd St, Long Beach,CA 90803, (562) 439-2113"},{"latitude":"33.810682","longitude":"-118.107092","name":"Ace Hardware-Long Beach,CA","address":"6441 E Spring St, Long Beach,CA 90808, (562) 982-0285"},{"latitude":"33.771578","longitude":"-118.18283","name":"Long Beach Ace Hardware-Long Beach,CA","address":"746 E 4th St, Long Beach,CA 90802, (562) 432-2100"},{"latitude":"33.974952","longitude":"-118.243723","name":"Shubsda Dist Co Inc-Los Angeles,CA","address":"1669 E Florence Ave, Los Angeles,CA 90001, (323) 587-8532"},{"latitude":"34.03229","longitude":"-118.334916","name":"Paintcraft Ace Hardware-Los Angeles,CA","address":"2620 Crenshaw Blvd, Los Angeles,CA 90016, (323) 733-9157"},{"latitude":"34.064916","longitude":"-118.309244","name":"A & B Ace Hardware-Los Angeles,CA","address":"513 S Western Ave, Los Angeles,CA 90020, (213) 389-6525"},{"latitude":"34.052992","longitude":"-118.279221","name":"Alvarado Paint & Hardware Inc-Los Angeles,CA","address":"915 S Alvarado St, Los Angeles,CA 90006, (213) 382-1305"},{"latitude":"37.221337","longitude":"-121.984858","name":"Rural Supply Hardware-Los Gatos,CA","address":"110 S Santa Cruz Ave, Los Gatos,CA 95030, (408) 354-3910"},{"latitude":"37.246767","longitude":"-121.957132","name":"Ace Los Gatos Hardware-Los Gatos,CA","address":"15300 Los Gatos Blvd, Los Gatos,CA 95032, (408) 356-7103"},{"latitude":"40.026353","longitude":"-122.099672","name":"Los Molinos Ace Hardware-Los Molinos,CA","address":"7930 State Highway 99E, Los Molinos,CA 96055, (530) 384-1250"},{"latitude":"35.311118","longitude":"-120.831138","name":"Miner's Ace Hardware-Los Osos,CA","address":"1080 Los Osos Valley Rd, Los Osos,CA 93402, (805) 528-5255"},{"latitude":"37.641063","longitude":"-118.96469","name":"High Country Lumber-Mamoth Lakes,CA","address":"243 Sierra Manor Rd, Mamoth Lakes,CA 93546, (760) 924-8876"},{"latitude":"38.979675","longitude":"-123.686951","name":"S&B Market-Manchester,CA","address":"West Side Highway #1, Manchester,CA 95459, (707) 882-2805"},{"latitude":"36.685556","longitude":"-121.794751","name":"Ace Hardware of Marina-Marina,CA","address":"265 Reservation Rd, Marina,CA 93933, (831) 884-9476"},{"latitude":"38.010473","longitude":"-122.101612","name":"Bill's Ace Hardware-Martinez,CA","address":"3610 Pacheco Blvd, Martinez,CA 94553, (925) 228-6135"},{"latitude":"39.139597","longitude":"-121.585732","name":"Union Lumber Company-Marysville,CA","address":"401 B St, Marysville,CA 95901, (530) 743-4621"},{"latitude":"33.988602","longitude":"-118.200783","name":"L B Johnson Ace Hardware-Maywood,CA","address":"3600 Slauson Ave, Maywood,CA 90270, (323) 582-8171"},{"latitude":"40.945252","longitude":"-124.100825","name":"Mckinleyville Ace Hardware-Mckinleyville,CA","address":"2197 Central Ave, Mckinleyville,CA 95519, (707) 839-1587"},{"latitude":"37.452184","longitude":"-122.184187","name":"Menlo Park Hardware-Menlo Park,CA","address":"700 Santa Cruz Ave, Menlo Park,CA 94025, (650) 325-2515"},{"latitude":"38.753389","longitude":"-122.614614","name":"Walter R Hardester Inc-Middletown,CA","address":"21088 Calistoga Rd, Middletown,CA 95461, (707) 987-2325"},{"latitude":"37.897014","longitude":"-122.536205","name":"General Hardware Company-Mill Valley,CA","address":"401 Miller Ave, Mill Valley,CA 94941, (415) 383-6611"},{"latitude":"37.895658","longitude":"-122.516768","name":"Goodman Building Sply Co-Mill Valley,CA","address":"775 Redwood Hwy, Mill Valley,CA 94941, (415) 388-6233"},{"latitude":"37.600744","longitude":"-122.38954","name":"Millbrae Lumber Company-Millbrae,CA","address":"200 El Camino Real, Millbrae,CA 94030, (650) 697-2326"},{"latitude":"33.628531","longitude":"-117.635199","name":"Crown Ace Hardware-Mission Viejo,CA","address":"23042 Alicia Pkwy, Mission Viejo,CA 92692, (949) 540-1900"},{"latitude":"37.689122","longitude":"-120.975918","name":"Modesto Ace Hardware-Modesto,CA","address":"3500 Coffee Rd - Suite 15, Modesto,CA 95355, (209) 524-8400"},{"latitude":"34.28553","longitude":"-118.879723","name":"Whitakers Hardware-Moorpark,CA","address":"179 E High St, Moorpark,CA 93021, (805) 529-1526"},{"latitude":"33.93919","longitude":"-117.242289","name":"Sunnymead Ace Hardware-Moreno Valley,CA","address":"24064 Sunnymead Blvd, Moreno Valley,CA 92553, (951) 242-1246"},{"latitude":"37.116573","longitude":"-121.633258","name":"Johnson Lumber Company-Morgan Hill,CA","address":"600 Tennant Ave, Morgan Hill,CA 95037, (408) 778-1550"},{"latitude":"35.381725","longitude":"-120.851592","name":"Miner's Ace Hardware-Morro Bay,CA","address":"510 Atascadero Rd, Morro Bay,CA 93442, (805) 772-2233"},{"latitude":"41.313683","longitude":"-122.312599","name":"Ramshaw Ace Hardware-Mount Shasta,CA","address":"328 N Mount Shasta Blvd, Mount Shasta,CA 96067, (530) 926-3482"},{"latitude":"38.228568","longitude":"-120.54103","name":"Sender's Market Inc-Mountain Ranch,CA","address":"8111 Garabaldi St, Mountain Ranch,CA 95246, (209) 754-1074"},{"latitude":"38.310501","longitude":"-122.276754","name":"Clark's Ace Hardware-Napa,CA","address":"325 Lincoln Ave, Napa,CA 94558, (707) 255-4272"},{"latitude":"38.296764","longitude":"-122.286927","name":"Zeller's Ace Hardware-Napa,CA","address":"819 Randolph St, Napa,CA 94559, (707) 224-0204"},{"latitude":"37.315523","longitude":"-121.022919","name":"Newman Ace Hardware-Newman,CA","address":"1321 Main St, Newman,CA 95360, (209) 862-0888"},{"latitude":"33.628434","longitude":"-117.90836","name":"Crown Ace Hardware-Newport Beach,CA","address":"1024 Irvine Ave, Newport Beach,CA 92660, (949) 642-1133"},{"latitude":"33.625794","longitude":"-117.850053","name":"Crown Ace Hardware-Newport Beach,CA","address":"2644 San Miguel Dr, Newport Beach,CA 92660, (949) 644-8570"},{"latitude":"35.036068","longitude":"-120.48574","name":"Miner's Ace Hardware-Nipomo,CA","address":"553 W Tefft St, Nipomo,CA 93444, (805) 929-3223"},{"latitude":"33.923618","longitude":"-117.559127","name":"Norco Ace Hardware-Norco,CA","address":"2850 Hamner Ave, Norco,CA 92860, (951) 734-0971"},{"latitude":"38.097963","longitude":"-122.570289","name":"Pini Ace Hardware-Novato,CA","address":"1535 S Novato Blvd Ste A, Novato,CA 94947, (415) 892-1577"},{"latitude":"37.769299","longitude":"-120.840101","name":"Oakdale Ace Hardware & Home Center-Oakdale,CA","address":"1010 E F St, Oakdale,CA 95361, (209) 847-3084"},{"latitude":"37.790363","longitude":"-122.197301","name":"Laurel Ace Hardware-Oakland,CA","address":"4024 Macarthur Blvd, Oakland,CA 94619, (510) 530-1966"},{"latitude":"37.839202","longitude":"-122.269232","name":"Ellis Ace Hardware-Oakland,CA","address":"5424 Martin Luther King Jr Way # J, Oakland,CA 94609, (510) 653-4365"},{"latitude":"37.798267","longitude":"-122.280169","name":"Markus Supply Ace Hardware-Oakland,CA","address":"625 3rd St, Oakland,CA 94607, (510) 832-6532"},{"latitude":"37.996481","longitude":"-121.709523","name":"Oakley Ace Hardware-Oakley,CA","address":"305 5th St, Oakley,CA 94561, (925) 625-2449"},{"latitude":"33.224699","longitude":"-117.332605","name":"Ace Hardware-Oceanside,CA","address":"3766 Mission Ave, Oceanside,CA 92058, (760) 547-2121"},{"latitude":"34.448283","longitude":"-119.276039","name":"Meiners Oaks Hardware-Ojai,CA","address":"121 E El Roblar Dr, Ojai,CA 93023, (805) 646-7234"},{"latitude":"33.834959","longitude":"-117.857293","name":"Lincoln Ace Hardware-Orange,CA","address":"420 W Lincoln Ave, Orange,CA 92865, (714) 282-6868"},{"latitude":"33.787604","longitude":"-117.805268","name":"Woodward's Ace Hardware-Orange,CA","address":"4516 E Chapman Ave, Orange,CA 92869, (714) 453-4100"},{"latitude":"39.357252","longitude":"-121.274026","name":"Foothill Hardware-Oregon House,CA","address":"13860 Willow Glen Rd, Oregon House,CA 95962, (530) 692-1841"},{"latitude":"39.505879","longitude":"-121.552822","name":"Better Deal Exchange-Oroville,CA","address":"1845 Mitchell Ave, Oroville,CA 95966, (530) 533-5600"},{"latitude":"39.502102","longitude":"-121.455598","name":"Lake Oroville Ace Hardware-Oroville,CA","address":"5369 Old Olive Hwy, Oroville,CA 95966, (530) 589-1455"},{"latitude":"34.210258","longitude":"-119.194503","name":"Oxnard Ace Hardware-Oxnard,CA","address":"816 N Ventura Rd, Oxnard,CA 93030, (805) 278-1600"},{"latitude":"36.607287","longitude":"-121.922497","name":"Coast Ace Hardware-Pacific Grove,CA","address":"1136 Forest Ave, Pacific Grove,CA 93950, (831) 372-3284"},{"latitude":"36.62062","longitude":"-121.917857","name":"Pacific Grove Hardware-Pacific Grove,CA","address":"229 Forest Ave, Pacific Grove,CA 93950, (831) 646-9144"},{"latitude":"37.595301","longitude":"-122.504795","name":"Linda Mar Ace Home Center-Pacifica,CA","address":"560 San Pedro Ave, Pacifica,CA 94044, (650) 359-2401"},{"latitude":"33.72163","longitude":"-116.372312","name":"Palm Desert Ace-Palm Desert,CA","address":"74058 Highway 111, Palm Desert,CA 92260, (760) 568-1861"},{"latitude":"37.44065","longitude":"-122.159276","name":"Palo Alto Hardware-Palo Alto,CA","address":"875 Alma St, Palo Alto,CA 94301, (650) 327-7222"},{"latitude":"39.752112","longitude":"-121.607582","name":"Thomas Ace Hardware-Paradise,CA","address":"5720 Clark Rd, Paradise,CA 95969, (530) 877-4442"},{"latitude":"33.896241","longitude":"-118.160321","name":"Lindsay Lumber Company-Paramount,CA","address":"15101 Paramount Blvd, Paramount,CA 90723, (562) 633-1143"},{"latitude":"37.466199","longitude":"-121.124926","name":"Patterson Ace Hardware-Patterson,CA","address":"501 S 2nd St, Patterson,CA 95363, (209) 892-9221"},{"latitude":"38.233281","longitude":"-122.639337","name":"Rex Ace Hardware-Petaluma,CA","address":"313 B St, Petaluma,CA 94952, (707) 762-7355"},{"latitude":"39.074294","longitude":"-123.458792","name":"Jack's Valley Store & Spl-Philo,CA","address":"7450 Highway 128, Philo,CA 95466, (707) 895-3221"},{"latitude":"38.012173","longitude":"-121.890287","name":"Pittsburg Ace Hardware-Pittsburg,CA","address":"125 E Leland Rd, Pittsburg,CA 94565, (925) 432-6089"},{"latitude":"38.732156","longitude":"-120.782741","name":"Hangtown Ace Hardware-Placerville,CA","address":"1309 Broadway, Placerville,CA 95667, (530) 622-2534"},{"latitude":"38.683086","longitude":"-120.663094","name":"Pleasant Valley Ace Hardware-Placerville,CA","address":"4570 Pleasant Valley Rd, Placerville,CA 95667, (530) 644-3795"},{"latitude":"37.95562","longitude":"-122.060006","name":"Bill's Ace Hardware-Pleasant Hill,CA","address":"1530 Contra Costa Blvd, Pleasant Hill,CA 94523, (925) 682-5000"},{"latitude":"36.065761","longitude":"-119.036841","name":"Weisenberger's Ace Hardware-Porterville,CA","address":"881 W Olive Ave, Porterville,CA 93257, (559) 784-3292"},{"latitude":"39.809915","longitude":"-120.471694","name":"Plumas Ace Hardware-Portola,CA","address":"184 W Sierra Street, Portola,CA 96122, (530) 832-5206"},{"latitude":"37.036969","longitude":"-119.520369","name":"Canyon Fork Ace Hardware-Prather,CA","address":"29181 Auberry Rd, Prather,CA 93651, (559) 855-8348"},{"latitude":"36.800424","longitude":"-121.664783","name":"Ace Hardware Prunedale-Prunedale,CA","address":"8065 San Miguel Canyon Rd, Prunedale,CA 93907, (831) 663-2610"},{"latitude":"38.068151","longitude":"-122.805824","name":"Ace Building Supply Center-Pt Reyes Sta,CA","address":"11280 State Route 1, Pt Reyes Sta,CA 94956, (415) 663-1737"},{"latitude":"33.005765","longitude":"-116.818517","name":"Ace Hardware-Ramona,CA","address":"23642 San Vicente Road, Ramona,CA 92065, (760) 440-3380"},{"latitude":"34.125269","longitude":"-117.593737","name":"S M Hoyt Lbr Co Home Ctr-Rancho Cucamonga,CA","address":"7110 Archibald Ave, Rancho Cucamonga,CA 91701, (909) 989-8554"},{"latitude":"38.494408","longitude":"-121.099841","name":"Rancho Murieta Hardware-Rancho Murieta,CA","address":"7238 Murieta Dr Ste A-6, Rancho Murieta,CA 95683, (916) 354-1970"},{"latitude":"40.563947","longitude":"-122.346124","name":"Valley Ace Hardware-Redding,CA","address":"1350 Hartnell Ave, Redding,CA 96002, (530) 222-6461"},{"latitude":"40.586437","longitude":"-122.403789","name":"Hardware Express-Redding,CA","address":"2225 Eureka Way, Redding,CA 96001, (530) 243-6028"},{"latitude":"40.57515","longitude":"-122.414319","name":"Martins Valley Supply-Redding,CA","address":"4490 Westside Rd, Redding,CA 96001, (530) 243-2381"},{"latitude":"37.92536","longitude":"-122.367812","name":"Whale Point Marine & Hardware-Richmond,CA","address":"205 Cutting Blvd, Richmond,CA 94804, (510) 233-1988"},{"latitude":"37.947231","longitude":"-122.330421","name":"Ace Hardware-Richmond,CA","address":"4920 Mcbryde Ave, Richmond,CA 94805, (510) 233-1068"},{"latitude":"38.16076","longitude":"-121.69275","name":"Oilwell Materials\/Hardware Co-Rio Vista,CA","address":"506 State Highway 12, Rio Vista,CA 94571, (707) 374-6434"},{"latitude":"37.740132","longitude":"-121.13526","name":"Schemper's Ace Hardware-Ripon,CA","address":"150 N Wilma Ave, Ripon,CA 95366, (209) 599-2141"},{"latitude":"33.98163","longitude":"-117.373879","name":"Woodcrest Ace Hardware-Riverside,CA","address":"18845 Van Buren Blvd Ste B5, Riverside,CA 92508, (951) 789-0731"},{"latitude":"33.983947","longitude":"-117.357374","name":"Bauman's Ace Hardware-Riverside,CA","address":"3199 Kansas Ave, Riverside,CA 92507, (951) 686-5732"},{"latitude":"34.012109","longitude":"-117.444159","name":"Crown Ace Hardware-Riverside,CA","address":"7351 Mission Blvd, Riverside,CA 92509, (951) 681-2669"},{"latitude":"38.814258","longitude":"-121.256189","name":"Supply Ace Hardware-Rocklin,CA","address":"3261 Stanford Ranch Rd, Rocklin,CA 95765, (916) 435-3673"},{"latitude":"33.742809","longitude":"-117.167018","name":"Ahern Rentals Ace Hardware-Romoland,CA","address":"28261 US Highway 74, Romoland,CA 92585, (951) 928-2300"},{"latitude":"38.744649","longitude":"-121.274224","name":"Roseville Ace Hardware-Roseville,CA","address":"108 A Harding Blvd, Roseville,CA 95678, (916) 782-8402"},{"latitude":"38.578548","longitude":"-121.481728","name":"Capitol Ace Hardware-Sacramento,CA","address":"1815 I St, Sacramento,CA 95811, (916) 446-5246"},{"latitude":"38.610094","longitude":"-121.451148","name":"Cook's Ace Hardware-Sacramento,CA","address":"2125 Del Paso Blvd, Sacramento,CA 95815, (916) 922-5681"},{"latitude":"38.610576","longitude":"-121.38107","name":"Emigh Ace Hardware-Sacramento,CA","address":"3555 El Camino Ave, Sacramento,CA 95821, (916) 482-1900"},{"latitude":"38.507484","longitude":"-121.541288","name":"Greenhaven Hardware Inc-Sacramento,CA","address":"388 Florin Rd, Sacramento,CA 95831, (916) 391-3038"},{"latitude":"38.547414","longitude":"-121.3598","name":"Rosemont Ace Hardware-Sacramento,CA","address":"9161 Kiefer Blvd # B, Sacramento,CA 95826, (916) 363-1320"},{"latitude":"36.657098","longitude":"-121.659476","name":"Salinas Ace Hardware-Salinas,CA","address":"1215 S Main St, Salinas,CA 93901, (831) 775-0523"},{"latitude":"36.694444","longitude":"-121.597083","name":"Ace Hardware-Salinas,CA","address":"1561 N Sanborn Rd, Salinas,CA 93905, (831) 422-2233"},{"latitude":"34.12129","longitude":"-117.235709","name":"K & L Hardware-San Bernardino,CA","address":"26091 Base Line St, San Bernardino,CA 92410, (909) 862-9450"},{"latitude":"32.748241","longitude":"-117.154986","name":"Ace Hillcrest Hardware-San Diego,CA","address":"1007 University Ave, San Diego,CA 92103, (619) 291-5988"},{"latitude":"33.019074","longitude":"-117.111416","name":"Griffin Ace Hardware-San Diego,CA","address":"10511 4S Commons Dr #156, San Diego,CA 92127, (858) 385-1801"},{"latitude":"32.797844","longitude":"-117.241285","name":"Home Improver Ace Hardware-San Diego,CA","address":"1544 Grand Ave, San Diego,CA 92109, (858) 274-6464"},{"latitude":"32.737771","longitude":"-117.212214","name":"Crown Ace Hardware-San Diego,CA","address":"2750 Dewey Rd Ste 103, San Diego,CA 92106, (619) 326-0827"},{"latitude":"32.938075","longitude":"-117.230519","name":"Griffin Ace Hardware-San Diego,CA","address":"3880 Valley Centre Dr Ste 203, San Diego,CA 92130, (858) 793-1771"},{"latitude":"32.828201","longitude":"-117.206011","name":"Ace Hardware-San Diego,CA","address":"4615 Clairemont Dr, San Diego,CA 92117, (858) 273-1608"},{"latitude":"32.712249","longitude":"-117.159088","name":"Downtown Ace Hardware-San Diego,CA","address":"675 6th Ave, San Diego,CA 92101, (619) 544-9400"},{"latitude":"32.809116","longitude":"-117.257625","name":"Hammer & Nails Ace Hardware-San Diego,CA","address":"890 Turquoise St, San Diego,CA 92109, (858) 488-6881"},{"latitude":"34.106809","longitude":"-117.809519","name":"San Dimas Ace Hardware-San Dimas,CA","address":"201 W Bonita Ave, San Dimas,CA 91773, (909) 599-2113"},{"latitude":"37.782526","longitude":"-122.470041","name":"Standard Plumbing Ace Hardware-San Francisco,CA","address":"1019 Clement St, San Francisco,CA 94118, (415) 221-1888"},{"latitude":"37.792468","longitude":"-122.399135","name":"Financial District Hardware-San Francisco,CA","address":"140 Pine St, San Francisco,CA 94111, (415) 362-7744"},{"latitude":"37.79111","longitude":"-122.420962","name":"Brownies Ace Hardware-San Francisco,CA","address":"1563 Polk St, San Francisco,CA 94109, (415) 673-8900"},{"latitude":"37.784988","longitude":"-122.43373","name":"Central Ace Hardware-San Francisco,CA","address":"1949 Post St, San Francisco,CA 94115, (415) 931-7503"},{"latitude":"37.767565","longitude":"-122.428566","name":"Handy Handyman Hardware-San Francisco,CA","address":"2075 Market St, San Francisco,CA 94114, (415) 934-9010"},{"latitude":"37.797554","longitude":"-122.421914","name":"Cole Hardware-San Francisco,CA","address":"2254 Polk St, San Francisco,CA 94109, (415) 674-8913"},{"latitude":"37.753745","longitude":"-122.490749","name":"9 Pm Ace Hardware-San Francisco,CA","address":"2526 Noriega St, San Francisco,CA 94122, (415) 753-0258"},{"latitude":"37.743845","longitude":"-122.421255","name":"Cole Hardware-San Francisco,CA","address":"3312 Mission St, San Francisco,CA 94110, (415) 647-8700"},{"latitude":"37.786381","longitude":"-122.452486","name":"Standard 5 & 10 Ace-San Francisco,CA","address":"3545 California St, San Francisco,CA 94118, (415) 751-5767"},{"latitude":"37.780277","longitude":"-122.485055","name":"Standard Plumbing Ace Hardware-San Francisco,CA","address":"6122 Geary Blvd, San Francisco,CA 94121, (415) 752-1888"},{"latitude":"37.784886","longitude":"-122.404762","name":"Cole Hardware-San Francisco,CA","address":"70 4th St, San Francisco,CA 94103, (415) 777-4400"},{"latitude":"37.76529","longitude":"-122.449695","name":"Cole Hardware-San Francisco,CA","address":"956 Cole St, San Francisco,CA 94117, (415) 753-2653"},{"latitude":"37.764017","longitude":"-122.393707","name":"Center Hardware And Supply Co-San Francisco,CA","address":"999 Mariposa St, San Francisco,CA 94107, (415) 861-1800"},{"latitude":"34.079467","longitude":"-118.106819","name":"Mission Hardware-San Gabriel,CA","address":"501 W Valley Blvd, San Gabriel,CA 91776, (626) 284-7021"},{"latitude":"37.289712","longitude":"-121.887731","name":"Willow Glen Ace Hardware-San Jose,CA","address":"2253 Lincoln Ave, San Jose,CA 95125, (408) 267-0223"},{"latitude":"37.220769","longitude":"-121.86147","name":"Almaden Ace Hardware-San Jose,CA","address":"6469 Almaden Expy, San Jose,CA 95120, (408) 997-1784"},{"latitude":"37.22579","longitude":"-121.774587","name":"Santa Teresa Ace Hardware-San Jose,CA","address":"7080 Santa Teresa Boulevard, San Jose,CA 95139, (408) 281-8900"},{"latitude":"37.711411","longitude":"-122.137619","name":"Ace Hardware of San Leandro-San Leandro,CA","address":"14315 E 14th St, San Leandro,CA 94578, (510) 357-4775"},{"latitude":"37.733485","longitude":"-122.151135","name":"Dutton Hardware-San Leandro,CA","address":"595 Dutton Ave, San Leandro,CA 94577, (510) 632-5263"},{"latitude":"35.271741","longitude":"-120.656074","name":"Miner's Ace Hardware-San Luis Obispo,CA","address":"2034 Santa Barbara Ave, San Luis Obispo,CA 93401, (805) 543-2191"},{"latitude":"37.568481","longitude":"-122.32225","name":"Wisnom Ace Hardware-San Mateo,CA","address":"545 1st Ave, San Mateo,CA 94401, (650) 348-1082"},{"latitude":"33.722891","longitude":"-118.312988","name":"South Shores Ace Hardware-San Pedro,CA","address":"2515 S Western Ave Ste 101, San Pedro,CA 90732, (310) 833-1223"},{"latitude":"33.768211","longitude":"-117.835624","name":"Ace Hardware-Santa Ana,CA","address":"2343 N Tustin Ave, Santa Ana,CA 92705, (714) 541-5268"},{"latitude":"33.745284","longitude":"-117.915916","name":"Griffin Hardware Co-Santa Ana,CA","address":"3501 W 1st St, Santa Ana,CA 92703, (714) 554-0902"},{"latitude":"34.42044","longitude":"-119.689528","name":"Santa Barbara Hme Imp Ctr-Santa Barbara,CA","address":"415 E Gutierrez St, Santa Barbara,CA 93101, (805) 963-7825"},{"latitude":"36.961561","longitude":"-122.043799","name":"Westside Hardware-Santa Cruz,CA","address":"849-D Almar Ave, Santa Cruz,CA 95060, (831) 426-7650"},{"latitude":"34.025153","longitude":"-118.484618","name":"Busy Bee Hdwe & Industrial Supply-Santa Monica,CA","address":"1521 Santa Monica Blvd, Santa Monica,CA 90404, (310) 395-1158"},{"latitude":"38.452722","longitude":"-122.771215","name":"Guerneville Fulton Ace-Santa Rosa,CA","address":"2551 Guerneville Rd, Santa Rosa,CA 95401, (707) 525-8635"},{"latitude":"38.427003","longitude":"-122.668105","name":"Bennett Valley Ace Hardware-Santa Rosa,CA","address":"2739 Yulupa Ave, Santa Rosa,CA 95405, (707) 524-2515"},{"latitude":"38.457235","longitude":"-122.676718","name":"Mission Ace Hardware & Lumber-Santa Rosa,CA","address":"4310 Sonoma Hwy, Santa Rosa,CA 95409, (707) 539-7070"},{"latitude":"34.611823","longitude":"-120.081924","name":"Harrison Ace Hardware-Santa Ynez,CA","address":"1051 Edison St, Santa Ynez,CA 93460, (805) 688-4614"},{"latitude":"37.054775","longitude":"-122.009934","name":"Scarborough Lumber & Bldg Supply-Scotts Valley,CA","address":"20 El Pueblo Rd, Scotts Valley,CA 95066, (831) 438-0331"},{"latitude":"37.04526","longitude":"-122.026744","name":"Scarborough Ace Hardware-Scotts Valley,CA","address":"218 Mount Hermon Rd, Scotts Valley,CA 95066, (831) 438-0581"},{"latitude":"38.407262","longitude":"-122.838535","name":"Sebastopol Hardware Ctr-Sebastopol,CA","address":"660 Gravenstein Hwy N, Sebastopol,CA 95472, (707) 823-7688"},{"latitude":"36.569198","longitude":"-119.612707","name":"Nelson's Ace Hardware-Selma,CA","address":"2051 High St, Selma,CA 93662, (559) 896-3404"},{"latitude":"35.503209","longitude":"-119.273003","name":"Floyd's General Store-Shafter,CA","address":"555 Walker St, Shafter,CA 93263, (661) 746-6868"},{"latitude":"40.680547","longitude":"-122.370071","name":"Hardware Express-Shasta Lake,CA","address":"4236 Shasta Dam Blvd, Shasta Lake,CA 96019, (530) 275-1721"},{"latitude":"34.161981","longitude":"-118.058978","name":"Arnold's Frontier Hardware-Sierra Madre,CA","address":"297 W Sierra Madre Blvd, Sierra Madre,CA 91024, (626) 355-3365"},{"latitude":"36.424399","longitude":"-121.325673","name":"Soledad Hardware & Lbr-Soledad,CA","address":"900 Front St, Soledad,CA 93960, (831) 678-3784"},{"latitude":"34.596099","longitude":"-120.1392","name":"Santa Ynez Valley Hardware Inc-Solvang,CA","address":"1665 Mission Dr, Solvang,CA 93463, (805) 688-4191"},{"latitude":"37.975375","longitude":"-120.379607","name":"J S West Hardware & Lumber-Sonora,CA","address":"730 S Washington St, Sonora,CA 95370, (209) 532-7446"},{"latitude":"38.505047","longitude":"-122.469658","name":"Steves Hardware-St Helena,CA","address":"1370 Main St, St Helena,CA 94574, (707) 963-3423"},{"latitude":"37.967228","longitude":"-121.324471","name":"Country Club Hardware-Stockton,CA","address":"1939 Country Club Blvd, Stockton,CA 95204, (209) 464-8285"},{"latitude":"38.005309","longitude":"-121.354139","name":"Stockton Ace Hardware-Stockton,CA","address":"3201 W Benjamin Holt Dr, Stockton,CA 95219, (209) 951-8050"},{"latitude":"34.14644","longitude":"-118.420907","name":"Studio City Ace Hardware-Studio City,CA","address":"13241 Ventura Blvd, Studio City,CA 91604, (818) 784-6274"},{"latitude":"38.245965","longitude":"-122.020644","name":"Suisun Ace Hardware-Suisun City,CA","address":"252 Sunset Ave, Suisun City,CA 94585, (707) 428-4223"},{"latitude":"40.410941","longitude":"-120.636542","name":"Billington Ace Hardware-Susanville,CA","address":"2950 Main St, Susanville,CA 96130, (530) 257-4117"},{"latitude":"35.132257","longitude":"-118.449644","name":"Tehachapi Lumber Company-Tehachapi,CA","address":"228 W Tehachapi Blvd, Tehachapi,CA 93561, (661) 822-4481"},{"latitude":"33.476054","longitude":"-117.124447","name":"Temecula Ace Hardware-Temecula,CA","address":"30733 US Highway 79 S, Temecula,CA 92592, (951) 491-6090"},{"latitude":"33.826807","longitude":"-118.369384","name":"Woods Ace Hardware-Torrance,CA","address":"22217 Palos Verdes Blvd, Torrance,CA 90505, (310) 540-5355"},{"latitude":"37.755794","longitude":"-121.435263","name":"Van's Ace Hardware-Tracy,CA","address":"2695 N Tracy Blvd, Tracy,CA 95376, (209) 835-8286"},{"latitude":"39.326239","longitude":"-120.20823","name":"Mountain Hardware & Sports-Truckee,CA","address":"11320 Donner Pass Rd, Truckee,CA 96161, (530) 587-4844"},{"latitude":"38.038442","longitude":"-120.228285","name":"Twain Harte Lumber & Hdwe-Twain Harte,CA","address":"22956 Twain Harte Dr, Twain Harte,CA 95383, (209) 586-3571"},{"latitude":"39.174467","longitude":"-123.211449","name":"Mendo Mill & Lbr Co-Ukiah,CA","address":"1870 N State St, Ukiah,CA 95482, (707) 462-8806"},{"latitude":"34.094035","longitude":"-117.650933","name":"Hoyt Lumber Co-Upland,CA","address":"120 S Euclid Ave, Upland,CA 91786, (909) 982-8857"},{"latitude":"38.351544","longitude":"-121.992989","name":"Pacific Ace Hardware-Vacaville,CA","address":"627 Merchant St, Vacaville,CA 95688, (707) 448-2978"},{"latitude":"38.133167","longitude":"-122.255801","name":"O'Connor Lumber Co-Vallejo,CA","address":"4310 Sonoma Blvd, Vallejo,CA 94589, (707) 642-8921"},{"latitude":"36.33055","longitude":"-119.278487","name":"Visalia Lumber Co-Visalia,CA","address":"232 N Ben Maddox Way, Visalia,CA 93292, (559) 733-2166"},{"latitude":"37.897029","longitude":"-122.068579","name":"Walnut Creek Hardware-Walnut Creek,CA","address":"2044 Mt Diablo Blvd, Walnut Creek,CA 94596, (925) 705-7500"},{"latitude":"37.926462","longitude":"-122.016534","name":"Walnut Creek Ace Hardware-Walnut Creek,CA","address":"2967 Ygnacio Valley Rd, Walnut Creek,CA 94598, (925) 935-6500"},{"latitude":"35.601375","longitude":"-119.341644","name":"Floyd's General Store-Wasco,CA","address":"1425 Highway 46, Wasco,CA 93280, (661) 758-8090"},{"latitude":"37.638663","longitude":"-120.759638","name":"Waterford Farm Supply-Waterford,CA","address":"120 F Street, Waterford,CA 95386, (209) 874-2391"},{"latitude":"36.910846","longitude":"-121.757796","name":"Ace Hardware-Watsonville,CA","address":"451 Main St, Watsonville,CA 95076, (831) 724-4749"},{"latitude":"40.728425","longitude":"-122.937749","name":"Plotzke Ace Hardware-Weaverville,CA","address":"Highway 299 West, Weaverville,CA 96093, (530) 623-6132"},{"latitude":"38.401789","longitude":"-120.525595","name":"West Point Lumber-West Point,CA","address":"22471 Highway 26, West Point,CA 95255, (209) 293-4245"},{"latitude":"39.002066","longitude":"-121.451951","name":"Stineman's Farm Supply-Wheatland,CA","address":"4505 Wheatland Rd, Wheatland,CA 95692, (530) 633-2534"},{"latitude":"33.596877","longitude":"-117.243108","name":"Wildomar Ace Hardware-Wildomar,CA","address":"23881 Clinton Keith Rd, Wildomar,CA 92595, (951) 834-9075"},{"latitude":"39.412392","longitude":"-123.350146","name":"Mendo Mill & Lbr Co-Willits,CA","address":"305 E Commercial St, Willits,CA 95490, (707) 459-4631"},{"latitude":"40.93841","longitude":"-123.628231","name":"Willow Creek Ace Hardware-Willow Creek,CA","address":"39168 Hwy 299, Willow Creek,CA 95573, (530) 629-2425"},{"latitude":"38.564055","longitude":"-122.827352","name":"Garrett Ace Hardware-Windsor,CA","address":"10540 Old Redwood Hwy, Windsor,CA 95492, (707) 433-6590"},{"latitude":"38.521782","longitude":"-121.969512","name":"Pacific Ace Hardware-Winters,CA","address":"35 Main St, Winters,CA 95694, (530) 795-3368"},{"latitude":"33.887164","longitude":"-117.826591","name":"Arrow Hardware Co #3-Yorba Linda,CA","address":"5091 Richfield Rd, Yorba Linda,CA 92886, (714) 524-1621"},{"latitude":"41.726535","longitude":"-122.638696","name":"G & G Hardware-Yreka,CA","address":"729 S Broadway St, Yreka,CA 96097, (530) 842-7351"},{"latitude":"34.032562","longitude":"-117.05609","name":"Crown Ace Hardware-Yucaipa,CA","address":"12157 5th St, Yucaipa,CA 92399, (909) 797-1166"},{"latitude":"39.812391","longitude":"-105.172812","name":"Ace Hardware at Westwoods-Arvada,CO","address":"15530 W 64th Ave Ste G, Arvada,CO 80007, (303) 420-9691"},{"latitude":"39.812958","longitude":"-105.050884","name":"Sheridan Ace Hardware-Arvada,CO","address":"5017 W 64th Ave, Arvada,CO 80003, (303) 426-1035"},{"latitude":"39.799883","longitude":"-105.103323","name":"Ralston Ace Hardware-Arvada,CO","address":"9447 W 57th Ave, Arvada,CO 80002, (303) 424-4202"},{"latitude":"39.193694","longitude":"-106.81876","name":"Alpine Ace Hardware-Aspen,CO","address":"300 Puppy Smith St, Aspen,CO 81611, (970) 925-3031"},{"latitude":"39.593167","longitude":"-104.805608","name":"Ace Hardware at Cornerstar-Aurora,CO","address":"15600 E Briarwood Cir, Aurora,CO 80016, (303) 400-8090"},{"latitude":"39.672917","longitude":"-104.788107","name":"Ace Hdw at Buckley Square-Aurora,CO","address":"17190 E Iliff Ave, Aurora,CO 80013, (303) 745-7177"},{"latitude":"39.726405","longitude":"-104.847094","name":"Hoffman Heights Ace Hardware-Aurora,CO","address":"644 Peoria St, Aurora,CO 80011, (303) 366-3524"},{"latitude":"39.40581","longitude":"-105.478779","name":"Moore Lumber & Ace Hardware-Bailey,CO","address":"5195 County Road 64, Bailey,CO 80421, (303) 838-5362"},{"latitude":"39.737506","longitude":"-104.43347","name":"Greatwood Lumber & Hdwe-Bennett,CO","address":"1555 S 1st Street, Bennett,CO 80102, (303) 644-5000"},{"latitude":"40.305507","longitude":"-105.078603","name":"Berthoud Ace Hardware-Berthoud,CO","address":"525 3rd Street, Berthoud,CO 80513, (970) 532-5188"},{"latitude":"39.972447","longitude":"-104.823889","name":"American Pride Ace Hardware-Brighton,CO","address":"55 W Bromley Ln, Brighton,CO 80601, (303) 659-1230"},{"latitude":"40.25449","longitude":"-103.627444","name":"Farm & Home Hardware-Brush,CO","address":"122 Custer St, Brush,CO 80723, (970) 842-2879"},{"latitude":"38.446528","longitude":"-105.19527","name":"Sonny's Ace Home Center-Canon City,CO","address":"3090 E Main St, Canon City,CO 81212, (719) 275-1544"},{"latitude":"39.401598","longitude":"-107.220011","name":"Ace Hdwe of Carbondale-Carbondale,CO","address":"1011 Highway 133, Carbondale,CO 81623, (970) 963-6663"},{"latitude":"38.899259","longitude":"-107.925553","name":"Big John's Lumber-Cedaredge,CO","address":"200 SW 2nd St, Cedaredge,CO 81413, (970) 856-3185"},{"latitude":"39.239978","longitude":"-107.961048","name":"Collbran Supply Inc-Collbran,CO","address":"203 Main, Collbran,CO 81624, (970) 487-3341"},{"latitude":"38.849529","longitude":"-104.77568","name":"Circle Ace Hardware-Colorado Springs,CO","address":"1225 N Circle Dr, Colorado Springs,CO 80909, (719) 550-3702"},{"latitude":"38.847996","longitude":"-104.84873","name":"Ace Hardware Uintah Gardens-Colorado Springs,CO","address":"1830 W Uintah St, Colorado Springs,CO 80904, (719) 227-7134"},{"latitude":"38.865416","longitude":"-104.816627","name":"Bon Ace Hardware-Colorado Springs,CO","address":"2300 N Wahsatch Ave, Colorado Springs,CO 80907, (719) 577-0051"},{"latitude":"38.794156","longitude":"-104.757828","name":"South Academy Ace Hardware-Colorado Springs,CO","address":"2730 S Academy Blvd, Colorado Springs,CO 80916, (719) 392-2355"},{"latitude":"38.890986","longitude":"-104.759938","name":"Ace Hdwe at Austin Bluffs-Colorado Springs,CO","address":"3640 Austin Bluffs Pkwy, Colorado Springs,CO 80918, (719) 266-4367"},{"latitude":"38.892253","longitude":"-104.850244","name":"Garden of the Gods Ace Hdw-Colorado Springs,CO","address":"4201 Centennial Blvd, Colorado Springs,CO 80907, (719) 955-0428"},{"latitude":"39.82181","longitude":"-104.930459","name":"Commerce City Ace Hardware-Commerce City,CO","address":"East 69th & Highway 85, Commerce City,CO 80022, (303) 288-6641"},{"latitude":"39.537347","longitude":"-105.303223","name":"Aspen Park Hardware Inc.-Conifer,CO","address":"26572 Barkley Rd, Conifer,CO 80433, (303) 697-4778"},{"latitude":"37.354313","longitude":"-108.589618","name":"Choice Building Supply-Cortez,CO","address":"525 N Broadway, Cortez,CO 81321, (970) 565-4245"},{"latitude":"40.510142","longitude":"-107.553194","name":"M.J.K. Sales And Feed Inc-Craig,CO","address":"288 Ranney St, Craig,CO 81625, (970) 824-6581"},{"latitude":"38.806725","longitude":"-105.231939","name":"Cripple Creek Hardware & Supply-Cripple Creek,CO","address":"Teller One Highway, Cripple Creek,CO 80813, (719) 689-3525"},{"latitude":"38.748671","longitude":"-108.070459","name":"Delta Hardware Inc-Delta,CO","address":"121 W Gunnison River Dr, Delta,CO 81416, (970) 874-9515"},{"latitude":"39.730265","longitude":"-104.974849","name":"Ninth Avenue Hardware CO-Denver,CO","address":"1030 E 9th Ave, Denver,CO 80218, (303) 831-7066"},{"latitude":"39.690993","longitude":"-104.922476","name":"Cherry Creek Ace Hardware-Denver,CO","address":"1417 S Holly St, Denver,CO 80222, (303) 691-3435"},{"latitude":"39.671718","longitude":"-104.940543","name":"University Hills Ace Hdw-Denver,CO","address":"2500 S Colorado Blvd, Denver,CO 80222, (303) 759-0980"},{"latitude":"39.735007","longitude":"-104.955779","name":"12th Avenue Ace-Denver,CO","address":"2640 E 12th Ave, Denver,CO 80206, (303) 355-2551"},{"latitude":"39.708895","longitude":"-104.987744","name":"Ace Hardware Alameda Station-Denver,CO","address":"417 S Broadway, Denver,CO 80209, (303) 733-3200"},{"latitude":"39.824882","longitude":"-105.006237","name":"Perl Mack Ace Hardware-Denver,CO","address":"7041 Pecos St, Denver,CO 80221, (303) 429-2944"},{"latitude":"39.65325","longitude":"-104.900147","name":"Tamarac Square Ace Hardware-Denver,CO","address":"7777 E Hampden Ave, Denver,CO 80231, (303) 751-7225"},{"latitude":"37.763524","longitude":"-108.90424","name":"Main Supply-Dove Creek,CO","address":"235 North Main, Dove Creek,CO 81324, (970) 677-2297"},{"latitude":"37.273805","longitude":"-107.882044","name":"Kroegers Ace Hardware-Durango,CO","address":"8 Town Plz, Durango,CO 81301, (970) 247-0660"},{"latitude":"40.523347","longitude":"-104.71007","name":"Poulsen Ace Hardware Inc-Eaton,CO","address":"151 S Oak Ave, Eaton,CO 80615, (970) 454-2542"},{"latitude":"39.744556","longitude":"-105.053397","name":"Edgewater Ace Hardware-Edgewater,CO","address":"1719 Sheridan Blvd, Edgewater,CO 80214, (303) 233-4810"},{"latitude":"39.634616","longitude":"-104.988021","name":"A & A Tradin'Post Hdwe-Englewood,CO","address":"4509 S Broadway, Englewood,CO 80113, (303) 761-0747"},{"latitude":"40.382319","longitude":"-105.494252","name":"Ace Hardware of Estes Park-Estes Park,CO","address":"561 Lone Pine Dr, Estes Park,CO 80517, (970) 586-8656"},{"latitude":"39.884897","longitude":"-105.02107","name":"Mile High Ace Hardware-Federal Heights,CO","address":"2800 W 104th Avenue, Federal Heights,CO 80234, (303) 531-2370"},{"latitude":"40.1314","longitude":"-104.941929","name":"Ace Hardware of Firestone-Firestone,CO","address":"8258 Colorado Blvd, Firestone,CO 80504, (303) 833-9191"},{"latitude":"39.29215","longitude":"-103.067792","name":"Flagler Ace Hardware & Building Sp-Flagler,CO","address":"423 Main Ave, Flagler,CO 80815, (719) 765-4648"},{"latitude":"40.523459","longitude":"-105.060241","name":"Clays' Ace Hardware-Fort Collins,CO","address":"1001 E Harmony Rd Unit B, Fort Collins,CO 80525, (970) 223-9273"},{"latitude":"40.585287","longitude":"-105.077264","name":"Downtown Ace Hardware-Fort Collins,CO","address":"215 S College Ave, Fort Collins,CO 80524, (970) 224-4437"},{"latitude":"40.58975","longitude":"-105.001966","name":"Poudre Valley Coop-Fort Collins,CO","address":"225 NW Frontage Rd, Fort Collins,CO 80524, (970) 221-5300"},{"latitude":"40.078941","longitude":"-104.804737","name":"Ace Hdw of Fort Lupton-Fort Lupton,CO","address":"201 S Rollie Ave, Fort Lupton,CO 80621, (303) 857-1695"},{"latitude":"40.25389","longitude":"-103.787975","name":"Mr D'S Ace Home Center-Fort Morgan,CO","address":"1000 East Platte Avenue, Fort Morgan,CO 80701, (970) 867-3303"},{"latitude":"39.94864","longitude":"-105.81688","name":"Fraser Valley Ace Hardware-Fraser,CO","address":"425 Zerex, Fraser,CO 80442, (970) 726-5000"},{"latitude":"39.162603","longitude":"-108.747029","name":"Co op Country-Fruita,CO","address":"1650 Highway 6 And 50, Fruita,CO 81521, (970) 858-3667"},{"latitude":"39.558491","longitude":"-107.345133","name":"Big John's Building and Home Center-Glenwood Spgs,CO","address":"1210 Devereux Rd, Glenwood Spgs,CO 81601, (970) 945-1252"},{"latitude":"40.087768","longitude":"-105.952334","name":"Country Ace Hardware-Granby,CO","address":"627 W Agate Ave, Granby,CO 80446, (970) 887-3395"},{"latitude":"39.087249","longitude":"-108.652003","name":"Ace Hardware on the Redlands-Grand Junction,CO","address":"2140 Broadway Unit A, Grand Junction,CO 81503, (970) 242-2777"},{"latitude":"39.087763","longitude":"-108.460275","name":"Ace Hardware of Clifton-Grand Junction,CO","address":"569 32 Road #4, Grand Junction,CO 81504, (970) 523-0445"},{"latitude":"40.423881","longitude":"-104.706836","name":"Offen Ace Hardware-Greeley,CO","address":"1722 9th St, Greeley,CO 80631, (970) 353-1416"},{"latitude":"40.394596","longitude":"-104.696794","name":"Ace Hardware of Greeley-Greeley,CO","address":"2626 A 11th Ave, Greeley,CO 80631, (970) 378-0801"},{"latitude":"40.422554","longitude":"-104.736538","name":"Ace Hardware of Greeley-Greeley,CO","address":"3540 W 10th St, Greeley,CO 80634, (970) 353-2851"},{"latitude":"39.609322","longitude":"-104.959836","name":"Ace Hdw Cherry Hills Mrktpl-Greenwood Village,CO","address":"5910 S University, Greenwood Village,CO 80121, (720) 974-1080"},{"latitude":"38.544582","longitude":"-106.936434","name":"Fullmers Ace Hardware-Gunnison,CO","address":"820 W Tomichi Ave, Gunnison,CO 81230, (970) 641-1212"},{"latitude":"39.542599","longitude":"-104.939509","name":"Ace Hdwe Highlands Ranch-Highlands Ranch,CO","address":"9579 S University Blvd, Highlands Ranch,CO 80126, (303) 683-6300"},{"latitude":"38.798817","longitude":"-107.720512","name":"Ace Gambles of Hotchkiss-Hotchkiss,CO","address":"121 E. Bridge Street, Hotchkiss,CO 81419, (970) 872-3535"},{"latitude":"40.335616","longitude":"-104.905994","name":"Johnstown Ace Hardware-Johnstown,CO","address":"9 S Parish Ave, Johnstown,CO 80534, (970) 587-4476"},{"latitude":"40.054481","longitude":"-106.387337","name":"Tri River Ace Hardware-Kremmling,CO","address":"720 Tyler Avenue, Kremmling,CO 80459, (970) 724-9325"},{"latitude":"37.268957","longitude":"-105.95327","name":"La Jara Trading Post-La Jara,CO","address":"16555 State Highway 136, La Jara,CO 81140, (719) 274-5857"},{"latitude":"39.708607","longitude":"-105.134519","name":"Green Mountain Ace Hardware-Lakewood,CO","address":"12035 W Alameda Pkwy, Lakewood,CO 80228, (303) 988-1883"},{"latitude":"39.753977","longitude":"-105.109776","name":"Lake Ridge Ace Hardware-Lakewood,CO","address":"2563 Kipling St, Lakewood,CO 80215, (303) 231-9400"},{"latitude":"39.682351","longitude":"-105.082799","name":"Ace Hardware of Jewell Sq-Lakewood,CO","address":"7777 W Jewell Ave #1B, Lakewood,CO 80232, (303) 989-5274"},{"latitude":"39.267228","longitude":"-103.659718","name":"Pronghorn Country Ltd-Limon,CO","address":"21761 Highway 40\/287, Limon,CO 80828, (719) 775-0580"},{"latitude":"39.609217","longitude":"-105.109679","name":"Kipling Ace Hardware-Littleton,CO","address":"5914 S Kipling St, Littleton,CO 80127, (303) 978-9048"},{"latitude":"39.594783","longitude":"-105.072614","name":"Columbine Ace Hardware-Littleton,CO","address":"6720 S Pierce St, Littleton,CO 80128, (303) 948-8813"},{"latitude":"39.592004","longitude":"-104.988474","name":"Littleton Ace Hardware-Littleton,CO","address":"6905 S Broadway Ste 159, Littleton,CO 80122, (303) 795-9469"},{"latitude":"39.571305","longitude":"-104.922858","name":"Big Tool Box-Littleton,CO","address":"8080 S Holly Street, Littleton,CO 80122, (303) 779-8822"},{"latitude":"40.189321","longitude":"-105.10245","name":"Ace Hardware Longmont-Longmont,CO","address":"1727 Main St, Longmont,CO 80501, (303) 776-5173"},{"latitude":"40.421829","longitude":"-105.073796","name":"Orchards Ace Hardware-Loveland,CO","address":"269 E 29th St, Loveland,CO 80538, (970) 663-2230"},{"latitude":"38.47856","longitude":"-107.877677","name":"Abel's Ace Hardware-Montrose,CO","address":"22 S Townsend Ave, Montrose,CO 81401, (970) 249-4924"},{"latitude":"39.962878","longitude":"-105.509438","name":"Indian Peaks Ace Hardware-Nederland,CO","address":"74 Hwy 119 South, Nederland,CO 80466, (303) 258-3132"},{"latitude":"38.261789","longitude":"-108.545795","name":"Co op Country-Nucla,CO","address":"995 Main, Nucla,CO 81424, (970) 864-7323"},{"latitude":"37.249711","longitude":"-107.086668","name":"Terry's Ace Hardware-Pagosa Springs,CO","address":"525 Navajo Trail Dr, Pagosa Springs,CO 81147, (970) 731-4022"},{"latitude":"39.105933","longitude":"-108.351943","name":"Co op Country-Palisade,CO","address":"205 W 8th Street, Palisade,CO 81526, (970) 464-7277"},{"latitude":"39.643981","longitude":"-106.078632","name":"Bighorn Ace Hardware-Silverthorne,CO","address":"1241 Blue River Parkway, Silverthorne,CO 80498, (970) 513-1525"},{"latitude":"40.501811","longitude":"-106.85831","name":"Ace Hardware-Steamboat Springs,CO","address":"2155 Curve Plz, Steamboat Springs,CO 80487, (970) 879-8014"},{"latitude":"40.625272","longitude":"-103.229083","name":"Mr D's Ace Home Center-Sterling,CO","address":"1350 W Main St, Sterling,CO 80751, (970) 522-5104"},{"latitude":"37.936765","longitude":"-107.809824","name":"Timberline Ace Hardware-Telluride,CO","address":"200 E Colorado -, Telluride,CO 81435, (970) 728-3640"},{"latitude":"39.914072","longitude":"-104.941755","name":"Mission Trace Ace Hardware-Thornton,CO","address":"3851 E 120th Ave, Thornton,CO 80241, (303) 252-1776"},{"latitude":"39.631931","longitude":"-106.415722","name":"Vail Valley Ace Hardware-Vail,CO","address":"2111 N Frontage Rd W, Vail,CO 81657, (970) 476-8282"},{"latitude":"40.696753","longitude":"-104.999477","name":"Andersen Ace Hardware-Wellington,CO","address":"4104 Jefferson Ave, Wellington,CO 80549, (970) 568-0223"},{"latitude":"38.125747","longitude":"-105.461192","name":"Valley Ace Hardware-Westcliffe,CO","address":"1 Enterprise Dr, Westcliffe,CO 81252, (719) 783-9054"},{"latitude":"40.479547","longitude":"-104.918808","name":"Windsor Ace Hardware-Windsor,CO","address":"1245 Main St, Windsor,CO 80550, (970) 686-1470"},{"latitude":"40.118711","longitude":"-102.71456","name":"Quality Farm & Ranch Center-Yuma,CO","address":"700 E 8th Ave, Yuma,CO 80759, (970) 848-5552"},{"latitude":"41.416343","longitude":"-73.390348","name":"Bethel Handyman Supply-Bethel,CT","address":"34 Stony Hill Rd, Bethel,CT 06801, (203) 792-4043"},{"latitude":"41.283287","longitude":"-72.809958","name":"Branford Building Supplies-Branford,CT","address":"1145 Main St, Branford,CT 06405, (203) 488-2518"},{"latitude":"41.826508","longitude":"-72.898382","name":"Larsen Ace Hardware-Canton,CT","address":"220 Albany Tpke, Canton,CT 06019, (860) 693-4618"},{"latitude":"41.505155","longitude":"-72.903842","name":"R W Hine Ace Hardware-Cheshire,CT","address":"231 Maple Ave, Cheshire,CT 06410, (203) 272-4463"},{"latitude":"41.276711","longitude":"-72.517782","name":"Steward's Hardware-Clinton,CT","address":"114 E Main St, Clinton,CT 06413, (860) 669-0505"},{"latitude":"41.583817","longitude":"-72.50267","name":"Marlborough Ace Hardware Inc-East Hampton,CT","address":"25 E High St # 3-4-5, East Hampton,CT 06424, (860) 267-7943"},{"latitude":"41.715793","longitude":"-72.61152","name":"Katz Hardware-Glastonbury,CT","address":"2687 Main St, Glastonbury,CT 06033, (860) 633-3551"},{"latitude":"41.793343","longitude":"-72.666546","name":"Star Hardware & Plumbing Supply-Hartford,CT","address":"2995 Main St, Hartford,CT 06120, (860) 246-5617"},{"latitude":"41.757895","longitude":"-72.683433","name":"Park Hardware-Hartford,CT","address":"415 Park St, Hartford,CT 06106, (860) 247-9118"},{"latitude":"41.659905","longitude":"-72.36006","name":"Hebron Ace Hardware-Hebron,CT","address":"81 Main St, Hebron,CT 06248, (860) 228-3408"},{"latitude":"41.542867","longitude":"-72.652139","name":"Ace Home Center-Middletown,CT","address":"480 S Main St, Middletown,CT 06457, (860) 347-6588"},{"latitude":"41.567705","longitude":"-72.894129","name":"Superior Equipment & Supplys-Milldale,CT","address":"1403 Meriden-Waterbury Rd, Milldale,CT 06467, (860) 621-3621"},{"latitude":"41.311869","longitude":"-73.258425","name":"Ace Hardware-Monroe,CT","address":"246 Main St, Monroe,CT 06468, (203) 268-0342"},{"latitude":"41.413182","longitude":"-73.302962","name":"Ace Hardware of Newtown-Newtown,CT","address":"5 Queen St, Newtown,CT 06470, (203) 270-3800"},{"latitude":"41.553655","longitude":"-72.106383","name":"Ace Home Center-Norwich,CT","address":"146-150 W Town St, Norwich,CT 06360, (860) 889-3853"},{"latitude":"41.294051","longitude":"-72.376314","name":"Saybrook Hardware Co Inc-Old Saybrook,CT","address":"132 Main St, Old Saybrook,CT 06475, (860) 388-3706"},{"latitude":"41.280574","longitude":"-73.49858","name":"Ridgefield Hardware Co-Ridgefield,CT","address":"385 Main St, Ridgefield,CT 06877, (203) 438-2661"},