[{"latitude":" 25.68519","longitude":"-80.40336","name":" Ashley Furniture HomeStore","address":" USA-United States"},{"latitude":" 40.74613","longitude":"-73.61720","name":" Ashley Furniture HomeStore","address":" USA-United States"},{"latitude":" 40.78235","longitude":"-74.04470","name":" Ashley Furniture HomeStore","address":" USA-United States"},{"latitude":" 30.63761","longitude":"-96.30677","name":" Ashley Furniture HomeStore","address":" USA-United States"},{"latitude":" 33.51965","longitude":"-88.43520","name":" Ashley Furniture HomeStore","address":" USA-United States"},{"latitude":" 38.57149","longitude":"-89.92402","name":" Ashley Furniture HomeStore","address":" USA-United States"},{"latitude":" 33.39333","longitude":"-111.82758","name":" Ashley Furniture HomeStore","address":" USA-United States"},{"latitude":" 36.06821","longitude":"-79.51975","name":" Ashley Furniture HomeStore","address":" USA-United States"},{"latitude":" 46.23190","longitude":"-119.23198","name":" Ashley Furniture HomeStore","address":" USA-United States"},{"latitude":" 32.35488","longitude":"-106.76850","name":" Ashley Furniture HomeStore","address":" USA-United States"},{"latitude":" 45.67102","longitude":"-111.17478","name":" Ashley Furniture HomeStore","address":" USA-United States"},{"latitude":" 33.61467","longitude":"-111.92586","name":" Ashley Furniture HomeStore","address":" USA-United States"},{"latitude":" 36.76901","longitude":"-108.14432","name":" Ashley Furniture HomeStore","address":" USA-United States"},{"latitude":" 31.26063","longitude":"-90.47389","name":" Ashley Furniture HomeStore","address":" USA-United States"},{"latitude":" 39.76237","longitude":"-86.39957","name":" Ashley Furniture HomeStore","address":" USA-United States"},{"latitude":" 39.60819","longitude":"-75.87128","name":" Ashley Furniture HomeStore","address":" USA-United States"},{"latitude":" 39.92417","longitude":"-82.82924","name":" Ashley Furniture HomeStore","address":" USA-United States"},{"latitude":" 39.05360","longitude":"-84.56964","name":" Ashley Furniture HomeStore","address":" USA-United States"},{"latitude":" 40.05140","longitude":"-82.91899","name":" Ashley Furniture HomeStore","address":" USA-United States"},{"latitude":" 35.62255","longitude":"-117.67723","name":" Ashley Furniture HomeStore","address":" USA-United States"},{"latitude":" 48.44697","longitude":"-122.33549","name":" Ashley Furniture HomeStore","address":" USA-United States"},{"latitude":" 29.55981","longitude":"-98.58944","name":" Ashley Furniture HomeStore","address":" USA-United States"},{"latitude":" 33.79724","longitude":"-116.38806","name":" Ashley Furniture HomeStore","address":" USA-United States"},{"latitude":" 38.79381","longitude":"-97.61292","name":" Ashley Furniture HomeStore","address":" USA-United States"},{"latitude":" 42.92114","longitude":"-87.94989","name":" Ashley Furniture HomeStore","address":" USA-United States"},{"latitude":" 29.55334","longitude":"-95.71535","name":" Ashley Furniture HomeStore","address":" USA-United States"},{"latitude":" 33.95107","longitude":"-84.14238","name":" Ashley Furniture HomeStore","address":" USA-United States"},{"latitude":" 32.35923","longitude":"-88.66845","name":" Ashley Furniture HomeStore","address":" USA-United States"},{"latitude":" 31.30807","longitude":"-86.48056","name":" Ashley Furniture HomeStore","address":" USA-United States"},{"latitude":" 28.07901","longitude":"-80.69750","name":" Ashley Furniture HomeStore","address":" USA-United States"},{"latitude":" 26.30076","longitude":"-81.80316","name":" Ashley Furniture HomeStore","address":" USA-United States"},{"latitude":" 29.64958","longitude":"-95.16448","name":" Ashley Furniture HomeStore","address":" USA-United States"},{"latitude":" 30.25945","longitude":"-81.52533","name":" Ashley Furniture HomeStore","address":" USA-United States"},{"latitude":" 42.15970","longitude":"-88.33566","name":" Ashley Furniture HomeStore","address":" USA-United States"},{"latitude":" 44.10975","longitude":"-103.22174","name":" Ashley Furniture HomeStore","address":" USA-United States"},{"latitude":" 33.31970","longitude":"-111.98299","name":" Ashley Furniture HomeStore","address":" USA-United States"},{"latitude":" 44.26048","longitude":"-88.48550","name":" Ashley Furniture HomeStore","address":" USA-United States"},{"latitude":" 33.44651","longitude":"-94.09819","name":" Ashley Furniture HomeStore","address":" USA-United States"},{"latitude":" 37.42310","longitude":"-77.63454","name":" Ashley Furniture HomeStore","address":" USA-United States"},{"latitude":" 42.10970","longitude":"-87.97863","name":" Ashley Furniture HomeStore","address":" USA-United States"},{"latitude":" 33.37633","longitude":"-84.76241","name":" Ashley Furniture HomeStore","address":" USA-United States"},{"latitude":" 39.94641","longitude":"-83.83368","name":" Ashley Furniture HomeStore","address":" USA-United States"},{"latitude":" 40.72374","longitude":"-73.42369","name":" Ashley Furniture HomeStore","address":" USA-United States"},{"latitude":" 46.80100","longitude":"-100.78484","name":" Ashley Furniture HomeStore","address":" USA-United States"},{"latitude":" 44.94690","longitude":"-92.90867","name":" Ashley Furniture HomeStore","address":" USA-United States"},{"latitude":" 47.75185","longitude":"-117.39991","name":" Ashley Furniture HomeStore","address":" USA-United States"},{"latitude":" 36.05357","longitude":"-79.88964","name":" Ashley Furniture HomeStore","address":" USA-United States"},{"latitude":" 30.44755","longitude":"-97.66242","name":" Ashely Furniture HomeStead","address":" USA-United States"},{"latitude":" 36.08055","longitude":"-80.30053","name":" Ashley Furniture HomeStore","address":" USA-United States"},{"latitude":" 28.66522","longitude":"-81.41670","name":" Ashley Furniture HomeStore","address":" USA-United States"},{"latitude":" 32.80970","longitude":"-96.61600","name":" Ashley Furniture HomeStore","address":" USA-United States"},{"latitude":" 32.29389","longitude":"-80.94357","name":" Ashley Furniture HomeStore","address":" USA-United States"},{"latitude":" 28.55642","longitude":"-81.20687","name":" Ashley Furniture HomeStore","address":" USA-United States"},{"latitude":" 33.96447","longitude":"-80.40513","name":" Ashley Furniture HomeStore","address":" USA-United States"},{"latitude":" 43.60594","longitude":"-116.34972","name":" Ashley Furniture HomeStore","address":" USA-United States"},{"latitude":" 29.56786","longitude":"-95.39089","name":" Ashley Furniture HomeStore","address":" USA-United States"},{"latitude":" 31.10391","longitude":"-97.71864","name":" Ashley Furniture HomeStore","address":" USA-United States"},{"latitude":" 40.93065","longitude":"-98.38116","name":" Ashely Furniture HomeStead","address":" USA-United States"},{"latitude":" 37.72809","longitude":"-89.20567","name":" Ashley Furniture HomeStore","address":" USA-United States"},{"latitude":" 32.83415","longitude":"-97.20153","name":" Ashley Furniture HomeStore","address":" USA-United States"},{"latitude":" 34.18310","longitude":"-103.33834","name":" Ashley Furniture HomeStore","address":" USA-United States"},{"latitude":" 41.51176","longitude":"-87.46946","name":" Ashley Furniture HomeStore","address":" USA-United States"},{"latitude":" 45.45913","longitude":"-98.44227","name":" Ashley Furniture HomeStore","address":" USA-United States"},{"latitude":" 39.29302","longitude":"-84.45634","name":" Ashley Furniture HomeStore","address":" USA-United States"},{"latitude":" 37.14229","longitude":"-93.26397","name":" Ashley Furniture HomeStore","address":" USA-United States"},{"latitude":" 48.23635","longitude":"-101.29620","name":" Ashley Furniture HomeStore","address":" USA-United States"},{"latitude":" 31.26196","longitude":"-85.43836","name":" Ashley Furniture HomeStore","address":" USA-United States"},{"latitude":" 35.06661","longitude":"-78.95791","name":" Ashley Furniture HomeStore","address":" USA-United States"},{"latitude":" 38.35200","longitude":"-122.71567","name":" Ashley Furniture HomeStore","address":" USA-United States"},{"latitude":" 30.21085","longitude":"-90.92990","name":" Ashley Furniture HomeStore","address":" USA-United States"},{"latitude":" 38.50043","longitude":"-90.33349","name":" Ashley Furniture HomeStore","address":" USA-United States"},{"latitude":" 32.87938","longitude":"-111.72843","name":" Ashley Furniture HomeStore","address":" USA-United States"},{"latitude":" 32.88295","longitude":"-117.15568","name":" Ashley Furniture HomeStore","address":" USA-United States"},{"latitude":" 31.34166","longitude":"-93.85175","name":" Ashley Furniture HomeStore","address":" USA-United States"},{"latitude":" 42.05469","longitude":"-87.83030","name":" Ashley Furniture HomeStore","address":" USA-United States"},{"latitude":" 35.37282","longitude":"-77.94972","name":" Ashley Furniture HomeStore","address":" USA-United States"},{"latitude":" 41.61479","longitude":"-83.69741","name":" Ashley Furniture HomeStore","address":" USA-United States"},{"latitude":" 34.55313","longitude":"-82.68043","name":" Ashley Furniture HomeStore","address":" USA-United States"},{"latitude":" 41.72671","longitude":"-88.03033","name":" Ashley Furniture HomeStore","address":" USA-United States"},{"latitude":" 39.74040","longitude":"-89.69644","name":" Ashley Furniture HomeStore","address":" USA-United States"},{"latitude":" 44.07309","longitude":"-123.04255","name":" Ashley Furniture HomeStore","address":" USA-United States"},{"latitude":" 32.55518","longitude":"-93.72037","name":" Ashley Furniture HomeStore","address":" USA-United States"},{"latitude":" 27.84014","longitude":"-82.68508","name":" Ashley Furniture HomeStore","address":" USA-United States"},{"latitude":" 33.87558","longitude":"-117.74118","name":" Ashley Furniture HomeStore","address":" USA-United States"},{"latitude":" 30.69700","longitude":"-88.17388","name":" Ashley Furniture HomeStore","address":" USA-United States"},{"latitude":" 31.30727","longitude":"-94.73340","name":" Ashley Furniture HomeStore","address":" USA-United States"},{"latitude":" 35.19046","longitude":"-89.79266","name":" Ashley Furniture HomeStore","address":" USA-United States"},{"latitude":" 38.77677","longitude":"-90.69996","name":" Ashley Furniture HomeStore","address":" USA-United States"},{"latitude":" 32.67670","longitude":"-114.62509","name":" Ashley Furniture HomeStore","address":" USA-United States"},{"latitude":" 46.84280","longitude":"-114.02895","name":" Ashley Furniture HomeStore","address":" USA-United States"},{"latitude":" 40.98944","longitude":"-76.01504","name":" Ashley Furniture HomeStore","address":" USA-United States"},{"latitude":" 39.77996","longitude":"-84.06029","name":" Ashley Furniture HomeStore","address":" USA-United States"},{"latitude":" 45.48317","longitude":"-122.57894","name":" Ashley Furniture HomeStore","address":" USA-United States"},{"latitude":" 29.56294","longitude":"-98.33323","name":" Ashley Furniture HomeStore","address":" USA-United States"},{"latitude":" 28.83623","longitude":"-97.00178","name":" Ashley Furniture HomeStore","address":" USA-United States"},{"latitude":" 26.19424","longitude":"-98.20479","name":" Ashley Furniture HomeStore","address":" USA-United States"},{"latitude":" 35.56658","longitude":"-78.39252","name":" Ashley Furniture HomeStore","address":" USA-United States"},{"latitude":" 32.90517","longitude":"-109.84632","name":" Ashley Furniture HomeStore","address":" USA-United States"},{"latitude":" 40.71704","longitude":"-99.08401","name":" Ashley Furniture HomeStore","address":" USA-United States"},{"latitude":" 39.43022","longitude":"-77.42091","name":" Ashley Furniture HomeStore","address":" USA-United States"},{"latitude":" 40.58743","longitude":"-122.34948","name":" Ashley Furniture HomeStore","address":" USA-United States"},{"latitude":" 28.71514","longitude":"-100.47758","name":" Ashley Furniture HomeStore","address":" USA-United States"},{"latitude":" 34.83590","longitude":"-82.31298","name":" Ashley Furniture HomeStore","address":" USA-United States"},{"latitude":" 32.61615","longitude":"-85.40652","name":" Ashley Furniture HomeStore","address":" USA-United States"},{"latitude":" 33.16518","longitude":"-87.54678","name":" Ashley Furniture HomeStore","address":" USA-United States"},{"latitude":" 37.08361","longitude":"-84.61707","name":" Ashley Furniture HomeStore","address":" USA-United States"},{"latitude":" 35.59593","longitude":"-80.87596","name":" Ashley Furniture HomeStore","address":" USA-United States"},{"latitude":" 27.71870","longitude":"-97.39186","name":" Ashley Furniture HomeStore","address":" USA-United States"},{"latitude":" 39.66092","longitude":"-77.70172","name":" Ashley Furniture HomeStore","address":" USA-United States"},{"latitude":" 33.69128","longitude":"-84.09011","name":" Ashley Furniture HomeStore","address":" USA-United States"},{"latitude":" 40.61198","longitude":"-74.25546","name":" Ashley Furniture HomeStore","address":" USA-United States"},{"latitude":" 45.03578","longitude":"-93.02588","name":" Ashley Furniture HomeStore","address":" USA-United States"},{"latitude":" 37.07562","longitude":"-88.61313","name":" Ashley Furniture HomeStore","address":" USA-United States"},{"latitude":" 36.27710","longitude":"-115.20661","name":" Ashley Furniture HomeStore","address":" USA-United States"},{"latitude":" 41.87374","longitude":"-103.67928","name":" Ashley Furniture HomeStore","address":" USA-United States"},{"latitude":" 36.84523","longitude":"-119.78617","name":" Ashley Furniture HomeStore","address":" USA-United States"},{"latitude":" 40.87359","longitude":"-74.65227","name":" Ashley Furniture HomeStore","address":" USA-United States"},{"latitude":" 35.85455","longitude":"-86.43041","name":" Ashley Furniture HomeStore","address":" USA-United States"},{"latitude":" 39.76261","longitude":"-75.04814","name":" Ashley Furniture HomeStore","address":" USA-United States"},{"latitude":" 38.21252","longitude":"-122.14022","name":" Ashley Furniture HomeStore","address":" USA-United States"},{"latitude":" 35.45663","longitude":"-82.52035","name":" Ashley Furniture HomeStore","address":" USA-United States"},{"latitude":" 34.48016","longitude":"-117.33905","name":" Ashley Furniture HomeStore","address":" USA-United States"},{"latitude":" 31.21167","longitude":"-82.36102","name":" Ashley Furniture HomeStore","address":" USA-United States"},{"latitude":" 42.23442","longitude":"-87.94331","name":" Ashley Furniture HomeStore","address":" USA-United States"},{"latitude":" 35.87032","longitude":"-78.57703","name":" Ashley Furniture HomeStore","address":" USA-United States"},{"latitude":" 42.73303","longitude":"-90.43965","name":" Ashley Furniture HomeStore","address":" USA-United States"},{"latitude":" 38.88556","longitude":"-99.31785","name":" Ashley Furniture HomeStore","address":" USA-United States"},{"latitude":" 30.47885","longitude":"-81.63807","name":" Ashley Furniture HomeStore","address":" USA-United States"},{"latitude":" 35.30359","longitude":"-80.75675","name":" Ashley Furniture HomeStore","address":" USA-United States"},{"latitude":" 38.01367","longitude":"-84.41942","name":" Ashley Furniture HomeStore","address":" USA-United States"},{"latitude":" 36.31716","longitude":"-82.35563","name":" Ashley Furniture HomeStore","address":" USA-United States"},{"latitude":" 32.67520","longitude":"-97.13113","name":" Ashley Furniture HomeStore","address":" USA-United States"},{"latitude":" 40.85239","longitude":"-74.07530","name":" Ashley Furniture HomeStore","address":" USA-United States"},{"latitude":" 39.98067","longitude":"-76.75029","name":" Ashley Furniture HomeStore","address":" USA-United States"},{"latitude":" 30.42829","longitude":"-86.60656","name":" Ashley Furniture HomeStore","address":" USA-United States"},{"latitude":" 46.88152","longitude":"-102.75234","name":" Ashley Furniture HomeStore","address":" USA-United States"},{"latitude":" 29.35730","longitude":"-98.53304","name":" Ashley Furniture HomeStore","address":" USA-United States"},{"latitude":" 43.72378","longitude":"-98.02565","name":" Ashley Furniture HomeStore","address":" USA-United States"},{"latitude":" 45.53445","longitude":"-122.85337","name":" Ashley Furniture HomeStore","address":" USA-United States"},{"latitude":" 30.57688","longitude":"-91.17023","name":" Ashley Furniture HomeStore","address":" USA-United States"},{"latitude":" 39.41373","longitude":"-75.04010","name":" Ashley Furniture HomeStore","address":" USA-United States"},{"latitude":" 44.16898","longitude":"-93.25911","name":" Ashley Furniture HomeStore","address":" USA-United States"},{"latitude":" 33.01648","longitude":"-96.70900","name":" Ashley Furniture HomeStore","address":" USA-United States"},{"latitude":" 37.12585","longitude":"-113.52896","name":" Ashley Furniture HomeStore","address":" USA-United States"},{"latitude":" 29.60951","longitude":"-90.74908","name":" Ashley Furniture HomeStore","address":" USA-United States"},{"latitude":" 31.86987","longitude":"-110.97073","name":" Ashely Furniture HomeStead","address":" USA-United States"},{"latitude":" 33.55579","longitude":"-117.19889","name":" Ashley Furniture HomeStore","address":" USA-United States"},{"latitude":" 39.94198","longitude":"-75.02078","name":" Ashley Furniture HomeStore","address":" USA-United States"},{"latitude":" 39.49291","longitude":"-119.78620","name":" Ashley Furniture HomeStore","address":" USA-United States"},{"latitude":" 61.18220","longitude":"-149.86116","name":" Ashley Furniture HomeStore","address":" USA-United States"},{"latitude":" 33.71226","longitude":"-78.90339","name":" Ashley Furniture HomeStore","address":" USA-United States"},{"latitude":" 32.65447","longitude":"-116.95528","name":" Ashley Furniture HomeStore","address":" USA-United States"},{"latitude":" 34.14277","longitude":"-77.89602","name":" Ashley Furniture HomeStore","address":" USA-United States"},{"latitude":" 43.20739","longitude":"-77.68007","name":" Ashley Furniture HomeStore","address":" USA-United States"},{"latitude":" 46.61741","longitude":"-112.02249","name":" Ashley Furniture HomeStore","address":" USA-United States"},{"latitude":" 40.77995","longitude":"-72.99976","name":" Ashley Furniture HomeStore","address":" USA-United States"},{"latitude":" 35.96582","longitude":"-86.80319","name":" Ashley Furniture HomeStore","address":" USA-United States"},{"latitude":" 41.54648","longitude":"-87.85166","name":" Ashley Furniture HomeStore","address":" USA-United States"},{"latitude":" 40.46396","longitude":"-74.45035","name":" Ashley Furniture HomeStore","address":" USA-United States"},{"latitude":" 44.93215","longitude":"-74.89420","name":" Ashley Furniture HomeStore","address":" USA-United States"},{"latitude":" 27.24381","longitude":"-80.82157","name":" Ashley Furniture HomeStore","address":" USA-United States"},{"latitude":" 34.01547","longitude":"-117.26418","name":" Ashley Furniture HomeStore","address":" USA-United States"},{"latitude":" 29.78659","longitude":"-95.71409","name":" Ashley Furniture HomeStore","address":" USA-United States"},{"latitude":" 42.90971","longitude":"-112.46054","name":" Ashley Furniture HomeStore","address":" USA-United States"},{"latitude":" 31.28031","longitude":"-92.47285","name":" Ashley Furniture HomeStore","address":" USA-United States"},{"latitude":" 40.73455","longitude":"-73.87518","name":" Ashley Furniture HomeStore","address":" USA-United States"},{"latitude":" 33.03755","longitude":"-84.99182","name":" Ashley Furniture HomeStore","address":" USA-United States"},{"latitude":" 37.72168","longitude":"-97.46691","name":" Ashley Furniture HomeStore","address":" USA-United States"},{"latitude":" 40.88860","longitude":"-74.27798","name":" Ashley Furniture HomeStore","address":" USA-United States"},{"latitude":" 47.66486","longitude":"-117.08297","name":" Ashley Furniture HomeStore","address":" USA-United States"},{"latitude":" 31.30595","longitude":"-85.82262","name":" Ashley Furniture HomeStore","address":" USA-United States"},{"latitude":" 40.61587","longitude":"-73.92896","name":" Ashley Furniture HomeStore","address":" USA-United States"},{"latitude":" 47.49383","longitude":"-111.23063","name":" Ashley Furniture HomeStore","address":" USA-United States"},{"latitude":" 35.17151","longitude":"-106.58407","name":" Ashley Furniture HomeStore","address":" USA-United States"},{"latitude":" 28.18155","longitude":"-82.35349","name":" Ashely Furniture HomeStore","address":" USA-United States"},{"latitude":" 44.66734","longitude":"-74.99903","name":" Ashley Furniture HomeStore","address":" USA-United States"},{"latitude":" 32.29521","longitude":"-95.30482","name":" Ashley Furniture HomeStore","address":" USA-United States"},{"latitude":" 34.03017","longitude":"-118.38659","name":" Ashley Furniture HomeStore","address":" USA-United States"},{"latitude":" 36.73227","longitude":"-90.44043","name":" Ashley Furniture HomeStore","address":" USA-United States"},{"latitude":" 42.15894","longitude":"-76.83006","name":" Ashley Furniture HomeStore","address":" USA-United States"},{"latitude":" 30.49444","longitude":"-87.19039","name":" Ashley Furniture HomeStore","address":" USA-United States"},{"latitude":" 43.81895","longitude":"-83.00089","name":" Ashley Furniture HomeStore","address":" USA-United States"},{"latitude":" 33.09184","longitude":"-96.82127","name":" Ashley Furniture HomeStore","address":" USA-United States"},{"latitude":" 35.96601","longitude":"-78.96140","name":" Ashley Furniture HomeStore","address":" USA-United States"},{"latitude":" 40.83033","longitude":"-75.30642","name":" Ashley Furniture HomeStore","address":" USA-United States"},{"latitude":" 36.15540","longitude":"-85.52147","name":" Ashley Furniture HomeStore","address":" USA-United States"},{"latitude":" 39.63057","longitude":"-86.12451","name":" Ashley Furniture HomeStore","address":" USA-United States"},{"latitude":" 34.60249","longitude":"-118.14639","name":" Ashley Furniture HomeStore","address":" USA-United States"},{"latitude":" 42.26920","longitude":"-88.97829","name":" Ashley Furniture HomeStore","address":" USA-United States"},{"latitude":" 40.73142","longitude":"-111.89824","name":" Ashley Furniture HomeStore","address":" USA-United States"},{"latitude":" 44.48437","longitude":"-88.05851","name":" Ashley Furniture HomeStore","address":" USA-United States"},{"latitude":" 41.02432","longitude":"-80.65143","name":" Ashley Furniture HomeStore","address":" USA-United States"},{"latitude":" 41.31066","longitude":"-105.59098","name":" Ashley Furniture HomeStore","address":" USA-United States"},{"latitude":" 37.35635","longitude":"-89.61712","name":" Ashley Furniture HomeStore","address":" USA-United States"},{"latitude":" 29.37502","longitude":"-100.90207","name":" Ashley Furniture HomeStore","address":" USA-United States"},{"latitude":" 41.78045","longitude":"-111.83386","name":" Ashely Furniture HomeStead","address":" USA-United States"},{"latitude":" 37.25423","longitude":"-77.39037","name":" Ashley Furniture HomeStore","address":" USA-United States"},{"latitude":" 39.26568","longitude":"-76.74178","name":" Ashley Furniture HomeStore","address":" USA-United States"},{"latitude":" 42.56379","longitude":"-87.85766","name":" Ashley Furniture HomeStore","address":" USA-United States"},{"latitude":" 44.36943","longitude":"-100.31749","name":" Ashley Furniture HomeStore","address":" USA-United States"},{"latitude":" 44.78415","longitude":"-93.46651","name":" Ashley Furniture HomeStore","address":" USA-United States"},{"latitude":" 39.64188","longitude":"-84.22741","name":" Ashley Furniture HomeStore","address":" USA-United States"},{"latitude":" 32.49728","longitude":"-92.06735","name":" Ashley Furniture HomeStore","address":" USA-United States"},{"latitude":" 40.58149","longitude":"-83.07303","name":" Ashley Furniture HomeStore","address":" USA-United States"},{"latitude":" 30.85068","longitude":"-83.94934","name":" Ashley Furniture HomeStore","address":" USA-United States"},{"latitude":" 30.73345","longitude":"-86.56618","name":" Ashley Furniture HomeStore","address":" USA-United States"},{"latitude":" 34.25304","longitude":"-88.72035","name":" Ashley Furniture HomeStore","address":" USA-United States"},{"latitude":" 34.20688","longitude":"-84.13763","name":" Ashley Furniture HomeStore","address":" USA-United States"},{"latitude":" 41.13507","longitude":"-104.77194","name":" Ashley Furniture HomeStore","address":" USA-United States"},{"latitude":" 33.72259","longitude":"-89.78276","name":" Ashley Furniture HomeStore","address":" USA-United States"},{"latitude":" 38.93784","longitude":"-92.33426","name":" Ashley Furniture HomeStore","address":" USA-United States"},{"latitude":" 33.87653","longitude":"-98.55710","name":" Ashley Furniture HomeStore","address":" USA-United States"},{"latitude":" 27.17133","longitude":"-80.23037","name":" Ashley Furniture HomeStore","address":" USA-United States"},{"latitude":" 47.65709","longitude":"-122.67833","name":" Ashley Furniture HomeStore","address":" USA-United States"},{"latitude":" 35.11551","longitude":"-80.69743","name":" Ashley Furniture HomeStore","address":" USA-United States"},{"latitude":" 33.97249","longitude":"-78.38654","name":" Ashley Furniture HomeStore","address":" USA-United States"},{"latitude":" 44.49579","longitude":"-89.51002","name":" Ashley Furniture HomeStore","address":" USA-United States"},{"latitude":" 43.10906","longitude":"-76.14584","name":" Ashley Furniture HomeStore","address":" USA-United States"},{"latitude":" 37.97881","longitude":"-122.05546","name":" Ashley Furniture HomeStore","address":" USA-United States"},{"latitude":" 33.14955","longitude":"-117.20043","name":" Ashley Furniture HomeStore","address":" USA-United States"},{"latitude":" 32.68112","longitude":"-97.41236","name":" Ashley Furniture HomeStore","address":" USA-United States"},{"latitude":" 35.25721","longitude":"-81.11093","name":" Ashley Furniture HomeStore","address":" USA-United States"},{"latitude":" 35.59182","longitude":"-114.10242","name":" Ashley Furniture HomeStore","address":" USA-United States"},{"latitude":" 35.59724","longitude":"-77.33734","name":" Ashley Furniture HomeStore","address":" USA-United States"},{"latitude":" 34.16185","longitude":"-110.00539","name":" Ashley Furniture HomeStore","address":" USA-United States"},{"latitude":" 37.98904","longitude":"-87.49251","name":" Ashley Furniture HomeStore","address":" USA-United States"},{"latitude":" 34.00694","longitude":"-84.57293","name":" Ashley Furniture HomeStore","address":" USA-United States"},{"latitude":" 39.18393","longitude":"-96.55561","name":" Ashley Furniture HomeStore","address":" USA-United States"},{"latitude":" 36.17276","longitude":"-94.52432","name":" Ashley Furniture HomeStore","address":" USA-United States"},{"latitude":" 41.11797","longitude":"-85.14375","name":" Ashley Furniture HomeStore","address":" USA-United States"},{"latitude":" 31.21854","longitude":"-81.49401","name":" Ashley Furniture HomeStore","address":" USA-United States"},{"latitude":" 33.49089","longitude":"-82.07836","name":" Ashley Furniture HomeStore","address":" USA-United States"},{"latitude":" 32.44582","longitude":"-93.72012","name":" Ashley Furniture HomeStore","address":" USA-United States"},{"latitude":" 44.16680","longitude":"-93.96376","name":" Ashley Furniture HomeStore","address":" USA-United States"},{"latitude":" 33.45422","longitude":"-112.33868","name":" Ashley Furniture HomeStore","address":" USA-United States"},{"latitude":" 38.77378","longitude":"-76.02372","name":" Ashley Furniture HomeStore","address":" USA-United States"},{"latitude":" 42.87132","longitude":"-76.98045","name":" Ashley Furniture HomeStore","address":" USA-United States"},{"latitude":" 44.69756","longitude":"-73.45259","name":" Ashley Furniture HomeStore","address":" USA-United States"},{"latitude":" 46.86140","longitude":"-96.87374","name":" Ashley Furniture HomeStore","address":" USA-United States"},{"latitude":" 41.05986","longitude":"-83.59389","name":" Ashley Furniture HomeStore","address":" USA-United States"},{"latitude":" 42.75803","longitude":"-71.21438","name":" Ashley Furniture HomeStore","address":" USA-United States"},{"latitude":" 40.77336","longitude":"-82.59032","name":" Ashley Furniture HomeStore","address":" USA-United States"},{"latitude":" 26.02954","longitude":"-80.35889","name":" Ashley Furniture HomeStore","address":" USA-United States"},{"latitude":" 36.71542","longitude":"-121.65485","name":" Ashley Furniture HomeStore","address":" USA-United States"},{"latitude":" 40.32796","longitude":"-83.76121","name":" Ashley Furniture HomeStore","address":" USA-United States"},{"latitude":" 29.17939","longitude":"-81.08056","name":" Ashley Furniture HomeStore","address":" USA-United States"},{"latitude":" 42.06503","longitude":"-78.38191","name":" Ashley Furniture HomeStore","address":" USA-United States"},{"latitude":" 30.12542","longitude":"-94.16144","name":" Ashley Furniture HomeStore","address":" USA-United States"},{"latitude":" 36.96429","longitude":"-84.08151","name":" Ashley Furniture HomeStore","address":" USA-United States"},{"latitude":" 34.47371","longitude":"-114.34762","name":" Ashley Furniture HomeStore","address":" USA-United States"},{"latitude":" 33.60040","longitude":"-86.80633","name":" Ashley Furniture HomeStore","address":" USA-United States"},{"latitude":" 40.27853","longitude":"-76.82284","name":" Ashley Furniture HomeStore","address":" USA-United States"},{"latitude":" 32.40712","longitude":"-99.78589","name":" Ashley Furniture HomeStore","address":" USA-United States"},{"latitude":" 30.15822","longitude":"-93.15730","name":" Ashley Furniture HomeStore","address":" USA-United States"},{"latitude":" 34.94109","longitude":"-81.99075","name":" Ashley Furniture HomeStore","address":" USA-United States"},{"latitude":" 40.50795","longitude":"-78.40018","name":" Ashley Furniture HomeStore","address":" USA-United States"},{"latitude":" 40.76991","longitude":"-84.16424","name":" Ashley Furniture HomeStore","address":" USA-United States"},{"latitude":" 42.79194","longitude":"-78.78213","name":" Ashley Furniture HomeStore","address":" USA-United States"},{"latitude":" 39.93511","longitude":"-91.34619","name":" Ashley Furniture HomeStore","address":" USA-United States"},{"latitude":" 43.28374","longitude":"-88.18941","name":" Ashley Furniture HomeStore","address":" USA-United States"},{"latitude":" 45.06540","longitude":"-93.28028","name":" Ashley Furniture HomeStore","address":" USA-United States"},{"latitude":" 28.10324","longitude":"-81.97454","name":" Ashley Furniture HomeStore","address":" USA-United States"},{"latitude":" 37.27270","longitude":"-107.88102","name":" Ashley Furniture HomeStore","address":" USA-United States"},{"latitude":" 44.91207","longitude":"-122.98209","name":" Ashley Furniture HomeStore","address":" USA-United States"},{"latitude":" 38.30726","longitude":"-77.51130","name":" Ashley Furniture HomeStore","address":" USA-United States"},{"latitude":" 38.45586","longitude":"-75.56868","name":" Ashley Furniture HomeStore","address":" USA-United States"},{"latitude":" 32.74020","longitude":"-103.14069","name":" Ashley Furniture HomeStore","address":" USA-United States"},{"latitude":" 30.15679","longitude":"-97.79086","name":" Ashley Furniture HomeStore","address":" USA-United States"},{"latitude":" 30.97218","longitude":"-95.88916","name":" Ashley Furniture HomeStore","address":" USA-United States"},{"latitude":" 38.14957","longitude":"-85.67848","name":" Ashley Furniture HomeStore","address":" USA-United States"},{"latitude":" 41.24436","longitude":"-75.85459","name":" Ashley Furniture HomeStore","address":" USA-United States"},{"latitude":" 40.13560","longitude":"-88.25262","name":" Ashley Furniture HomeStore","address":" USA-United States"},{"latitude":" 37.59668","longitude":"-77.51086","name":" Ashley Furniture HomeStore","address":" USA-United States"},{"latitude":" 36.29437","longitude":"-86.69975","name":" Ashley Furniture HomeStore","address":" USA-United States"},{"latitude":" 40.09641","longitude":"-83.08512","name":" Ashley Furniture HomeStore","address":" USA-United States"},{"latitude":" 30.43879","longitude":"-90.44147","name":" Ashley Furniture HomeStore","address":" USA-United States"},{"latitude":" 36.98107","longitude":"-86.45223","name":" Ashley Furniture HomeStore","address":" USA-United States"},{"latitude":" 38.32283","longitude":"-81.71129","name":" Ashley Furniture HomeStore","address":" USA-United States"},{"latitude":" 47.88937","longitude":"-97.07426","name":" Ashley Furniture HomeStore","address":" USA-United States"},{"latitude":" 41.45568","longitude":"-74.38740","name":" Ashley Furniture HomeStore","address":" USA-United States"},{"latitude":" 40.24703","longitude":"-77.02033","name":" Ashley Furniture HomeStore","address":" USA-United States"},{"latitude":" 26.65102","longitude":"-80.20787","name":" Ashley Furniture HomeStore","address":" USA-United States"},{"latitude":" 28.34231","longitude":"-81.41674","name":" Ashley Furniture HomeStore","address":" USA-United States"},{"latitude":" 35.15215","longitude":"-101.88387","name":" Ashley Furniture HomeStore","address":" USA-United States"},{"latitude":" 35.35069","longitude":"-94.34621","name":" Ashley Furniture HomeStore","address":" USA-United States"},{"latitude":" 42.33174","longitude":"-122.86728","name":" Ashley Furniture HomeStore","address":" USA-United States"},{"latitude":" 26.70657","longitude":"-80.08983","name":" Ashley Furniture HomeStore","address":" USA-United States"},{"latitude":" 42.98735","longitude":"-78.81723","name":" Ashley Furniture HomeStore","address":" USA-United States"},{"latitude":" 39.07293","longitude":"-108.57088","name":" Ashley Furniture HomeStore","address":" USA-United States"},{"latitude":" 35.04951","longitude":"-89.82232","name":" Ashley Furniture HomeStore","address":" USA-United States"},{"latitude":" 38.47655","longitude":"-107.88114","name":" Ashley Furniture HomeStore","address":" USA-United States"},{"latitude":" 33.63961","longitude":"-112.20795","name":" Ashley Furniture HomeStore","address":" USA-United States"},{"latitude":" 30.51834","longitude":"-92.06712","name":" Ashley Furniture HomeStore","address":" USA-United States"},{"latitude":" 48.20213","longitude":"-114.31511","name":" Ashley Furniture HomeStore","address":" USA-United States"},{"latitude":" 45.50603","longitude":"-92.99399","name":" Ashley Furniture HomeStore","address":" USA-United States"},{"latitude":" 43.11895","longitude":"-89.30835","name":" Ashley Furniture HomeStore","address":" USA-United States"},{"latitude":" 33.37451","longitude":"-86.81341","name":" Ashely Furniture HomeStore","address":" USA-United States"},{"latitude":" 36.59479","longitude":"-79.42668","name":" Ashley Furniture HomeStore","address":" USA-United States"},{"latitude":" 45.77054","longitude":"-87.08119","name":" Ashley Furniture HomeStore","address":" USA-United States"},{"latitude":" 36.15019","longitude":"-94.14397","name":" Ashley Furniture HomeStore","address":" USA-United States"},{"latitude":" 26.15130","longitude":"-80.31606","name":" Ashley Furniture HomeStore","address":" USA-United States"},{"latitude":" 35.59445","longitude":"-82.53203","name":" Ashley Furniture HomeStore","address":" USA-United States"},{"latitude":" 29.54522","longitude":"-95.39828","name":" Ashley Furniture HomeStore","address":" USA-United States"},{"latitude":" 33.91639","longitude":"-83.44463","name":" Ashley Furniture HomeStore","address":" USA-United States"},{"latitude":" 35.66694","longitude":"-88.85690","name":" Ashley Furniture HomeStore","address":" USA-United States"},{"latitude":" 45.77126","longitude":"-108.57903","name":" Ashley Furniture HomeStore","address":" USA-United States"},{"latitude":" 39.38617","longitude":"-74.55595","name":" Ashley Furniture HomeStore","address":" USA-United States"},{"latitude":" 41.81244","longitude":"-89.65327","name":" Ashley Furniture HomeStore","address":" USA-United States"},{"latitude":" 34.62300","longitude":"-92.49275","name":" Ashley Furniture HomeStore","address":" USA-United States"},{"latitude":" 31.42158","longitude":"-100.47332","name":" Ashley Furniture HomeStore","address":" USA-United States"},{"latitude":" 43.51385","longitude":"-96.75487","name":" Ashley Furniture HomeStore","address":" USA-United States"},{"latitude":" 30.38919","longitude":"-88.99201","name":" Ashley Furniture HomeStore","address":" USA-United States"},{"latitude":" 39.12728","longitude":"-121.63567","name":" Ashley Furniture HomeStore","address":" USA-United States"},{"latitude":" 33.70087","longitude":"-117.93609","name":" Ashley Furniture HomeStore","address":" USA-United States"},{"latitude":" 37.08423","longitude":"-94.51328","name":" Ashley Furniture HomeStore","address":" USA-United States"},{"latitude":" 27.54030","longitude":"-99.50434","name":" Ashley Furniture HomeStore","address":" USA-United States"},{"latitude":" 26.49116","longitude":"-81.78927","name":" Ashley Furniture HomeStore","address":" USA-United States"},{"latitude":" 38.21821","longitude":"-85.54209","name":" Ashley Furniture HomeStore","address":" USA-United States"},{"latitude":" 43.93526","longitude":"-92.33698","name":" Ashely Furniture HomeStore","address":" USA-United States"},{"latitude":" 33.56852","longitude":"-84.32810","name":" Ashley Furniture HomeStore","address":" USA-United States"},{"latitude":" 33.46440","longitude":"-84.21929","name":" Ashley Furniture HomeStore","address":" USA-United States"},{"latitude":" 33.54617","longitude":"-101.93978","name":" Ashley Furniture HomeStore","address":" USA-United States"},{"latitude":" 34.18768","longitude":"-79.82094","name":" Ashley Furniture HomeStore","address":" USA-United States"},{"latitude":" 35.82103","longitude":"-90.65178","name":" Ashley Furniture HomeStore","address":" USA-United States"},{"latitude":" 30.66569","longitude":"-87.84888","name":" Ashley Furniture HomeStore","address":" USA-United States"},{"latitude":" 38.43127","longitude":"-90.97047","name":" Ashley Furniture HomeStore","address":" USA-United States"},{"latitude":" 27.95605","longitude":"-82.31263","name":" Ashley Furniture HomeStore","address":" USA-United States"},{"latitude":" 37.50230","longitude":"-121.97503","name":" Ashley Furniture HomeStore","address":" USA-United States"},{"latitude":" 39.75900","longitude":"-121.81516","name":" Ashley Furniture HomeStore","address":" USA-United States"},{"latitude":" 32.97214","longitude":"-97.03682","name":" Ashley Furniture HomeStore","address":" USA-United States"},{"latitude":" 31.78730","longitude":"-106.39686","name":" Ashley Furniture HomeStore","address":" USA-United States"},{"latitude":" 35.90319","longitude":"-84.15126","name":" Ashley Furniture HomeStore","address":" USA-United States"},{"latitude":" 35.42010","longitude":"-80.67608","name":" Ashley Furniture HomeStore","address":" USA-United States"},{"latitude":" 40.47049","longitude":"-75.37047","name":" Ashley Furniture HomeStore","address":" USA-United States"},{"latitude":" 34.77112","longitude":"-76.55342","name":" Ashley Furniture HomeStore","address":" USA-United States"},{"latitude":" 30.46188","longitude":"-90.95646","name":" Ashley Furniture HomeStore","address":" USA-United States"},{"latitude":" 30.00719","longitude":"-95.26642","name":" Ashley Furniture HomeStore","address":" USA-United States"},{"latitude":" 44.24371","longitude":"-91.47381","name":" Ashley Furniture HomeStore","address":" USA-United States"},{"latitude":" 38.63914","longitude":"-77.29932","name":" Ashley Furniture HomeStore","address":" USA-United States"},{"latitude":" 40.30317","longitude":"-78.83295","name":" Ashley Furniture HomeStore","address":" USA-United States"},{"latitude":" 35.07852","longitude":"-80.87992","name":" Ashley Furniture HomeStore","address":" USA-United States"},{"latitude":" 34.78692","longitude":"-77.39864","name":" Ashley Furniture HomeStore","address":" USA-United States"},{"latitude":" 37.31078","longitude":"-79.96481","name":" Ashley Furniture HomeStore","address":" USA-United States"},{"latitude":" 32.41113","longitude":"-90.01881","name":" Ashley Furniture HomeStore","address":" USA-United States"},{"latitude":" 41.07661","longitude":"-111.98332","name":" Ashley Furniture HomeStore","address":" USA-United States"},{"latitude":" 40.28844","longitude":"-96.74695","name":" Ashley Furniture HomeStore","address":" USA-United States"},{"latitude":" 31.49990","longitude":"-97.16337","name":" Ashley Furniture HomeStore","address":" USA-United States"},{"latitude":" 45.25155","longitude":"-93.66334","name":" Ashley Furniture HomeStore","address":" USA-United States"},{"latitude":" 32.87325","longitude":"-80.02114","name":" Ashley Furniture HomeStore","address":" USA-United States"},{"latitude":" 34.70481","longitude":"-86.58854","name":" Ashley Furniture HomeStore","address":" USA-United States"},{"latitude":" 32.00883","longitude":"-102.15595","name":" Ashley Furniture HomeStore","address":" USA-United States"},{"latitude":" 33.24306","longitude":"-92.66537","name":" Ashley Furniture HomeStore","address":" USA-United States"},{"latitude":" 44.02299","longitude":"-116.96408","name":" Ashley Furniture HomeStore","address":" USA-United States"},{"latitude":" 35.03394","longitude":"-85.14990","name":" Ashley Furniture HomeStore","address":" USA-United States"},{"latitude":" 31.32116","longitude":"-89.38484","name":" Ashley Furniture HomeStore","address":" USA-United States"},{"latitude":" 39.21772","longitude":"-121.06302","name":" Ashely Furniture HomeStore","address":" USA-United States"},{"latitude":" 34.06643","longitude":"-81.16826","name":" Ashley Furniture HomeStore","address":" USA-United States"},{"latitude":" 30.43159","longitude":"-84.22681","name":" Ashley Furniture HomeStore","address":" USA-United States"},{"latitude":" 40.95730","longitude":"-74.07569","name":" Ashley Furniture HomeStore","address":" USA-United States"},{"latitude":" 30.90714","longitude":"-94.00882","name":" Ashley Furniture HomeStore","address":" USA-United States"},{"latitude":" 34.94978","longitude":"-89.99129","name":" Ashley Furniture HomeStore","address":" USA-United States"},{"latitude":" 43.08327","longitude":"-77.62963","name":" Ashley Furniture HomeStore","address":" USA-United States"},{"latitude":" 40.89641","longitude":"-73.79700","name":" Ashley Furniture HomeStore","address":" USA-United States"},{"latitude":" 35.38242","longitude":"-119.10142","name":" Ashley Furniture HomeStore","address":" USA-United States"},{"latitude":" 36.06677","longitude":"-115.03629","name":" Ashley Furniture HomeStore","address":" USA-United States"}]