[{"longitude":-87.68016829999999,"latitude":30.3756767,"name":"Carter's","address":"Tanger Outlet Center Foley\n2601 South McKenzie Street\nSpace 214\nFoley AL 36535\n(251) 943-3727"},{"longitude":-86.68202199999999,"latitude":34.742957,"name":"Carter's","address":"Westside Centre\n6275 University Drive NW\nSpace 34\nHuntsville AL 35806\n(256) 922-5589"},{"longitude":-86.5961282,"latitude":33.5488005,"name":"Carter's","address":"The Outlet Shops of Grand River\n6200 Grand River Boulevard East\nSuites 334 & 338\nLeeds AL 35094\n(205) 699-1148"},{"longitude":-86.1666305,"latitude":32.35797,"name":"Carter's","address":"The Shoppes at East Chase\n2524 Berryhill Road\nMontgomery AL 36117\n(334) 279-5347"},{"longitude":-94.3877734,"latitude":35.3399083,"name":"Carter's","address":"Fort Smith Pavilion\n3845 Phoenix Avenue\nFort Smith AR 72903\n(479) 646-7426"},{"longitude":-92.3432136,"latitude":34.7503087,"name":"Carter's","address":"Park Avenue\n416 South University Drive Suite #110\nSuite #110\nLittle Rock AR 72205\n(501) 614-7775"},{"longitude":-92.40794849999999,"latitude":34.6609511,"name":"Carter's","address":"Outlets of Little Rock\n11201 Bass Pro Parkway\nM-135\nLittle Rock AR 72209\n(501) 407-0745"},{"longitude":-111.8984144,"latitude":33.2970512,"name":"Carter's","address":"Chandler Village Center\n3401 West Frye Rd.\nSuite 11\nChandler AZ 85226\n(480) 786-8866"},{"longitude":-112.2594222,"latitude":33.5543223,"name":"Carter's","address":"Peoria Crossings\n9320 W. Northern Ave.\nSuite #120 and #130\nGlendale AZ 85305\n(623) 772-7213"},{"longitude":-112.2667164,"latitude":33.5334711,"name":"Carter's","address":"Tanger Outlet Center Westgate\n6800 North 95th Avenue\nSuite #610\nGlendale AZ 85305\n(623) 772-5519"},{"longitude":-112.36095,"latitude":33.461006,"name":"Carter's","address":"Palm Valley Pavilions West\n1400 North Litchfield Road\n# G-6\nGoodyear AZ 85395\n(623) 536-8199"},{"longitude":-112.095394,"latitude":33.522041,"name":"Carter's","address":"Christown Spectrum Mall\n1703 West Bethany Home Road\nSuite C004\nPhoenix AZ 85015\n(602) 841-0081"},{"longitude":-111.9769508,"latitude":33.6767119,"name":"Carter's","address":"Desert Ridge Marketplace\n21001 North Tatum Blvd.\nSuite 40-1360\nPhoenix AZ 85050\n(480) 513-6913"},{"longitude":-112.1502702,"latitude":33.87290650000001,"name":"Carter's","address":"Outlets at Anthem\n4250 West Anthem Way\nSuite 660\nPhoenix AZ 85086\n(623) 465-9024"},{"longitude":-111.922871,"latitude":33.635211,"name":"Carter's","address":"Scottsdale Promenade\n16451 North Scottsdale Rd.\nSuite 115\nScottsdale AZ 85254\n(480) 596-2910"},{"longitude":-111.9644722,"latitude":33.3830454,"name":"Carter's","address":"Arizona Mills\n5000 Arizona Mills Circle\nSuite 602\nTempe AZ 85282\n(480) 752-0760"},{"longitude":-111.1023277,"latitude":32.3784798,"name":"Carter's","address":"Tucson Premium Outlets\n6401 West Marana Center Boulevard\nSuite 420\nTucson AZ 85742\n(520) 918-5513"},{"longitude":-111.0149434,"latitude":32.3408464,"name":"Carter's","address":"Foothills Mall\n7401 North La Cholla Blvd.\nSuite 170\nTucson AZ 85741\n(520) 742-7501"},{"longitude":-110.989683,"latitude":32.158335,"name":"Carter's","address":"Tucson Spectrum\n5133 South Calle Santa Cruz\nTucson AZ 85706\n(520) 573-2940"},{"longitude":-114.6043002,"latitude":32.70035800000001,"name":"Carter's","address":"Yuma Palms Regional Center\n1490 South Yuma Palms Parkway\nSuite J\nYuma AZ 85365\n(928) 782-3042"},{"longitude":-122.253125,"latitude":37.757554,"name":"Carter's","address":"Alameda South Shore Center\n2202 South Shore Center\nSuite A\nAlameda CA 94501\n(510) 865-1320"},{"longitude":-117.939309,"latitude":33.8377551,"name":"Carter's","address":"Anaheim Plaza\n480 North Euclid Street\nAnaheim CA 92801\n(714) 991-3216"},{"longitude":-117.7497986,"latitude":33.8667146,"name":"Carter's","address":"Anaheim Hills Festival\n8108 East Santa Ana Canyon Road\nSuite #164\nAnaheim Hills CA 92808\n(714) 279-9538"},{"longitude":-121.7374304,"latitude":37.9633468,"name":"Carter's","address":"Slatten Ranch\n5759 Lone Tree Way\nAntioch CA 94531\n(925) 756-7122"},{"longitude":-117.2489894,"latitude":34.4692352,"name":"Carter's","address":"Jess Ranch Marketplace\n19157 Bear Valley Road\nSuite #1A\nApple Valley CA 92308\n(760) 240-1539"},{"longitude":-118.9430754,"latitude":34.9854893,"name":"Carter's","address":"Outlets at Tejon\n5701 Outlets at Tejon Parkway\nSpace #820\nArvin CA 93203\n(661) 858-2789"},{"longitude":-119.045576,"latitude":35.3404301,"name":"Carter's","address":"Toys R Us Plaza\n3784 Ming Avenue\nBakersfield CA 93309\n(661) 836-1736"},{"longitude":-117.8820556,"latitude":33.91199,"name":"Carter's","address":"Brea Plaza\n439 South Associated Road\nBrea CA 92821\n(714) 672-0485"},{"longitude":-116.8154907,"latitude":33.9287776,"name":"Carter's","address":"Desert Hills Premium Outlets\n48650 Seminole Dr.\nSuite 1136\nCabazon CA 92230\n(951) 922-3748"},{"longitude":-115.5087837,"latitude":32.6650235,"name":"Carter's","address":"Gran Plaza Outlets\n888 West 2nd Street\nSuite E180\nCalexico CA 92231\n(760) 357-0744"},{"longitude":-119.0603778,"latitude":34.21665,"name":"Carter's","address":"Camarillo Premium Outlets\n990 Camarillo Center Dr.\nSuite 1006\nCamarillo CA 93010\n(805) 384-0027"},{"longitude":-118.5953038,"latitude":34.1891017,"name":"Carter's","address":"Warner Marketplace\n6520 Canoga Ave.\nSuite D-1\nCanoga Park CA 91303\n(818) 340-5483"},{"longitude":-117.3210992,"latitude":33.1264551,"name":"Carter's","address":"Carlsbad Premium Outlets\n5630 Paseo Del Norte\nSuite 143\nCarlsbad CA 92008\n(760) 804-0254"},{"longitude":-117.7209611,"latitude":33.9978755,"name":"Carter's","address":"Chino Spectrum\n3841 Grand Ave.\nSuite A\nChino CA 91710\n(909) 628-6276"},{"longitude":-116.9679165,"latitude":32.6235991,"name":"Carter's","address":"Otay Ranch\n2015 Birch Road\nSuite 1705\nChula Vista CA 91915\n(619) 482-6984"},{"longitude":-121.2695377,"latitude":38.6796953,"name":"Carter's","address":"Citrus Town Center\n7935 Greenback Lane\nSpace B1\nCitrus Heights CA 95610\n(916) 721-3215"},{"longitude":-122.4652751,"latitude":37.6743203,"name":"Carter's","address":"Serra Center\n4933 Junipero Serra Blvd.\nColma CA 94014\n(650) 997-0284"},{"longitude":-118.1540613,"latitude":34.0067903,"name":"Carter's","address":"Citadel Outlets\n100 Citadel Dr.\nSuite 424\nCommerce CA 90040\n(323) 887-8640"},{"longitude":-118.2200192,"latitude":33.878395,"name":"Carter's","address":"Gateway Towne Center\n208 Towne Center Drive\nCompton CA 90220\n(310) 635-0497"},{"longitude":-117.9198165,"latitude":33.6406299,"name":"Carter's","address":"Costa Mesa Courtyards\n1835 Newport Boulevard\nSuite C-139\nCosta Mesa CA 92627\n(949) 764-9158"},{"longitude":-118.3936334,"latitude":33.9963836,"name":"Carter's","address":"Studio Village Shopping Center\n11010 Jefferson Boulevard\nCulver City CA 90230\n(310) 397-6768"},{"longitude":-118.1291873,"latitude":33.922619,"name":"Carter's","address":"The Promenade at Downey\n8960 Apollo Way\n#A11 A & B\nDowney CA 90242\n(562) 401-0007"},{"longitude":-117.5577291,"latitude":33.9760095,"name":"Carter's","address":"Eastvale Gateway\n12435 Limonite Avenue\nEastvale CA 91752\n(951) 727-8298"},{"longitude":-121.4173784,"latitude":38.424628,"name":"Carter's","address":"Laguna Crossroads\n7617 Laguna Boulevard\nElk Grove CA 95758\n(916) 691-1865"},{"longitude":-117.0985789,"latitude":33.1116271,"name":"Carter's","address":"Escondido Promenade\n1266 Auto Parkway\nSuite J\nEscondido CA 92029\n(760) 747-1519"},{"longitude":-121.187932,"latitude":38.643781,"name":"Carter's","address":"Folsom Premium Outlets\n13000 Folsom Blvd.\nSpace 803\nFolsom CA 95630\n(916) 985-2812"},{"longitude":-121.969177,"latitude":37.501275,"name":"Carter's","address":"Pacific Commons\n43960 Pacific Commons Boulevard\nSpace #J1-A\nFremont CA 94538\n(510) 249-9501"},{"longitude":-119.7928036,"latitude":36.85076189999999,"name":"Carter's","address":"Villagio Shopping Center\n7917 North Blackstone Avenue\nFresno CA 93720\n(559) 432-2963"},{"longitude":-121.5644706,"latitude":37.025183,"name":"Carter's","address":"Gilroy Premium Outlets\n8300 Arroyo Circle\nSuite A280\nGilroy CA 95020\n(408) 847-3553"},{"longitude":-118.5250769,"latitude":34.2663545,"name":"Carter's","address":"Granada Village Shopping Center\n18025 Chatsworth Street\nGranada Hills CA 91344\n(818) 368-7614"},{"longitude":-122.1186705,"latitude":37.6659083,"name":"Carter's","address":"Skywest Commons\n19681 Hesperian Boulevard\nHayward CA 94541\n(510) 785-9781"},{"longitude":-117.991517,"latitude":33.731842,"name":"Carter's","address":"Bella Terra\n7881 Edinger Ave.\nSuite A114\nHuntington Beach CA 92647\n(714) 893-6036"},{"longitude":-118.2329046,"latitude":33.9717729,"name":"Carter's","address":"La Alameda\n7430 Almeda Street\nHuntington Park CA 90255\n(323) 587-1458"},{"longitude":-116.2191356,"latitude":33.7425477,"name":"Carter's","address":"Showcase at Indio\n42225 Jackson Street\nBuilding C 102\nIndio CA 92203\n(760) 347-2658"},{"longitude":-117.787623,"latitude":33.7262606,"name":"Carter's","address":"The Market Place III\n13320 Jamboree Rd.\nIrvine CA 92602\n(714) 838-0112"},{"longitude":-117.9639907,"latitude":33.9187265,"name":"Carter's","address":"La Habra Marketplace\n1651 West Imperial Highway\nSuite A\nLa Habra CA 90631\n(562) 266-1066"},{"longitude":-117.3525241,"latitude":33.70141,"name":"Carter's","address":"Lake Elsinore Outlets\n17600 Collier Ave.\nSuite E139B\nLake Elsinore CA 92530\n(951) 674-1496"},{"longitude":-117.7019254,"latitude":33.6180731,"name":"Carter's","address":"The Orchard\n23622 El Toro Road\nSuite A\nLake Forest CA 92630\n(949) 457-1630"},{"longitude":-121.8451423,"latitude":37.6986774,"name":"Carter's","address":"San Francisco Premium Outlets\n3380 Paragon Outlets Drive\nLivermore CA 94588\n(925) 606-1369"},{"longitude":-118.0866229,"latitude":33.8290361,"name":"Carter's","address":"Long Beach Towne Center\n7378 Carson Blvd.\nLong Beach CA 90808\n(562) 429-5952"},{"longitude":-118.336112,"latitude":34.048478,"name":"Carter's","address":"Midtown Crossing\n4550 Pico Boulevard\nSuite C 1-306\nLos Angeles CA 90019\n(323) 932-1630"},{"longitude":-118.3365151,"latitude":34.0103542,"name":"Carter's","address":"Baldwin Hills\n3650 West Martin Luther King Boulevard\nSuite 224\nLos Angeles CA 90008\n(323) 293-3691"},{"longitude":-121.897412,"latitude":37.415738,"name":"Carter's","address":"Great Mall of the Bay Area\n447 Great Mall Dr.\nSpace 490\nMilpitas CA 95035\n(408) 942-6621"},{"longitude":-122.1088964,"latitude":37.4020793,"name":"Carter's","address":"San Antonio Shopping Center\n550 Showers Dr.\nNo. 6\nMountain View CA 94040\n(650) 948-1572"},{"longitude":-117.551993,"latitude":34.0729843,"name":"Carter's","address":"Ontario Mills\n1 Mills Circle\nSuite 806\nOntario CA 91764\n(909) 980-7116"},{"longitude":-117.892613,"latitude":33.782786,"name":"Carter's","address":"The Outlets at Orange\n20 City Boulevard West, Suite 908\nOrange CA 92868\n(714) 935-0949"},{"longitude":-118.152456,"latitude":34.604844,"name":"Carter's","address":"Antelope Valley Mall\n1301 Rancho Vista Boulevard\nSuite L\nPalmdale CA 93551\n(661) 575-9925"},{"longitude":-118.4502317,"latitude":34.2231832,"name":"Carter's","address":"Panorama Mall\n8401 Van Nuys Boulevard\nPanorama City CA 91402\n(818) 221-3666"},{"longitude":-118.0704476,"latitude":34.1512673,"name":"Carter's","address":"Hastings Ranch Plaza\n3819 East Foothill Blvd\nPasadena CA 91107\n(626) 351-0609"},{"longitude":-122.6498974,"latitude":38.256944,"name":"Carter's","address":"Petaluma Village Premium Outlets\n2200 Petaluma Blvd. North\nSpace 1100\nPetaluma CA 94952\n(707) 775-4064"},{"longitude":-120.6278332,"latitude":35.1354352,"name":"Carter's","address":"Pismo Beach Premium Outlets\n333 Five Cities Dr.\nSpace 102\nPismo Beach CA 93449\n(805) 773-8084"},{"longitude":-122.0617601,"latitude":37.94629430000001,"name":"Carter's","address":"Downtown Pleasant Hill\n15 Crescent Drive\nSuite B\nPleasant Hill CA 94523\n(925) 681-3396"},{"longitude":-122.217604,"latitude":37.474916,"name":"Carter's","address":"Woodside Central\n2535 El Camino Real\nRedwood City CA 94061\n(650) 366-4583"},{"longitude":-117.2802821,"latitude":33.94134,"name":"Carter's","address":"Canyon Springs Marketplace North\n2640 Canyon Springs Parkway\nSuite A\nRiverside CA 92507\n(951) 653-3298"},{"longitude":-117.3906255,"latitude":33.955072,"name":"Carter's","address":"Riverside Plaza\n3602 Riverside Plaza Drive\nSuite 105\nRiverside CA 92506\n(951) 786-9920"},{"longitude":-121.2632579,"latitude":38.773385,"name":"Carter's","address":"Creekside Town Center\n1204 Galleria Blvd.\nSuite 120\nRoseville CA 95678\n(916) 791-3627"},{"longitude":-117.9266525,"latitude":33.99016280000001,"name":"Carter's","address":"Puente Hills Town Center\n17406 Colima Rd\nW-16\nRowland Heights CA 91748\n(626) 964-5137"},{"longitude":-121.4160497,"latitude":38.5953537,"name":"Carter's","address":"Howe 'Bout Arden\n2100 Arden Way\nSuite 172\nSacramento CA 95825\n(916) 564-6390"},{"longitude":-121.658187,"latitude":36.7169,"name":"Carter's","address":"Northridge Mall\n880 Northridge Mall\nSpace T01A\nSalinas CA 93906\n(831) 449-2186"},{"longitude":-117.628282,"latitude":33.438464,"name":"Carter's","address":"Outlets at San Clemente\n101 West Avenida Hermosa\nUnit #548\nSan Clemente CA 92672\n(949) 361-6947"},{"longitude":-117.2037661,"latitude":32.830772,"name":"Carter's","address":"Clairemont Town Square\n3972 Clairemont Mesa Boulevard\nSan Diego CA 92107\n(858) 272-0013"},{"longitude":-121.9881879,"latitude":37.2925802,"name":"Carter's","address":"Westgate Mall\n1600 Saratoga Avenue\nSuite #229\nSan Jose CA 95129\n(408) 866-5247"},{"longitude":-121.8774852,"latitude":37.2523649,"name":"Carter's","address":"Almaden Plaza Shopping Center\n5353 Almaden Expressway\nSuite J40\nSan Jose CA 95118\n(408) 266-0390"},{"longitude":-118.3077424,"latitude":33.7510897,"name":"Carter's","address":"Park Plaza\n944 North Western Avenue\nSuite #944\nSan Pedro CA 90732\n(310) 833-3450"},{"longitude":-117.0402388,"latitude":32.5468212,"name":"Carter's","address":"San Ysidro Village\n4454 Camino de la Plaza\nSuite D\nSan Ysidro CA 92173\n(619) 690-1106"},{"longitude":-121.9614649,"latitude":37.35019330000001,"name":"Carter's","address":"Santa Clara Town Centre\n2026 El Camino Real\nSanta Clara CA 95050\n(408) 241-3093"},{"longitude":-118.1852392,"latitude":33.9524994,"name":"Carter's","address":"Azalea Shopping Center\n4745 Firestone Boulevard\nSouth Gate CA 90280\n(323) 563-0630"},{"longitude":-121.3150199,"latitude":38.0017329,"name":"Carter's","address":"Robinhood Plaza\n5756 Pacific Avenue\nStockton CA 95207\n(209) 957-4719"},{"longitude":-118.3978128,"latitude":34.2235085,"name":"Carter's","address":"Canyon Plaza\n8349 Laurel Canyon Boulevard\nSun Valley CA 91352\n(818) 768-2935"},{"longitude":-117.1562544,"latitude":33.5068401,"name":"Carter's","address":"Palm Plaza Shopping Center\n26431 Ynez Road\nSuite A, B, and C\nTemecula CA 92591\n(951) 296-2162"},{"longitude":-118.3522985,"latitude":33.8528945,"name":"Carter's","address":"Torrance Promenade\n19800 Hawthorne Blvd.\nSuite 220\nTorrance CA 90503\n(310) 921-3925"},{"longitude":-121.4579987,"latitude":37.7595957,"name":"Carter's","address":"West Valley Mall\n3200 North Naglee Road\nSpace #248\nTracy CA 95304\n(209) 835-6240"},{"longitude":-121.956992,"latitude":38.3657188,"name":"Carter's","address":"Vacaville Premium Outlets\n101-B Nut Tree Rd.\nSuite B\nVacaville CA 95687\n(707) 447-7440"},{"longitude":-118.557776,"latitude":34.4157423,"name":"Carter's","address":"Westfield Valencia Town Center\n24201 West Valencia Boulevard, Suite 3318\nValencia CA 91355\n(661) 255-0067"},{"longitude":-117.889433,"latitude":34.074542,"name":"Carter's","address":"Eastland Center\n2620 E. Workman Avenue #4\nWest Covina CA 91791\n(626) 331-1595\n\ncolorado"},{"longitude":-104.8737521,"latitude":39.4150771,"name":"Carter's","address":"Outlets at Castle Rock\n5050 Factory Shops Blvd.\nSuite 500\nCastle Rock CO 80104\n(303) 688-0648"},{"longitude":-104.7987486,"latitude":38.9428279,"name":"Carter's","address":"Chapel Hills East\n7655 North Academy Boulevard\nColorado Springs CO 80920\n(719) 265-2510"},{"longitude":-104.7443041,"latitude":40.3935699,"name":"Carter's","address":"Centerplace of Greeley\n4118 Centerplace Drive\n#830\nGreeley CO 80634\n(970) 339-1940"},{"longitude":-104.9447966,"latitude":39.5449765,"name":"Carter's","address":"Village at Highlands Ranch\n9567 South University Boulevard, #E\nHighlands Ranch CO 80126\n(303) 471-5541"},{"longitude":-105.1582879,"latitude":39.731722,"name":"Carter's","address":"Colorado Mills\n14500 West Colfax Ave.\nSpace 504\nLakewood CO 80401\n(303) 271-1366"},{"longitude":-104.99504,"latitude":40.41215580000001,"name":"Carter's","address":"Outlets at Loveland\n5697 McWhinney Blvd.\nSuite A230\nLoveland CO 80538\n(970) 593-1676"},{"longitude":-106.0704771,"latitude":39.63098249999999,"name":"Carter's","address":"Silverthorne Factory Stores\n246 S RAINBOW DR\nSilverthorne CO 80498\n(970) 262-2238"},{"longitude":-72.5341145,"latitude":41.2920121,"name":"Carter's","address":"Clinton Crossing\n20-A Killingworth Turnpike\nClinton CT 06413\n(860) 664-0626"},{"longitude":-73.47571219999999,"latitude":41.378227,"name":"Carter's","address":"The Shops at Marcus Dairy\n5 East Sugar Hollow Road\nDanbury CT 06810\n(203) 743-0613"},{"longitude":-73.2537982,"latitude":41.1817475,"name":"Carter's","address":"Black Rock Shopping Center\n2233 Black Rock Turnpike\nFairfield CT 06825\n(203) 335-1003"},{"longitude":-73.026631,"latitude":41.2476703,"name":"Carter's","address":"Milford Marketplace\n1644 Boston Post Rd\nMilford CT 06460\n(203) 783-1218"},{"longitude":-72.8722859,"latitude":41.35205029999999,"name":"Carter's","address":"North Haven Pavilion\n110 Universal Drive North\nNorth Haven CT 06473\n(203) 234-0243"},{"longitude":-73.38523719999999,"latitude":41.1281244,"name":"Carter's","address":"Westport Avenue Shopping Center\n542 Westport Avenue\nNorwalk CT 06851\n(203) 845-0037"},{"longitude":-72.55661289999999,"latitude":41.8134321,"name":"Carter's","address":"The Promenade Shops at Evergreen Walk\n501 Evergreen Way\nSuite 525\nSouth Windsor CT 06074\n(860) 648-0710"},{"longitude":-73.5454252,"latitude":41.0680351,"name":"Carter's","address":"Ridgeway Shopping Center\n2329 Summer St.\nStamford CT 06905\n(203) 975-9725"},{"longitude":-72.75736619999999,"latitude":41.7257831,"name":"Carter's","address":"Corbin's Corner\n1453 New Britain Avenue\nWest Hartford CT 06110\n(860) 521-0896"},{"longitude":-72.4294333,"latitude":41.2892087,"name":"Carter's","address":"Tanger Outlet Center Westbrook\n314 Flat Rock Place\nSpace B115\nWestbrook CT 06498\n(860) 399-4426"},{"longitude":-75.108983,"latitude":38.715136,"name":"Carter's","address":"Tanger Outlet Center Rehoboth Beach\n36725 Bayside Outlet Dr.\nSuite 725\nRehoboth Beach DE 19971\n(302) 226-9180"},{"longitude":-75.5482389,"latitude":39.8146634,"name":"Carter's","address":"Concord Square Shopping Center\n4425 Concord Pike\nSpace 5\nWilmington DE 19803\n(302) 478-7162"},{"longitude":-81.38017789999999,"latitude":28.6639536,"name":"Carter's","address":"Renaissance Centre\n305 East Altamonte Drive\nSuite #1010\nAltamonte Springs FL 32701\n(407) 260-6320"},{"longitude":-80.2474119,"latitude":26.0932933,"name":"Carter's","address":"Tower Shops\n2114 South University Dr.\nDavie FL 33324\n(954) 370-5935"},{"longitude":-81.09901479999999,"latitude":29.2139765,"name":"Carter's","address":"Tanger Outlets Daytona\n1100 Cornerstone Boulevard\nSuite 1050\nDaytona Beach FL 32117\n(386) 274-1991"},{"longitude":-86.350436,"latitude":30.378132,"name":"Carter's","address":"Silver Sands Premium Outlets\n10562 West Emerald Coast Parkway\nSuite 90\nDestin FL 32550\n(850) 650-3040"},{"longitude":-82.50760559999999,"latitude":27.5342752,"name":"Carter's","address":"Ellenton Premium Outlets\n5311 Factory Shops Blvd.\nEllenton FL 34222\n(941) 722-3431"},{"longitude":-81.7747808,"latitude":26.4362622,"name":"Carter's","address":"Miromar Outlets\n10801 Corkscrew Rd.\nSuite 143\nEstero FL 33928\n(239) 948-1581"},{"longitude":-80.47309469999999,"latitude":25.4525539,"name":"Carter's","address":"Florida Keys Outlet Marketplace\n250 East Palm Dr.\nSuite 100\nFlorida City FL 33034\n(305) 246-9161"},{"longitude":-80.1157656,"latitude":26.1689073,"name":"Carter's","address":"Coral Ridge Mall\n3200 North Federal Highway\nSuite 604\nFort Lauderdale FL 33306\n(954) 565-2188"},{"longitude":-81.9735109,"latitude":26.494744,"name":"Carter's","address":"Sanibel Outlets\n20350 Summerline Rd.\nSuite 4120\nFort Myers FL 33908\n(239) 267-0674"},{"longitude":-82.3833964,"latitude":29.621523,"name":"Carter's","address":"Butler Plaza\n3964 SW Archer Road\nSpace #W-102\nGainesville FL 32608\n(352) 374-8059"},{"longitude":-80.296686,"latitude":25.8663095,"name":"Carter's","address":"Palm Springs Mile\n407 West 49th Street\nSuite #3\nHialeah FL 33012\n(305) 825-7066"},{"longitude":-80.1961874,"latitude":26.0345412,"name":"Carter's","address":"Sheridan Plaza\n5131 Sheridan St.\nSpace 21\nHollywood FL 33021\n(954) 966-3441"},{"longitude":-81.6412603,"latitude":30.4794472,"name":"Carter's","address":"River City Marketplace\n13271 City Station Drive\nSuite 101\nJacksonville FL 32218\n(904) 696-0482"},{"longitude":-81.528067,"latitude":30.261868,"name":"Carter's","address":"St. Johns Town Center\n10261 River Marsh Drive\nSuite 183\nJacksonville FL 32246\n(904) 997-6769"},{"longitude":-81.40942230000002,"latitude":28.3404336,"name":"Carter's","address":"The Crosslands\n616 Centerview Boulevard\nKissimmee FL 34741\n(407) 846-2018"},{"longitude":-81.98134499999999,"latitude":27.99985,"name":"Carter's","address":"Lakeside Village\n1429 Town Center Drive\nLakeland FL 33803\n(863) 581-8571"},{"longitude":-82.3905997,"latitude":28.1903542,"name":"Carter's","address":"Tampa Premium Outlets\n2300 Grand Cypress Drive\nSuite 115\nLutz FL 33559\n(813) 949-9173"},{"longitude":-80.3808011,"latitude":25.7870262,"name":"Carter's","address":"Dolphin Mall\n11401 NW 12th St.\nMiami FL 33172\n(305) 513-4557"},{"longitude":-80.194315,"latitude":25.807479,"name":"Carter's","address":"Shops at Midtown Miami\n3401 North Miami Avenue\nSuite #137\nMiami FL 33127\n(305) 438-3764"},{"longitude":-80.387411,"latitude":25.68925,"name":"Carter's","address":"The Palms at Town & Country\n8726 Mills Drive\nMiami FL 33183\n(305) 270-9363"},{"longitude":-81.2025475,"latitude":28.5547751,"name":"Carter's","address":"Waterford Lakes Town Center\n679 North Alafaya Trail\nOrlando FL 32828\n(407) 275-2500"},{"longitude":-81.4513577,"latitude":28.4746886,"name":"Carter's","address":"Orlando International Premium Outlets\n4967 International Dr.\nSuite 3A21\nOrlando FL 32819\n(407) 345-0003"},{"longitude":-81.48578359999999,"latitude":28.3496209,"name":"Carter's","address":"Lake Buena Vista Factory Stores\n15541 State Road 535\nOrlando FL 32821\n(407) 239-4022"},{"longitude":-81.4923639,"latitude":28.3871744,"name":"Carter's","address":"Orlando Vineland Premium Outlets\n8200 Vineland Ave.\nSpace 1112\nOrlando FL 32821\n(407) 477-0472"},{"longitude":-80.3331477,"latitude":25.6426998,"name":"Carter's","address":"Colonial Palms Plaza\n13615 South Dixie Highway\nPalmetto Bay FL 33176\n(305) 251-2830"},{"longitude":-85.87098999999999,"latitude":30.219397,"name":"Carter's","address":"Pier Park\n204 Bluefish Dr.\nSuite 125\nPanama City Beach FL 32413\n(850) 235-9636"},{"longitude":-80.3367607,"latitude":26.0043472,"name":"Carter's","address":"Shops at Pembroke Gardens\n524 SW 145th Terrace\nSpace 10030\nPembroke Pines FL 33027\n(954) 431-8258"},{"longitude":-81.41706769999999,"latitude":29.9240166,"name":"Carter's","address":"St. Augustine Premium Outlets\n2700 State Rd. 16\nSpace 801\nSt. Augustine FL 32092\n(904) 823-9483"},{"longitude":-80.31887499999999,"latitude":26.152765,"name":"Carter's","address":"Sawgrass Mills\n12801 West Sunrise Blvd.\nSuite 815\nSunrise FL 33323\n(954) 846-2688"},{"longitude":-82.57606489999999,"latitude":28.0641197,"name":"Carter's","address":"The Plaza at Citrus Park\n12695 Citrus Plaza Dr\nTampa FL 33625\n(813) 792-1593"},{"longitude":-80.5209448,"latitude":27.6355333,"name":"Carter's","address":"Vero Beach Outlets\n1701 94th Dr.\nSpace F110\nVero Beach FL 32966\n(772) 770-9058"},{"longitude":-80.085002,"latitude":26.723731,"name":"Carter's","address":"Palm Beach Outlets\n1741 Palm Beach Lakes Blvd\nSpace #E205\nWest Palm Beach FL 33401\n(561) 689-7239"},{"longitude":-81.583373,"latitude":28.523497,"name":"Carter's","address":"Winter Garden Village\n3049 Daniels Road\nUnit #220A\nWinter Garden FL 34787\n(407) 654-7842"},{"longitude":-84.2884361,"latitude":34.0452613,"name":"Carter's","address":"North Point MarketCenter\n6120 North Point Parkway\nAlpharetta GA 30022\n(770) 360-7969"},{"longitude":-84.3867508,"latitude":33.8295151,"name":"Carter's","address":"Peachtree Battle\n2345 A Peachtree Road NW\nAtlanta GA 30305\n(404) 869-3373"},{"longitude":-84.3356469,"latitude":33.9333148,"name":"Carter's","address":"Perimeter Village\n4737A Ashford Dunwoody Road\nUnit BOH\nAtlanta GA 30338\n(770) 668-9487"},{"longitude":-82.0398623,"latitude":33.5121626,"name":"Carter's","address":"Washington Crossing\n2907 Washington Road\nSuite #208\nAugusta GA 30909\n(706) 481-5007"},{"longitude":-83.9798182,"latitude":34.0700746,"name":"Carter's","address":"Mall of Georgia Crossing\n3205 Woodward Crossing Boulevard\nSuite 200B\nBuford GA 30519\n(770) 932-1026"},{"longitude":-84.91858719999999,"latitude":34.4602511,"name":"Carter's","address":"Calhoun Outlet Marketplace\n455 Belwood Rd.\nSuite 45\nCalhoun GA 30701\n(706) 602-9260"},{"longitude":-84.9465189,"latitude":32.546175,"name":"Carter's","address":"Columbus Park Crossing\n5555 Whittlesey Blvd.\nSuite 2000\nColumbus GA 31909\n(706) 327-1700"},{"longitude":-83.47064200000001,"latitude":34.25181,"name":"Carter's","address":"Tanger Outlet Center Commerce\n800 Steven B. Tanger Blvd.\nSuite 503\nCommerce GA 30529\n(706) 335-9535"},{"longitude":-84.9997106,"latitude":34.7564878,"name":"Carter's","address":"Market Street Shops at Dalton\n1001 Market St.\nSuite 20\nDalton GA 30720\n(706) 275-8082"},{"longitude":-84.0481059,"latitude":34.3568802,"name":"Carter's","address":"North Georgia Premium Outlets\n800 Highway 400 South\nSuite 105\nDawsonville GA 30534\n(706) 216-4425"},{"longitude":-83.2182251,"latitude":30.6778892,"name":"Carter's","address":"Lake Park Outlets\n5321 Mill Store Rd.\nSpace 44\nLake Park GA 31636\n(229) 559-9636"},{"longitude":-84.0809653,"latitude":33.9806714,"name":"Carter's","address":"Sugarloaf Mills\n5900 Sugar Loaf Parkway\nSpace 574\nLawrenceville GA 30043\n(678) 847-5323"},{"longitude":-84.1230327,"latitude":33.347566,"name":"Carter's","address":"Tanger Outlet Center Locust Grove\n1000 Tanger Dr.\nSuite 221\nLocust Grove GA 30248\n(770) 957-7235"},{"longitude":-84.42795,"latitude":33.9809539,"name":"Carter's","address":"Merchant's Walk\n1311 Johnson Ferry Road\nSuite 544\nMarietta GA 30068\n(770) 971-4481"},{"longitude":-84.551053,"latitude":34.015195,"name":"Carter's","address":"Towne Center Prado\n50 Barrett Parkway\nSuite 1025\nMarietta GA 30066\n(770) 426-5383"},{"longitude":-84.74504089999999,"latitude":33.3946692,"name":"Carter's","address":"Newnan Crossing\n595 Bullsboro Drive\nNewnan GA 30265\n(770) 252-5982"},{"longitude":-81.2433679,"latitude":32.1343987,"name":"Carter's","address":"Tanger Outlet Center Savannah\n200 Tanger Outlet Boulevard\nSuite #677 (Building #6)\nPooler GA 31322\n(912) 450-0720"},{"longitude":-81.1224094,"latitude":32.0027052,"name":"Carter's","address":"Abercorn Common\n8108 Abercorn Street\nSuite #640\nSavannah GA 31406\n(912) 920-2637"},{"longitude":-81.28456919999999,"latitude":32.0012763,"name":"Carter's","address":"The Shoppes of Savannah\n11 Gateway Blvd. South\nSuite 18\nSavannah GA 31419\n(912) 961-7229"},{"longitude":-84.0036056,"latitude":33.8990185,"name":"Carter's","address":"The Shoppes at Webb Gin\n1350 Scenic Highway\nSuite 816\nSnellville GA 30078\n(770) 985-3737"},{"longitude":-83.66778730000001,"latitude":32.6200705,"name":"Carter's","address":"<br \/>City Crossing Shopping Center\n2620 Watson Boulevard\nSuite 7\nWarner Robins GA 31093\n(478) 923-2483"},{"longitude":-84.5262444,"latitude":34.1201198,"name":"Carter's","address":"Outlet Shoppes at Atlanta\n915 Ridgewalk Parkway\nSpace D420\nWoodstock GA 30188\n(770) 928-2836"},{"longitude":-156.6810832,"latitude":20.8780357,"name":"Carter's","address":"The Outlets of Maui\n900 Front Street\nSpace F3\nLahaina HI 96761\n(808) 661-6858"},{"longitude":-158.0066404,"latitude":21.4007982,"name":"Carter's","address":"Waikele Premium Outlets\n94-792 Lumiaina St.\nSuite 206\nWaipahu HI 96797\n(808) 678-9287"},{"longitude":-91.6264741,"latitude":42.0256515,"name":"Carter's","address":"Lindale Mall\n4444 First Avenue NE\nCedar Rapids IA 52402\n(319) 409-1265"},{"longitude":-90.52353509999999,"latitude":41.5637498,"name":"Carter's","address":"Elmore Marketplace\n4227 Elmore Avenue\nDavenport IA 52807\n(563) 359-0283"},{"longitude":-90.7443827,"latitude":42.5186436,"name":"Carter's","address":"Asbury Plaza\n2445 Northwest Arterial\n#100\nDubuque IA 52002\n(563) 556-0362"},{"longitude":-96.3422243,"latitude":42.4468791,"name":"Carter's","address":"Lakeport Commons\n5001 Sargeant Road\nSpace #21\nSioux City IA 51106\n(712) 276-2382"},{"longitude":-93.79419600000001,"latitude":41.562074,"name":"Carter's","address":"Galleria at Jordan Creek\n6305 Mills Civic Parkway\nSuite 2119\nWest Des Moines IA 50266\n(515) 224-5977"},{"longitude":-92.0051818,"latitude":41.6898499,"name":"Carter's","address":"Tanger Outlet Center Williamsburg\n504 Tanger Dr.\nWilliamsburg IA 52361\n(319) 668-9442"},{"longitude":-111.9844778,"latitude":43.47894760000001,"name":"Carter's","address":"Ammon Town Center\n2037 South 25th Street\nAmmon ID 83406\n(208) 522-9940"},{"longitude":-116.2854063,"latitude":43.6037443,"name":"Carter's","address":"Franklin Towne Plaza\n8255 West Franklin Rd\nBoise ID 83709\n(208) 375-0068"},{"longitude":-88.3380117,"latitude":42.150533,"name":"Carter's","address":"Algonquin Commons\n2102 South Randall Rd\nAlgonquin IL 60102\n(847) 458-4194"},{"longitude":-88.2739699,"latitude":41.800478,"name":"Carter's","address":"Chicago Premium Outlets\n1650 Premium Outlets Blvd.\nSuite 1133\nAurora IL 60502\n(630) 499-9407"},{"longitude":-88.1071133,"latitude":41.9368321,"name":"Carter's","address":"Bloomingdale Court\n322 West Army Trail Road\nBloomingdale IL 60108\n(630) 295-8575"},{"longitude":-88.9563249,"latitude":40.4907644,"name":"Carter's","address":"Empire Crossing\n1608-D East Empire Street\nBloomington IL 61701\n(309) 661-2207"},{"longitude":-88.12445459999999,"latitude":41.6950796,"name":"Carter's","address":"Country Aire Plaza\n127 South Weber Rd.\nBolingbrook IL 60490\n(630) 378-0801"},{"longitude":-87.7434116,"latitude":41.7527671,"name":"Carter's","address":"Burbank Station\n7716 S. Cicero Avenue\nBurbank IL 60459\n(708) 423-1647"},{"longitude":-87.632481,"latitude":41.867603,"name":"Carter's","address":"The Shops at Roosevelt Collection\n1143 South Delano Court East\nChicago IL 60605\n(312) 662-1788"},{"longitude":-87.725382,"latitude":41.8172609,"name":"Carter's","address":"Pulaski Promenade\n4144 South Pulaski Road\nChicago IL 60632\n(773) 650-0525"},{"longitude":-87.70166189999999,"latitude":41.9458278,"name":"Carter's","address":"Addison Mall\n2905 W. Addison\nChicago IL 60618\n(773) 539-3417"},{"longitude":-87.64812909999999,"latitude":41.9104591,"name":"Carter's","address":"Lincoln Park Centre\n1565 North Halsted St.\nChicago IL 60622\n(312) 482-8603"},{"longitude":-87.8347537,"latitude":42.15075299999999,"name":"Carter's","address":"Deerbrook Mall\n118 South Waukegan Rd.\nDeerfield IL 60015\n(847) 559-0434"},{"longitude":-89.5743076,"latitude":40.6692758,"name":"Carter's","address":"The Levee District\n332 W. Washington Street\nEast Peoria IL 61611\n(309) 694-1840"},{"longitude":-89.954473,"latitude":38.7889614,"name":"Carter's","address":"Edwardsville Crossing\n6622 Edwardsville Crossing Drive\nEdwardsville IL\n(618) 659-0512"},{"longitude":-88.3403301,"latitude":41.8722319,"name":"Carter's","address":"Randall Square Shopping Center\n1492 D-2 Randall Rd.\nGeneva IL 60134\n(630) 845-2730"},{"longitude":-87.8245601,"latitude":42.0891605,"name":"Carter's","address":"The Glen Town Center\n1950 Tower Dr.\nGlenview IL 60026\n(847) 998-0352"},{"longitude":-87.95716399999999,"latitude":42.38904,"name":"Carter's","address":"Gurnee Mills\n6170 West Grand Ave.\nSpace 533\nGurnee IL 60031\n(847) 855-8631"},{"longitude":-88.19025049999999,"latitude":42.0731685,"name":"Carter's","address":"Poplar Creek Crossing\n2658 North Sutton Rd.\nHoffman Estates IL 60192\n(847) 645-0881"},{"longitude":-87.8488816,"latitude":41.9069763,"name":"Carter's","address":"Winston Plaza\n1312 Winston Plaza\nMelrose Park IL 60160\n(708) 345-6680"},{"longitude":-87.9330394,"latitude":42.0846197,"name":"Carter's","address":"Randhurst Village\n12 Randhurst Village Drive\nMount Prospect IL 60056\n(847) 870-0185"},{"longitude":-87.80596469999999,"latitude":41.8483261,"name":"Carter's","address":"North Riverside Plaza\n2212 South Harlem Avenue\nNorth Riverside IL 60546\n(708) 447-3725"},{"longitude":-87.85551679999999,"latitude":41.603188,"name":"Carter's","address":"Lake View Plaza\n15798 South LaGrange Rd.\nSpace B08A\nOrland Park IL 60462\n(708) 349-9315"},{"longitude":-88.312157,"latitude":41.696755,"name":"Carter's","address":"Gerry Centennial Plaza\n1754 Douglas Rd.\nOswego IL 60543\n(630) 554-8156"},{"longitude":-88.9874069,"latitude":42.2699132,"name":"Carter's","address":"Rockford Crossing\n6626 East State Street\nRockford IL 61108\n(815) 394-2808"},{"longitude":-87.86711810000001,"latitude":41.9749898,"name":"Carter's","address":"Fashion Outlets of Chicago\n5220 Fashion Outlets Way\nSpace #1070\nRosemont IL 60018\n(847) 678-7681"},{"longitude":-88.041431,"latitude":42.051508,"name":"Carter's","address":"Woodfield Village Green\n1472 East Golf Road\nSchaumburg IL 60173\n(847) 413-1306"},{"longitude":-87.76727199999999,"latitude":42.010511,"name":"Carter's","address":"Village Crossing\n7145 Central Avenue\nSkokie IL 60077\n(847) 763-8301"},{"longitude":-89.703614,"latitude":39.767244,"name":"Carter's","address":"White Oaks Plaza\n2837 Veterans Parkway\nSpringfield IL 62704\n(217) 546-4630"},{"longitude":-88.2691997,"latitude":39.78910219999999,"name":"Carter's","address":"Outlets at Tuscola\nB1200 Tuscola Blvd.\nSuite 4031\nTuscola IL 61953\n(217) 253-5690"},{"longitude":-87.9424236,"latitude":42.2385068,"name":"Carter's","address":"Rivertree Court\n701 North Milwaukee Avenue\nSuite 240\nVernon Hills IL 60061\n(847) 816-4998"},{"longitude":-88.1064768,"latitude":41.8306221,"name":"Carter's","address":"Danada Square West\n132 Danada Square West\nWheaton IL 60189\n(630) 690-6182"},{"longitude":-88.0148863,"latitude":41.7498617,"name":"Carter's","address":"Woodgrove Festival\n1001 75th Street\nSuite #175\nWoodridge IL 60517\n(630) 985-8123"},{"longitude":-86.12410059999999,"latitude":40.00541279999999,"name":"Carter's","address":"Village Park Plaza\n1950-9 East Greyhound Pass\nCarmel IN 46033\n(317) 569-0258"},{"longitude":-85.96122020000001,"latitude":39.3098795,"name":"Carter's","address":"Edinburgh Premium Outlets\n11740 Northeast Executive Dr.\nSuite D080\nEdinburgh IN 46124\n(812) 526-8418"},{"longitude":-85.1316161,"latitude":41.1198977,"name":"Carter's","address":"Northcrest Shopping Center\n709 Northcrest Shopping Center\nFort Wayne IN 46805\n(260) 373-0993"},{"longitude":-85.002926,"latitude":41.72828699999999,"name":"Carter's","address":"Outlet Shoppes at Fremont\n655 West State Rd. 120\nSuite 11\nFremont IN 46737\n(260) 833-6425"},{"longitude":-86.10451169999999,"latitude":39.9131145,"name":"Carter's","address":"The Shops at River Crossing\n8637 River Crossing Blvd.\nIndianapolis IN 46240\n(317) 208-9001"},{"longitude":-86.12396989999999,"latitude":39.6379678,"name":"Carter's","address":"Shoppes at County Line\n8811 Hardegan Street\nSpace 240B\nIndianapolis IN 46227\n(317) 807-4640"},{"longitude":-86.9067324,"latitude":41.7145907,"name":"Carter's","address":"Lighthouse Place Premium Outlets\n607 Lighthouse Place\nSpace 607\nMichigan City IN 46360\n(219) 874-4811"},{"longitude":-86.1854372,"latitude":41.7112153,"name":"Carter's","address":"Wilshire Plaza\n5534 Grape Road\nSpace 240\nMishawaka IN 46545\n(574) 273-3040"},{"longitude":-87.46939909999999,"latitude":41.5215798,"name":"Carter's","address":"Shops on Main\n59 U.S. Highway 41\nSuite #440\nSchererville IN 46375\n(219) 322-3231"},{"longitude":-94.823467,"latitude":39.127189,"name":"Carter's","address":"Legends Outlets Kansas City\n1829 Village West Parkway\nSuite T-101\nKansas City KS 66111\n(913) 299-2205"},{"longitude":-97.3342624,"latitude":37.9973704,"name":"Carter's","address":"Chisholm Trail Shopping Center\n601 S.E. 36th St.\nSuite 120C\nNewton KS 67114\n(316) 283-5554"},{"longitude":-94.7583889,"latitude":38.90976000000001,"name":"Carter's","address":"Olathe Pointe\n14677 West 119th Street\nOlathe KS 66062\n(913) 397-0521"},{"longitude":-94.76405109999999,"latitude":39.0100551,"name":"Carter's","address":"Shawnee Station\n15310 Shawnee Mission Parkway\nShawnee KS 66217\n(816) 841-4659\n\n\nShawnee Station\n15310 Shawnee Mission Parkway\nShawnee KS 66217\n(816) 841-4659"},{"longitude":-97.24111839999999,"latitude":37.6784289,"name":"Carter's","address":"Eastgate Plaza\n8131 East Kellogg Drive\nWichita KS 67207\n(316) 683-6905"},{"longitude":-97.46441399999999,"latitude":37.727132,"name":"Carter's","address":"New Market Square\n2441 North Maize Road\nSuite 1901\nWichita KS 67205\n(316) 773-2850"},{"longitude":-82.65307039999999,"latitude":38.4836088,"name":"Carter's","address":"Ashland Town Center\n500 Winchester Avenue\n#588\nAshland KY 41101\n(606) 326-9240"},{"longitude":-84.5785473,"latitude":39.025231,"name":"Carter's","address":"Crestview Hills Town Center\n2867 Town Center Boulevard\nSuite 3035\nCrestview Hills KY 41017\n(859) 331-1785"},{"longitude":-84.5301705,"latitude":37.9819195,"name":"Carter's","address":"Fayette Place\n127 West Tiverton Way\nSpace #5A\nLexington KY 40503\n(859) 245-5337"},{"longitude":-84.4177902,"latitude":38.024067,"name":"Carter's","address":"Hamburg Pavilion\n2300 Sir Barton Way\nSuite 120\nLexington KY 40509\n(859) 263-9268"},{"longitude":-85.6291097,"latitude":38.2494924,"name":"Carter's","address":"Shelbyville Road Plaza\n4600 Shelbyville Road\nSuite 230\nLouisville KY 40207\n(502) 721-2102"},{"longitude":-85.3515396,"latitude":38.2059821,"name":"Carter's","address":"Outlet Shoppes of the Bluegrass\n1155 Buck Creek Road\nSpace #F-604\nSimpsonville KY 40067\n(502) 722-8046"},{"longitude":-93.7411479,"latitude":32.5202552,"name":"Carter's","address":"Louisiana Boardwalk\n415 Boardwalk Blvd.\nBossier City LA 71111\n(318) 752-3861"},{"longitude":-90.14237870000001,"latitude":30.4433878,"name":"Carter's","address":"River Chase\n69260 Highway 21\nCovington LA 70433\n(985) 892-5883"},{"longitude":-90.91830329999999,"latitude":30.46924869999999,"name":"Carter's","address":"Juban Crossing\n27853 Juban Road\nDenham Springs LA 70726\n(225) 667-3519"},{"longitude":-90.9505124,"latitude":30.2121217,"name":"Carter's","address":"Tanger Outlet Center Gonzales\n2100 Tanger Blvd.\nSuite 104\nGonzales LA 70737\n(225) 647-7461"},{"longitude":-90.0385702,"latitude":29.9218551,"name":"Carter's","address":"Oakwood Center\n197 West Bank Expressway\nSuite 1380\nGretna LA 70053\n(504) 227-7363"},{"longitude":-90.18753219999999,"latitude":29.9615417,"name":"Carter's","address":"Elmwood Center\n1200 South Clearview Parkway\nSuite 1262\nHarahan LA 70123\n(504) 733-1672"},{"longitude":-90.71953479999999,"latitude":29.5957696,"name":"Carter's","address":"Magnolia Square\n1737 Martin Luther King Boulevard\nHouma LA 70360\n(985) 879-1047"},{"longitude":-92.0528516,"latitude":30.161812,"name":"Carter's","address":"Ambassador Crossing\n4243 Ambassador Caffery Parkway\nSuite 109\nLafayette LA 70508\n(337) 989-8521"},{"longitude":-93.2488592,"latitude":30.2000536,"name":"Carter's","address":"Prien Lake\n1776 W Prien Lake Rd\nSuite G\nLake Charles LA 70601\n(337) 475-8985"},{"longitude":-90.06216280000001,"latitude":29.9450751,"name":"Carter's","address":"The Outlet Collection at Riverwalk\n500 Port of New Orleans Place\nNew Orleans LA 70130\n(504) 522-9430"},{"longitude":-89.7597548,"latitude":30.2664549,"name":"Carter's","address":"Fremaux Town Center\n286 Town Center Parkway\nSlidell LA 70458\n(985) 847-1587"},{"longitude":-71.19349439999999,"latitude":42.4854115,"name":"Carter's","address":"Wayside Commons\n6Q Wayside Blvd.\nBurlington MA 01803\n(781) 272-0639"},{"longitude":-71.333456,"latitude":42.610606,"name":"Carter's","address":"Chelmsford Mall\n265 Chelmsford Street\nChelmsford MA 01824\n(978) 250-2767"},{"longitude":-70.9401048,"latitude":42.5527088,"name":"Carter's","address":"Liberty Tree Mall\n100 Independence Way, Space #W131B\nDanvers MA 01923\n(978) 774-0946"},{"longitude":-71.1789242,"latitude":42.2402647,"name":"Carter's","address":"Dedham Plaza\n753 Providence Highway\nDedham MA 02026\n(781) 326-4064"},{"longitude":-73.2341766,"latitude":42.2944639,"name":"Carter's","address":"Lee Premium Outlets\n370 Premium Outlets Blvd\nLee MA 01238\n(413) 243-2127"},{"longitude":-71.0859632,"latitude":42.4077417,"name":"Carter's","address":"Fellsway Plaza\n722 Fellsway\nMedford MA 02155\n(781) 396-0825"},{"longitude":-71.15729139999999,"latitude":42.74457950000001,"name":"Carter's","address":"The Loop\n90 Pleasant Valley Street\nSpace #101B\nMethuen MA 01844\n(978) 688-8528"},{"longitude":-71.7782737,"latitude":42.1954208,"name":"Carter's","address":"Shoppes at Blackstone Valley\n70 Worcester Providence Turnpike\nSuite 631\nMillbury MA 01527\n(508) 581-7826"},{"longitude":-71.3853001,"latitude":42.2978244,"name":"Carter's","address":"Sherwood Plaza\n1300 Worcester St., Suite A2\nNatick MA 01760\n(508) 653-0420"},{"longitude":-71.34752929999999,"latitude":41.93948229999999,"name":"Carter's","address":"Fashion Crossing\n1250 South Washington Street\nNorth Attleboro MA 02760\n(508) 695-1909"},{"longitude":-71.67147609999999,"latitude":42.2915558,"name":"Carter's","address":"Northborough Crossing\n9112 Shops Way\nNorthborough MA 01532\n(508) 393-0281"},{"longitude":-70.54637869999999,"latitude":41.7709728,"name":"Carter's","address":"Market Basket at Sagamore\nOne Factory Outlet Way\nSpace #4\nSagamore MA 02561\n(508) 888-2637"},{"longitude":-71.0200353,"latitude":42.4889157,"name":"Carter's","address":"Saugus Plaza\n331 Broadway\nSuite 3\nSaugus MA 01906\n(781) 941-1402"},{"longitude":-71.3230384,"latitude":41.7936101,"name":"Carter's","address":"Seekonk Square\n51 Commerce Way\nSeekonk MA 02771\n(508) 336-4564"},{"longitude":-71.07861319999999,"latitude":42.3954187,"name":"Carter's","address":"Assembly Row\n478 Artisan Way\nSomerville MA 02145\n(617) 666-1079"},{"longitude":-71.157477,"latitude":42.3638849,"name":"Carter's","address":"Watertown Mall\n550 Arsenal St.\nWatertown MA 02472\n(617) 924-7251"},{"longitude":-72.62321200000001,"latitude":42.12962,"name":"Carter's","address":"Riverdale Shops\n935 Riverdale Street\nUnit 8\nWest Springfield MA 01089\n(413) 739-1297"},{"longitude":-71.35263909999999,"latitude":42.0381377,"name":"Carter's","address":"Wrentham Village Premium Outlets\n1 Premium Outlets Blvd.\nSuite 135\nWrentham MA 02093\n(508) 384-0700"},{"longitude":-76.544744,"latitude":38.9792949,"name":"Carter's","address":"Festival at Riva Road\n2317-A Forest Dr.\nAnnapolis MD 21401\n(410) 571-0950"},{"longitude":-76.4647181,"latitude":39.3710739,"name":"Carter's","address":"The Avenue at White Marsh\n8157 A Honeygo Boulevard\nBaltimore MD 21236\n(410) 933-0489"},{"longitude":-76.326033,"latitude":39.495352,"name":"Carter's","address":"Festival at Bel Air\n5 Bel Air South Parkway\nSuite M06A\nBel Air MD 21015\n(410) 569-0864"},{"longitude":-77.28651889999999,"latitude":39.2271349,"name":"Carter's","address":"Clarksburg Premium Outlets\n22705 Clarksburg Road\nSuite 729\nClarksburg MD 20871\n(301) 916-2761"},{"longitude":-76.8136255,"latitude":39.198038,"name":"Carter's","address":"Columbia Crossing\n6250 Columbua Crossing Circle\nSuite E\nColumbia MD 21045\n(410) 290-0167"},{"longitude":-77.20892359999999,"latitude":39.1483418,"name":"Carter's","address":"Gaithersburg Square\n520 North Frederick Avenue\nGaitherburg MD 20877\n(301) 977-4205"},{"longitude":-76.68595429999999,"latitude":39.032857,"name":"Carter's","address":"Waugh Chapel Towne Centre\n2382 Brandermill Boulevard\nSuite 108\nGambrills MD 21054\n(410) 451-4285"},{"longitude":-77.7331293,"latitude":39.6080927,"name":"Carter's","address":"Hagerstown Premium Outlets\n355 Premium Outlets Blvd.\nHagerstown MD 21740\n(301) 797-8103"},{"longitude":-76.72470679999999,"latitude":39.1578188,"name":"Carter's","address":"Arundel Mills\n7000 Arundel Mills Circle\nSpace 256\nHanover MD 21076\n(443) 755-8950"},{"longitude":-76.84688799999999,"latitude":38.923691,"name":"Carter's","address":"Woodmore Towne Center\n2830 Campus Way North, Suite 620\nLanham MD 20706\n(301) 322-8532"},{"longitude":-76.8580935,"latitude":39.0943577,"name":"Carter's","address":"Town Centre at Laurel\n14708 Baltimore Avenue\nSuite #101\nLaurel MD 20707\n(301) 604-3124"},{"longitude":-75.10647449999999,"latitude":38.337998,"name":"Carter's","address":"Ocean City Factory Outlets\n12741 Ocean Gateway\nSuite 710\nOcean City MD 21842\n(410) 213-0599"},{"longitude":-77.0008077,"latitude":38.7952682,"name":"Carter's","address":"Tanger Outlet Center National Harbor\n6800 Oxon Hill Road\nSuite 760\nOxon Hill MD 20745\n(301) 567-9259"},{"longitude":-76.1598444,"latitude":38.983025,"name":"Carter's","address":"Queenstown Premium Outlets\n422 Outlet Center Dr.\nQueenstown MD 21658\n(410) 827-4341"},{"longitude":-77.123603,"latitude":39.0575996,"name":"Carter's","address":"Federal Plaza\n12266-F Rockville Pike\nRockville MD 20852\n(301) 881-3679"},{"longitude":-76.62156139999999,"latitude":39.4301006,"name":"Carter's","address":"Yorkridge Shopping Center\n12 West Ridgely Road\nTimonium MD 21093\n(410) 252-2192"},{"longitude":-70.1187514,"latitude":43.8444793,"name":"Carter's","address":"Freeport Crossing\n200 Lower Main St.\nBuilding 2\nFreeport ME 04032\n(207) 865-3904"},{"longitude":-70.3301815,"latitude":43.6778722,"name":"Carter's","address":"Westbrook Crossing\n11 Main Street\nSuite A-203\nWestbrook ME 04092\n(207) 253-1999"},{"longitude":-83.208167,"latitude":42.281288,"name":"Carter's","address":"Fairlane Green\n3392 Fairlane Drive\nAllen Park MI 48101\n(313) 982-3093"},{"longitude":-83.7814003,"latitude":42.2840913,"name":"Carter's","address":"le Village Shopping Cener\n343 North Maple Road\nAnn Arbor MI 48103\n(734) 769-1280"},{"longitude":-83.30652119999999,"latitude":42.7010265,"name":"Carter's","address":"Great Lakes Crossing\n4182 Baldwin Rd.\nSpace 338\nAuburn Hills MI 48326\n(248) 335-3606"},{"longitude":-83.777537,"latitude":43.246775,"name":"Carter's","address":"Birch Run Premium Outlets\n12245 South Beyer Rd.\nSuite 102\nBirch Run MI 48415\n(989) 624-4191"},{"longitude":-85.6721633,"latitude":42.8087348,"name":"Carter's","address":"Tanger Outlet Center Grand Rapids\n350 84th Street S.W\nSuite #210\nByron Center MI 49315\n(616) 583-0026"},{"longitude":-83.4815667,"latitude":42.3237046,"name":"Carter's","address":"New Towne Plaza\n44700 Ford Road\nCanton MI 48187\n(734) 254-9756"},{"longitude":-83.3608392,"latitude":42.52354130000001,"name":"Carter's","address":"Hunter's Square\n30965 Orchard Lake Rd.\nFarmington Hills MI 48334\n(248) 538-7920"},{"longitude":-85.68759299999999,"latitude":43.022795,"name":"Carter's","address":"Green Ridge Square\n3390B Alpine Avenue N.W.\nGrand Rapids MI 49544\n(616) 647-9452"},{"longitude":-85.7417126,"latitude":42.8820489,"name":"Carter's","address":"Bucktown\n3170 44th Street\nGrandville MI 49418\n(616) 530-7463"},{"longitude":-86.084985,"latitude":42.8099328,"name":"Carter's","address":"Holland Town Center\n12330 James St.\nSuite 10A\nHolland MI 49424\n(616) 394-9130"},{"longitude":-83.997058,"latitude":42.622007,"name":"Carter's","address":"Tanger Outlet Center Howell\n1475 North Burkhart Rd.\nSuite B150\nHowell MI 48855\n(517) 552-1939"},{"longitude":-84.50714359999999,"latitude":42.7378069,"name":"Carter's","address":"Frandor Mall\n434 Frandor Avenue\nLansing MI 48912\n(517) 333-0310"},{"longitude":-83.47901039999999,"latitude":42.4906194,"name":"Carter's","address":"West Oaks II\n43518 West Oaks Drive\nNovi MI 48377\n(248) 344-2927"},{"longitude":-85.5915024,"latitude":42.2275623,"name":"Carter's","address":"Southland Mall\n6216 South Westnedge Avenue\nSpace #11\nPortage MI 49002\n(269) 324-2412"},{"longitude":-83.1320411,"latitude":42.5639553,"name":"Carter's","address":"Troy Commons\n819 East Big Beaver Rd.\nTroy MI 48083\n(248) 528-2101"},{"longitude":-82.994801,"latitude":42.629172,"name":"Carter's","address":"Shelby Corners\n13297 Hall Rd and Schoenherr Rd\nUtica MI 48315\n(586) 997-1381"},{"longitude":-83.0258006,"latitude":42.5079946,"name":"Carter's","address":"Tech Plaza\n8347 East 12 Mile Road\nWarren MI 48093\n(586) 751-3879"},{"longitude":-84.2293104,"latitude":44.2486561,"name":"Carter's","address":"Outlets at West Branch\n2990 Cook Rd.\nSuite 118\nWest Branch MI 48661\n(989) 345-1086"},{"longitude":-83.2226553,"latitude":42.1379806,"name":"Carter's","address":"Woodhaven Commons\n19157 West Road\nWoodhaven MI 48183\n(734) 675-1752"},{"longitude":-93.6675131,"latitude":45.2466426,"name":"Carter's","address":"Albertville Premium Outlets\n6415 Labeaux Ave.\nNE, Space B30\nAlbertville MN 55301\n(763) 497-5773"},{"longitude":-93.3053719,"latitude":44.8599795,"name":"Carter's","address":"Southtown Shopping Center\n7951 Southtown Center\nBloomington MN 55431\n(952) 884-0419"},{"longitude":-93.2431577,"latitude":44.8534956,"name":"Carter's","address":"Mall of America\n254 South Blvd.\nBloomington MN 55425\n(952) 854-4522"},{"longitude":-93.353819,"latitude":45.20108500000001,"name":"Carter's","address":"Riverdale Village\n12769 Riverdale Boulevard\nCoon Rapids MN 55448\n(763) 427-3679"},{"longitude":-93.21460599999999,"latitude":44.81562940000001,"name":"Carter's","address":"Twin Cities Premium Outlets\n3905 Eagan Outlets Parkway\nSuite #244\nEagan MN 55122\n(952) 686-7475"},{"longitude":-93.2623869,"latitude":44.1700551,"name":"Carter's","address":"Medford Outlet Center\n6750 West Frontage Rd.\nSuite 327\nMedford MN 55049\n(507) 451-9315"},{"longitude":-92.9962759,"latitude":45.5067191,"name":"Carter's","address":"North Branch Outlets\n38500 Tanger Dr.\nSuite 209\nNorth Branch MN 55056\n(651) 674-5701"},{"longitude":-93.44774950000001,"latitude":45.0301355,"name":"Carter's","address":"Rockford Road Plaza\n4190 Vinewood Lane North\nSpaces 124 & 125\nPlymouth MN 55442\n(763) 559-9009"},{"longitude":-93.172023,"latitude":45.01268169999999,"name":"Carter's","address":"Rosedale Center\n813 Rosedale Center\nRoseville MN 55113\n(651) 636-4085"},{"longitude":-92.93743189999999,"latitude":44.9415497,"name":"Carter's","address":"Tamarack Village\n8390 Tamarack Village\nSuite 508\nWoodbury MN 55125\n(651) 735-9434"},{"longitude":-93.2649443,"latitude":36.6440444,"name":"Carter's","address":"Tanger Outlet Center Branson\n300 Tanger Blvd.\nSuite 405\nBranson MO 65616\n(417) 334-7624"},{"longitude":-90.34221099999999,"latitude":38.627591,"name":"Carter's","address":"The Promenade at Brentwood\n6 Brentwood Promenade Court\nBrentwood MO 63144\n(314) 968-3563"},{"longitude":-90.6614633,"latitude":38.6774199,"name":"Carter's","address":"St. Louis Premium Outlets\n18521 Outlet Boulevard\nSuite 751\nChesterfield MO 63005\n(636) 778-2266"},{"longitude":-94.3554853,"latitude":39.0496722,"name":"Carter's","address":"Independence Commons\n18810 B & C East 39th Street\nIndependence MO 64057\n(816) 373-0425"},{"longitude":-94.4766765,"latitude":37.0860242,"name":"Carter's","address":"North Park Crossing\n420 Geneva Avenue\nJoplin MO 64801\n(417) 625-1472"},{"longitude":-94.4564205,"latitude":39.2464844,"name":"Carter's","address":"Wilshire Plaza\n8454 North Chruch Road\nKansas City MO 64157\n(816) 781-8435"},{"longitude":-94.40888869999999,"latitude":38.929126,"name":"Carter's","address":"Summitwoods Crossing\n1652 Northwest Chipman Road\nLee's Summit MO 64081\n(816) 607-5634"},{"longitude":-90.50542999999999,"latitude":38.59399,"name":"Carter's","address":"Manchester Highlands\n119 Highlands Boulevard Dr.\nManchester MO 63011\n(636) 527-7670"},{"longitude":-92.62727989999999,"latitude":38.1438834,"name":"Carter's","address":"Osage Beach Premium Outlets\n4540 Osage Beach Parkway\nSuite D-3\nOsage Beach MO 65065\n(573) 348-0223"},{"longitude":-89.5356831,"latitude":36.8889445,"name":"Carter's","address":"Sikestown Factory Outlet Stores\n100 Outlet Dr.\nNo. 29\nSikeston MO 63801\n(573) 472-4747"},{"longitude":-93.2584028,"latitude":37.1515068,"name":"Carter's","address":"Primrose Marketplace\n3310 South Glenstone Avenue\nSpringfield MO 65804\n(417) 881-4274"},{"longitude":-89.0992574,"latitude":30.4290731,"name":"Carter's","address":"Gulfport Premium Outlets\n10300 Factory Shops Blvd.\nGulfport MS 39503\n(228) 863-7711"},{"longitude":-89.38040509999999,"latitude":31.3314728,"name":"Carter's","address":"Turtle Creek Crossing\n24 Cross Creek Parkway\nHattiesburg MS 39402\n(601) 264-8525"},{"longitude":-90.1535466,"latitude":32.2740224,"name":"Carter's","address":"Outlets of Mississippi\n200 Bass Pro Drive\n#305\nPearl MS 39208\n(601) 664-1607"},{"longitude":-89.99154240000001,"latitude":34.9362137,"name":"Carter's","address":"Tanger Outlet Center Southaven\n5205 Airways Boulevard\n#1075\nSouthaven MS 38671\n(662) 349-8490"},{"longitude":-89.99407769999999,"latitude":34.9558366,"name":"Carter's","address":"Southaven Towne Center\n6596 Towne Center Crossing\nSouthaven MS 38671\n(662) 349-0465"},{"longitude":-88.704948,"latitude":34.306766,"name":"Carter's","address":"Market Center at Barnes Crossing\n3822 Market Center Drive\nTupelo MS 38804\n(662) 844-2667"},{"longitude":-90.84112209999999,"latitude":32.3408045,"name":"Carter's","address":"Vicksburg Factory Outlet\n4000 South Frontage Rd.\nSuite 101\nVicksburg MS 39180\n(601) 638-7444"},{"longitude":-114.0398936,"latitude":46.8943775,"name":"Carter's","address":"Grant Creek Town Center\n3275 North Reserve Street\nSuite K-1\nMissoula MT 59808\n(406) 541-7060"},{"longitude":-82.6033576,"latitude":35.52930060000001,"name":"Carter's","address":"Asheville Outlets\n800 Brevard Road\nSpace #N101\nAsheville NC 28806\n(828) 665-9545"},{"longitude":-81.67201279999999,"latitude":36.1417188,"name":"Carter's","address":"Tanger Outlet Center Blowing Rock\n278 Shoppes on the Parkway Rd.\nSuite 42\nBlowing Rock NC 28605\n(828) 295-8634"},{"longitude":-78.7377921,"latitude":35.7615138,"name":"Carter's","address":"Crossroads Plaza\n241 Crossroads Boulevard\nCary NC 27518\n(919) 233-0131"},{"longitude":-80.80077399999999,"latitude":35.176213,"name":"Carter's","address":"Cotswold Village\n326 South Sharon Amity Road\nCharlotte NC 28211\n(704) 366-8952"},{"longitude":-80.9700376,"latitude":35.1694291,"name":"Carter's","address":"Charlotte Premium Outlets\n5512 New Fashion Way\nSuite #1022\nCharlotte NC 28278\n(704) 504-0362"},{"longitude":-80.8773519,"latitude":35.1046602,"name":"Carter's","address":"Carolina Pavilion\n9547 South Boulevard\nSuite B\nCharlotte NC 28273\n(704) 557-9043"},{"longitude":-80.72197059999999,"latitude":35.3690086,"name":"Carter's","address":"Concord Mills\n8111 Concord Mills Blvd.\nSuite 685\nConcord NC 28027\n(704) 979-8313"},{"longitude":-81.1158422,"latitude":35.2594082,"name":"Carter's","address":"Franklin Square III\n3718 East Franklin Boulevard\nGastonia NC 28056\n(704) 824-8374"},{"longitude":-79.8309651,"latitude":36.0869764,"name":"Carter's","address":"Friendly Center\n3004 Northline Ave.\nGreensboro NC 27408\n(336) 292-8721"},{"longitude":-77.38237409999999,"latitude":35.5790705,"name":"Carter's","address":"University Commons\n3040 South Evans Street\nSpace #123\nGreenville NC 27834\n(252) 353-0037"},{"longitude":-81.31053860000002,"latitude":35.70129379999999,"name":"Carter's","address":"Hickory Ridge\n1864 Catawba Valley Boulevard\nHickory NC 28602\n(828) 324-0420"},{"longitude":-80.8708089,"latitude":35.5974995,"name":"Carter's","address":"Winslow Bay Commons\n590 River Highway\nMooresville NC 28117\n(704) 696-2712"},{"longitude":-78.81610300000001,"latitude":35.807044,"name":"Carter's","address":"Park West Village\n3045 Market Center Drive\nSpace #3105\nMorrisville NC 27560\n(919) 465-1312"},{"longitude":-75.6017256,"latitude":35.9122734,"name":"Carter's","address":"Tanger Outlet Center Nags Head\n7100 South Croatan Highway Suite #55\nCarter's Store\nNags Head NC 27959\n(252) 449-0213"},{"longitude":-78.569549,"latitude":35.865292,"name":"Carter's","address":"Poyner Place\n5900 Poyner Anchor Lane\nRaleigh NC 27616\n(919) 954-6194"},{"longitude":-78.7844148,"latitude":35.9057755,"name":"Carter's","address":"Brier Creek Commons\n8331 Brier Creek Parkway\nSuite 101\nRaleigh NC 27617\n(919) 248-0720"},{"longitude":-78.31611319999999,"latitude":35.5103829,"name":"Carter's","address":"Carolina Premium Outlets\n1025 Industrial Park Dr.\nSuite 310A\nSmithfield NC 27577\n(919) 989-7778"},{"longitude":-77.90100389999999,"latitude":34.2135513,"name":"Carter's","address":"Oleander Place\n3804 Oleander Drive\nSuite 106\nWilmington NC 28403\n(910) 350-3699"},{"longitude":-80.2830029,"latitude":36.0921647,"name":"Carter's","address":"Thruway Shopping Center\n410 South Stratford Road\nWinston Salem NC 27103\n(336) 725-9796"},{"longitude":-96.8568871,"latitude":46.8598458,"name":"Carter's","address":"TJ Maxx Plaza\n4340 13th Avenue Southwest, Suites R & Y\nFargo ND 58103\n(701) 277-3083"},{"longitude":-101.3124807,"latitude":48.206467,"name":"Carter's","address":"Dakota Square Mall\n2400 10th Street\nSpace 705\nMinot ND 58701\n(701) 852-1062"},{"longitude":-96.2505564,"latitude":41.0988104,"name":"Carter's","address":"Nebraska Crossing Outlets\n21355 Nebraska Crossing Drive\nSuite F-137\nGretna NE 68028\n(402) 332-5594"},{"longitude":-96.183846,"latitude":41.260892,"name":"Carter's","address":"Village Pointe\n17305 Davenport St.\nSuite Q113\nOmaha NE 68118\n(402) 289-4362"},{"longitude":-71.49976099999999,"latitude":42.8259282,"name":"Carter's","address":"Merrimack Premium Outlets\n80 Premium Outlets Boulevard\nSuite #459\nMerrimack NH 03054\n(603) 424-6970"},{"longitude":-71.113648,"latitude":44.023764,"name":"Carter's","address":"Settlers Green Outlet Village\n2 Common Court, Suite B38\nNorth Conway NH 03860\n(603) 356-5722"},{"longitude":-71.55973,"latitude":43.45947899999999,"name":"Carter's","address":"Tanger Outlet Center Tilton\n120 Laconia Rd.\nSuite 118\nTilton NH 03276\n(603) 286-3098"},{"longitude":-74.4368096,"latitude":39.359804,"name":"Carter's","address":"Tanger Outlet Center The Walk\n19 North Michigan Ave.\nAtlantic City NJ 08401\n(609) 345-0945"},{"longitude":-75.0521882,"latitude":39.7858525,"name":"Carter's","address":"Gloucester Premium Outlets\n100 Premium Outlets Drive\nSuite #430\nBlackwood NJ 08012\n(856) 302-4582"},{"longitude":-74.3042243,"latitude":40.6312771,"name":"Carter's","address":"Clark Commons\n1255 Raritan Road\nUnit #160\nClark NJ 07066\n(732) 388-4348"},{"longitude":-74.1563845,"latitude":40.8390089,"name":"Carter's","address":"The Promenade Shops at Clifton\n852 State Route 3\nSuite 234\nClifton NJ 07012\n(973) 777-0428"},{"longitude":-75.09126180000001,"latitude":39.8411006,"name":"Carter's","address":"Deptford Landing\n2000 Clements Bridge Road\nSpace A-070\nDeptford NJ 08096\n(856) 845-6513"},{"longitude":-74.36160149999999,"latitude":40.8031059,"name":"Carter's","address":"Castle Ridge Plaza\n374 State Route 10\nEast Hanover NJ 07936\n(973) 887-2405"},{"longitude":-73.9890574,"latitude":40.8066046,"name":"Carter's","address":"City Place at Promenade\n17 The Promenade\nEdgewater NJ 07020\n(201) 313-1783"},{"longitude":-74.1715816,"latitude":40.6601139,"name":"Carter's","address":"The Mills at Jersey Gardens\n651 Kapkowski Rd.\n#2008\nElizabeth NJ 07201\n(908) 629-9213"},{"longitude":-74.8614387,"latitude":40.5049741,"name":"Carter's","address":"Liberty Village Premium Outlets\n1 Church Street\nSuite #62\nFlemington NJ 08822\n(908) 788-7288"},{"longitude":-74.1447285,"latitude":40.4139881,"name":"Carter's","address":"Holmdel Towne Center\n2101 Route 35\nPlot #28\nHolmdel NJ 07733\n(732) 671-0327"},{"longitude":-74.224757,"latitude":40.138447,"name":"Carter's","address":"Howell Commons\n4789 Route 9 North\nHowell NJ 07731\n(732) 363-1494"},{"longitude":-74.41735229999999,"latitude":40.1616896,"name":"Carter's","address":"Jackson Premium Outlets\n537 Monmouth Rd.\nSpace 101\nJackson NJ 08527\n(732) 833-9884"},{"longitude":-74.1605988,"latitude":40.7579924,"name":"Carter's","address":"Kearny Plaza\n160 Passaic Avenue\nSuite 4\nKearny NJ 07032\n(732) 510-1446"},{"longitude":-74.68492169999999,"latitude":40.298321,"name":"Carter's","address":"Mercer Mall\n3371 U.S. Highway 1\nUnit 158\nLawrenceville NJ 08648\n(609) 750-8521"},{"longitude":-74.92714900000001,"latitude":39.890697,"name":"Carter's","address":"Marlton Crossing\n205 Route 73 South\nMarlton NJ 08053\n(856) 985-8315"},{"longitude":-74.2644988,"latitude":40.4233056,"name":"Carter's","address":"Marketplace II\n419 Route 34 South\nMatawan NJ 07747\n(732) 583-8391"},{"longitude":-74.62990400000001,"latitude":39.446906,"name":"Carter's","address":"Hamilton Commons\n140 Hamilton Commons\nMays Landing NJ 08330\n(609) 569-9134"},{"longitude":-74.9632756,"latitude":39.94018020000001,"name":"Carter's","address":"East Gate Square\n1520 Nixon Dr.\nMoorestown NJ 08057\n(856) 866-2950"},{"longitude":-74.0347439,"latitude":40.7758679,"name":"Carter's","address":"Columbia Park Shopping Center\n3105 Kennedy Boulevard\nSpace #105\nNorth Bergen NJ 07047\n(201) 223-7847"},{"longitude":-74.0610322,"latitude":40.9163595,"name":"Carter's","address":"Bergen Town Center\n2701 Bergen Town Center\nSuite 7\nParamus NJ 07652\n(201) 556-1049"},{"longitude":-74.1379427,"latitude":41.0671243,"name":"Carter's","address":"Interstate Shopping Center\n1205 Route 17 South\nRamsey NJ 07446\n(201) 934-4169"},{"longitude":-74.6319685,"latitude":40.5758467,"name":"Carter's","address":"Somerville Circle Shopping Center\n300 US Highway 202\nRaritan NJ 08869\n(908) 722-1206"},{"longitude":-74.5485801,"latitude":40.9093734,"name":"Carter's","address":"Shops at Rockaway\n321 Mt. Hope Ave.\nSuite R\nRockaway NJ 07866\n(973) 328-1200"},{"longitude":-75.0060948,"latitude":39.7357011,"name":"Carter's","address":"Shoppes at Cross Keys\n611 Berlin Cross Keys Road\nSicklerville NJ 08081\n(856) 728-0496"},{"longitude":-74.650105,"latitude":40.86919,"name":"Carter's","address":"Roxbury Mall\n281 - 071 State Route 10 East, Suite 12\nSuccasunna NJ 07876\n(973) 927-8845"},{"longitude":-74.094329,"latitude":40.224152,"name":"Carter's","address":"Jersey Shore Premium Outlets\n1 Premium Blvd\nSuite #725\nTinton Falls NJ 07753\n(732) 493-5879"},{"longitude":-74.24060949999999,"latitude":39.97401740000001,"name":"Carter's","address":"Toms River Shopping Center\n1 Route 37 West\nToms River NJ 08757\n(732) 244-8725"},{"longitude":-74.2994775,"latitude":40.6888997,"name":"Carter's","address":"Union 22 Plaza\n910 Springfield Road\nUnion NJ 07083\n(908) 688-1908"},{"longitude":-74.4225642,"latitude":40.6404382,"name":"Carter's","address":"Watchung Square Mall\n1515 Route 22 West\nSpace 40\nWatchung NJ 07069\n(908) 561-6440"},{"longitude":-74.2713498,"latitude":40.9391984,"name":"Carter's","address":"Brentwood Plaza Shopping Center\n1653 State Route 23\nWayne NJ 07470\n(973) 696-1710"},{"longitude":-74.2991531,"latitude":40.5566728,"name":"Carter's","address":"Woodbridge Center\n250 Woodbridge Center Drive\nSpace 1350\nWoodbridge NJ 07095\n(848) 205-7979"},{"longitude":-106.589802,"latitude":35.104639,"name":"Carter's","address":"Pavilions at San Mateo\n4900 Cutler Avenue\n(Suite S-1A & B)\nAlbuquerque NM 87110\n(505) 872-2785"},{"longitude":-106.6659008,"latitude":35.1852451,"name":"Carter's","address":"Plaza Paseo Del Norte\n9311 Coors Blvd Suite P5\/ P7\nAlbuquerque NM 87114\n(505) 890-8560"},{"longitude":-115.0472617,"latitude":36.0586316,"name":"Carter's","address":"Stephanie Street Power Center\n523 North Stephanie Street\nHenderson NV 89014\n(702) 435-1181"},{"longitude":-115.0640617,"latitude":36.159426,"name":"Carter's","address":"Charleston Commons\n147 North Nellis Boulevard\nLas Vegas NV 89110\n(702) 453-0001"},{"longitude":-115.1577492,"latitude":36.1636508,"name":"Carter's","address":"Las Vegas North Premium Outlets\n855 South Grand Central Parkway\nUnit 1890\nLas Vegas NV 89106\n(702) 386-3082"},{"longitude":-115.1689283,"latitude":36.0539333,"name":"Carter's","address":"Las Vegas South Premium Outlets\n7400 Las Vegas Blvd.\nSuite 44\nLas Vegas NV 89123\n(702) 896-4532"},{"longitude":-114.576078,"latitude":35.1623081,"name":"Carter's","address":"Laughlin Outlet Center\n1955 South Casino Dr.\nSuite 302\nLaughlin NV 89029\n(702) 298-1732"},{"longitude":-115.388179,"latitude":35.607897,"name":"Carter's","address":"Fashion Outlet of Las Vegas\n32100 Las Vegas Boulevard South\nSuite 304\nPrimm NV 89019\n(702) 874-1773"},{"longitude":-119.7207185,"latitude":39.5317981,"name":"Carter's","address":"Legends at Sparks Marina\n1350 Scheels Dr.\nSuite 108\nSparks NV 89434\n(775) 358-5752"},{"longitude":-78.81735920000001,"latitude":42.9983176,"name":"Carter's","address":"Boulevard Consumer Square\n1643 Niagara Falls Bouelevard\nSuite 44A\nAmherst NY 14228\n(716) 836-6792"},{"longitude":-72.95020199999999,"latitude":40.7903896,"name":"Carter's","address":"Outlets of Bellport\n10 Farber Dr.\nSuite 14\nBellport NY 11713\n(631) 286-9640"},{"longitude":-73.8607408,"latitude":40.8352149,"name":"Carter's","address":"Parkchester\n1376 Metropolitan Avenue\nBronx NY 10462\n(718) 824-6012"},{"longitude":-73.91796169999999,"latitude":40.8159408,"name":"Carter's","address":"The Hub\n2919 3rd Avenue\nBronx NY 10455\n(718) 402-4928"},{"longitude":-73.9051305,"latitude":40.877951,"name":"Carter's","address":"5550 Broadway\n5550 Broadway\nBronx NY 10463\n(718) 732-1005"},{"longitude":-73.85697619999999,"latitude":40.8238186,"name":"Carter's","address":"The Shops at Bruckner Boulevard\n845 White Plains Road\nBronx NY 10473\n(718) 822-2976"},{"longitude":-73.8275242,"latitude":40.864345,"name":"Carter's","address":"Bay Plaza Shopping Center\n2146 Bartow Avenue\nBronx NY 10475\n(718) 671-1978"},{"longitude":-73.9166614,"latitude":40.625999,"name":"Carter's","address":"Georgetown Shopping Center\n2097 Ralph Avenue\nBrooklyn NY 11234\n(718) 531-6062"},{"longitude":-73.9891331,"latitude":40.6381172,"name":"Carter's","address":"Borough Park - 13th Avenue\n4316 Thirteenth Avenue\nBrooklyn NY 11219\n(718) 438-1024"},{"longitude":-73.87155,"latitude":40.652015,"name":"Carter's","address":"Gateway Center\n494 Gateway Drive\nBrooklyn NY 11239\n(718) 277-0569"},{"longitude":-73.9584622,"latitude":40.6467948,"name":"Carter's","address":"Brooklyn - Flatbush Avenue\n1004 Flatbush Avenue\nBrooklyn NY 11226\n(718) 282-4961"},{"longitude":-73.99544350000001,"latitude":40.6032655,"name":"Carter's","address":"Bensonhurst - 86th Street\n2111 86th Street\nBrooklyn NY 11214\n(718) 372-4327"},{"longitude":-73.6199184,"latitude":40.7465601,"name":"Carter's","address":"Voice Road Plaza\n240 - B Voice Rd.\nCarle Place NY 11514\n(516) 294-8926"},{"longitude":-74.12576899999999,"latitude":41.31628,"name":"Carter's","address":"Woodbury Common Premium Outlets\n434 Dune Road\nCentral Valley NY 10917\n(845) 928-9498"},{"longitude":-78.77301299999999,"latitude":42.9097,"name":"Carter's","address":"Walden Consumer Square\n1740 Walden Avenue\nSuite 100\nCheektowaga NY 14225\n(716) 891-4196"},{"longitude":-73.7786739,"latitude":42.859109,"name":"Carter's","address":"Clifton Park Center\n22 Clifton Country Road\nSuite 110\nClifton Park NY 12065\n(518) 371-4240"},{"longitude":-73.3033493,"latitude":40.76507429999999,"name":"Carter's","address":"Tanger Outlet Center Deer Park\n878 The Arches Circle\nDeer Park NY 11729\n(631) 254-0507"},{"longitude":-76.0194387,"latitude":43.0355859,"name":"Carter's","address":"Towne Center at Fayetteville\n537 Towne Drive\nFayetteville NY 13066\n(315) 637-3128"},{"longitude":-73.8351872,"latitude":40.7572591,"name":"Carter's","address":"The Shops at Sky View Center\n40-24 College Point Blvd\nSuite B229\nFlushing NY 11354\n(718) 460-2624"},{"longitude":-73.57265,"latitude":40.6573523,"name":"Carter's","address":"Meadowbrook Commons\n214 East Sunrise Highway\nFreeport NY 11520\n(516) 378-2947"},{"longitude":-73.784746,"latitude":40.740414,"name":"Carter's","address":"Fresh Meadows Place\n6126 190th Street\nFresh Meadows NY 11365\n(718) 264-3283"},{"longitude":-73.5314125,"latitude":40.7730993,"name":"Carter's","address":"Broadway Mall\n358Broadway Mall\nSuite #522\nHicksville NY 11801\n(516) 932-5057"},{"longitude":-73.40982149999999,"latitude":40.8171114,"name":"Carter's","address":"Huntington Shopping Center\n350 Walt Whitman Road\nHuntington NY 11746\n(631) 549-6781"},{"longitude":-73.17943799999999,"latitude":40.802391,"name":"Carter's","address":"Islandia Shopping Center\n1808 Veterans Memorial Highway\nIslandia NY 11749\n(631) 582-2041"},{"longitude":-73.884359,"latitude":40.74898,"name":"Carter's","address":"Jackson Heights - 82nd Street\n37-22 82nd Street\nJackson Heights NY 11372\n(718) 565-2393"},{"longitude":-73.700721,"latitude":43.365763,"name":"Carter's","address":"Log Jam Outlet Center\n1476 State Route 9\nSuite 1\nLake George NY 12845\n(518) 792-0403"},{"longitude":-73.5034402,"latitude":40.7270156,"name":"Carter's","address":"Nassau Mall\n3567 Hempstead Turnpike\nLevittown NY 11756\n(516) 796-1428"},{"longitude":-73.94896709999999,"latitude":40.809726,"name":"Carter's","address":"Harlem - W. 125th Street\n215 West 125th Street\nManhattan NY 10027\n(212) 865-1846"},{"longitude":-75.3089109,"latitude":43.09442869999999,"name":"Carter's","address":"New Hartford Consumer Center\n4773 Commercial Drive\nNew Hartford NY 13413\n(315) 793-7285"},{"longitude":-73.6945381,"latitude":40.7531367,"name":"Carter's","address":"Lake Success\n1440 Union Turnpike\nNew Hyde Park NY 11040\n(516) 437-2050"},{"longitude":-78.9781667,"latitude":43.0989798,"name":"Carter's","address":"Fashion Outlets of Niagara Falls USA\n1964 Military Rd, Suite 62\nNiagara Falls NY 14304\n(716) 297-3034"},{"longitude":-73.8910748,"latitude":42.77372949999999,"name":"Carter's","address":"Mohawk Commons\n432 Balltown Road\nNiskayuna NY 12304\n(518) 372-4580"},{"longitude":-78.7821587,"latitude":42.7920164,"name":"Carter's","address":"Quaker Crossing\n3424 Amelia Drive\nOrchard Park NY 14127\n(716) 825-1304"},{"longitude":-73.4876061,"latitude":44.6946755,"name":"Carter's","address":"Plattsburgh Consumer Square\n55 Consumer Square\nPlattsburgh NY 12901\n(518) 561-0402"},{"longitude":-73.9205372,"latitude":41.6260366,"name":"Carter's","address":"Poughkeepsie Galleria\n2001 South Road\nSpace A108\nPoughkeepsie NY 12601\n(845) 218-4282"},{"longitude":-73.7785083,"latitude":40.7779874,"name":"Carter's","address":"Bay Terrace\n211-15C 26th Ave\nQueens NY 11360\n(718) 225-2160"},{"longitude":-73.7936211,"latitude":40.7059811,"name":"Carter's","address":"Jamaica - Jamaica Avenue\n166-07 Jamaica Avenue\nQueens NY 11432\n(718) 297-2430"},{"longitude":-73.9024972,"latitude":40.7006457,"name":"Carter's","address":"Ridgewood - Myrtle Avenue\n57-31 Myrtle Avenue\nRidgewood NY 11385\n(718) 497-1941"},{"longitude":-72.71700469999999,"latitude":40.9195219,"name":"Carter's","address":"Tanger Outlet Center Riverhead\n302 Tanger Dr.\nRiverhead NY 11901\n(631) 369-7769"},{"longitude":-77.62813799999999,"latitude":43.080673,"name":"Carter's","address":"Jay Scutti Plaza\n300 Hylan Drive\nRochester NY 14623\n(585) 272-0489"},{"longitude":-77.54028079999999,"latitude":43.1024204,"name":"Carter's","address":"Pittsford Plaza\n3349 Monroe Ave\nRochester NY 14618\n(585) 387-9043"},{"longitude":-77.6911925,"latitude":43.2060439,"name":"Carter's","address":"Greece Ridge Mall\n214 Greece Ridge Center Drive\nRochester NY 14626\n(585) 225-1245"},{"longitude":-74.027416,"latitude":41.10577500000001,"name":"Carter's","address":"Spring Valley Marketplace\n17 Spring Valley Marketplace\nSpring Valley NY 10977\n(845) 426-6074"},{"longitude":-74.23262009999999,"latitude":40.527337,"name":"Carter's","address":"South Shore Commons\n2955 Veterans Rd. West\nStore 1C\nStaten Island NY 10309\n(718) 948-2475"},{"longitude":-74.1096812,"latitude":40.5691668,"name":"Carter's","address":"Hylan Commons\n430 New Dorp Lane\nB-2\nStaten Island NY 10306\n(718) 980-1759"},{"longitude":-76.0097282,"latitude":42.0963785,"name":"Carter's","address":"Town Square Mall\n2505 Vestal Parkway East\nVestal NY 13850\n(607) 797-2939"},{"longitude":-76.9217622,"latitude":42.9552282,"name":"Carter's","address":"Waterloo Premium Outlets\n655 Route 318\nNo. 85B\nWaterloo NY 13165\n(315) 539-0282"},{"longitude":-73.3493841,"latitude":40.6855204,"name":"Carter's","address":"Great South Bay\n721 W Montauk Highway\nWest Babylon NY 11704\n(631) 587-2903"},{"longitude":-73.7986258,"latitude":41.0424186,"name":"Carter's","address":"Crossroads Shopping Center\n373 Tarrytown Road\nWhite Plains NY 10607\n(914) 287-6456"},{"longitude":-73.8251913,"latitude":40.984495,"name":"Carter's","address":"Central Plaza\n2594 Central Park Ave\nYonkers NY 10710\n(914) 961-1798"},{"longitude":-81.3435401,"latitude":41.3020292,"name":"Carter's","address":"Aurora Farms Premium Outlets\n549 South Chillicothe Rd.\nAurora OH 44202\n(330) 562-9036"},{"longitude":-82.01767559999999,"latitude":41.4609135,"name":"Carter's","address":"Avon Commons\n35894 Detroit Road\nAvon OH 44011\n(440) 937-0273"},{"longitude":-84.10242939999999,"latitude":39.6948831,"name":"Carter's","address":"The Greene Town Center\n61 Chestnut St.\nBeaver Creek OH 45440\n(937) 431-1130"},{"longitude":-80.6435975,"latitude":41.0223755,"name":"Carter's","address":"The Shops at Boardman Park\n389 Boardman Poland Road\nBoardman OH 44512\n(330) 758-0390"},{"longitude":-81.9866503,"latitude":40.999997,"name":"Carter's","address":"Lodi Station Outlets\n9911 Avon Lake Rd.\nSuite 220\nBurbank OH 44214\n(330) 948-5092"},{"longitude":-84.27267890000002,"latitude":39.0963281,"name":"Carter's","address":"32 East\n700 Eastgate South Drive\nCincinnati OH 45245\n(513) 752-0674"},{"longitude":-84.6198254,"latitude":39.1440636,"name":"Carter's","address":"Western Hills Plaza\n6080 Glenway Avenue\nCincinnati OH 45211\n(513) 389-9324"},{"longitude":-84.44463950000001,"latitude":39.1475663,"name":"Carter's","address":"Rookwood Pavilion\n2692 Madison Rd\nSuite H1\nCincinnati OH 45208\n(513) 351-2794"},{"longitude":-81.6888907,"latitude":41.4606188,"name":"Carter's","address":"Steelyard Commons\n3501 Steelyard Drive\nCleveland OH 44109\n(216) 661-1498"},{"longitude":-82.924883,"latitude":40.052577,"name":"Carter's","address":"Easton Market\n3734 Easton Market\nColumbus OH 43219\n(614) 476-8603"},{"longitude":-82.9883205,"latitude":40.1400718,"name":"Carter's","address":"Polaris Towne Center\n1239 Polaris Parkway\nSpace C2\nColumbus OH 43240\n(614) 781-0800"},{"longitude":-83.087273,"latitude":40.09718900000001,"name":"Carter's","address":"Sun Center\n3614 W Dublin Granville Rd.\nColumbus OH 43235\n(614) 793-8624"},{"longitude":-81.85037059999999,"latitude":41.4600894,"name":"Carter's","address":"Westgate Shopping Center\n3161 Westgate\nFairview Park OH 44126\n(440) 331-3732"},{"longitude":-83.6989545,"latitude":41.6141831,"name":"Carter's","address":"Spring Meadows Place\n1502 Spring Meadows Drive\nHolland OH 43528\n(419) 861-1197"},{"longitude":-83.6025236,"latitude":39.6189603,"name":"Carter's","address":"Tanger Outlets at Jeffersonville\n8250 Factory Shops Boulevard\nSuite 250\nJeffersonville OH 43128\n(740) 948-2087"},{"longitude":-81.45092,"latitude":41.518113,"name":"Carter's","address":"Golden Gate Shopping Center\n1558 Golden Gate Plaza\nMayfield Heights OH 44124\n(440) 684-9590"},{"longitude":-81.2965534,"latitude":41.6833372,"name":"Carter's","address":"Creekside Commons\n9597 Mentor Avenue\nSuite 16\nMentor OH 44060\n(440) 350-1404"},{"longitude":-84.33713499999999,"latitude":39.433908,"name":"Carter's","address":"Cincinnati Premium Outlets\n116 Premium Outlet Dr\nMonroe OH 45050\n(513) 539-3401"},{"longitude":-81.432478,"latitude":40.860588,"name":"Carter's","address":"Belden Park Crossings\n5554 Dressler Road NW\nUnit 20\nNorth Canton OH 44720\n(330) 305-6940"},{"longitude":-81.4085885,"latitude":41.1552719,"name":"Carter's","address":"Stow Community Center\n4272 Kent Road\nUnit 10\nStow OH 44224\n(330) 688-0942"},{"longitude":-82.9244935,"latitude":40.2600052,"name":"Carter's","address":"Tanger Outlets - Columbus\n400 South Wilson Road\nSuite 925\nSunbury OH 43074"},{"longitude":-83.6449736,"latitude":41.69918,"name":"Carter's","address":"Franklin Place\n5235 Monroe Street\nToledo OH 43623\n(419) 841-2855"},{"longitude":-84.36127630000001,"latitude":39.3547046,"name":"Carter's","address":"Voice of America Shopping Centre\n7686 Voice of America Dr.\nWest Chester, OH 45069\n(513) 759-0400\n\noklahoma"},{"longitude":-97.48887239999999,"latitude":35.3150552,"name":"Carter's","address":"Shops at Moore\n2630 South Service Road\nMoore OK 73160\n(405) 793-1031"},{"longitude":-97.64858509999999,"latitude":35.4622449,"name":"Carter's","address":"Outlet Shoppes at Oklahoma City\n7638 West Reno Avenue, #E550\nOklahoma City OK 73127\n(405) 491-7343"},{"longitude":-97.54658289999999,"latitude":35.6104272,"name":"Carter's","address":"Memorial Square\n13726 North Pennsylvania Avenue\nOklahoma City OK 73134\n(405) 753-9402"},{"longitude":-95.8814591,"latitude":36.0600494,"name":"Carter's","address":"Southern Trails Shopping Center\n8518 East 71st Street\nSuite A\nTulsa OK 74133\n(918) 307-8540"},{"longitude":-122.810454,"latitude":45.496137,"name":"Carter's","address":"Cedar Hills Crossing\n3195 Southwest Cedar Hills Boulevard\nSpace #90\nBeaverton OR 97005\n(503) 350-1723"},{"longitude":-121.3141777,"latitude":44.0260199,"name":"Carter's","address":"Bend Factory Outlets\n61334 South Highway 97\nSuite 160\nBend OR 97702\n(541) 385-9663"},{"longitude":-124.0105628,"latitude":44.9587207,"name":"Carter's","address":"Lincoln City Outlets on the Coast\n1500 SE Devil's Lake Rd.\nSuite 307\nLincoln City OR 97367\n(541) 996-4338"},{"longitude":-122.8816973,"latitude":42.3437035,"name":"Carter's","address":"Northgate Marketplace II\n279 Rossanely Drive\nSuite K-2\nMedford OR 97501\n(541) 608-5023"},{"longitude":-122.6832886,"latitude":45.611895,"name":"Carter's","address":"Jantzen Beach Center\n1460 North Tomahawk Island Drive\nPortland OR 97217\n(503) 289-0267"},{"longitude":-123.9164206,"latitude":46.0013095,"name":"Carter's","address":"Seaside Factory Outlet Center\n1111 North Roosevelt Dr.\nSeaside OR 97138\n(503) 738-6082"},{"longitude":-122.3889042,"latitude":45.5429279,"name":"Carter's","address":"Columbia Gorge Outlets\n450 N.W. 257th Ave.\nSuite 300\nTroutdale OR 97060\n(503) 666-2997"},{"longitude":-122.749371,"latitude":45.384337,"name":"Carter's","address":"Nyberg Woods\n7075 Nyberg Road\nTualatin OR 97062\n(503) 692-9048"},{"longitude":-122.8785493,"latitude":45.1561488,"name":"Carter's","address":"Woodburn Premium Outlets\n1001 Arney Rd.\nSuite 306\nWoodburn OR 97071\n(503) 981-8792"},{"longitude":-75.4363644,"latitude":40.639161,"name":"Carter's","address":"Airport Center\n936 Airport Center Drive\nAllentown PA 18109\n(610) 266-0840"},{"longitude":-75.22347529999999,"latitude":40.00376809999999,"name":"Carter's","address":"Bala Cynwyd Shopping Center\n59 East City Avenue\nSpace #13A\nBala Cynwyd PA 19004\n(610) 668-1362"},{"longitude":-76.9356901,"latitude":40.2355809,"name":"Carter's","address":"Camp Hill Shopping Center\n118 South 32nd Street\nCamp Hill PA 17011\n(717) 761-1421"},{"longitude":-75.41089199999999,"latitude":40.56009,"name":"Carter's","address":"The Promenade Shops at Saucon Valley\n3060 Center Valley Parkway\nSpace 812\nCenter Valley PA 18034\n(610) 798-8257"},{"longitude":-75.629199,"latitude":40.0350443,"name":"Carter's","address":"Fairfield Place\n125 East Swedesford Road\nExton PA 19341\n(610) 363-2392"},{"longitude":-77.201107,"latitude":39.7940175,"name":"Carter's","address":"Outlet Shoppes at Gettysburg\n1863 Gettysburg Village Drive\nSuite J670\nGettysburg PA 17325\n(717) 334-3790"},{"longitude":-79.5814145,"latitude":40.3074272,"name":"Carter's","address":"Greengate Center\n2030 Greengate Centre Circle\nGreensburg PA 15601\n(724) 834-1427"},{"longitude":-76.6480504,"latitude":40.2947553,"name":"Carter's","address":"Tanger Outlets at Hershey\n81 Outlet Square\nHershey PA 17033\n(717) 520-0452"},{"longitude":-79.9169648,"latitude":40.4071792,"name":"Carter's","address":"Waterfront Town Center\n222 West Bridge St.\nHomestead PA 15120\n(412) 462-8393"},{"longitude":-76.19806299999999,"latitude":40.020956,"name":"Carter's","address":"Rockvale Square Outlets\n35 South Willowdale Dr.\nSuite 1825\nLancaster PA 17602\n(717) 299-5685"},{"longitude":-74.89529999999999,"latitude":40.167501,"name":"Carter's","address":"Langhorne Square\n1349 East Lincoln Highway\nLevittown PA 19056\n(215) 949-2860"},{"longitude":-79.7669731,"latitude":40.4373444,"name":"Carter's","address":"Miracle Mile Shopping Center\n4100 William Penn Highway\nRm #45\nMonroeville PA 15146\n(412) 372-1258"},{"longitude":-75.678871,"latitude":41.36342,"name":"Carter's","address":"Shoppes at Montage\n2161 Shoppes Boulevard\nMoosic PA 18507\n(570) 961-0717"},{"longitude":-75.24024779999999,"latitude":40.2392635,"name":"Carter's","address":"Airport Square\n3 Airport Square\nNorth Wales PA 19454\n(215) 362-8340"},{"longitude":-74.96162269999999,"latitude":40.0874923,"name":"Carter's","address":"Philadelphia Mills\n1433 Franklin Mills Circle\nSpace 335\nPhiladelphia PA 19154\n(215) 281-3160"},{"longitude":-75.031508,"latitude":40.075943,"name":"Carter's","address":"Northeast Shopping Center\n9171-C Roosevelt Boulevard\nPhiladelphia PA 19114\n(215) 676-2924"},{"longitude":-75.14469919999999,"latitude":39.92259240000001,"name":"Carter's","address":"Snyder Plaza\n21 Snyder Ave\nSpace SNE-2\nPhiladelphia PA 19148\n(215) 271-0264"},{"longitude":-75.29174909999999,"latitude":40.1032126,"name":"Carter's","address":"Metroplex\n2520 Chemical Road\n#S 12C\nPlymouth Meeting PA 19046\n(610) 828-5385"},{"longitude":-75.5705634,"latitude":40.236614,"name":"Carter's","address":"Philadelphia Premium Outlets\n18 Lightcap Rd.\nSuite 1157\nPottstown PA 19464\n(610) 970-3246"},{"longitude":-75.35804860000002,"latitude":39.9382893,"name":"Carter's","address":"Marple Crossroads Shopping Center\n400 South State Rd.\nABC 1\nSpringfield PA 19064\n(610) 328-2683"},{"longitude":-75.3120734,"latitude":41.0471875,"name":"Carter's","address":"The Crossings Premium Outlets\n1000 Route 611\nSuite G72\nTannersville PA 18372\n(570) 629-3802"},{"longitude":-80.212648,"latitude":40.2166,"name":"Carter's","address":"Tanger Outlet Center Pittsburgh\n2200 Tanger Blvd.\nSuite #960\nWashington PA 15301\n(724) 225-0408"},{"longitude":-75.4323777,"latitude":40.0732472,"name":"Carter's","address":"Gateway Shopping Center\n249 Swedesford Road\nWayne PA 19087\n(610) 688-2187"},{"longitude":-75.84117959999999,"latitude":41.2428015,"name":"Carter's","address":"Arena Hub Plaza\n451 Arena Hubs Plaza\nSuiite #2\nWilkes Barre PA 18702\n(570) 821-7358"},{"longitude":-75.116866,"latitude":40.143161,"name":"Carter's","address":"Willow Grove Shopping Center\n130 Park Avenue\nWillow Grove PA 19090\n(215) 830-8397"},{"longitude":-75.955556,"latitude":40.33853999999999,"name":"Carter's","address":"VF Outlet Center\n801 Hill Ave.\nWyomissing PA 19610\n(610) 376-3769"},{"longitude":-66.5408782,"latitude":18.4386764,"name":"Carter's","address":"Puerto Rico Premium Outlets\nOne Prime Outlets Blvd\nSpace 555\nBarceloneta PR 00617\n(787) 846-1700"},{"longitude":-66.161486,"latitude":18.422563,"name":"Carter's","address":"Plaza Rio Hondo\n60 Ave Rio Hondo, Suite 28\nBayamon PR 00961\n(787) 795-0116"},{"longitude":-66.0409656,"latitude":18.2372238,"name":"Carter's","address":"Las Catalinas Mall\n400 Calle Betances\nCaguas PR 00725\n(787) 743-0348"},{"longitude":-66.611605,"latitude":17.993967,"name":"Carter's","address":"Plaza Del Caribe\n2050 Ponce By Pass, Suite 292\nPonce PR 00717\n(787) 840-2440"},{"longitude":-71.45768310000001,"latitude":41.7621876,"name":"Carter's","address":"Garden City Center\n71 Hillside Road\nSpace 8030\nCranston RI 02920\n(401) 942-1815"},{"longitude":-71.5187777,"latitude":41.8744977,"name":"Carter's","address":"Crossing at Smithfield\n371 Putnam Pike\nSmithfield RI 02917\n(401) 231-1836"},{"longitude":-80.81991459999999,"latitude":32.239334,"name":"Carter's","address":"Tanger Outlet Center Hilton Head\n1414 Fording Island Rd.\nSuite C310, Box C3\nBluffton SC 29910\n(843) 837-4256"},{"longitude":-81.163941,"latitude":34.06773,"name":"Carter's","address":"Columbiana Station\n144 Harbison Boulevard\nSpace #90\nColumbia SC 29212\n(803) 749-5943"},{"longitude":-81.7121772,"latitude":35.0819733,"name":"Carter's","address":"Gaffney Premium Outlets\n310 Factory Shops Blvd.\nGaffney SC 29341\n(864) 489-9981"},{"longitude":-82.2981226,"latitude":34.8287544,"name":"Carter's","address":"Shops at Greenridge\n1125 Woodruff Rd Suite 201\nGreenville SC 29607\n(864) 288-3806"},{"longitude":-78.9580884,"latitude":33.7509763,"name":"Carter's","address":"Tanger Outlet Center Myrtle Beach Hwy 501\n4618 Factory Stores Blvd.\nL150\nMyrtle Beach SC 29579\n(843) 236-2142"},{"longitude":-78.7725481,"latitude":33.7843552,"name":"Carter's","address":"Tanger Outlet Center Myrtle Beach Hwy 17\n10839 Kings Rd.\nSuite 750\nMyrtle Beach SC 29572\n(843) 449-2720"},{"longitude":-80.0174001,"latitude":32.8720192,"name":"Carter's","address":"Tanger Outlet Center N. Charleston\n4840 Tanger Outlet Blvd.\nSuite 731\nNorth Charleston SC 29418\n(843) 744-7655"},{"longitude":-103.186332,"latitude":44.0988959,"name":"Carter's","address":"Rushmore Crossing\n1725 Eglin Street\nSuite #200\nRapid City SD 57703\n(605) 342-1648"},{"longitude":-86.809169,"latitude":35.9693551,"name":"Carter's","address":"Cool Springs Pointe\n1630 Galleria Boulevard\nSuite 200\nBrentwood TN 37027\n(615) 370-1217"},{"longitude":-82.264293,"latitude":36.59098609999999,"name":"Carter's","address":"Tower Shops at The Pinnacle\n562 Pinnacle Parkway\nUnit 526\nBristol TN 37620\n(423) 764-4155"},{"longitude":-85.15501569999999,"latitude":35.0362422,"name":"Carter's","address":"Hamilton Crossing\n2200 Hamilton Place Boulevard\nChattanooga TN 37421\n(423) 499-2742"},{"longitude":-88.8584681,"latitude":35.6652104,"name":"Carter's","address":"1150 Vann Drive Shopping Center\n1150 Vann Drive\nJackson TN 38305\n(731) 668-3833"},{"longitude":-84.1495049,"latitude":35.9012227,"name":"Carter's","address":"Pavilion of Turkey Creek I\n11030 Parkside Drive\nSuite #19A\nKnoxville TN 37922\n(865) 966-9604"},{"longitude":-86.305025,"latitude":36.17976900000001,"name":"Carter's","address":"Lebanon Premium Outlets\n110 Outlet Village Blvd.\nLebanon TN 37090\n(615) 453-5392"},{"longitude":-89.8659548,"latitude":35.1009104,"name":"Carter's","address":"Ridgeway Trace\n5853 U.S. Highway 72\nSuite 130\nMemphis TN 38119\n(901) 821-8319"},{"longitude":-86.4452318,"latitude":35.8594895,"name":"Carter's","address":"Avenue Murfreesboro\n2615 Medical Center Parkway\nSuite 1540\nMurfreesboro TN 37129\n(615) 895-0476"},{"longitude":-86.6929439,"latitude":36.2047112,"name":"Carter's","address":"Opry Mills\n392 Opry Mills Drive\nNashville TN 37214\n(615) 823-3192"},{"longitude":-83.5686142,"latitude":35.796893,"name":"Carter's","address":"Pigeon Forge Factory Outlet Mall\n2850 Parkway\nSuite 7\nPigeon Forge TN 37863\n(865) 428-3253"},{"longitude":-83.5698202,"latitude":35.832558,"name":"Carter's","address":"Tanger Outlet Center Sevierville\n1645 Parkway\nSpace 340\nSevierville TN 37862\n(865) 453-5899"},{"longitude":-99.7757367,"latitude":32.40887360000001,"name":"Carter's","address":"Shops at Abilene\n3617 Catclaw\nAbilene TX 79606\n(325) 695-1581"},{"longitude":-96.6607514,"latitude":33.1327179,"name":"Carter's","address":"Allen Premium Outlets\n820 West Stacy Rd.\nSuite 414\nAllen TX 75013\n(972) 678-2540"},{"longitude":-97.7324692,"latitude":30.3893573,"name":"Carter's","address":"The Shops at Arbor Walk\n10515 MoPac Expressway Suite 132\nAustin TX 78759\n(512) 372-0144"},{"longitude":-97.7925222,"latitude":30.1617459,"name":"Carter's","address":"Southpark Meadows\n9600 South IH-35\nSpace 550\nAustin TX 78748\n(512) 291-1500"},{"longitude":-97.81966399999999,"latitude":30.2263367,"name":"Carter's","address":"Sunset Valley Village\n5601 Brodie Lane, Suite 670\nAustin TX 78745\n(512) 358-0784"},{"longitude":-94.1549555,"latitude":30.1264648,"name":"Carter's","address":"North Park Plaza\n5882 Eastex Freeway\nBeaumont TX 77708\n(409) 347-0926"},{"longitude":-97.505709,"latitude":25.95922,"name":"Carter's","address":"Sunrise Commons\n2740 Pablo Kisel Boulevard\nBrownsville TX 78526\n(956) 544-1727"},{"longitude":-97.32143409999999,"latitude":32.5689997,"name":"Carter's","address":"Gateway Station\n12920 South Freeway\nBurleson TX 76028\n(817) 295-5920"},{"longitude":-96.9424152,"latitude":32.6017674,"name":"Carter's","address":"Hillside Village\n305 W FM 1382, 541 & 542\nCedar Hill TX 75104\n(972) 293-9643"},{"longitude":-97.79932459999999,"latitude":30.4705766,"name":"Carter's","address":"Lakeline Plaza Center\n11066 Pecan Park Blvd.\nSuite A05A\nCedar Park TX 78613\n(512) 219-9344"},{"longitude":-96.33471,"latitude":30.594388,"name":"Carter's","address":"Gateway Station\n1505 University Drive East\nSuite 15\nCollege Station TX 77840\n(979) 260-0159"},{"longitude":-95.4830353,"latitude":30.3635142,"name":"Carter's","address":"Conroe Outlet Center\n1111 League Line Rd.\nSuite 115\nConroe TX 77303\n(936) 856-7830"},{"longitude":-97.3722303,"latitude":27.7104883,"name":"Carter's","address":"La Palmera\n5488 South Padre Island Drive\nSuite 1220\nCorpus Christi TX 78411\n(361) 993-0213"},{"longitude":-95.7565733,"latitude":29.9970415,"name":"Carter's","address":"Houston Premium Outlets\n29300 Hempstead Rd.\nSuite 616\nCypress TX 77433\n(281) 256-3497"},{"longitude":-96.76838,"latitude":32.868979,"name":"Carter's","address":"Park Lane\n8180 Park Lane\nSuite 345\nDallas TX 75231\n(214) 363-4336"},{"longitude":-97.0984199,"latitude":33.1938987,"name":"Carter's","address":"Denton Crossing\n1800 South Loop 288\nSuite 218\nDenton TX 76205\n(940) 387-8582"},{"longitude":-98.1665888,"latitude":26.2632995,"name":"Carter's","address":"The Shoppes at Rio Grande Valley\n329 East Trenton Road\nEdinburg TX 78539\n(956) 316-2384"},{"longitude":-106.3718191,"latitude":31.7705454,"name":"Carter's","address":"The Fountains at Farah\n8889 Gateway Boulevard West\nSpace BU170\nEl Paso TX 79925\n(915) 599-9145"},{"longitude":-106.586125,"latitude":31.9127566,"name":"Carter's","address":"Outlet Shoppes at El Paso\n7051 South Desert Blvd.\nSuite E524\nEl Paso TX 79835\n(915) 877-7319"},{"longitude":-106.3058756,"latitude":31.7262845,"name":"Carter's","address":"Las Palmas Marketplace\n1331 George Dieter Drive\nSpace #6\nEl Paso TX 79936\n(915) 594-4970"},{"longitude":-97.39701939999999,"latitude":32.6838165,"name":"Carter's","address":"Overton Park Plaza\n4664 SW Loop 820\nFort Worth TX 76109\n(817) 731-3664"},{"longitude":-97.3144277,"latitude":32.9124463,"name":"Carter's","address":"Alliance Town Center\n3050 Texas Sage Trail\nSpace 410\nFort Worth TX 76177\n(817) 741-6844"},{"longitude":-96.80582659999999,"latitude":33.1064736,"name":"Carter's","address":"The Center at Preston Ridge\n3259 Preston Rd.\nSuite 6\nFrisco TX 75034\n(214) 618-3490"},{"longitude":-96.6123157,"latitude":32.9527034,"name":"Carter's","address":"Firewheel Town Center\n655 Town Square Blvd.\nSuite F11\nGarland TX 75040\n(972) 675-2030"},{"longitude":-97.0518759,"latitude":32.6794234,"name":"Carter's","address":"Grand Prairie Premium Outlets\n2950 West Interstate 20\nSuite #270\nGrand Prairie TX 75052\n(972) 602-4332"},{"longitude":-97.04276039999999,"latitude":32.965993,"name":"Carter's","address":"Grapevine Mills\n3000 Grapevine Mills Parkway\nSuite 242\nGrapevine TX 76051\n(972) 724-6770"},{"longitude":-97.66163750000001,"latitude":31.07390149999999,"name":"Carter's","address":"Market Heights\n201 East Central Texas Expressway\nSuite #2125\nHarker Heights TX 76548\n(254) 680-3385"},{"longitude":-97.09355,"latitude":32.013984,"name":"Carter's","address":"Outlets at Hillsboro\n104 IH-35 NE\nSuite 150\nHillsboro TX 76645\n(254) 582-0107"},{"longitude":-95.38021549999999,"latitude":29.8308475,"name":"Carter's","address":"Northline Commons\n4400 North Freeway\nSuite E 1000\nHouston TX 77022\n(713) 699-3495"},{"longitude":-95.202559,"latitude":29.928117,"name":"Carter's","address":"Westlake Marketplace\n14251 East Sam Houston Parkway North\nBuilding A, Suite 100\nHouston TX 77044\n(281) 459-4253"},{"longitude":-95.4606517,"latitude":29.6868016,"name":"Carter's","address":"Meyerland Plaza\n555 Meyerland Plaza\nSuite #555\nHouston TX 77096"},{"longitude":-95.40006609999999,"latitude":29.7544663,"name":"Carter's","address":"River Oaks Plaza\n1560 West Gray\nHouston TX 77019\n(713) 521-5862"},{"longitude":-95.5887193,"latitude":30.0090099,"name":"Carter's","address":"Tomball Crossing\n22501 Tomball Parkway\nHouston TX 77070\n(281) 251-6978"},{"longitude":-95.560788,"latitude":29.775252,"name":"Carter's","address":"Town and Country Village\n12850 Memorial Dr.\nSuite 1100\nHouston TX 77024\n(713) 467-2057"},{"longitude":-95.2969816,"latitude":29.6973114,"name":"Carter's","address":"Gulfgate Center\n830 Gulfgate Center\nHouston TX 77087\n(713) 649-3286"},{"longitude":-95.462696,"latitude":29.741632,"name":"Carter's","address":"The Centre at Post Oak\n5000 Westheimer Road, Suite 610, Unit BOL\nHouston TX 77056\n(713) 599-0852"},{"longitude":-95.261403,"latitude":30.013061,"name":"Carter's","address":"Deerbrook Marketplace\n20506 U.S. Highway 59 North\nSuite 400\nHumble TX 77338\n(281) 446-2639"},{"longitude":-97.19995209999999,"latitude":32.8248895,"name":"Carter's","address":"The Shops at North East Mall\n845 North East Mall Blvd\nHurst TX 76053\n(817) 284-2414"},{"longitude":-95.80906999999999,"latitude":29.775645,"name":"Carter's","address":"Katy Mills\n5000 Katy Mills Circle\nSuite 630\nKaty TX 77494\n(281) 644-5585"},{"longitude":-99.512563,"latitude":27.502148,"name":"Carter's","address":"Outlet Shoppes at Laredo\n1600 Water Street\nSuite A460\nLaredo TX 78040\n(956) 717-4906"},{"longitude":-99.47514679999999,"latitude":27.6082969,"name":"Carter's","address":"Independence Plaza\n2450 Monarch Drive\nSuite #3A\nLaredo TX 78045\n(956) 712-8231"},{"longitude":-96.970514,"latitude":33.0111714,"name":"Carter's","address":"Lakepointe Towne Crossing\n713 Hebron Parkway\nSuite 260\nLewisville TX 75057\n(972) 459-0989"},{"longitude":-101.9211299,"latitude":33.5368032,"name":"Carter's","address":"Central Plaza\n6225 Slide Road\nLubbock TX 79414\n(806) 793-1483"},{"longitude":-97.1500756,"latitude":32.597335,"name":"Carter's","address":"Mansfield Town Center\n2041 Highway 287 North\nSpace 213\nMansfield TX 76063\n(817) 453-6484"},{"longitude":-98.2126289,"latitude":26.187045,"name":"Carter's","address":"Las Tiendas Plaza\n920 East Expressway 83\nMcAllen TX 78503\n(956) 928-1504"},{"longitude":-97.88779699999999,"latitude":26.162872,"name":"Carter's","address":"Rio Grande Valley Premium Outlets\n5001 East Expressway 83\nSuite 318\nMercedes TX 78570\n(956) 514-0730"},{"longitude":-96.628017,"latitude":32.797753,"name":"Carter's","address":"Marketplace at Towne Center\n19079 Lyndon B Johnson Freeway\nMesquite TX 75150\n(972) 270-0964"},{"longitude":-98.2842586,"latitude":26.1971765,"name":"Carter's","address":"Sharyland Towne Crossing\n2515 East Expressway 83\nSuite 200\nMission TX 78572\n(956) 664-9444"},{"longitude":-95.2630099,"latitude":29.5595099,"name":"Carter's","address":"The Center at Pearland Parkway\n2550 Pearland Parkway\nSuite 140\nPearland TX 77581\n(281) 997-7938"},{"longitude":-95.38554260000001,"latitude":29.5576767,"name":"Carter's","address":"<br \/>The Crossing at 288\n2730 Smith Ranch Rd.\nSuite 104\nPearland TX 77584\n(713) 436-7665"},{"longitude":-96.7929953,"latitude":33.02868,"name":"Carter's","address":"Preston Towne Crossing\n4909 West Park Boulevard\nSuite #101\nPlano TX 75093\n(972) 596-2501"},{"longitude":-96.4621696,"latitude":32.895979,"name":"Carter's","address":"Rockwall Market Center\n2841 Market Center Drive\nRockwall TX 75032\n(972) 722-4513"},{"longitude":-97.6897003,"latitude":30.5664089,"name":"Carter's","address":"Round Rock Premium Outlets\n4401 North IH-35\nSuite 147\nRound Rock TX 78664\n(512) 868-3427"},{"longitude":-98.64865929999999,"latitude":29.4373758,"name":"Carter's","address":"Westover Marketplace\n8203 State Highway 151\nSuite #116\nSan Antonio TX 78245\n(210) 680-0517"},{"longitude":-98.54036200000002,"latitude":29.3551814,"name":"Carter's","address":"Alison's Corner\n2720 SW Military Drive\nSuite #102\nSan Antonio TX 78224\n(210) 932-9069"},{"longitude":-98.46742499999999,"latitude":29.604806,"name":"Carter's","address":"Northwoods Shopping Center\n18030 US Highway 281 North\nSuite 106\nSan Antonio TX 78232\n(210) 494-2341"},{"longitude":-98.66869899999999,"latitude":29.548562,"name":"Carter's","address":"Bandera Pointe\n11643 Bandera Rd.\nSuite #104\nSan Antonio TX 78250\n(210) 647-7751"},{"longitude":-98.5940411,"latitude":29.6091887,"name":"Carter's","address":"The Rim\n17802 La Cantera Parkway\nSuite 109\nSan Antonio TX 78257\n(210) 877-6216"},{"longitude":-97.98179239999999,"latitude":29.8287308,"name":"Carter's","address":"San Marcos Premium Outlets\n3939 IH-35 South\nSuite 760\nSan Marcos TX 78666\n(512) 392-8485"},{"longitude":-95.45084179999999,"latitude":30.1844701,"name":"Carter's","address":"Portofino Shopping Center\n19075 Interstate 45 South\nSuite 111B\nShenandoah TX 77385\n(936) 271-5051"},{"longitude":-97.1066197,"latitude":32.9392823,"name":"Carter's","address":"Gateway Plaza\n2924 East South Lake Blvd.\nSouthlake TX 76092\n(817) 749-1900"},{"longitude":-95.5191845,"latitude":30.0886389,"name":"Carter's","address":"Grand Parkway Marketplace\n6600 Spring Stuebner Road\nSuite 144\nSpring TX 77389\n(832) 717-0309"},{"longitude":-95.6195541,"latitude":29.5950618,"name":"Carter's","address":"Market at Town Center\n2577 Town Center Blvd.\nSugarland TX 77479\n(281) 980-2940"},{"longitude":-96.283827,"latitude":32.7025502,"name":"Carter's","address":"Tanger Outlet Center Terrell\n301 Tanger Dr.\nSuite 109\nTerrell TX 75160\n(972) 551-2276"},{"longitude":-95.0583635,"latitude":29.4246973,"name":"Carter's","address":"Tanger Outlet Center Galveston\n5885 Gulf Freeway\nSuite 620\nTexas City TX 77591\n(281) 337-3452"},{"longitude":-95.30529779999999,"latitude":32.2500713,"name":"Carter's","address":"The Village at Cumberland Park\n8946 South Broadway\nSuite #104\nTyler TX 75703\n(903) 561-8297"},{"longitude":-97.155174,"latitude":31.497438,"name":"Carter's","address":"Central Texas Marketplace\n2608 West Loop 340, Suite B\nWaco TX 76706\n(254) 662-2869"},{"longitude":-95.14272869999999,"latitude":29.5380844,"name":"Carter's","address":"Baybrook Square\n1257 West Bay Area Blvd.\nWebster TX 77598\n(281) 338-7483"},{"longitude":-111.8840763,"latitude":40.4351916,"name":"Carter's","address":"Outlets at Traverse Mountain\n3700 North Cabelas Boulevard\nSuite #410\nLehi UT 84043\n(801) 901-1241"},{"longitude":-111.8860316,"latitude":40.6351734,"name":"Carter's","address":"Fashion Place\n6227 South State Street #3\nMurray UT 84107\n(801) 262-4960"},{"longitude":-111.6801014,"latitude":40.2751349,"name":"Carter's","address":"University Place\n575 East University Parkway\nSpace E-74\nOrem UT 84097\n(801) 225-0716"},{"longitude":-111.5518159,"latitude":40.7291402,"name":"Carter's","address":"Tanger Outlet Center Park City\n6699 North Landmark Dr.\nSuite C145\nPark City UT 84098\n(435) 649-4402"},{"longitude":-111.9821705,"latitude":41.1914239,"name":"Carter's","address":"Riverdale Shopping Center\n4221 Riverdale Rd.\nRiverdale UT 84405\n(801) 394-2472"},{"longitude":-111.85803,"latitude":40.724304,"name":"Carter's","address":"Commons at Sugar House\n1155 East Wilmington\nSuite 100\nSalt Lake City UT 84106\n(801) 474-9133"},{"longitude":-111.8885894,"latitude":40.562756,"name":"Carter's","address":"The Commons at Southtowne\n10473 S State Street\nSandy UT 84070\n(801) 572-2375"},{"longitude":-111.984479,"latitude":40.61961,"name":"Carter's","address":"Jordan Landing\n3778 West Center Park Dr.\nSpace F-1 West\nWest Jordan UT 84084\n(801) 280-0221"},{"longitude":-111.9551575,"latitude":40.69367,"name":"Carter's","address":"Valley Fair Mall\n3601 South 2700 West\nSpace TC-1\nWest Valley City UT 84119\n(801) 963-8267"},{"longitude":-77.0847841,"latitude":38.749395,"name":"Carter's","address":"Mount Vernon Plaza\n7702B Richmond Highway\nSuite C\nAlexandria VA 22306\n(703) 660-9730"},{"longitude":-77.3981838,"latitude":38.8790525,"name":"Carter's","address":"Greenbriar Shopping Center\n13039 Lee Jackson Memorial Highway\nSpace #14\nFairfax VA 22033\n(703) 263-0173"},{"longitude":-77.27546579999999,"latitude":38.8446835,"name":"Carter's","address":"Fair City Mall\n9600-J Main Street\nFairfax VA 22031\n(703) 425-2314"},{"longitude":-77.1306019,"latitude":38.8524236,"name":"Carter's","address":"Crossroads Center\n5841-A Crossroads Center Way\nFalls Church VA 22041\n(703) 575-8412"},{"longitude":-77.62234699999999,"latitude":37.652531,"name":"Carter's","address":"Corner at Short Pump\n11809 West Broad Street\n4B\nHenrico VA 23233\n(804) 360-4313"},{"longitude":-77.53845319999999,"latitude":39.1067666,"name":"Carter's","address":"Leesburg Corner Premium Outlets\n241 Fort Evans Rd. N.E.\nSuite 709\nLeesburg VA 20176\n(703) 737-3830"},{"longitude":-77.631356,"latitude":37.4185,"name":"Carter's","address":"Commonwealth Center\n4800 Commonwealth Center Parkway\nMidlothian VA 23112\n(804) 744-4070"},{"longitude":-76.49144559999999,"latitude":37.1036207,"name":"Carter's","address":"Marketplace at Tech Center\n12080 Jefferson Avenue\nSuite #300\nNewport News VA 23602\n(757) 881-9689"},{"longitude":-76.1930517,"latitude":36.8780575,"name":"Carter's","address":"Simon Premium Outlets\n1600 Premium Outlets Boulevard\nSuite 411\nNorfolk VA 23502\n(757) 614-2007"},{"longitude":-77.4982881,"latitude":37.581966,"name":"Carter's","address":"The Shops At Willow Lawn\n1601 Willow Lawn Drive\nRichmond VA 23230\n(804) 288-0324"},{"longitude":-77.4226654,"latitude":39.024973,"name":"Carter's","address":"Dulles Town Crossing\n45575 Dulles Eastern Plaza\nSuite 101\nSterling VA 20166\n(703) 430-1727"},{"longitude":-77.23641119999999,"latitude":38.9221319,"name":"Carter's","address":"Pike 7 Plaza\n8387B Leesburg Pike\nVienna VA 22182\n(703) 448-6074"},{"longitude":-76.0867786,"latitude":36.7745037,"name":"Carter's","address":"Landstown Commons\n3300 Princess Anne Rd.\nSuite #751\nVirginia Beach VA 23456\n(757) 468-0350"},{"longitude":-76.736913,"latitude":37.3206631,"name":"Carter's","address":"Prime Outlets at Williamsburg\n5699 Richmond Rd.\nSpace 38\nWilliamsburg VA 23188\n(757) 565-3440"},{"longitude":-78.167878,"latitude":39.16148099999999,"name":"Carter's","address":"Apple Blossom Corners\n2184 South Pleasant Valley Road\nWinchester VA 22601\n(540) 545-4045"},{"longitude":-77.295063,"latitude":38.6433389,"name":"Carter's","address":"Potomac Mills\n2700 Potomac Mills Circle\nSuite 221\nWoodbridge VA 22192\n(703) 494-2157"},{"longitude":-72.56576299999999,"latitude":42.836133,"name":"Carter's","address":"Canal Street Outlet Center\n580 Canal Street\nSuite 1\nBrattleboro VT 05301\n(802) 257-5615"},{"longitude":-73.08133699999999,"latitude":44.507545,"name":"Carter's","address":"Essex Outlets\n21 Essex Way\nSuite 405\nEssex Junction VT 05452\n(802) 288-8107"},{"longitude":-73.0505187,"latitude":43.1746166,"name":"Carter's","address":"Equinox Square Shopping Center\n367 Depot St.\nManchester Center VT 05255\n(802) 362-0254"},{"longitude":-122.2458133,"latitude":47.2989231,"name":"Carter's","address":"The Outlet Collection Seattle\n1101 Outlet Collection Way\nSuite 1234\nAuburn WA 98001\n(253) 804-3155"},{"longitude":-122.484204,"latitude":48.785578,"name":"Carter's","address":"Meridian Village\n3930 Meridian Street\nSuite 100\nBellingham WA 98226\n(360) 738-4198"},{"longitude":-122.3384169,"latitude":48.456168,"name":"Carter's","address":"The Outlet Shoppes at Burlington\n440 Fashion Way\nBurlington WA 98233\n(360) 757-0916"},{"longitude":-122.9787948,"latitude":46.7300744,"name":"Carter's","address":"WA \u2013 Centralia \u2013 1203 Lum Road\n1203 Lum Rd.\nCentralia WA 98531\n(360) 736-0348"},{"longitude":-122.0175382,"latitude":47.5422503,"name":"Carter's","address":"Grand Ridge Plaza\n1416 Highlands Drive\nIssaquah WA 98029\n(425) 392-0532"},{"longitude":-121.795576,"latitude":47.490978,"name":"Carter's","address":"North Bend Premium Outlets\n461 South Fork Ave. Suite 2A\nS.W.\nNorth Bend WA 98045\n(425) 888-6370"},{"longitude":-119.3132813,"latitude":46.2580093,"name":"Carter's","address":"Vintner Square\n2949 Queensgate Drive\nRichland WA 99352\n(509) 627-3827"},{"longitude":-122.3671741,"latitude":47.52177,"name":"Carter's","address":"Westwood Village\n2600 SW Barton Street\nSuite B16\nSeattle WA 98126\n(206) 937-1266"},{"longitude":-117.412941,"latitude":47.701102,"name":"Carter's","address":"Northtown Square\n4727 N Division\nSt Suite 101 B\nSpokane WA 99207\n(509) 489-6822"},{"longitude":-122.4793565,"latitude":47.2372963,"name":"Carter's","address":"Tacoma Central\n3304 South 23rd Street, Suite C2\nTacoma WA 98405\n(253) 272-0675"},{"longitude":-122.2609405,"latitude":47.448994,"name":"Carter's","address":"Southcenter Square\n17250 Southcenter Parkway\nSuite 144\nTukwila WA 98188\n(206) 575-2484"},{"longitude":-122.188311,"latitude":48.093531,"name":"Carter's","address":"Seattle Premium Outlets\n10600 Quil Ceda Blvd.\nSuite 635\nTulalip WA 98271\n(360) 716-2348"},{"longitude":-120.4791726,"latitude":46.565676,"name":"Carter's","address":"Valley Mall Plaza\n1602 East Washington Avenue\nUnion Gap WA 98903\n(509) 469-0627"},{"longitude":-122.1570453,"latitude":47.7571164,"name":"Carter's","address":"Downtown Woodinville Retail Development\n17953 Garden Way NE\nWoodinville WA 98072\n(425) 483-1997"},{"longitude":-89.786099,"latitude":43.57298,"name":"Carter's","address":"Outlets at the Dells\n210 Gasser Rd.\nSuite 531\nBaraboo WI 53913\n(608) 253-3149"},{"longitude":-88.0659939,"latitude":44.4838209,"name":"Carter's","address":"Bay Park Square\n922 Bay Park Square\nGreen Bay WI 54304\n(920) 497-7565"},{"longitude":-88.7629947,"latitude":43.0901443,"name":"Carter's","address":"Johnson Creek Premium Outlets\n595 West Linmar Lane\nSuite B-180\nJohnson Creek WI 53038\n(920) 699-7204"},{"longitude":-88.58594699999999,"latitude":43.9834059,"name":"Carter's","address":"The Outlet Shoppes at Oshkosh\n3001 South Washburn\nSuite A110\nOshKosh WI 54904\n(920) 233-4909"},{"longitude":-87.9482134,"latitude":42.5179126,"name":"Carter's","address":"Pleasant Prairie Premium Outlets\n11601 108th St.  Suite 52\nPleasant Prairie WI 53158\n(262) 857-6881"},{"longitude":-88.056428,"latitude":43.077814,"name":"Carter's","address":"Mayfair Collection\n11500 West Burleigh Street\nSuite 164\nWauwatosa WI 53222\n(414) 258-3080"},{"longitude":-82.26642210000001,"latitude":38.4223468,"name":"Carter's","address":"Huntington Mall\n825 Mall Road\nSpace 830\nBarboursville WV 25504\n(304) 733-7071"},{"longitude":-81.71301900000002,"latitude":38.327695,"name":"Carter's","address":"Dudley Farms Plaza\n106 RHL Boulevard\nCharleston WV 25309\n(304) 744-2579"}]