[{"latitude":" 40.72575","longitude":"-111.89904","name":" Chevron","address":" USA-(UT) Salt Lake City"},{"latitude":" 36.04168","longitude":"-114.98347","name":" Chevron","address":" USA-(NV) Henderson"},{"latitude":" 36.80474","longitude":"-114.10924","name":" Chevron","address":" USA-(NV) Mesquite"},{"latitude":" 40.24473","longitude":"-111.66694","name":" Chevron","address":" USA-(UT) Provo"},{"latitude":" 39.53505","longitude":"-119.80297","name":" Chevron","address":" USA-(NV) Reno"},{"latitude":" 40.62399","longitude":"-111.83469","name":" Chevron","address":" USA-(UT) Salt Lake City"},{"latitude":" 36.15935","longitude":"-115.06279","name":" Chevron","address":" USA-(NV) Las Vegas"},{"latitude":" 36.02046","longitude":"-115.28502","name":" Chevron","address":" USA-(NV) Las Vegas"},{"latitude":" 40.58808","longitude":"-111.93915","name":" Chevron","address":" USA-(UT) West Jordan"},{"latitude":" 36.07246","longitude":"-114.95696","name":" Chevron","address":" USA-(NV) Henderson"},{"latitude":" 39.52657","longitude":"-119.82685","name":" Chevron","address":" USA-(NV) Reno"},{"latitude":" 36.15944","longitude":"-115.23446","name":" Chevron","address":" USA-(NV) Las Vegas"},{"latitude":" 36.02683","longitude":"-115.04803","name":" Chevron","address":" USA-(NV) Henderson"},{"latitude":" 36.10039","longitude":"-115.18346","name":" Chevron","address":" USA-(NV) Las Vegas"},{"latitude":" 39.17063","longitude":"-119.76727","name":" Chevron","address":" USA-(NV) Carson City"},{"latitude":" 36.12522","longitude":"-115.22452","name":" Chevron","address":" USA-(NV) Las Vegas"},{"latitude":" 36.10130","longitude":"-115.13739","name":" Chevron","address":" USA-(NV) Las Vegas"},{"latitude":" 39.09152","longitude":"-119.77619","name":" Chevron","address":" USA-(NV) Carson City"},{"latitude":" 36.11491","longitude":"-115.10138","name":" Chevron","address":" USA-(NV) Las Vegas"},{"latitude":" 36.26327","longitude":"-115.11757","name":" Chevron","address":" USA-(NV) Las Vegas"},{"latitude":" 38.24959","longitude":"-112.65262","name":" Chevron","address":" USA-(UT) Beaver"},{"latitude":" 39.51781","longitude":"-119.88531","name":" Chevron","address":" USA-(NV) Reno"},{"latitude":" 39.13699","longitude":"-111.81871","name":" Chevron","address":" USA-(UT) Centerfield"},{"latitude":" 40.66530","longitude":"-111.83946","name":" Chevron","address":" USA-(UT) Holladay"},{"latitude":" 35.99401","longitude":"-115.13384","name":" Chevron","address":" USA-(NV) Henderson"},{"latitude":" 36.13212","longitude":"-115.95806","name":" Chevron","address":" USA-(NV) Pahrump"},{"latitude":" 40.25556","longitude":"-111.65651","name":" Chevron","address":" USA-(UT) Provo"},{"latitude":" 40.67486","longitude":"-111.90423","name":" Chevron","address":" USA-(UT) Murray"},{"latitude":" 40.75010","longitude":"-111.88783","name":" Chevron","address":" USA-(UT) Salt Lake City"},{"latitude":" 37.83924","longitude":"-112.82782","name":" Chevron","address":" USA-(UT) Parowan"},{"latitude":" 40.58078","longitude":"-111.85278","name":" Chevron","address":" USA-(UT) Sandy"},{"latitude":" 35.05146","longitude":"-114.58943","name":" Chevron","address":" USA-(NV) Bullhead City"},{"latitude":" 41.98674","longitude":"-114.67190","name":" Chevron","address":" USA-(NV) Jackpot"},{"latitude":" 36.05593","longitude":"-115.22520","name":" Chevron","address":" USA-(NV) Las Vegas"},{"latitude":" 41.48704","longitude":"-112.02769","name":" Chevron","address":" USA-(UT) Brigham City"},{"latitude":" 38.98932","longitude":"-112.32368","name":" Chevron","address":" USA-(UT) Fillmore"},{"latitude":" 38.77209","longitude":"-112.07104","name":" Chevron","address":" USA-(UT) Richfield"},{"latitude":" 36.17352","longitude":"-115.24397","name":" Chevron","address":" USA-(NV) Las Vegas"},{"latitude":" 40.16146","longitude":"-111.61033","name":" Chevron","address":" USA-(UT) Springville"},{"latitude":" 40.13942","longitude":"-111.59824","name":" Chevron","address":" USA-(UT) Mapleton"},{"latitude":" 40.35209","longitude":"-111.73265","name":" Chevron","address":" USA-(UT) Lindon"},{"latitude":" 36.19634","longitude":"-115.24161","name":" Chevron","address":" USA-(NV) Las Vegas"},{"latitude":" 40.68460","longitude":"-111.79573","name":" Chevron","address":" USA-(UT) Salt Lake City"},{"latitude":" 36.14387","longitude":"-115.22489","name":" Chevron","address":" USA-(NV) Las Vegas"},{"latitude":" 36.02201","longitude":"-115.24394","name":" Chevron","address":" USA-(NV) Las Vegas"},{"latitude":" 36.21828","longitude":"-115.23991","name":" Chevron","address":" USA-(NV) Las Vegas"},{"latitude":" 37.48900","longitude":"-112.51278","name":" Chevron","address":" USA-(UT) Alton"},{"latitude":" 40.72579","longitude":"-111.89439","name":" Chevron","address":" USA-(UT) Salt Lake City"},{"latitude":" 40.65278","longitude":"-111.96774","name":" Chevron","address":" USA-(UT) Taylorsville"},{"latitude":" 39.50229","longitude":"-119.99950","name":" Chevron","address":" USA-(NV) Verdi"},{"latitude":" 39.63413","longitude":"-111.43987","name":" Chevron","address":" USA-(UT) Fairview"},{"latitude":" 40.25966","longitude":"-111.67475","name":" Chevron","address":" USA-(UT) Provo"},{"latitude":" 36.27697","longitude":"-115.28737","name":" Chevron","address":" USA-(NV) Las Vegas"},{"latitude":" 40.62371","longitude":"-111.93921","name":" Chevron","address":" USA-(UT) West Jordan"},{"latitude":" 36.11494","longitude":"-115.13734","name":" Chevron","address":" USA-(NV) Las Vegas"},{"latitude":" 40.54236","longitude":"-112.29871","name":" Chevron","address":" USA-(UT) Tooele"},{"latitude":" 38.07739","longitude":"-117.24742","name":" Chevron","address":" USA-(NV) Tonopah"},{"latitude":" 36.01196","longitude":"-114.99231","name":" Chevron","address":" USA-(NV) Henderson"},{"latitude":" 40.71995","longitude":"-111.81113","name":" Chevron","address":" USA-(UT) Salt Lake City"},{"latitude":" 36.22034","longitude":"-115.32937","name":" Chevron","address":" USA-(NV) Las Vegas"},{"latitude":" 40.73581","longitude":"-114.07565","name":" Chevron","address":" USA-(NV) Wendover"},{"latitude":" 40.59364","longitude":"-111.83171","name":" Chevron","address":" USA-(UT) Sandy"},{"latitude":" 40.21743","longitude":"-111.65941","name":" Chevron","address":" USA-(UT) Provo"},{"latitude":" 36.19567","longitude":"-115.25164","name":" Chevron","address":" USA-(NV) Las Vegas"},{"latitude":" 36.19966","longitude":"-115.28143","name":" Chevron","address":" USA-(NV) Las Vegas"},{"latitude":" 40.63830","longitude":"-112.00038","name":" Chevron","address":" USA-(UT) Salt Lake City"},{"latitude":" 40.68735","longitude":"-111.82491","name":" Chevron","address":" USA-(UT) Salt Lake City"},{"latitude":" 36.19673","longitude":"-115.26091","name":" Chevron","address":" USA-(NV) Las Vegas"},{"latitude":" 40.56004","longitude":"-111.92028","name":" Chevron","address":" USA-(UT) South Jordan"},{"latitude":" 36.23339","longitude":"-115.25121","name":" Chevron","address":" USA-(NV) Las Vegas"},{"latitude":" 40.96859","longitude":"-117.74070","name":" Chevron","address":" USA-(NV) Winnemucca"},{"latitude":" 40.92110","longitude":"-111.88869","name":" Chevron","address":" USA-(UT) Centerville"},{"latitude":" 39.16105","longitude":"-119.75060","name":" Chevron","address":" USA-(NV) Carson City"},{"latitude":" 36.01390","longitude":"-115.20695","name":" Chevron","address":" USA-(NV) Las Vegas"},{"latitude":" 40.60692","longitude":"-111.99721","name":" Chevron","address":" USA-(UT) West Jordan"},{"latitude":" 35.61170","longitude":"-115.38745","name":" Chevron","address":" USA-(NV) Primm"},{"latitude":" 39.43965","longitude":"-119.75654","name":" Chevron","address":" USA-(NV) Reno"},{"latitude":" 39.60136","longitude":"-110.82337","name":" Chevron","address":" USA-(UT) Price"},{"latitude":" 37.68114","longitude":"-113.07771","name":" Chevron","address":" USA-(UT) Cedar City"},{"latitude":" 36.08668","longitude":"-115.18586","name":" Chevron","address":" USA-(NV) Las Vegas"},{"latitude":" 36.12555","longitude":"-115.27932","name":" Chevron","address":" USA-(NV) Las Vegas"},{"latitude":" 36.19602","longitude":"-115.02670","name":" Chevron","address":" USA-(NV) Las Vegas"},{"latitude":" 38.99425","longitude":"-112.32464","name":" Chevron","address":" USA-(UT) Fillmore"},{"latitude":" 41.71131","longitude":"-112.20188","name":" Chevron","address":" USA-(UT) Tremonton"},{"latitude":" 39.52115","longitude":"-119.74097","name":" Chevron","address":" USA-(NV) Sparks"},{"latitude":" 40.72033","longitude":"-116.10592","name":" Chevron","address":" USA-(NV) Carlin"},{"latitude":" 36.01297","longitude":"-115.13418","name":" Chevron","address":" USA-(NV) Las Vegas"},{"latitude":" 36.15846","longitude":"-115.31327","name":" Chevron","address":" USA-(NV) Las Vegas"},{"latitude":" 40.74001","longitude":"-111.95756","name":" Chevron","address":" USA-(UT) Salt Lake City"},{"latitude":" 40.30244","longitude":"-109.98377","name":" Chevron","address":" USA-(UT) Roosevelt"},{"latitude":" 39.55584","longitude":"-119.78251","name":" Chevron","address":" USA-(NV) Reno"},{"latitude":" 36.20248","longitude":"-115.19928","name":" Chevron","address":" USA-(NV) Las Vegas"},{"latitude":" 40.29652","longitude":"-109.98855","name":" Chevron","address":" USA-(UT) Roosevelt"},{"latitude":" 40.95912","longitude":"-117.74709","name":" Chevron","address":" USA-(NV) Winnemucca"},{"latitude":" 40.51193","longitude":"-111.47374","name":" Chevron","address":" USA-(UT) Midway"},{"latitude":" 40.31355","longitude":"-111.65869","name":" Chevron","address":" USA-(UT) Orem"},{"latitude":" 39.53531","longitude":"-119.78102","name":" Chevron","address":" USA-(NV) Reno"},{"latitude":" 40.77190","longitude":"-111.93976","name":" Chevron","address":" USA-(UT) Salt Lake City"},{"latitude":" 40.66718","longitude":"-111.98707","name":" Chevron","address":" USA-(UT) Salt Lake City"},{"latitude":" 40.31150","longitude":"-111.70205","name":" Chevron","address":" USA-(UT) Orem"},{"latitude":" 40.69630","longitude":"-111.96729","name":" Chevron","address":" USA-(UT) West Valley City"},{"latitude":" 40.86185","longitude":"-111.90006","name":" Chevron","address":" USA-(UT) Woods Cross"},{"latitude":" 36.06559","longitude":"-115.01269","name":" Chevron","address":" USA-(NV) Henderson"},{"latitude":" 40.78279","longitude":"-111.89927","name":" Chevron","address":" USA-(UT) Salt Lake City"},{"latitude":" 40.32701","longitude":"-111.70867","name":" Chevron","address":" USA-(UT) Orem"},{"latitude":" 40.89362","longitude":"-111.89300","name":" Chevron","address":" USA-(UT) Bountiful"},{"latitude":" 40.68171","longitude":"-112.00638","name":" Chevron","address":" USA-(UT) West Valley City"},{"latitude":" 36.26198","longitude":"-115.17940","name":" Chevron","address":" USA-(NV) Las Vegas"},{"latitude":" 36.19610","longitude":"-115.12560","name":" Chevron","address":" USA-(NV) Las Vegas"},{"latitude":" 36.49951","longitude":"-114.75984","name":" Chevron","address":" USA-(NV) Moapa"},{"latitude":" 40.59958","longitude":"-112.46486","name":" Chevron","address":" USA-(UT) Grantsville"},{"latitude":" 39.25187","longitude":"-112.10973","name":" Chevron","address":" USA-(UT) Scipio"},{"latitude":" 36.23977","longitude":"-115.17976","name":" Chevron","address":" USA-(NV) Las Vegas"},{"latitude":" 36.03408","longitude":"-115.10060","name":" Chevron","address":" USA-(NV) Henderson"},{"latitude":" 40.27306","longitude":"-111.68495","name":" Chevron","address":" USA-(UT) Orem"},{"latitude":" 40.64972","longitude":"-111.93841","name":" Chevron","address":" USA-(UT) Salt Lake City"},{"latitude":" 38.56096","longitude":"-109.54695","name":" Chevron","address":" USA-(UT) Moab"},{"latitude":" 40.60271","longitude":"-112.05747","name":" Chevron","address":" USA-(UT) West Jordan"},{"latitude":" 40.73325","longitude":"-111.84258","name":" Chevron","address":" USA-(UT) Salt Lake City"},{"latitude":" 36.10127","longitude":"-115.20433","name":" Chevron","address":" USA-(NV) Las Vegas"},{"latitude":" 36.10054","longitude":"-115.13636","name":" Chevron","address":" USA-(NV) Las Vegas"},{"latitude":" 40.28311","longitude":"-111.65910","name":" Chevron","address":" USA-(UT) Provo"},{"latitude":" 36.10031","longitude":"-115.11345","name":" Chevron","address":" USA-(NV) Las Vegas"},{"latitude":" 40.55908","longitude":"-111.85380","name":" Chevron","address":" USA-(UT) Sandy"},{"latitude":" 36.04284","longitude":"-115.10069","name":" Chevron","address":" USA-(NV) Henderson"},{"latitude":" 36.01937","longitude":"-115.11912","name":" Chevron","address":" USA-(NV) Las Vegas"},{"latitude":" 36.07077","longitude":"-115.27884","name":" Chevron","address":" USA-(NV) Las Vegas"},{"latitude":" 40.71088","longitude":"-112.09269","name":" Chevron","address":" USA-(UT) Magna"},{"latitude":" 41.25501","longitude":"-111.76075","name":" Chevron","address":" USA-(UT) Huntsville"},{"latitude":" 41.73882","longitude":"-111.83437","name":" Chevron","address":" USA-(UT) Logan"},{"latitude":" 36.09944","longitude":"-115.24261","name":" Chevron","address":" USA-(NV) Las Vegas"},{"latitude":" 36.04125","longitude":"-115.27855","name":" Chevron","address":" USA-(NV) Las Vegas"},{"latitude":" 36.11509","longitude":"-115.26147","name":" Chevron","address":" USA-(NV) Las Vegas"},{"latitude":" 40.17935","longitude":"-118.47238","name":" Chevron","address":" USA-(NV) Lovelock"},{"latitude":" 40.68913","longitude":"-112.26592","name":" Chevron","address":" USA-(UT) Tooele"},{"latitude":" 40.64039","longitude":"-111.85499","name":" Chevron","address":" USA-(UT) Salt Lake City"},{"latitude":" 40.65358","longitude":"-111.90793","name":" Chevron","address":" USA-(UT) Murray"},{"latitude":" 40.62463","longitude":"-111.92881","name":" Chevron","address":" USA-(UT) West Jordan"},{"latitude":" 40.60568","longitude":"-111.87261","name":" Chevron","address":" USA-(UT) Sandy"},{"latitude":" 36.04181","longitude":"-115.18857","name":" Chevron","address":" USA-(NV) Las Vegas"},{"latitude":" 36.23985","longitude":"-115.16145","name":" Chevron","address":" USA-(NV) North Las Vegas"},{"latitude":" 41.71484","longitude":"-111.83443","name":" Chevron","address":" USA-(UT) Logan"},{"latitude":" 39.63829","longitude":"-119.71077","name":" Chevron","address":" USA-(NV) Sparks"},{"latitude":" 36.24086","longitude":"-115.24262","name":" Chevron","address":" USA-(NV) Las Vegas"},{"latitude":" 36.14499","longitude":"-115.04693","name":" Chevron","address":" USA-(NV) Las Vegas"},{"latitude":" 37.16116","longitude":"-113.43499","name":" Chevron","address":" USA-(UT) Hurricane"},{"latitude":" 40.32610","longitude":"-111.72523","name":" Chevron","address":" USA-(UT) Orem"},{"latitude":" 36.14374","longitude":"-115.22524","name":" Chevron","address":" USA-(NV) Las Vegas"},{"latitude":" 36.03505","longitude":"-114.99976","name":" Chevron","address":" USA-(NV) Henderson"},{"latitude":" 36.17400","longitude":"-115.27766","name":" Chevron","address":" USA-(NV) Las Vegas"},{"latitude":" 36.06352","longitude":"-115.03511","name":" Chevron","address":" USA-(NV) Henderson"},{"latitude":" 40.68183","longitude":"-111.96795","name":" Chevron","address":" USA-(UT) West Valley City"},{"latitude":" 36.21856","longitude":"-115.25191","name":" Chevron","address":" USA-(NV) Las Vegas"},{"latitude":" 40.61088","longitude":"-111.85384","name":" Chevron","address":" USA-(UT) Sandy"},{"latitude":" 40.65341","longitude":"-111.98221","name":" Chevron","address":" USA-(UT) Kearns"},{"latitude":" 36.04818","longitude":"-115.17181","name":" Chevron","address":" USA-(NV) Las Vegas"},{"latitude":" 36.15936","longitude":"-115.27831","name":" Chevron","address":" USA-(NV) Las Vegas"},{"latitude":" 38.78656","longitude":"-112.08394","name":" Chevron","address":" USA-(UT) Richfield"},{"latitude":" 40.60912","longitude":"-111.92967","name":" Chevron","address":" USA-(UT) West Jordan"},{"latitude":" 39.52101","longitude":"-119.81640","name":" Chevron","address":" USA-(NV) Reno"},{"latitude":" 40.58788","longitude":"-111.89129","name":" Chevron","address":" USA-(UT) Sandy"},{"latitude":" 36.14475","longitude":"-115.19033","name":" Chevron","address":" USA-(NV) Las Vegas"},{"latitude":" 39.54291","longitude":"-110.68884","name":" Chevron","address":" USA-(UT) Wellington"},{"latitude":" 39.53546","longitude":"-119.76405","name":" Chevron","address":" USA-(NV) Sparks"},{"latitude":" 35.99769","longitude":"-115.20695","name":" Chevron","address":" USA-(NV) Las Vegas"},{"latitude":" 36.15854","longitude":"-115.17246","name":" Chevron","address":" USA-(NV) Las Vegas"},{"latitude":" 39.25004","longitude":"-119.95314","name":" Chevron","address":" USA-(NV) Incline Village"},{"latitude":" 36.16830","longitude":"-115.14831","name":" Chevron","address":" USA-(NV) Las Vegas"},{"latitude":" 36.10064","longitude":"-115.18595","name":" Chevron","address":" USA-(NV) Las Vegas"},{"latitude":" 39.47642","longitude":"-118.79977","name":" Chevron","address":" USA-(NV) Fallon"},{"latitude":" 40.69626","longitude":"-112.04427","name":" Chevron","address":" USA-(UT) Salt Lake City"},{"latitude":" 36.00005","longitude":"-115.10513","name":" Chevron","address":" USA-(NV) Henderson"},{"latitude":" 36.08601","longitude":"-115.07349","name":" Chevron","address":" USA-(NV) Las Vegas"},{"latitude":" 36.06428","longitude":"-115.03680","name":" Chevron","address":" USA-(NV) Henderson"},{"latitude":" 39.55589","longitude":"-119.75309","name":" Chevron","address":" USA-(NV) Sparks"},{"latitude":" 36.27652","longitude":"-115.27933","name":" Chevron","address":" USA-(NV) Las Vegas"},{"latitude":" 35.61005","longitude":"-115.38873","name":" Chevron","address":" USA-(NV) Primm"},{"latitude":" 40.66801","longitude":"-111.95831","name":" Chevron","address":" USA-(UT) West Valley City"},{"latitude":" 40.68913","longitude":"-112.26591","name":" Chevron","address":" USA-(UT) Tooele"},{"latitude":" 39.51307","longitude":"-119.96583","name":" Chevron","address":" USA-(NV) Verdi"},{"latitude":" 36.07100","longitude":"-115.24209","name":" Chevron","address":" USA-(NV) Las Vegas"},{"latitude":" 36.00613","longitude":"-115.08367","name":" Chevron","address":" USA-(NV) Henderson"},{"latitude":" 36.04216","longitude":"-115.13579","name":" Chevron","address":" USA-(NV) Las Vegas"},{"latitude":" 39.49034","longitude":"-119.80763","name":" Chevron","address":" USA-(NV) Reno"},{"latitude":" 37.65660","longitude":"-113.08469","name":" Chevron","address":" USA-(UT) Cedar City"},{"latitude":" 40.62028","longitude":"-111.90023","name":" Chevron","address":" USA-(UT) Midvale"},{"latitude":" 36.07125","longitude":"-115.08675","name":" Chevron","address":" USA-(NV) Henderson"},{"latitude":" 39.25763","longitude":"-114.86036","name":" Chevron","address":" USA-(NV) Ely"},{"latitude":" 36.27224","longitude":"-115.26442","name":" Chevron","address":" USA-(NV) Las Vegas"},{"latitude":" 36.17360","longitude":"-115.11581","name":" Chevron","address":" USA-(NV) Las Vegas"},{"latitude":" 37.68284","longitude":"-113.06151","name":" Chevron","address":" USA-(UT) Cedar City"},{"latitude":" 35.99858","longitude":"-115.10470","name":" Chevron","address":" USA-(NV) Henderson"},{"latitude":" 38.76639","longitude":"-112.08452","name":" Chevron","address":" USA-(UT) Richfield"},{"latitude":" 38.95622","longitude":"-111.87133","name":" Chevron","address":" USA-(UT) Salina"},{"latitude":" 36.09331","longitude":"-115.20833","name":" Chevron","address":" USA-(NV) Las Vegas"},{"latitude":" 39.12510","longitude":"-119.77206","name":" Chevron","address":" USA-(NV) Carson City"},{"latitude":" 39.55702","longitude":"-119.79109","name":" Chevron","address":" USA-(NV) Reno"},{"latitude":" 36.11600","longitude":"-115.19906","name":" Chevron","address":" USA-(NV) Las Vegas"},{"latitude":" 37.10008","longitude":"-113.12646","name":" Chevron","address":" USA-(UT) Apple Valley"},{"latitude":" 40.64346","longitude":"-111.28058","name":" Chevron","address":" USA-(UT) Kamas"},{"latitude":" 40.68691","longitude":"-111.88245","name":" Chevron","address":" USA-(UT) Salt Lake City"},{"latitude":" 36.12274","longitude":"-115.32495","name":" Chevron","address":" USA-(NV) Las Vegas"},{"latitude":" 36.05879","longitude":"-114.96449","name":" Chevron","address":" USA-(NV) Henderson"},{"latitude":" 40.28308","longitude":"-110.01216","name":" Chevron","address":" USA-(UT) Roosevelt"},{"latitude":" 36.14388","longitude":"-115.13745","name":" Chevron","address":" USA-(NV) Las Vegas"},{"latitude":" 40.08632","longitude":"-111.59386","name":" Chevron","address":" USA-(UT) Spanish Fork"},{"latitude":" 36.12200","longitude":"-115.06465","name":" Chevron","address":" USA-(NV) Las Vegas"},{"latitude":" 40.65278","longitude":"-112.02512","name":" Chevron","address":" USA-(UT) Salt Lake City"},{"latitude":" 39.55601","longitude":"-119.71920","name":" Chevron","address":" USA-(NV) Sparks"},{"latitude":" 36.08601","longitude":"-115.18604","name":" Chevron","address":" USA-(NV) Las Vegas"},{"latitude":" 39.52692","longitude":"-119.82609","name":" Chevron","address":" USA-(NV) Reno"},{"latitude":" 40.64991","longitude":"-111.86628","name":" Chevron","address":" USA-(UT) Salt Lake City"},{"latitude":" 36.60785","longitude":"-114.48420","name":" Chevron","address":" USA-(NV) Logandale"},{"latitude":" 40.73056","longitude":"-111.98794","name":" Chevron","address":" USA-(UT) Salt Lake City"},{"latitude":" 36.07136","longitude":"-115.12810","name":" Chevron","address":" USA-(NV) Las Vegas"},{"latitude":" 35.99996","longitude":"-115.12320","name":" Chevron","address":" USA-(NV) Henderson"},{"latitude":" 39.52791","longitude":"-119.70135","name":" Chevron","address":" USA-(NV) Sparks"},{"latitude":" 40.23353","longitude":"-111.68773","name":" Chevron","address":" USA-(UT) Provo"},{"latitude":" 36.13738","longitude":"-115.06515","name":" Chevron","address":" USA-(NV) Las Vegas"},{"latitude":" 38.05401","longitude":"-117.21557","name":" Chevron","address":" USA-(NV) Tonopah"},{"latitude":" 40.29588","longitude":"-111.72454","name":" Chevron","address":" USA-(UT) Orem"},{"latitude":" 37.66174","longitude":"-113.07012","name":" Chevron","address":" USA-(UT) Cedar City"},{"latitude":" 41.82053","longitude":"-111.83287","name":" Chevron","address":" USA-(UT) Smithfield"},{"latitude":" 40.71087","longitude":"-111.88849","name":" Chevron","address":" USA-(UT) Salt Lake City"},{"latitude":" 40.70417","longitude":"-111.95846","name":" Chevron","address":" USA-(UT) West Valley City"},{"latitude":" 36.23843","longitude":"-115.20802","name":" Chevron","address":" USA-(NV) Las Vegas"},{"latitude":" 36.05647","longitude":"-115.11880","name":" Chevron","address":" USA-(NV) Las Vegas"},{"latitude":" 39.53674","longitude":"-119.73568","name":" Chevron","address":" USA-(NV) Sparks"},{"latitude":" 39.51336","longitude":"-119.85890","name":" Chevron","address":" USA-(NV) Reno"},{"latitude":" 40.18596","longitude":"-111.61239","name":" Chevron","address":" USA-(UT) Springville"},{"latitude":" 40.76470","longitude":"-111.87147","name":" Chevron","address":" USA-(UT) Salt Lake City"},{"latitude":" 37.17625","longitude":"-113.30008","name":" Chevron","address":" USA-(UT) Hurricane"},{"latitude":" 36.10041","longitude":"-115.29677","name":" Chevron","address":" USA-(NV) Las Vegas"},{"latitude":" 36.12594","longitude":"-115.20763","name":" Chevron","address":" USA-(NV) Las Vegas"},{"latitude":" 36.26260","longitude":"-115.24952","name":" Chevron","address":" USA-(NV) Las Vegas"},{"latitude":" 36.23915","longitude":"-115.14429","name":" Chevron","address":" USA-(NV) North Las Vegas"},{"latitude":" 40.27551","longitude":"-111.72701","name":" Chevron","address":" USA-(UT) Orem"},{"latitude":" 37.82253","longitude":"-112.43525","name":" Chevron","address":" USA-(UT) Panguitch"},{"latitude":" 40.91660","longitude":"-111.39899","name":" Chevron","address":" USA-(UT) Coalville"},{"latitude":" 36.15951","longitude":"-115.33269","name":" Chevron","address":" USA-(NV) Las Vegas"},{"latitude":" 36.15958","longitude":"-115.32229","name":" Chevron","address":" USA-(NV) Las Vegas"},{"latitude":" 36.07407","longitude":"-115.17345","name":" Chevron","address":" USA-(NV) Las Vegas"},{"latitude":" 36.17740","longitude":"-115.16127","name":" Chevron","address":" USA-(NV) Las Vegas"},{"latitude":" 36.09969","longitude":"-115.29786","name":" Chevron","address":" USA-(NV) Las Vegas"},{"latitude":" 36.16629","longitude":"-115.20637","name":" Chevron","address":" USA-(NV) Las Vegas"},{"latitude":" 36.04193","longitude":"-115.17076","name":" Chevron","address":" USA-(NV) Las Vegas"},{"latitude":" 39.17258","longitude":"-119.74996","name":" Chevron","address":" USA-(NV) Carson City"},{"latitude":" 36.16045","longitude":"-115.35169","name":" Chevron","address":" USA-(NV) Las Vegas"},{"latitude":" 36.07136","longitude":"-115.08282","name":" Chevron","address":" USA-(NV) Henderson"},{"latitude":" 37.17874","longitude":"-113.00733","name":" Chevron","address":" USA-(UT) Springdale"},{"latitude":" 36.17681","longitude":"-115.17484","name":" Chevron","address":" USA-(NV) Las Vegas"},{"latitude":" 40.67395","longitude":"-111.88776","name":" Chevron","address":" USA-(UT) Murray"},{"latitude":" 35.16155","longitude":"-114.57429","name":" Chevron","address":" USA-(NV) Laughlin"},{"latitude":" 36.19546","longitude":"-115.12884","name":" Chevron","address":" USA-(NV) Las Vegas"},{"latitude":" 40.72503","longitude":"-111.85443","name":" Chevron","address":" USA-(UT) Salt Lake City"},{"latitude":" 38.61305","longitude":"-112.60516","name":" Chevron","address":" USA-(UT) Cove Fort"},{"latitude":" 36.14402","longitude":"-115.26155","name":" Chevron","address":" USA-(NV) Las Vegas"},{"latitude":" 40.58743","longitude":"-111.98603","name":" Chevron","address":" USA-(UT) West Jordan"},{"latitude":" 40.69686","longitude":"-112.06273","name":" Chevron","address":" USA-(UT) West Valley City"},{"latitude":" 36.05653","longitude":"-115.17180","name":" Chevron","address":" USA-(NV) Las Vegas"},{"latitude":" 39.25708","longitude":"-114.86320","name":" Chevron","address":" USA-(NV) Ely"},{"latitude":" 40.69701","longitude":"-111.98623","name":" Chevron","address":" USA-(UT) West Valley City"},{"latitude":" 36.57839","longitude":"-115.66772","name":" Chevron","address":" USA-(NV) Indian Springs"},{"latitude":" 39.64209","longitude":"-119.88130","name":" Chevron","address":" USA-(NV) Reno"},{"latitude":" 40.69952","longitude":"-111.88243","name":" Chevron","address":" USA-(UT) Salt Lake City"},{"latitude":" 36.08582","longitude":"-115.11842","name":" Chevron","address":" USA-(NV) Las Vegas"},{"latitude":" 37.16204","longitude":"-113.38963","name":" Chevron","address":" USA-(UT) Hurricane"},{"latitude":" 40.84168","longitude":"-111.90600","name":" Chevron","address":" USA-(UT) Salt Lake City"},{"latitude":" 38.69655","longitude":"-119.54815","name":" Chevron","address":" USA-(NV) Gardnerville"},{"latitude":" 41.99525","longitude":"-117.71863","name":" Chevron","address":" USA-(NV) McDermitt"},{"latitude":" 36.21858","longitude":"-115.26000","name":" Chevron","address":" USA-(NV) Las Vegas"},{"latitude":" 35.60966","longitude":"-115.39168","name":" Chevron","address":" USA-(NV) Primm"},{"latitude":" 41.76635","longitude":"-111.83348","name":" Chevron","address":" USA-(UT) North Logan"},{"latitude":" 40.86486","longitude":"-111.89325","name":" Chevron","address":" USA-(UT) Bountiful"},{"latitude":" 40.75809","longitude":"-111.89437","name":" Chevron","address":" USA-(UT) Salt Lake City"},{"latitude":" 36.11456","longitude":"-115.27858","name":" Chevron","address":" USA-(NV) Las Vegas"},{"latitude":" 39.62442","longitude":"-119.88256","name":" Chevron","address":" USA-(NV) Reno"},{"latitude":" 36.17040","longitude":"-115.20639","name":" Chevron","address":" USA-(NV) Las Vegas"},{"latitude":" 36.21855","longitude":"-115.25191","name":" Chevron","address":" USA-(NV) Las Vegas"},{"latitude":" 40.70305","longitude":"-111.93941","name":" Chevron","address":" USA-(UT) West Valley City"}]