[{"latitude":" 41.92885","longitude":"-87.78565","name":" Chipotle","address":" USA-Chicago"},{"latitude":" 40.11052","longitude":"-88.23063","name":" Chipotle","address":" USA-Champaign"},{"latitude":" 41.90926","longitude":"-87.62852","name":" Chipotle","address":" USA-Chicago"},{"latitude":" 41.88070","longitude":"-87.63491","name":" Chipotle","address":" USA-Chicago"},{"latitude":" 41.87824","longitude":"-87.62708","name":" Chipotle","address":" USA-Chicago"},{"latitude":" 48.78494","longitude":"-122.48957","name":" Chipotle","address":" USA-Bellingham"},{"latitude":" 42.00271","longitude":"-87.66124","name":" Chipotle","address":" USA-Chicago"},{"latitude":" 42.26455","longitude":"-88.98030","name":" Chipotle","address":" USA-Rockford"},{"latitude":" 41.89168","longitude":"-87.62824","name":" Chipotle","address":" USA-Chicago"},{"latitude":" 42.10050","longitude":"-88.28737","name":" Chipotle","address":" USA-West Dundee"},{"latitude":" 40.49066","longitude":"-88.95322","name":" Chipotle","address":" USA-Bloomington"},{"latitude":" 42.02951","longitude":"-88.15349","name":" Chipotle","address":" USA-Schaumburg"},{"latitude":" 41.93285","longitude":"-87.64366","name":" Chipotle","address":" USA-Chicago"},{"latitude":" 41.68978","longitude":"-88.12581","name":" Chipotle","address":" USA-Naperville"},{"latitude":" 41.81553","longitude":"-87.86951","name":" Chipotle","address":" USA-Chicago"},{"latitude":" 41.93953","longitude":"-87.64436","name":" Chipotle","address":" USA-Chicago"},{"latitude":" 42.02452","longitude":"-88.33919","name":" Chipotle","address":" USA-Elgin"},{"latitude":" 41.93074","longitude":"-87.68568","name":" Chipotle","address":" USA-Chicago"},{"latitude":" 42.38435","longitude":"-87.95451","name":" Chipotle","address":" USA-Chicago"},{"latitude":" 41.60070","longitude":"-87.79426","name":" Chipotle","address":" USA-Orland Park"},{"latitude":" 42.34468","longitude":"-87.89501","name":" Chipotle","address":" USA-Chicago"},{"latitude":" 42.04042","longitude":"-88.03461","name":" Chipotle","address":" USA-Schaumburg"},{"latitude":" 42.17330","longitude":"-88.33523","name":" Chipotle","address":" USA-Chicago"},{"latitude":" 42.22617","longitude":"-88.29646","name":" Chipotle","address":" USA-Crystal Lake"},{"latitude":" 42.01189","longitude":"-87.76207","name":" Chipotle","address":" USA-Chicago"},{"latitude":" 41.88735","longitude":"-87.62503","name":" Chipotle","address":" USA-Chicago"},{"latitude":" 42.15314","longitude":"-87.92968","name":" Chipotle","address":" USA-Chicago"},{"latitude":" 42.18575","longitude":"-87.80281","name":" Chipotle","address":" USA-Chicago"},{"latitude":" 41.88862","longitude":"-87.80407","name":" Chipotle","address":" USA-Chicago"},{"latitude":" 41.88179","longitude":"-87.63237","name":" Chipotle","address":" USA-Chicago"},{"latitude":" 42.06254","longitude":"-87.74679","name":" Chipotle","address":" USA-Chicago"},{"latitude":" 41.76960","longitude":"-88.20761","name":" Chipotle","address":" USA-Naperville"},{"latitude":" 41.71964","longitude":"-87.77632","name":" Chipotle","address":" USA-Chicago"},{"latitude":" 41.85937","longitude":"-88.05760","name":" Chipotle","address":" USA-Wheaton"},{"latitude":" 41.90105","longitude":"-87.93993","name":" Chipotle","address":" USA-Chicago"},{"latitude":" 41.88571","longitude":"-87.63475","name":" Chipotle","address":" USA-Chicago"},{"latitude":" 42.11186","longitude":"-87.97911","name":" Chipotle","address":" USA-Chicago"},{"latitude":" 42.06910","longitude":"-88.20229","name":" Chipotle","address":" USA-Chicago"},{"latitude":" 39.76407","longitude":"-89.70570","name":" Chipotle","address":" USA-Springfield"},{"latitude":" 41.93106","longitude":"-88.77179","name":" Chipotle","address":" USA-DeKalb"},{"latitude":" 41.77150","longitude":"-88.14694","name":" Chipotle","address":" USA-Naperville"},{"latitude":" 42.16720","longitude":"-87.84506","name":" Chipotle","address":" USA-Chicago"},{"latitude":" 41.61357","longitude":"-87.85340","name":" Chipotle","address":" USA-Orland Park"},{"latitude":" 41.93901","longitude":"-88.11369","name":" Chipotle","address":" USA-Chicago"},{"latitude":" 47.66583","longitude":"-117.41074","name":" Chipotle","address":" USA-Spokane"},{"latitude":" 41.75846","longitude":"-87.94474","name":" Chipotle","address":" USA-Chicago"}]