[{"latitude":"34.4386417","longitude":"-85.7513756","name":"DUNHAM'S SPORTS-Fort Payne,AL","address":"101 Cracker Barrel Row SW [The Crossings at Ft Payne], Fort Payne,AL 35968, (256) 845-7755"},{"latitude":"34.6494211","longitude":"-86.0301147","name":"DUNHAM'S SPORTS-Scottsboro,AL","address":"23041 John T Reid Pkwy [Scottsboro Shopping Center], Scottsboro,AL 35768, (256) 259-0318"},{"latitude":"34.301843","longitude":"-85.176092","name":"DUNHAM'S SPORTS-Rome,GA","address":"2770 Martha Berry Blvd [Mount Berry Square Mall], Rome,GA 30165, (706) 378-1209"},{"latitude":"41.5570396","longitude":"-90.5593633","name":"DUNHAM'S SPORTS-Davenport,IA","address":"1010 East Kimberly Road, Davenport,IA 52807, (563) 445-1111"},{"latitude":"42.5011711","longitude":"-94.1630801","name":"DUNHAM'S SPORTS-Fort Dodge,IA","address":"217 South 25th Street [Crossroads Mall], Fort Dodge,IA 50501, (515) 576-7755"},{"latitude":"42.4757276","longitude":"-96.3323759","name":"DUNHAM'S SPORTS-Sioux City,IA","address":"5969 E Gordon Drive [Eastgate Shopping Center], Sioux City,IA 51106, (712) 274-8844"},{"latitude":"43.128315","longitude":"-95.157347","name":"DUNHAM'S SPORTS-Spencer,IA","address":"901 11Th Street Sw [Southpark Mall], Spencer,IA 51301, (712) 262-6222"},{"latitude":"40.1721257","longitude":"-87.6306398","name":"DUNHAM'S SPORTS-Danville,IL","address":"2917 N Vermillion St [Village Mall], Danville,IL 61832, (217) 709-0862"},{"latitude":"40.9707298","longitude":"-90.3849564","name":"DUNHAM'S SPORTS-Galesburg,IL","address":"1890 N Henderson St, Galesburg,IL 61401, (309) 343-1860"},{"latitude":"39.722969","longitude":"-90.2675061","name":"DUNHAM'S SPORTS-Jacksonville,IL","address":"1909 W Morton Ave [Pathway Plaza], Jacksonville,IL 62650, (217) 243-0046"},{"latitude":"38.3143409","longitude":"-88.9392135","name":"DUNHAM'S SPORTS-Mt Vernon,IL","address":"3917 Broadway, Mt Vernon,IL 62864, (618) 242-5872"},{"latitude":"40.5460686","longitude":"-89.6026587","name":"DUNHAM'S SPORTS-Pekin,IL","address":"3465 Court Street, Pekin,IL 61554, (309) 346-1515"},{"latitude":"40.7302657","longitude":"-89.6127799","name":"DUNHAM'S SPORTS-Peoria,IL","address":"3425 N University Ave [University Plaza], Peoria,IL 61604, (309) 685-6819"},{"latitude":"41.3528965","longitude":"-89.1266573","name":"DUNHAM'S SPORTS-Peru,IL","address":"1606 36th Street, Peru,IL 61354, (815) 220-1162"},{"latitude":"41.8059812","longitude":"-89.6619927","name":"DUNHAM'S SPORTS-Sterling,IL","address":"2900 E Lincolnway [Northland Mall], Sterling,IL 61081, (815) 564-0091"},{"latitude":"40.0992875","longitude":"-85.6526209","name":"DUNHAM'S SPORTS-Anderson,IN","address":"1716 Scatterfield, Anderson,IN 46016, (765) 649-7136"},{"latitude":"41.6553511","longitude":"-84.9995036","name":"DUNHAM'S SPORTS-Angola,IN","address":"2008 N Wayne [Angola Square], Angola,IN 46703, (260) 668-3500"},{"latitude":"41.3666183","longitude":"-85.0718811","name":"DUNHAM'S SPORTS-Auburn,IN","address":"1009 W 7Th Street [Auburn Plaza], Auburn,IN 46706, (260) 927-1095"},{"latitude":"38.8670466","longitude":"-86.5184176","name":"DUNHAM'S SPORTS-Bedford,IN","address":"1018 James Avenue [Town Fair Center], Bedford,IN 47421, (812) 275-5030"},{"latitude":"41.170448","longitude":"-85.500297","name":"DUNHAM'S SPORTS-Columbia City,IN","address":"496 W Plaza Dr, Columbia City,IN 46725, (260) 248-2068"},{"latitude":"39.223075","longitude":"-85.8974044","name":"DUNHAM'S SPORTS-Columbus,IN","address":"2394 25th Street [Fair Oaks Mall], Columbus,IN 47201, (812) 376-1093"},{"latitude":"40.0237656","longitude":"-86.8996429","name":"DUNHAM'S SPORTS-Crawfordsville,IN","address":"1602 Crafordsville Sq Dr [Crawfordsville Square], Crawfordsville,IN 47933, (765) 362-7739"},{"latitude":"41.1153104","longitude":"-85.146976","name":"DUNHAM'S SPORTS-Fort Wayne,IN","address":"4122 Lima Rd [Glenbrook Commons], Fort Wayne,IN 46805, (260) 471-4264"},{"latitude":"40.4429171","longitude":"-86.1248549","name":"DUNHAM'S SPORTS-Kokomo,IN","address":"3754 S Reed [Southway Plaza], Kokomo,IN 46902, (765) 453-0071"},{"latitude":"41.6006488","longitude":"-86.7370968","name":"DUNHAM'S SPORTS-Laporte,IN","address":"1448 W State Road 2 [Laporte Towne Square], Laporte,IN 46350, (219) 324-0243"},{"latitude":"40.7584817","longitude":"-86.3286695","name":"DUNHAM'S SPORTS-Logansport,IN","address":"3916 E Market Street [Logansport Mall], Logansport,IN 46947, (574) 722-3359"},{"latitude":"40.5468323","longitude":"-85.6739429","name":"DUNHAM'S SPORTS-Marion,IN","address":"1512 South Western Ave [MidTowne Crossing], Marion,IN 46953, (765) 674-2000"},{"latitude":"41.6810873","longitude":"-86.1929001","name":"DUNHAM'S SPORTS-Mishawaka,IN","address":"2572 Miracle Lane [Mckinley Town & Cntry Ctr], Mishawaka,IN 46545, (574) 255-6600"},{"latitude":"39.829645","longitude":"-84.839017","name":"DUNHAM'S SPORTS-Richmond,IN","address":"4651 National Road East [Eastern Gateway Center], Richmond,IN 47374, (765) 965-9966"},{"latitude":"38.6885355","longitude":"-87.5025798","name":"DUNHAM'S SPORTS-Vincennes,IN","address":"618 Niblack Blvd [Vincennes Plaza], Vincennes,IN 47591, (812) 886-9169"},{"latitude":"40.8144624","longitude":"-85.8373184","name":"DUNHAM'S SPORTS-Wabash,IN","address":"1483 N Cass Street [Wabash Crossing SC], Wabash,IN 46992, (260) 569-1600"},{"latitude":"41.236552","longitude":"-85.818199","name":"DUNHAM'S SPORTS-Warsaw,IN","address":"2806 Frontage Road [The Marketplace], Warsaw,IN 46580, (574) 268-9715"},{"latitude":"38.9849686","longitude":"-84.4018932","name":"DUNHAM'S SPORTS-Alexandria,KY","address":"6905 Alexandria Pike [Alexandria Village Green], Alexandria,KY 41001, (859) 448-0758"},{"latitude":"38.4997825","longitude":"-82.6764462","name":"DUNHAM'S SPORTS-Ashland,KY","address":"256 Russell Road [Russell Plaza], Ashland,KY 41101, (606) 329-0300"},{"latitude":"36.9503148","longitude":"-86.4251127","name":"DUNHAM'S SPORTS-Bowling Green,KY","address":"2625 Scottsville Road [Greenwood Mall], Bowling Green,KY 42104, (270) 901-1825"},{"latitude":"38.6270539","longitude":"-83.7919367","name":"DUNHAM'S SPORTS-Maysville,KY","address":"425 Market Square Drive, Maysville,KY 41056, (606) 759-8512"},{"latitude":"37.7337517","longitude":"-84.2740907","name":"DUNHAM'S SPORTS-Richmond,KY","address":"833 Eastern Bypass [Carriage Gate Shopping Center], Richmond,KY 40475, (859) 624-0265"},{"latitude":"37.054637","longitude":"-84.6270019","name":"DUNHAM'S SPORTS-Somerset,KY","address":"2835 S Highway 27, Somerset,KY 42501, (606) 677-1123"},{"latitude":"41.8791211","longitude":"-84.0431524","name":"DUNHAM'S SPORTS-Adrian,MI","address":"1357 S Main St [Adrian Mall], Adrian,MI 49221, (517) 265-6339"},{"latitude":"42.2775166","longitude":"-83.214671","name":"DUNHAM'S SPORTS-Allen Park,MI","address":"23150 W Outer Drive [Allen Born SC], Allen Park,MI 48101, (313) 278-2496"},{"latitude":"45.0396363","longitude":"-83.4625065","name":"DUNHAM'S SPORTS-Alpena,MI","address":"2398 Us 23 South [Alpena Mall], Alpena,MI 49707, (989) 354-3383"},{"latitude":"42.2826868","longitude":"-83.780433","name":"DUNHAM'S SPORTS-Ann Arbor,MI","address":"217 North Maple Road [Maple Village Center], Ann Arbor,MI 48103, (734) 663-0770"},{"latitude":"43.8208913","longitude":"-83.0010026","name":"DUNHAM'S SPORTS-Bad Axe,MI","address":"850 N Van Dyke, Bad Axe,MI 48413, (989) 269-6091"},{"latitude":"42.2610563","longitude":"-85.182696","name":"DUNHAM'S SPORTS-Battle Creek,MI","address":"5775 Beckley Road 341 [Lakeview Square Mall], Battle Creek,MI 49015, (269) 979-4949"},{"latitude":"43.6238243","longitude":"-83.8943151","name":"DUNHAM'S SPORTS-Bay City,MI","address":"4101 Wilder Rd [Bay City Mall], Bay City,MI 48706, (989) 667-4100"},{"latitude":"42.215345","longitude":"-83.541865","name":"DUNHAM'S SPORTS-Belleville,MI","address":"2035 Rawsonville Road [Lakewood Shopping Center], Belleville,MI 48111, (734) 480-1101"},{"latitude":"42.0870843","longitude":"-86.4343565","name":"DUNHAM'S SPORTS-Benton Harbor,MI","address":"1000 Napier [Fairplain Plaza], Benton Harbor,MI 49022, (269) 927-9969"},{"latitude":"43.0186864","longitude":"-83.6282693","name":"DUNHAM'S SPORTS-Burton,MI","address":"G4190 E Court St [Courtland Center], Burton,MI 48509, (810) 742-7100"},{"latitude":"44.2803712","longitude":"-85.4066538","name":"DUNHAM'S SPORTS-Cadillac,MI","address":"2200 N Mitchell, Cadillac,MI 49601, (231) 775-0700"},{"latitude":"42.3227457","longitude":"-83.4553084","name":"DUNHAM'S SPORTS-Canton,MI","address":"41968 Ford Road [Willow Creek], Canton,MI 48187, (734) 981-7265"},{"latitude":"42.5841785","longitude":"-84.8046373","name":"DUNHAM'S SPORTS-Charlotte,MI","address":"1658 Lansing Rd [Charlotte Retail Center], Charlotte,MI 48813, (517) 541-0701"},{"latitude":"45.6280313","longitude":"-84.478442","name":"DUNHAM'S SPORTS-Cheboygan,MI","address":"1008 South Main, Cheboygan,MI 49721, (231) 627-1000"},{"latitude":"42.6759987","longitude":"-82.8290939","name":"DUNHAM'S SPORTS-Chesterfield Township,MI","address":"51328 Gratiot [Chesterfield Village Sq], Chesterfield Township,MI 48051, (586) 598-4625"},{"latitude":"41.9370436","longitude":"-84.9785797","name":"DUNHAM'S SPORTS-Coldwater,MI","address":"573 E Chicago Street, Coldwater,MI 49036, (517) 278-8441"},{"latitude":"42.326435","longitude":"-83.3001125","name":"DUNHAM'S SPORTS-Dearborn Heights,MI","address":"26312 Ford Road [The Heights Shopping Ctr], Dearborn Heights,MI 48127, (313) 565-4498"},{"latitude":"45.7479742","longitude":"-87.0799062","name":"DUNHAM'S SPORTS-Escanaba,MI","address":"301 N Lincoln Road [Delta Plaza], Escanaba,MI 49829, (906) 789-4007"},{"latitude":"42.4504341","longitude":"-83.3418003","name":"DUNHAM'S SPORTS-Farmington Hills,MI","address":"30100 Grand River [West River Center], Farmington Hills,MI 48336, (248) 442-0770"},{"latitude":"42.7963633","longitude":"-83.7366167","name":"DUNHAM'S SPORTS-Fenton,MI","address":"17375 Silver Parkway [Silver Pointe Shop Cent], Fenton,MI 48430, (810) 593-1001"},{"latitude":"42.9928979","longitude":"-83.7317033","name":"DUNHAM'S SPORTS-Flint,MI","address":"G3590 Miller Road, Flint,MI 48507, (810) 230-9107"},{"latitude":"43.0363994","longitude":"-82.45368","name":"DUNHAM'S SPORTS-Fort Gratiot,MI","address":"4350 24Th Avenue [Birchwood Mall], Fort Gratiot,MI 48059, (810) 385-3939"},{"latitude":"43.4672073","longitude":"-85.9689058","name":"DUNHAM'S SPORTS-Fremont,MI","address":"1413 W Main Street [Fremont Shopping Center], Fremont,MI 49412, (231) 924-2912"},{"latitude":"45.0274274","longitude":"-84.6968103","name":"DUNHAM'S SPORTS-Gaylord,MI","address":"1401 DW Main St [Pine Ridge Square], Gaylord,MI 49735, (989) 732-9607"},{"latitude":"42.9125749","longitude":"-85.5794788","name":"DUNHAM'S SPORTS-Grand Rapids,MI","address":"3555 28th Street [The Shops at Centerpointe], Grand Rapids,MI 49512, (616) 977-0799"},{"latitude":"43.0403103","longitude":"-85.6086998","name":"DUNHAM'S SPORTS-Grand Rapids,MI","address":"4311A Plainfield Ave Ne, Grand Rapids,MI 49525, (616) 365-9612"},{"latitude":"42.8154558","longitude":"-86.0874113","name":"DUNHAM'S SPORTS-Holland,MI","address":"12331 James Street [Westshore Mall], Holland,MI 49424, (616) 396-6059"},{"latitude":"47.1040937","longitude":"-88.595244","name":"DUNHAM'S SPORTS-Houghton,MI","address":"47420 N M26 [Copper Country Mall], Houghton,MI 49931, (906) 482-6300"},{"latitude":"44.2985673","longitude":"-84.7078617","name":"DUNHAM'S SPORTS-Houghton Lake,MI","address":"3451D West Houghton Lake Dr, Houghton Lake,MI 48629, (989) 366-0504"},{"latitude":"42.5885726","longitude":"-83.8792759","name":"DUNHAM'S SPORTS-Howell,MI","address":"3591 E Grand River, Howell,MI 48843, (517) 548-9600"},{"latitude":"45.8087676","longitude":"-88.0430915","name":"DUNHAM'S SPORTS-Iron Mountain,MI","address":"1856 S Stephenson [Iron Mountain Plaza], Iron Mountain,MI 49801, (906) 774-6800"},{"latitude":"46.4632852","longitude":"-90.1450337","name":"DUNHAM'S SPORTS-Ironwood,MI","address":"1450 E Cloverland Dr, Ironwood,MI 49938, (906) 932-0990"},{"latitude":"42.2595447","longitude":"-84.42346","name":"DUNHAM'S SPORTS-Jackson,MI","address":"930 North West Avenue [Argyle Acres], Jackson,MI 49202, (517) 789-8300"},{"latitude":"42.2961893","longitude":"-85.653844","name":"DUNHAM'S SPORTS-Kalamazoo,MI","address":"5474 W Main Street , Kalamazoo,MI 49009, (269) 381-4523"},{"latitude":"42.7625462","longitude":"-83.2411417","name":"DUNHAM'S SPORTS-Lake Orion,MI","address":"1279 S Lapeer Road [Lake Orion Shopping Ctr], Lake Orion,MI 48360, (248) 814-1146"},{"latitude":"42.7353809","longitude":"-84.502896","name":"DUNHAM'S SPORTS-Lansing,MI","address":"3301 East Michigan [Frandor Plus], Lansing,MI 48912, (517) 337-3827"},{"latitude":"42.7410427","longitude":"-84.6228045","name":"DUNHAM'S SPORTS-Lansing,MI","address":"5184 W Saginaw Highway [Lansing Mall], Lansing,MI 48917, (517) 321-2435"},{"latitude":"43.0501645","longitude":"-83.3427213","name":"DUNHAM'S SPORTS-Lapeer,MI","address":"1935 West Genesee St, Lapeer,MI 48446, (810) 664-7200"},{"latitude":"42.3690692","longitude":"-83.3399833","name":"DUNHAM'S SPORTS-Livonia,MI","address":"30070 Plymouth Road [Livonia Plaza], Livonia,MI 48150, (734) 793-1069"},{"latitude":"43.9555599","longitude":"-86.3947378","name":"DUNHAM'S SPORTS-Ludington,MI","address":"4532 West US 10, Ludington,MI 49431, (231) 845-9911"},{"latitude":"42.5273026","longitude":"-83.1067721","name":"DUNHAM'S SPORTS-Madison Heights,MI","address":"32101 John R [Madison Place Shopping], Madison Heights,MI 48071, (248) 658-1382"},{"latitude":"44.2288557","longitude":"-86.3116512","name":"DUNHAM'S SPORTS-Manistee,MI","address":"1383 Manistee Hwy Us 31 S [The Plaza At Manistee], Manistee,MI 49660, (231) 398-3440"},{"latitude":"43.6590517","longitude":"-84.2471505","name":"DUNHAM'S SPORTS-Midland,MI","address":"6800 Eastman Ave [Midland Mall], Midland,MI 48642, (989) 832-7877"},{"latitude":"41.945885","longitude":"-83.4022586","name":"DUNHAM'S SPORTS-Monroe,MI","address":"2149 N Telegraph Road [Monroe Centre], Monroe,MI 48162, (734) 241-5599"},{"latitude":"43.6210226","longitude":"-84.7678877","name":"DUNHAM'S SPORTS-Mt Pleasant,MI","address":"2129 S Mission Rd [Mt Pleasant Shopping Ctr], Mt Pleasant,MI 48858, (989) 772-5464"},{"latitude":"43.158919","longitude":"-86.2057525","name":"DUNHAM'S SPORTS-Norton Shores,MI","address":"5141 Harvey Street [Lakeshore Marketplace], Norton Shores,MI 49444, (231) 798-8255"},{"latitude":"42.9977804","longitude":"-84.1459996","name":"DUNHAM'S SPORTS-Owosso,MI","address":"1435 East Main [East Shopping Center], Owosso,MI 48867, (989) 725-8944"},{"latitude":"45.3678528","longitude":"-84.970909","name":"DUNHAM'S SPORTS-Petoskey,MI","address":"910 Spring Street 14 [Bay Mall], Petoskey,MI 49770, (231) 347-9779"},{"latitude":"42.2246278","longitude":"-85.5961668","name":"DUNHAM'S SPORTS-Portage,MI","address":"665 Mall Drive [Crossroads Centre Ii], Portage,MI 49024, (269) 323-1800"},{"latitude":"42.6502924","longitude":"-83.1323306","name":"DUNHAM'S SPORTS-Rochester Hills,MI","address":"2155 S Rochester Road [Hampton Plaza], Rochester Hills,MI 48307, (248) 852-9500"},{"latitude":"42.536601","longitude":"-82.9107875","name":"DUNHAM'S SPORTS-Roseville,MI","address":"32470 Gratiot Ave, Roseville,MI 48066, (586) 294-7450"},{"latitude":"43.4714383","longitude":"-83.9754709","name":"DUNHAM'S SPORTS-Saginaw,MI","address":"4358 Bay Road [Unit 13], Saginaw,MI 48603, (989) 799-9119"},{"latitude":"46.4767835","longitude":"-84.3545866","name":"DUNHAM'S SPORTS-Sault Ste Marie,MI","address":"4338 I 75 Business Spur [Cascade Crossing], Sault Ste Marie,MI 49783, (906) 253-2067"},{"latitude":"42.402149","longitude":"-86.256462","name":"DUNHAM'S SPORTS-South Haven,MI","address":"1220 Phoenix St [South Haven Shopping Ctr], South Haven,MI 49090, (269) 637-2700"},{"latitude":"42.199338","longitude":"-83.1870936","name":"DUNHAM'S SPORTS-Southgate,MI","address":"13311 Eureka Road [Southgate Commons], Southgate,MI 48195, (734) 283-1953"},{"latitude":"42.9881305","longitude":"-84.5424504","name":"DUNHAM'S SPORTS-St Johns,MI","address":"1945 S Scott Rd [Townsend Centre], St Johns,MI 48879, (989) 224-8100"},{"latitude":"42.626452","longitude":"-83.0048088","name":"DUNHAM'S SPORTS-Sterling Heights,MI","address":"11950 Hall Road [Delco Plaza], Sterling Heights,MI 48313, (586) 997-1600"},{"latitude":"41.8249359","longitude":"-85.4470215","name":"DUNHAM'S SPORTS-Sturgis,MI","address":"69060 M66, Sturgis,MI 49091, (269) 651-2731"},{"latitude":"42.223222","longitude":"-83.270038","name":"DUNHAM'S SPORTS-Taylor,MI","address":"11500 Telegraph [Tel Goddard Center], Taylor,MI 48180, (734) 759-1012"},{"latitude":"41.9327087","longitude":"-85.6401062","name":"DUNHAM'S SPORTS-Three Rivers,MI","address":"1320 W Broadway Road [Three Rivers Plaza], Three Rivers,MI 49093, (269) 273-7646"},{"latitude":"44.7548192","longitude":"-85.5725131","name":"DUNHAM'S SPORTS-Traverse City,MI","address":"736 Munson Avenue [East Bay Plaza], Traverse City,MI 49686, (231) 935-1414"},{"latitude":"42.5452579","longitude":"-83.1863394","name":"DUNHAM'S SPORTS-Troy,MI","address":"1285 N Coolidge Hwy [Midtown Square], Troy,MI 48084, (248) 614-3952"},{"latitude":"42.4871993","longitude":"-83.0064619","name":"DUNHAM'S SPORTS-Warren,MI","address":"26285 Hoover Road, Warren,MI 48089, (586) 574-9520"},{"latitude":"42.6921868","longitude":"-83.3887785","name":"DUNHAM'S SPORTS-Waterford,MI","address":"5000 Dixie Highway, Waterford,MI 48329, (248) 674-4975"},{"latitude":"42.5307198","longitude":"-83.360128","name":"DUNHAM'S SPORTS-West Bloomfield,MI","address":"7320 Orchard Lake Road [Gateway Center], West Bloomfield,MI 48322, (248) 626-9595"},{"latitude":"42.2497619","longitude":"-83.6556982","name":"DUNHAM'S SPORTS-Ypsilanti,MI","address":"2850 Washtenaw Ave 1C [Washtenaw Fountain Plaza], Ypsilanti,MI 48197, (734) 434-8500"},{"latitude":"43.6803251","longitude":"-93.3588766","name":"DUNHAM'S SPORTS-Albert Lea,MN","address":"2500 N Bridge Avenue [Northbridge Mall], Albert Lea,MN 56007, (507) 369-1444"},{"latitude":"45.8614693","longitude":"-95.3801804","name":"DUNHAM'S SPORTS-Alexandria,MN","address":"3015 Highway 29 South [Viking Plaza], Alexandria,MN 56308, (320) 763-5005"},{"latitude":"46.356884","longitude":"-94.2253342","name":"DUNHAM'S SPORTS-Baxter,MN","address":"14136 Baxter Drive [Westgate Mall], Baxter,MN 56425, (218) 829-2367"},{"latitude":"46.8079196","longitude":"-92.1692224","name":"DUNHAM'S SPORTS-Duluth,MN","address":"5115 Burning Tree Rd [Burning Tree Plaza], Duluth,MN 55811, (218) 727-3099"},{"latitude":"43.6498587","longitude":"-94.4474493","name":"DUNHAM'S SPORTS-Fairmont,MN","address":"400 S State Street [Five Lakes Center], Fairmont,MN 56031, (507) 238-9990"},{"latitude":"46.2878533","longitude":"-96.109626","name":"DUNHAM'S SPORTS-Fergus Falls,MN","address":"2001 West Lincoln Avenue [Westridge Mall], Fergus Falls,MN 56537, (218) 739-5708"},{"latitude":"44.8589592","longitude":"-94.3755722","name":"DUNHAM'S SPORTS-Hutchinson,MN","address":"1060 Highway 15 South [Hutchinson Mall], Hutchinson,MN 55350, (320) 587-7744"},{"latitude":"44.5682392","longitude":"-92.5849827","name":"DUNHAM'S SPORTS-Red Wing,MN","address":"140 Tyler Road North [Red Wing Mall], Red Wing,MN 55066, (651) 388-1402"},{"latitude":"47.5119316","longitude":"-92.5519068","name":"DUNHAM'S SPORTS-Virginia,MN","address":"1444 S 12Th Avenue [Thunderbird Mall], Virginia,MN 55792, (218) 749-3810"},{"latitude":"45.5497292","longitude":"-94.2199165","name":"DUNHAM'S SPORTS-Waite Park,MN","address":"400 Second Street South [Quad Shopping Cnt], Waite Park,MN 56387, (320) 251-2511"},{"latitude":"45.1067177","longitude":"-95.0426909","name":"DUNHAM'S SPORTS-Willmar,MN","address":"1605 S First Street [Kandi Mall], Willmar,MN 56201, (320) 235-1666"},{"latitude":"39.724583","longitude":"-91.3955929","name":"DUNHAM'S SPORTS-Hannibal,MO","address":"521 Huck Finn Shopping Center [Huck Finn Shopping Center], Hannibal,MO 63401, (573) 406-1502"},{"latitude":"36.7635135","longitude":"-90.4116111","name":"DUNHAM'S SPORTS-Poplar Bluff,MO","address":"763 N Westwood Blvd [Valley Plaza], Poplar Bluff,MO 63901, (573) 727-9121"},{"latitude":"35.33461","longitude":"-82.4452209","name":"DUNHAM'S SPORTS-Hendersonville,NC","address":"1800 Four Seasons Blvd [Blue Ridge Mall], Hendersonville,NC 28792, (828) 698-7730"},{"latitude":"35.9260467","longitude":"-81.526429","name":"DUNHAM'S SPORTS-Lenoir,NC","address":"847 Blowing Rock Blvd NW [North Hills Plaza Shopping Center], Lenoir,NC 28645, (828) 754-3882"},{"latitude":"35.269515","longitude":"-81.482742","name":"DUNHAM'S SPORTS-Shelby,NC","address":"2001 53 E Dixon Blvd [Cleveland Mall], Shelby,NC 28152, (704) 482-4298"},{"latitude":"36.1484299","longitude":"-81.1981888","name":"DUNHAM'S SPORTS-Wilkesboro,NC","address":"1909 W US Highway 421, Wilkesboro,NC 28697, (336) 667-2240"},{"latitude":"40.6153802","longitude":"-98.3829828","name":"DUNHAM'S SPORTS-Hastings,NE","address":"3000 Tom Osborne Parkway East, Hastings,NE 68901, (402) 462-8847"},{"latitude":"41.8713417","longitude":"-103.6504669","name":"DUNHAM'S SPORTS-Scottsbluff,NE","address":"2410 Frontage Road #64A [Monument Mall], Scottsbluff,NE 69361, (308) 220-0071"},{"latitude":"40.89844","longitude":"-81.155707","name":"DUNHAM'S SPORTS-Alliance,OH","address":"2500 West State Street [Carnation Mall], Alliance,OH 44601, (330) 829-0740"},{"latitude":"41.879306","longitude":"-80.757098","name":"DUNHAM'S SPORTS-Ashtabula,OH","address":"3315 N Ridge East 230 [Ashtabula Mall], Ashtabula,OH 44004, (440) 998-4200"},{"latitude":"39.3368964","longitude":"-82.0678196","name":"DUNHAM'S SPORTS-Athens,OH","address":"1006 East State Street [University Mall], Athens,OH 45701, (740) 592-1032"},{"latitude":"40.33239","longitude":"-83.7615025","name":"DUNHAM'S SPORTS-Bellefontaine,OH","address":"2061 S Main Street [Highpoint Village], Bellefontaine,OH 43311, (937) 592-3888"},{"latitude":"41.398138","longitude":"-83.647104","name":"DUNHAM'S SPORTS-Bowling Green,OH","address":"1234 N Main Street [Woodland Towne Center], Bowling Green,OH 43402, (419) 353-0470"},{"latitude":"40.5587082","longitude":"-84.5395432","name":"DUNHAM'S SPORTS-Celina,OH","address":"1951 Havemann Road [Lakewood Village Center], Celina,OH 45822, (419) 268-0021"},{"latitude":"39.3459216","longitude":"-82.9776773","name":"DUNHAM'S SPORTS-Chillicothe,OH","address":"110 Consumer Center Dr [Shawnee Square], Chillicothe,OH 45601, (740) 779-2330"},{"latitude":"41.3028946","longitude":"-84.3628006","name":"DUNHAM'S SPORTS-Defiance,OH","address":"1500 N Clinton St [Northtowne Mall], Defiance,OH 43512, (419) 784-9844"},{"latitude":"40.6731597","longitude":"-80.5779496","name":"DUNHAM'S SPORTS-East Liverpool,OH","address":"15765 St [Rte 170] [St Clair Plaza], East Liverpool,OH 43920, (330) 385-6154"},{"latitude":"41.398195","longitude":"-82.1106248","name":"DUNHAM'S SPORTS-Elyria,OH","address":"4377 Midway Mall  [Midway Mall], Elyria,OH 44035, (440) 324-6642"},{"latitude":"41.054932","longitude":"-83.614605","name":"DUNHAM'S SPORTS-Findlay,OH","address":"1800 Tiffin Avenue [Findlay Village Mall], Findlay,OH 45839, (419) 421-0554"},{"latitude":"39.2516888","longitude":"-84.7926997","name":"DUNHAM'S SPORTS-Harrison,OH","address":"10515 B Harrison Ave [Harrison Center], Harrison,OH 45030, (513) 202-0502"},{"latitude":"40.0370561","longitude":"-82.4306357","name":"DUNHAM'S SPORTS-Heath,OH","address":"571 Hebron Road [Southgate Shopping Center], Heath,OH 43056, (740) 522-1490"},{"latitude":"40.7617389","longitude":"-84.1468144","name":"DUNHAM'S SPORTS-Lima,OH","address":"2290 Elida Road [Lima Plaza], Lima,OH 45805, (419) 223-0002"},{"latitude":"40.581008","longitude":"-83.0943681","name":"DUNHAM'S SPORTS-Marion,OH","address":"1296 Mt Vernon Ave [#28] [Marion Plaza], Marion,OH 43302, (740) 389-4554"},{"latitude":"40.2394638","longitude":"-83.3400269","name":"DUNHAM'S SPORTS-Marysville,OH","address":"15715 Us Route 36, Marysville,OH 43040, (937) 578-0253"},{"latitude":"40.798168","longitude":"-81.4903003","name":"DUNHAM'S SPORTS-Massillon,OH","address":"2366 Lincoln Way East [Massillon Commons], Massillon,OH 44646, (330) 830-1176"},{"latitude":"40.4783","longitude":"-81.437819","name":"DUNHAM'S SPORTS-New Philadelphia,OH","address":"400 Mill Ave Se [Newtowne Mall], New Philadelphia,OH 44663, (330) 339-7999"},{"latitude":"40.778262","longitude":"-82.5903346","name":"DUNHAM'S SPORTS-Ontario,OH","address":"939 N Lexington Springmill Rd [Village Square Shopping Center], Ontario,OH 44906, (419) 529-9690"},{"latitude":"40.1479149","longitude":"-84.2227478","name":"DUNHAM'S SPORTS-Piqua,OH","address":"987 E Ash St [Miami Valley Shopping Ctr], Piqua,OH 45356, (937) 778-1362"},{"latitude":"41.405704","longitude":"-82.657743","name":"DUNHAM'S SPORTS-Sandusky,OH","address":"5500 Milan Road [Park Place], Sandusky,OH 44870, (419) 625-6500"},{"latitude":"39.9489538","longitude":"-83.8509741","name":"DUNHAM'S SPORTS-Springfield,OH","address":"1600 Upper Valley Pike [Springfield Plaza], Springfield,OH 45504, (937) 325-3205"},{"latitude":"41.0505676","longitude":"-81.7314835","name":"DUNHAM'S SPORTS-Wadsworth,OH","address":"180 Great Oaks Trail [Wadsworth Plaza], Wadsworth,OH 44281, (330) 334-3257"},{"latitude":"40.8476297","longitude":"-81.9451986","name":"DUNHAM'S SPORTS-Wooster,OH","address":"3934 Burbank Rd, Wooster,OH 44691, (330) 345-1367"},{"latitude":"39.9872963","longitude":"-82.0224154","name":"DUNHAM'S SPORTS-Zanesville,OH","address":"3575 Maple Avenue [Colony Square Mall], Zanesville,OH 43701, (740) 588-9100"},{"latitude":"35.3874245","longitude":"-96.9285736","name":"DUNHAM'S SPORTS-Shawnee,OK","address":"4901 N Kickapoo St [Shawnee Mall], Shawnee,OK 74804, (405) 214-0476"},{"latitude":"40.7742432","longitude":"-80.3764373","name":"DUNHAM'S SPORTS-Beaver Falls,PA","address":"2556 Constitution Blvd [Chippewa Center], Beaver Falls,PA 15010, (724) 843-5705"},{"latitude":"40.367417","longitude":"-80.109","name":"DUNHAM'S SPORTS-Bridgeville,PA","address":"1025 Washington Pike [Chartiers Valley], Bridgeville,PA 15017, (412) 257-9100"},{"latitude":"40.8747057","longitude":"-79.9519372","name":"DUNHAM'S SPORTS-Butler,PA","address":"602 Moraine Pointe Plaza [Temporarily Closed for Relocation], Butler,PA 16001, (724) 287-7899"},{"latitude":"41.35331","longitude":"-79.716386","name":"DUNHAM'S SPORTS-Cranberry,PA","address":"6945 Us Route 322 [Cranberry Mall], Cranberry,PA 16319, (814) 676-5705"},{"latitude":"40.637904","longitude":"-79.942167","name":"DUNHAM'S SPORTS-Gibsonia,PA","address":"200 Northtowne Square [Northtowne Square Plaza], Gibsonia,PA 15044, (724) 444-0100"},{"latitude":"41.2333945","longitude":"-80.4679147","name":"DUNHAM'S SPORTS-Hermitage,PA","address":"2267 E State St [Hermitage Towne Plaza], Hermitage,PA 16148, (724) 346-6182"},{"latitude":"41.623408","longitude":"-80.1609714","name":"DUNHAM'S SPORTS-Meadville,PA","address":"18977 Park Avenue Plaza [Park Avenue Plaza], Meadville,PA 16335, (814) 333-8141"},{"latitude":"40.434132","longitude":"-79.789543","name":"DUNHAM'S SPORTS-Monroeville,PA","address":"3700 William Penn Highway, Monroeville,PA 15146, (412) 856-5078"},{"latitude":"40.6462055","longitude":"-79.7101745","name":"DUNHAM'S SPORTS-Natrona Heights,PA","address":"40 Highlands Mall  [Highlands Mall], Natrona Heights,PA 15065, (724) 230-0102"},{"latitude":"41.0117993","longitude":"-80.393079","name":"DUNHAM'S SPORTS-New Castle,PA","address":"2522 A West State St [Union Plaza], New Castle,PA 16101, (724) 657-8833"},{"latitude":"40.3706114","longitude":"-79.7862441","name":"DUNHAM'S SPORTS-North Versailles,PA","address":"1701 Lincoln Hwy [Pittsburgh Plaza East], North Versailles,PA 15137, (412) 829-8066"},{"latitude":"40.5510223","longitude":"-80.0194283","name":"DUNHAM'S SPORTS-Pittsburgh,PA","address":"8070 Mcknight Rd [Mcintyre Square], Pittsburgh,PA 15237, (412) 364-0315"},{"latitude":"40.5085872","longitude":"-79.851817","name":"DUNHAM'S SPORTS-Pittsburgh,PA","address":"972 Freeport Rd [Waterworks Center], Pittsburgh,PA 15238, (412) 784-0700"},{"latitude":"39.907345","longitude":"-79.7442536","name":"DUNHAM'S SPORTS-Uniontown,PA","address":"1700 Mall Run Road [Uniontown Mall], Uniontown,PA 15401, (724) 438-7200"},{"latitude":"40.3461501","longitude":"-79.943931","name":"DUNHAM'S SPORTS-West Mifflin,PA","address":"2315 Mountain View Dr  [Century Square Plaza], West Mifflin,PA 15122, (412) 655-0499"},{"latitude":"45.4591747","longitude":"-98.4424742","name":"DUNHAM'S SPORTS-Aberdeen,SD","address":"3315 6th Avenue [Lakewood Mall], Aberdeen,SD 57401, (605) 229-3023"},{"latitude":"44.3114965","longitude":"-96.7761685","name":"DUNHAM'S SPORTS-Brookings,SD","address":"1721 Sixth Street [Village Square], Brookings,SD 57006, (605) 697-5520"},{"latitude":"44.8901781","longitude":"-97.1358102","name":"DUNHAM'S SPORTS-Watertown,SD","address":"1300 9Th Ave SE [Watertown Mall], Watertown,SD 57201, (605) 882-3478"},{"latitude":"42.8907493","longitude":"-97.3972421","name":"DUNHAM'S SPORTS-Yankton,SD","address":"2101 Broadway [Yankton Mall], Yankton,SD 57078, (605) 665-0100"},{"latitude":"35.4553163","longitude":"-84.628279","name":"DUNHAM'S SPORTS-Athens,TN","address":"1866 Decatur Pike [Congress Crossing], Athens,TN 37303, (423) 649-0336"},{"latitude":"35.2042253","longitude":"-84.8491703","name":"DUNHAM'S SPORTS-Cleveland,TN","address":"200 Sgt Paul Huff Pkwy [Bradley Square Mall], Cleveland,TN 37312, (423) 339-9857"},{"latitude":"35.594944","longitude":"-87.0523148","name":"DUNHAM'S SPORTS-Columbia,TN","address":"2101 Brookmeade Drive [Brookmeade Towne Center], Columbia,TN 38401, (931) 381-3053"},{"latitude":"36.1568756","longitude":"-85.5171432","name":"DUNHAM'S SPORTS-Cookeville,TN","address":"377 W Jackson [Jackson Plaza], Cookeville,TN 38501, (931) 525-2005"},{"latitude":"35.9581903","longitude":"-85.0443667","name":"DUNHAM'S SPORTS-Crossville,TN","address":"141 Highland Square [Highland Square], Crossville,TN 38555, (931) 707-5001"},{"latitude":"35.3820953","longitude":"-86.228569","name":"DUNHAM'S SPORTS-Tullahoma,TN","address":"1802 N Jackson Street [Cherokee Square Mall], Tullahoma,TN 37388, (931) 454-0548"},{"latitude":"45.1623107","longitude":"-89.1316041","name":"DUNHAM'S SPORTS-Antigo,WI","address":"449 State Highway 64, Antigo,WI 54409, (715) 623-2418"},{"latitude":"44.4750261","longitude":"-88.0749265","name":"DUNHAM'S SPORTS-Ashwaubenon,WI","address":"2779 South Oneida Street [Bayside Marketplace], Ashwaubenon,WI 54304, (920) 497-1333"},{"latitude":"43.475407","longitude":"-88.8207539","name":"DUNHAM'S SPORTS-Beaver Dam,WI","address":"1645 N Sprint St, Beaver Dam,WI 53916, (920) 356-9293"},{"latitude":"43.0377922","longitude":"-88.1404419","name":"DUNHAM'S SPORTS-Brookfield,WI","address":"18200 W Bluemound Rd , Brookfield,WI 53045, (262) 797-9100"},{"latitude":"42.6931688","longitude":"-88.2642788","name":"DUNHAM'S SPORTS-Burlington,WI","address":"1120 Milwaukee Ave [Fox River Plaza], Burlington,WI 53105, (262) 763-2476"},{"latitude":"42.6308669","longitude":"-88.6256274","name":"DUNHAM'S SPORTS-Delavan,WI","address":"421 South Wright St [Delavan Plaza], Delavan,WI 53115, (262) 728-1992"},{"latitude":"42.9256681","longitude":"-87.9497637","name":"DUNHAM'S SPORTS-Franklin,WI","address":"6525 S 27Th Street [Franklin Town Center], Franklin,WI 53132, (414) 563-0025"},{"latitude":"42.7213876","longitude":"-89.0016833","name":"DUNHAM'S SPORTS-Janesville,WI","address":"1800 Humes Road, Janesville,WI 53545, (608) 755-4935"},{"latitude":"45.0791916","longitude":"-87.6582295","name":"DUNHAM'S SPORTS-Marinette,WI","address":"2500 Roosevelt [Pine Tree Mall], Marinette,WI 54143, (715) 732-3820"},{"latitude":"44.685986","longitude":"-90.157735","name":"DUNHAM'S SPORTS-Marshfield,WI","address":"1819 North Central Avenue, Marshfield,WI 54449, (715) 387-3375"},{"latitude":"44.8692548","longitude":"-91.9297823","name":"DUNHAM'S SPORTS-Menomonie,WI","address":"1501 Broadway St N [Shops Off Broadway], Menomonie,WI 54751, (715) 235-0750"},{"latitude":"42.9561292","longitude":"-88.1066635","name":"DUNHAM'S SPORTS-New Berlin,WI","address":"15470 W Beloit Rd [Moorland Commons], New Berlin,WI 53151, (262) 641-5263"},{"latitude":"42.6974007","longitude":"-87.8477385","name":"DUNHAM'S SPORTS-Racine,WI","address":"5600 Durand Ave [Regency Mall], Racine,WI 53406, (262) 554-0075"},{"latitude":"45.6355362","longitude":"-89.3808899","name":"DUNHAM'S SPORTS-Rhinelander,WI","address":"2175 Lincoln Street [Lincoln Plaza Center], Rhinelander,WI 54501, (715) 369-1071"},{"latitude":"45.471285","longitude":"-91.737105","name":"DUNHAM'S SPORTS-Rice Lake,WI","address":"2900 South Main, Rice Lake,WI 54868, (715) 736-1717"},{"latitude":"44.7832069","longitude":"-88.5849838","name":"DUNHAM'S SPORTS-Shawano,WI","address":"1211A East Green Bay Street, Shawano,WI 54166, (715) 524-8370"},{"latitude":"43.7562326","longitude":"-87.7554548","name":"DUNHAM'S SPORTS-Sheboygan,WI","address":"3506 Kohler Memorial, Sheboygan,WI 53081, (920) 452-8170"},{"latitude":"44.5216","longitude":"-89.5078","name":"DUNHAM'S SPORTS-Stevens Point,WI","address":"5601 Highway 10 E [East Point Shopping Cntr], Stevens Point,WI 54482, (715) 342-1618"},{"latitude":"44.848882","longitude":"-87.3630359","name":"DUNHAM'S SPORTS-Sturgeon Bay,WI","address":"1300 Egg Harbor Road [Cherry Point Mall], Sturgeon Bay,WI 54235, (920) 746-4155"},{"latitude":"44.9197245","longitude":"-89.651489","name":"DUNHAM'S SPORTS-Wausau,WI","address":"3806 Rib Mountain Drive [Mountain View Square], Wausau,WI 54401, (715) 359-9995"},{"latitude":"42.9980387","longitude":"-88.0468379","name":"DUNHAM'S SPORTS-West Allis,WI","address":"2550 S 108Th Street, West Allis,WI 53227, (414) 543-7650"},{"latitude":"37.8149012","longitude":"-81.1861157","name":"DUNHAM'S SPORTS-Beckley,WV","address":"4301 Robert C Byrd Dr [Raleigh Mall], Beckley,WV 25801, (304) 252-5634"},{"latitude":"39.6086388","longitude":"-79.9590912","name":"DUNHAM'S SPORTS-Morgantown,WV","address":"5000 Greenbag Road  [Mountaineer Mall Annex], Morgantown,WV 26505, (304) 292-4111"},{"latitude":"39.913231","longitude":"-80.747569","name":"DUNHAM'S SPORTS-Moundsville,WV","address":"1224 S Lafayette [Moundsville Plaza], Moundsville,WV 26041, (304) 843-1980"},{"latitude":"39.3010406","longitude":"-81.5498962","name":"DUNHAM'S SPORTS-Vienna,WV","address":"3 Grand Central Mall, Vienna,WV 26105, (304) 485-1370"}]