[{"latitude":40.740217,"longitude":-96.679375,"name":"Gymboree - Southpointe Pavillions #513","address":"2910 Pine Lake Road/E5\r\nLincoln, NE 68516","phone":"402.420.7074"},{"latitude":41.099459,"longitude":-96.248156,"name":"Gymboree Outlet - Nebraska Crossing Outlets #5180","address":"21355 Nebraska Crossing Drive, Suite #F141\r\nGretna, NE 68028","phone":"402.332.5067"},{"latitude":39.0364,"longitude":-95.761998,"name":"Gymboree - Westridge Mall #429","address":"1801 SW Wanamaker Space c-17\r\nTopeka, KS 66604","phone":"785.228.1633"},{"latitude":41.230742,"longitude":-96.138497,"name":"Gymboree - Oak View Mall #334","address":"3001 S. 144th St., Suite 1031\r\nOmaha, NE 68144","phone":"402.334.7776"},{"latitude":37.719524,"longitude":-97.244576,"name":"Gymboree - Bradley Fair #1744","address":"2000 North Rock Road\r\nWichita, KS 67206","phone":"316.315.0296"},{"latitude":41.264659,"longitude":-96.06647,"name":"Gymboree - Westroads Mall #275","address":"10000 California Street, Ste. 2640\r\nOmaha, NE 68114","phone":"402.393.2456"},{"latitude":39.10835,"longitude":-94.8332,"name":"Gymboree Outlet - Legends Outlets #5110","address":"1843 Village West\r\nKansas City, KS 66111","phone":"913.499.8825"},{"latitude":39.255237,"longitude":-94.665745,"name":"Gymboree - Zona Rosa #1743","address":"8755 NW Prarie View Road\r\nKansas City, MO 64153","phone":"816.746.7916"},{"latitude":38.91303,"longitude":-94.641773,"name":"Gymboree - Town Center Plaza #302","address":"4840 W. 119th Street\r\nLeawood, KS 66209","phone":"913.338.0444"},{"latitude":39.048,"longitude":-94.359296,"name":"Gymboree - Independence Center #470","address":"18813 E.39th St./D-06\r\nIndependence, MO 64057","phone":"816.795.5369"},{"latitude":43.507874,"longitude":-96.777605,"name":"Gymboree - Empire Mall #233","address":"1430 Empire Mall\r\nSioux Falls, SD 57106","phone":"605.362.8875"},{"latitude":41.56849,"longitude":-93.809239,"name":"Gymboree - Jordan Creek Town Center #630","address":"101 Jordan Creek Parkway, Ste. 1030\r\nWest Des Moines, IA 50266","phone":"515.440.2996"},{"latitude":41.594534,"longitude":-93.751736,"name":"Gymboree - Valley West Mall #372","address":"1551 Valley West Drive #159\r\nWest Des Moines, IA 50266","phone":"515.224.1343"},{"latitude":37.0909,"longitude":-94.476999,"name":"Gymboree - Northpark Mall #479","address":"101 Range Line Rd. / #208\r\nJoplin, MO 64801","phone":"417.624.3368"},{"latitude":36.062676,"longitude":-95.886281,"name":"Gymboree - Woodland Hills Mall #111","address":"7021 S. Memorial, #156\r\nTulsa, OK 74133","phone":"918.250.1568"},{"latitude":35.522704,"longitude":-97.544299,"name":"Gymboree - Penn Square Mall #104","address":"1901 Northwest Expressway, Suite #1086A\r\nOklahoma City, OK 73118","phone":"405.848.3771"},{"latitude":35.464154,"longitude":-97.650193,"name":"Gymboree Outlet - Oklahoma Factory Shops #5094","address":"7638 W. Reno Ave., Suite #540\r\nOklahoma City, OK 73128","phone":"405.789.6359"},{"latitude":35.21847,"longitude":-97.492869,"name":"Gymboree - Sooner Fashion Mall #507","address":"3433 W. Main Street\r\nNorman, OK 73072","phone":"405.292.5095"},{"latitude":39.605013,"longitude":-104.708859,"name":"Gymboree - Southlands Town Center #691","address":"6150 South Main Street, Ste. #I-107\r\nAurora, CO 80016","phone":"720.870.4440"},{"latitude":38.965862,"longitude":-92.374119,"name":"Gymboree - Columbia Mall #403","address":"2300 Bernadette Dr. #434\r\nColumbia, MO 65203","phone":"573.445.1947"},{"latitude":39.563455,"longitude":-104.872733,"name":"Gymboree - Park Meadows #317","address":"8405 Park Meadows Center Dr., Suite 1060\r\nLittleton, CO 80124","phone":"303.790.4261"},{"latitude":39.412293,"longitude":-104.873808,"name":"Gymboree Outlet - Outlets at Castle Rock #5041","address":"5050 Factory Shops Blvd., Ste. # 660\r\nCastle Rock, CO 80108","phone":"303.814.3511"},{"latitude":37.23327,"longitude":-93.262769,"name":"Gymboree - Battlefield Mall #279","address":"2825 S. Glenstone\r\nSpringfield, MO 65804","phone":"417.886.2553"},{"latitude":38.840982,"longitude":-104.758877,"name":"Gymboree - Citadel #187","address":"750 Citadel Drive East, #2016\r\nColorado Springs, CO 80909","phone":"719.380.5611"},{"latitude":38.96561,"longitude":-104.797614,"name":"Gymboree - The Shops at Briargate #603","address":"1645 Briargate Parkway #C312\r\nColorado Springs, CO 80920","phone":"719.593.9193"},{"latitude":38.146821,"longitude":-92.622388,"name":"Gymboree Outlet - Osage Beach Premium Outlets #5093","address":"4540 Osage Beach Parkway\r\nOsage Beach, MO 65065","phone":"573.302.0267"},{"latitude":39.718,"longitude":-104.953299,"name":"Gymboree - Cherry Creek Shopping Center #78","address":"3000 E. First Avenue, Space #223\r\nDenver, CO 80206","phone":"303.322.3217"},{"latitude":36.307039,"longitude":-94.177719,"name":"Gymboree - Pinnacle Hills Promenade #668","address":"2203 S. Promenade Blvd., Ste. # 8140\r\nRogers, AR 72758","phone":"479.621.5195"},{"latitude":39.961464,"longitude":-104.991573,"name":"Gymboree - The Orchard Town Center #1708","address":"14647 Delaware Street, Suite #600\r\nWestminster, CO 80023","phone":"303.252.7104"},{"latitude":41.23031,"longitude":-104.806389,"name":"Gymboree - Frontier Mall #521","address":"1400 Dell Range Blvd.\r\nCheyenne, WY 82009","phone":"307.637.5309"},{"latitude":40.410504,"longitude":-104.988832,"name":"Gymboree - The Promenade Shops at Centerra #606","address":"5943 Sky Pond Drive, Suite #E160\r\nLoveland, CO 80538","phone":"970.663.5919"},{"latitude":40.410977,"longitude":-104.994694,"name":"Gymboree Outlet - Outlets at Loveland #5096","address":"5741 McWhinney Blvd, Space A330\r\nLoveland, CO 80538","phone":"970.203.0774"},{"latitude":39.585408,"longitude":-105.023302,"name":"Gymboree - Aspen Grove #585","address":"7301 South Santa Fe Drive, #514\r\nLittleton, CO 80120","phone":"720.283.3104"},{"latitude":40.543665,"longitude":-105.075059,"name":"Gymboree - Foothills Fashion Mall #1783","address":"215 E. Foothills Pkwy, Suite 330\r\nFort Collins, CO 80525","phone":"970.225.0254"},{"latitude":39.9299,"longitude":-105.130899,"name":"Gymboree - Flatiron Crossings #577","address":"1 West Flatiron Circle #1152\r\nBroomfield, CO 80021","phone":"720.887.9617"},{"latitude":36.124841,"longitude":-94.145268,"name":"Gymboree - Northwest Arkansas Mall #371","address":"4201 North Shiloh Drive\r\nFayetteville, AR 72703","phone":"479.973.4700"},{"latitude":39.73481,"longitude":-105.159639,"name":"Gymboree Outlet - Colorado Mills #5070","address":"14500 W. Colfax Ave., Space #246\r\nLakewood, CO 80401","phone":"303.215.9339"},{"latitude":36.64343,"longitude":-93.264429,"name":"Gymboree Outlet - Tanger Outlets - Branson #5084","address":"300 Tanger Boulevard, Suite #232\r\nBranson, MO 65616","phone":"417.334.7677"},{"latitude":41.689834,"longitude":-92.005916,"name":"Gymboree Outlet - Tanger Outlets - Williamsburg #5148","address":"126 Tanger Drive\r\nWilliamsburg, IA 52361","phone":"319.668.1450"},{"latitude":35.186504,"longitude":-101.926797,"name":"Gymboree - Westgate Mall #314","address":"7701 W. I-40, Suite 284\r\nAmarillo, TX 79121","phone":"806.353.7757"},{"latitude":44.108777,"longitude":-103.207999,"name":"Gymboree - Rushmore Mall #514","address":"2200 N. Maple #312\r\nRapid City, SD 57701","phone":"605.399.8538"},{"latitude":44.170291,"longitude":-93.953378,"name":"Gymboree - River Hills Mall #485","address":"1850 Adams Street\r\nMankato, MN 56001","phone":"507.386.1328"},{"latitude":41.691049,"longitude":-91.608405,"name":"Gymboree - Coral Ridge Mall #441","address":"1451 Coral Ridge Avenue #505\r\nCoralville, IA 52241","phone":"319.625.2660"},{"latitude":39.629902,"longitude":-106.070897,"name":"Gymboree Outlet - Outlets at Silverthorne #5042","address":"246-Q Rainbow Drive\r\nSilverthorne, CO 80498","phone":"970.513.8388"},{"latitude":44.171633,"longitude":-93.260035,"name":"Gymboree Outlet - Medford Outlet Center #5149","address":"6750 West Frontage Road\r\nMedford, MN 55049","phone":"507.451.0605"},{"latitude":38.797811,"longitude":-90.747083,"name":"Gymboree - The Meadows at Lake St. Louis #1727","address":"10 Meadows Circle Drive\r\nLake Saint Louis, MO 63367","phone":"636.625.1906"},{"latitude":44.004252,"longitude":-92.482019,"name":"Gymboree - Apache Mall #289","address":"682 Apache Mall\r\nRochester, MN 55902","phone":"507.289.4218"},{"latitude":38.796407,"longitude":-90.612263,"name":"Gymboree - Mid Rivers #419","address":"2114 Mid Rivers Mall\r\nSt. Peter, MO 63376","phone":"636.278.3211"},{"latitude":38.64121,"longitude":-90.633761,"name":"Gymboree Outlet - St. Louis Premium Outlets #5174","address":"18521 Outlet Blvd., Suite #518\r\nChesterfield, MO 63005","phone":"636.778.1546"},{"latitude":44.744991,"longitude":-93.284731,"name":"Gymboree - Burnsville Center #211","address":"2019 Burnsville Center\r\nBurnsville, MN 55306","phone":"952.892.1226"},{"latitude":44.854153,"longitude":-93.429843,"name":"Gymboree - Eden Prairie #583","address":"2188 Eden Prairie Center\r\nEden Prairie, MN 55344","phone":"952.942.0055"},{"latitude":41.560279,"longitude":-90.57523,"name":"Gymboree - Northpark Mall #311","address":"320 W. Kimberly Road, Space #30\r\nDavenport, IA 52806","phone":"563.386.7442"},{"latitude":38.649658,"longitude":-90.563833,"name":"Gymboree - Chesterfield Mall #381","address":"247 Chesterfield Mall #528\r\nChesterfield, MO 63017","phone":"636.519.9717"},{"latitude":44.880991,"longitude":-93.328529,"name":"Gymboree - Southdale Center #68","address":"1174 Southdale Center Suite 1930\r\nEdina, MN 55435","phone":"952.920.5513"},{"latitude":44.803288,"longitude":-93.196054,"name":"Gymboree Outlet - Twin Cities Premium Outlets #5176","address":"3965 Eagan Outlets Pkwy., Suite 337\r\nEagan, MN 55122","phone":"651.452.0456"},{"latitude":44.970439,"longitude":-93.436198,"name":"Gymboree - Ridgedale Center #71","address":"12535 Wayzata Blvd\r\nMinnetonka, MN 55343","phone":"952.591.9598"},{"latitude":38.602851,"longitude":-90.448228,"name":"Gymboree - West County #594","address":"44 West County Center\r\nDes Peres, MO 63131","phone":"314.965.0305"},{"latitude":45.094092,"longitude":-93.435751,"name":"Gymboree - The Shoppes at Arbor Lakes #599","address":"12185 Elm Creek Boulevard\r\nMaple Grove, MN 55369","phone":"763.494.5394"},{"latitude":38.634639,"longitude":-90.346154,"name":"Gymboree - Saint Louis Galleria #69","address":"2128 St Louis Galleria\r\nSt. Louis, MO 63117","phone":"314.862.8371"},{"latitude":45.24198,"longitude":-93.663359,"name":"Gymboree Outlet - Albertville Premium Outlets #5046","address":"6415 LaBeaux Ave NE\r\nAlbertville, MN 55301","phone":"763.497.1039"},{"latitude":42.844173,"longitude":-106.266777,"name":"Gymboree - Eastridge Mall #1767","address":"601 SE Wyoming Blvd., Space #1266\r\nCasper, WY 82609","phone":"307.265.4030"},{"latitude":45.553404,"longitude":-94.208699,"name":"Gymboree - Crossroads Center #446","address":"4101 W. Division St. B-5\r\nSt. Cloud, MN 56301","phone":"320.255.9535"},{"latitude":44.941552,"longitude":-92.936038,"name":"Gymboree - Tamarack Village #549","address":"8390 Tamarack Village / 503\r\nWoodbury, MN 55125","phone":"651.714.1808"},{"latitude":38.5938,"longitude":-90.0005,"name":"Gymboree - St Clair Square #273","address":"145 St. Clair Square\r\nFairview Heights, IL 62208","phone":"618.628.2540"},{"latitude":43.866533,"longitude":-91.202394,"name":"Gymboree - Valley View Mall #392","address":"3800 State Road 16, Suite #108\r\nLa Crosse, WI 54601","phone":"608.779.9732"},{"latitude":33.539715,"longitude":-101.922395,"name":"Gymboree - South Plains Mall #254","address":"6002 Slide Road, #D11\r\nLubbock, TX 79414","phone":"806.785.3334"},{"latitude":39.7641,"longitude":-89.6969,"name":"Gymboree - White Oaks Mall #319","address":"2501 West Wabash\r\nSpringfield, IL 62704","phone":"217.787.7901"},{"latitude":33.07317,"longitude":-97.085231,"name":"Gymboree - The Shops at Highland Village #1706","address":"4081 Waller Creek, Suite 150\r\nHighland Village, TX 75077","phone":"972.317.0837"},{"latitude":33.129939,"longitude":-96.66171,"name":"Gymboree Outlet - Allen Premium Outlets #5065","address":"820 West Stacy Road, Suite #154\r\nAllen, TX 75013","phone":"972.678.4909"},{"latitude":33.10098,"longitude":-96.805819,"name":"Gymboree - Stonebriar Mall #578","address":"2601 Preston Rd. #1244\r\nFrisco, TX 75034","phone":"972.731.9789"},{"latitude":33.1098,"longitude":-96.6953,"name":"Gymboree - Watters Creek #1728","address":"857 Watters Creek Blvd.\r\nAllen, TX 75013","phone":"214.383.3333"},{"latitude":40.732375,"longitude":-89.611215,"name":"Gymboree - Northwoods Mall #328","address":"2200 West War Memorial Dr.\r\nPeoria, IL 61613","phone":"309.685.0063"},{"latitude":33.0061,"longitude":-96.971797,"name":"Gymboree - Vista Ridge #147","address":"2401 S. Stemons Freeway, #2372\r\nLewisville, TX 75067","phone":"972.315.5208"},{"latitude":33.027679,"longitude":-96.833041,"name":"Gymboree - The Shops at Willow Bend #584","address":"6121 West Park Blvd., Ste A110A\r\nPlano, TX 75093","phone":"972.202.5660"},{"latitude":33.025371,"longitude":-96.794929,"name":"Gymboree - Preston Park #498","address":"1900 Preston Road Suite 209\r\nPlano, TX 75093","phone":"972.964.5963"},{"latitude":32.967973,"longitude":-97.037077,"name":"Gymboree Outlet - Grapevine Mills #5032","address":"3000 Grapevine Mills Pkwy\r\nGrapevine, TX 76051","phone":"469.549.1268"},{"latitude":33.00948,"longitude":-96.708429,"name":"Gymboree - Collin Creek #110","address":"811 N. Central Expressway, Suite 2180\r\nPlano, TX 75075","phone":"972.578.7641"},{"latitude":32.94141,"longitude":-97.132382,"name":"Gymboree - Southlake Town Square #544","address":"110 State Street\r\nSouthlake, TX 76092","phone":"817.416.5537"},{"latitude":32.954015,"longitude":-96.611039,"name":"Gymboree - Firewheel Town Center #659","address":"620 Beebalm Lane\r\nGarland, TX 75040","phone":"972.530.1589"},{"latitude":32.82864,"longitude":-97.197299,"name":"Gymboree - Northeast Mall #358","address":"1101 Melbourne Rd #4041\r\nHurst, TX 76053","phone":"817.589.0418"},{"latitude":34.752193,"longitude":-92.341089,"name":"Gymboree - Park Plaza #169","address":"6000 W. Markham Street, #3024\r\nLittle Rock, AR 72205","phone":"501.664.7551"},{"latitude":34.659015,"longitude":-92.412321,"name":"Gymboree Outlet - Outlets of Little Rock #5186","address":"11201 Bass Pro Parkway #C ? M129\r\nLittle Rock, AR 72210","phone":"501.455.6229"},{"latitude":34.79229,"longitude":-92.230319,"name":"Gymboree - McCain Mall #449","address":"3929 McCain Blvd. E-04\r\nNorth Little Rock, AR 72116","phone":"501.758.2900"},{"latitude":46.862366,"longitude":-96.841466,"name":"Gymboree - West Acres Shopping Mall #327","address":"I-29 & 13 Ave South\r\nFargo, ND 58103","phone":"701.281.1801"},{"latitude":32.67759,"longitude":-97.395499,"name":"Gymboree - Hulen Mall #130","address":"4800 South Hulen Street, #228\r\nFort Worth, TX 76132","phone":"817.263.0437"},{"latitude":32.684122,"longitude":-97.132646,"name":"Gymboree - The Parks at Arlington #262","address":"3811 S. Cooper Street, #1062\r\nArlington, TX 76015","phone":"817.784.0797"},{"latitude":32.677705,"longitude":-97.055543,"name":"Gymboree Outlet - Grand Prairie Premium Outlets #5133","address":"2950 West Interstate 20, Suite #215\r\nGrand Prairie, TX 75052","phone":"972.352.2918"},{"latitude":35.6378,"longitude":-106.0332,"name":"Gymboree Outlet - Fashion Outlets of Santa Fe #5151","address":"8380 Cerillos Road, Suite #108\r\nSanta Fe, NM 87507","phone":"505.473.2257"},{"latitude":32.702599,"longitude":-96.27952,"name":"Gymboree Outlet - Tanger Outlets - Terrell #5157","address":"301 Tanger Dr., Suite #104\r\nTerrell, TX 75160","phone":"972.551.3386"},{"latitude":37.299096,"longitude":-89.5743,"name":"Gymboree - Westpark Mall #499","address":"3049 William, Suite #250\r\nCape Girardeau, MO 63703","phone":"573.651.9100"},{"latitude":43.058558,"longitude":-89.509143,"name":"Gymboree - West Towne Mall #318","address":"51 West Towne Mall\r\nMadison, WI 53719","phone":"608.827.0552"},{"latitude":43.498158,"longitude":-89.739012,"name":"Gymboree Outlet - Outlets at the Dells #5160","address":"210 Gasser Road, Suite #1090\r\nBaraboo, WI 53913","phone":"608.254.8912"},{"latitude":42.24118,"longitude":-88.975489,"name":"Gymboree - Cherryvale Mall #570","address":"7200 Harrison Avenue #F28A\r\nRockford, IL 61112","phone":"815.332.8078"},{"latitude":39.089365,"longitude":-108.603892,"name":"Gymboree - Mesa Mall #547","address":"2424 US Highway 6 & 50 /#164\r\nGrand Junction, CO 81505","phone":"970.257.7004"},{"latitude":35.10311,"longitude":-106.567238,"name":"Gymboree - ABQ Uptown #686","address":"2241 Q Street NE, Suite # 7F\r\nAlbuquerque, NM 87110","phone":"505.888.9664"},{"latitude":39.78797,"longitude":-88.268695,"name":"Gymboree Outlet - Tanger Outlets - Tuscola #5158","address":"A500 Tuscola Blvd.\r\nTuscola, IL 61953","phone":"217.253.5058"},{"latitude":40.139984,"longitude":-88.2449,"name":"Gymboree - Marketplace #438","address":"2000 N. Neil Street B7\r\nChampaign, IL 61820","phone":"217.352.2618"},{"latitude":32.300199,"longitude":-95.300699,"name":"Gymboree - Broadway Square #440","address":"4601 S. Broadway G7\r\nTyler, TX 75703","phone":"903.509.8686"},{"latitude":41.892532,"longitude":-88.343499,"name":"Gymboree - Geneva Commons #638","address":"112 Commons Drive, Ste. 1020A\r\nGeneva, IL 60134","phone":"630.208.6309"},{"latitude":41.7994,"longitude":-88.275799,"name":"Gymboree Outlet - Chicago Premium Outlets #5074","address":"1650 Premium Outlets Blvd.\r\nAurora, IL 60502","phone":"630.851.3759"},{"latitude":43.090248,"longitude":-88.764293,"name":"Gymboree Outlet - Johnson Creek Premium Outlets #5080","address":"595 W. Linmar Lane, Suite #B60\r\nJohnson Creek, WI 53038","phone":"920.699.2478"},{"latitude":42.141012,"longitude":-88.335699,"name":"Gymboree - Algonquin Commons #621","address":"2012 Randal Road\r\nAlgonquin, IL 60102","phone":"847.458.9206"},{"latitude":41.757682,"longitude":-88.214001,"name":"Gymboree - Fox Valley Mall #109","address":"1270 Fox Valley Center Drive, #20\r\nAurora, IL 60504","phone":"630.851.9161"},{"latitude":42.100388,"longitude":-88.296404,"name":"Gymboree - Spring Hill #216","address":"1384 Spring Hill Mall\r\nWest Dundee, IL 60118","phone":"847.836.9144"},{"latitude":41.834412,"longitude":-88.10112,"name":"Gymboree - Town Square Wheaton #683","address":"101 Town Square\r\nWheaton, IL 60187","phone":"630.668.2624"},{"latitude":41.953015,"longitude":-88.115399,"name":"Gymboree - Stratford Square, Exp #201","address":"406 Stratford Square\r\nBloomingdale, IL 60108","phone":"630.893.9844"},{"latitude":41.720146,"longitude":-88.045003,"name":"Gymboree - The Promenade at Bolingbrook #674","address":"639 East Boughton Rd, Ste. #120\r\nBolingbrook, IL 60440","phone":"630.783.8667"},{"latitude":37.076134,"longitude":-88.688827,"name":"Gymboree - Kentucky Oaks Mall #418","address":"5101 Hinckleville Road\r\nPaducah, KY 42001","phone":"270.444.8441"},{"latitude":41.840079,"longitude":-88.010299,"name":"Gymboree - Yorktown Center #251","address":"127 Yorktown\r\nLombard, IL 60148","phone":"630.629.5040"},{"latitude":42.0491,"longitude":-88.0477,"name":"Gymboree - Woodfield Mall #99","address":"#D-348 Woodfield Mall\r\nSchaumburg, IL 60173","phone":"847.240.0818"},{"latitude":32.518717,"longitude":-93.740418,"name":"Gymboree Outlet - Louisiana Boardwalk Outlet #5104","address":"405 Boardwalk Blvd, Suite K-405\r\nBossier City, LA 71111","phone":"318.742.6612"},{"latitude":32.034993,"longitude":-102.125849,"name":"Gymboree - The Commons at Northpark #1777","address":"2900 West Loop 250 North, Suite #105\r\nMidland, TX 79705","phone":"432.689.3548"},{"latitude":32.4836,"longitude":-93.7366,"name":"Gymboree - Mall Saint Vincent #378","address":"1133 Mall St. Vincent Ave.\r\nShreveport, LA 71104","phone":"318.221.7225"},{"latitude":42.232564,"longitude":-88.053646,"name":"Gymboree - Deer Park Town Center #576","address":"20530 North Rand Rd., Ste. 221\r\nDeer Park, IL 60010","phone":"847.438.5564"},{"latitude":41.753423,"longitude":-87.912144,"name":"Gymboree - Burr Ridge #699","address":"745 Village Center Drive\r\nBurr Ridge, IL 60527","phone":"630.920.1309"},{"latitude":41.61895,"longitude":-87.83895,"name":"Gymboree - Orland Square #134","address":"232 Orland Square\r\nOrland Park, IL 60462","phone":"708.349.0300"},{"latitude":35.200726,"longitude":-89.792099,"name":"Gymboree - Wolfchase Galleria #390","address":"2760 N. Germantown Pkwy., Suite #225\r\nMemphis, TN 38133","phone":"901.377.5158"},{"latitude":46.806711,"longitude":-92.231109,"name":"Gymboree - Miller Hill Mall #483","address":"1600 Miller Trunk Hwy./#M01\r\nDuluth, MN 55811","phone":"218.733.1414"},{"latitude":42.245357,"longitude":-87.952348,"name":"Gymboree - Hawthorn S.C. #145","address":"218 Hawthorn Center\r\nVernon Hills, IL 60061","phone":"847.549.0363"},{"latitude":41.975492,"longitude":-87.865969,"name":"Gymboree Outlet - Fashion Outlets of Chicago #5170","address":"5220 Fashion Outlet Way, Suite #1080\r\nRosemont, IL 60018","phone":"847.678.8340"},{"latitude":42.3839,"longitude":-87.956699,"name":"Gymboree Outlet - Gurnee Mills #5086","address":"6170 W Grand Ave, Suite #577\r\nGurnee, IL 60031","phone":"847.855.2695"},{"latitude":35.092477,"longitude":-89.811951,"name":"Gymboree - Saddle Creek #214","address":"2055 West Street, #14\r\nGermantown, TN 38138","phone":"901.751.0065"},{"latitude":42.514157,"longitude":-87.951237,"name":"Gymboree Outlet - Pleasant Prairie Premium Outlets #5005","address":"11211 120th Ave\r\nKenosha, WI 53158","phone":"262.857.6700"},{"latitude":42.152023,"longitude":-87.817121,"name":"Gymboree - Northbrook Court #87","address":"2048 Northbrook Court\r\nNorthbrook, IL 60062","phone":"847.272.4130"},{"latitude":43.03215,"longitude":-88.106889,"name":"Gymboree - Brookfield Square #398","address":"95 North Moorland Road #C15\r\nBrookfield, WI 53005","phone":"262.860.8797"},{"latitude":42.05893,"longitude":-87.74774,"name":"Gymboree - Westfield Old Orchard #176","address":"4999 Old Orchard Center, Suite L20\r\nSkokie, IL 60077","phone":"847.982.0039"},{"latitude":35.025627,"longitude":-89.718964,"name":"Gymboree - The Avenue Collierville #637","address":"4670 Merchants Park Circle #622\r\nCollierville, TN 38017","phone":"901.861.4719"},{"latitude":43.983217,"longitude":-88.583307,"name":"Gymboree Outlet - Outlet Shoppes at Oshkosh #5117","address":"3001 south Washburn Street, Suite D-30\r\nOshkosh, WI 54904","phone":"920.232.1191"},{"latitude":42.948543,"longitude":-88.008392,"name":"Gymboree - Southridge Mall #296","address":"5300 South 76th Street #610\r\nGreendale, WI 53129","phone":"414.421.8266"},{"latitude":42.697414,"longitude":-87.848957,"name":"Gymboree - Regency Mall #465","address":"5708 Durand Ave. / D-406\r\nRacine, WI 53406","phone":"262.554.6033"},{"latitude":43.1249,"longitude":-87.9123,"name":"Gymboree - Bayshore Town Center #433","address":"5684 N. Bayshore Road\r\nGlendale, WI 53217","phone":"414.961.7268"},{"latitude":41.470446,"longitude":-87.309484,"name":"Gymboree - Southlake Mall #277","address":"2236 Southlake Mall\r\nMerrillville, IN 46410","phone":"219.769.6915"},{"latitude":37.984001,"longitude":-87.492676,"name":"Gymboree - Eastland Mall #178","address":"800 N. Green River Road\r\nEvansville, IN 47715","phone":"812.477.8009"},{"latitude":40.39259,"longitude":-86.854089,"name":"Gymboree - Tippecanoe Mall #376","address":"2415 Sagamore Parkway South #D21\r\nLafayette, IN 47905","phone":"765.447.1963"},{"latitude":41.706675,"longitude":-86.899906,"name":"Gymboree Outlet - Lighthouse Premium Outlets #5053","address":"1640 Wabash Street, Sp. # P090\r\nMichigan City, IN 46360","phone":"219.879.5205"},{"latitude":44.48581,"longitude":-88.064818,"name":"Gymboree - Bay Park Square #528","address":"241 Bay Park Square\r\nGreen Bay, WI 54304","phone":"920.497.1381"},{"latitude":30.557734,"longitude":-97.691931,"name":"Gymboree Outlet - Round Rock Premium Outlets #5026","address":"4401 North IH-35, Ste. 155\r\nRound Rock, TX 78664","phone":"512.863.7592"},{"latitude":39.2342,"longitude":-86.494598,"name":"Gymboree - College Mall #315","address":"2950 E. Third Street\r\nBloomington, IN 47401","phone":"812.339.7128"},{"latitude":30.473,"longitude":-97.7991,"name":"Gymboree - Lakeline Mall #337","address":"11200 Lakeline Mall Drive, Space #F14\r\nCedar Park, TX 78613","phone":"512.249.1377"},{"latitude":30.627718,"longitude":-96.304517,"name":"Gymboree - Post Oak Mall #406","address":"1500 Harvey Street, #6012\r\nCollege Station, TX 77840","phone":"979.680.1176"},{"latitude":30.392739,"longitude":-97.746898,"name":"Gymboree - The Arboretum #476","address":"10000 Research Blvd./#143\r\nAustin, TX 78759","phone":"512.231.1620"},{"latitude":45.764681,"longitude":-108.576239,"name":"Gymboree - Rimrock Mall #353","address":"300 S. 24th St. West #A10\r\nBillings, MT 59102","phone":"406.651.0979"},{"latitude":39.996415,"longitude":-86.129448,"name":"Gymboree - Clay Terrace #644","address":"14311 Clay Terrace Blvd., Suite #120\r\nCarmel, IN 46032","phone":"317.575.0617"},{"latitude":30.2563,"longitude":-97.810799,"name":"Gymboree - Barton Creek Square #148","address":"2901 S Capital of Texas Highway, Suite #V01\r\nAustin, TX 78746","phone":"512.329.8442"},{"latitude":39.91433,"longitude":-86.109577,"name":"Gymboree - The Fashion Mall at Keystone #181","address":"8702 Keystone Crossing, Suite 153\r\nIndianapolis, IN 46240","phone":"317.571.8573"},{"latitude":41.723304,"longitude":-86.187599,"name":"Gymboree - University Park Mall #253","address":"6501 N. Grape Road #274\r\nMishawaka, IN 46545","phone":"574.273.6806"},{"latitude":39.635104,"longitude":-86.126399,"name":"Gymboree - Greenwood Park Mall #690","address":"1251 US 31 North, #F06E\r\nGreenwood, IN 46142","phone":"317.881.4786"},{"latitude":34.315526,"longitude":-88.705759,"name":"Gymboree - Barnes Crossing #408","address":"1001 Barnes Crossing Road\r\nTupelo, MS 38804","phone":"662.680.9993"},{"latitude":40.0413,"longitude":-85.9819,"name":"Gymboree - Hamilton Town Center #1724","address":"13185 Harrell Pkwy., Suite #400\r\nNoblesville, IN 46060","phone":"317.773.1529"},{"latitude":39.3272,"longitude":-85.962,"name":"Gymboree Outlet - Edinburgh Premium Outlets #5050","address":"3140 Outlet Drive, Suite F060\r\nEdinburgh, IN 46124","phone":"812.526.0391"},{"latitude":30.237404,"longitude":-95.453299,"name":"Gymboree - The Woodlands Mall #238","address":"1201 Lake Woodlands Drive\r\nThe Woodlands, TX 77380","phone":"281.364.0833"},{"latitude":36.950069,"longitude":-86.425101,"name":"Gymboree - Greenwood Mall #370","address":"2625 Scottsville Road, Space #132\r\nBowling Green, KY 42104","phone":"270.781.8700"},{"latitude":40.7339,"longitude":-111.553399,"name":"Gymboree Outlet - Tanger Outlets - Park City #5036","address":"6699 North Landmark Drive\r\nPark City, UT 84098","phone":"435.649.0252"},{"latitude":29.8294,"longitude":-97.983199,"name":"Gymboree Outlet - San Marcos Premium Outlets #5007","address":"3939 S. Interstate 35 Ste. 1355\r\nSan Marcos, TX 78666","phone":"512.392.6331"},{"latitude":36.106144,"longitude":-86.815978,"name":"Gymboree - The Mall at Green Hills #120","address":"2126 Abbott Martin Road, #265\r\nNashville, TN 37215","phone":"615.297.7377"},{"latitude":36.30082,"longitude":-86.698809,"name":"Gymboree - Rivergate Mall #257","address":"1000 Rivergate Pkwy, Suite 1965\r\nGoodlettsville, TN 37072","phone":"615.851.1722"},{"latitude":36.197549,"longitude":-86.691384,"name":"Gymboree Outlet - Opry Mills #5105","address":"125 Opry Mills Drive\r\nNashville, TN 37214","phone":"615.649.0420"},{"latitude":40.2976,"longitude":-111.657099,"name":"Gymboree - The Shops at Riverwoods #451","address":"4801 N. University / Space 140\r\nProvo, UT 84604","phone":"801.224.8822"},{"latitude":49.828598,"longitude":-97.114532,"name":"Gymboree - St Vital Centre #736","address":"86-1225 St. Mary Road\r\nWinnipeg, MB R2M 5E5","phone":"204.253.1001"},{"latitude":35.959073,"longitude":-86.810781,"name":"Gymboree - Cool Springs Galleria #332","address":"1800 Galleria Blvd., Suite 2130\r\nFranklin, TN 37067","phone":"615.764.0089"},{"latitude":40.273499,"longitude":-111.681997,"name":"Gymboree - University Mall #676","address":"575 East University Parkway, Suite #B31\r\nOrem, UT 84097","phone":"801.765.0215"},{"latitude":36.28675,"longitude":-86.59635,"name":"Gymboree - The Streets of Indian Lake #682","address":"300 Indian Lake Blvd, Bldg C, Suite 180\r\nHendersonville, TN 37075","phone":"615.826.0310"},{"latitude":49.880932,"longitude":-97.199455,"name":"Gymboree - Polo Park #706","address":"1485 Portage Avenue #105\r\nWinnipeg, MB R3G 0W4","phone":"204.779.1234"},{"latitude":29.976305,"longitude":-95.710467,"name":"Gymboree Outlet - Houston Premium Outlets #5091","address":"29300 Hempstead Road\r\nCypress, TX 77433","phone":"281.256.7123"},{"latitude":42.882292,"longitude":-85.756376,"name":"Gymboree - Rivertown Crossing #574","address":"3700 Rivertown Pkwy. #2150\r\nGrandville, MI 49418","phone":"616.534.0417"},{"latitude":42.811793,"longitude":-85.671575,"name":"Gymboree Outlet - Tanger Outlets - Grand Rapids #5192","address":"350 84th St SW, Suite 220\r\nByron Center, MI 49315","phone":"616.583.1791"},{"latitude":29.964035,"longitude":-95.539963,"name":"Gymboree - Willowbrook Mall #96","address":"1578 Willowbrook Mall\r\nHouston, TX 77070","phone":"281.955.9266"},{"latitude":29.655113,"longitude":-98.449227,"name":"Gymboree - Village at Stone Oak #1705","address":"22710 US Hwy 281N, Suite 104\r\nSan Antonio, TX 78258","phone":"210.481.5544"},{"latitude":32.275106,"longitude":-90.150139,"name":"Gymboree Outlet - The Outlets of Mississippi #5168","address":"200 Bass Pro Dr., Space #430\r\nPearl, MS 39208","phone":"601.932.7748"},{"latitude":30.008303,"longitude":-95.266005,"name":"Gymboree - Deerbrook Mall #460","address":"20131 Highway 59 North, Space 2400\r\nHumble, TX 77338","phone":"281.548.1300"},{"latitude":38.24908,"longitude":-85.609639,"name":"Gymboree - Oxmoor Center #180","address":"7900 Shelbyville Road\r\nLouisville, KY 40222","phone":"502.327.9929"},{"latitude":38.30914,"longitude":-85.577842,"name":"Gymboree - Paddock Shops #1754","address":"4276 Summit Plaza Drive\r\nLouisville, KY 40241","phone":"502.426.4371"},{"latitude":29.589213,"longitude":-98.61957,"name":"Gymboree - Shops at La Cantera #660","address":"15900 La Cantera Pkwy, Suite #26120\r\nSan Antonio, TX 78256","phone":"210.877.9191"},{"latitude":40.433139,"longitude":-111.884954,"name":"Gymboree Outlet - The Outlets at Traverse Mountain #5126","address":"3700 North Cabelas Blvd., Suite #414\r\nLehi, UT 84043","phone":"801.901.1327"},{"latitude":40.636525,"longitude":-111.889122,"name":"Gymboree - Fashion Place #172","address":"6191 South State Street, Suite 1040\r\nMurray, UT 84107","phone":"801.262.5459"},{"latitude":31.915,"longitude":-106.583299,"name":"Gymboree Outlet - Outlet Shoppes at El Paso #5044","address":"7051 South Desert Blvd; Suite G-756\r\nCanutillo, TX 79835","phone":"915.877.4994"},{"latitude":40.5623,"longitude":-111.890807,"name":"Gymboree - The Shops at South Town #321","address":"10450 South State Street, Suite #2240\r\nSandy, UT 84070","phone":"801.523.8661"},{"latitude":40.768235,"longitude":-111.891145,"name":"Gymboree - City Creek Center #1766","address":"50 South Main Street, Space #103\r\nSalt Lake City, UT 84101","phone":"801.363.0058"},{"latitude":31.774299,"longitude":-106.382595,"name":"Gymboree - Cielo Vista #250","address":"8401 Gateway West, Rm C-6\r\nEl Paso, TX 79925","phone":"915.771.9310"},{"latitude":40.9874,"longitude":-111.9037,"name":"Gymboree - Station Park #1769","address":"170 North West Promontory\r\nFarmington, UT 84025","phone":"801.451.7352"},{"latitude":29.551814,"longitude":-98.585506,"name":"Gymboree - Huebner Oaks #458","address":"11745 IH 10 West / #515\r\nSan Antonio, TX 78230","phone":"210.696.4233"},{"latitude":41.069768,"longitude":-85.195751,"name":"Gymboree - Jefferson Pointe #1781","address":"4220 West Jefferson Blvd., Suite O-5\r\nFt. Wayne, IN 46804","phone":"260.436.1955"},{"latitude":29.532478,"longitude":-98.500177,"name":"Gymboree - North Star Mall #129","address":"7400 San Pedro Ave., #450\r\nSan Antonio, TX 78216","phone":"210.342.2859"},{"latitude":29.7791,"longitude":-95.8071,"name":"Gymboree Outlet - Katy Mills #5045","address":"5000 Katy Mills Circle, # 643\r\nKaty, TX 77494","phone":"281.644.2530"},{"latitude":31.81814,"longitude":-106.544998,"name":"Gymboree - Sunland Park Mall #484","address":"750 Sunland Park Drive/L07\r\nEl Paso, TX 79912","phone":"915.584.7715"},{"latitude":40.541337,"longitude":-111.980659,"name":"Gymboree - The District #1762","address":"11580 South District Main Dr., Ste #600\r\nSouth Jordan, UT 84095","phone":"801.727.2015"},{"latitude":41.077759,"longitude":-111.976853,"name":"Gymboree - Layton Hills Mall #532","address":"1070 Layton Hills Mall\r\nLayton, UT 84041","phone":"801.593.6121"},{"latitude":41.1961,"longitude":-111.980493,"name":"Gymboree - New Gate Mall #434","address":"2000 Newgate Mall #1147\r\nOgden, UT 84405","phone":"801.399.3818"},{"latitude":29.743688,"longitude":-95.776385,"name":"Gymboree - LaCenterra at Cinco Ranch #1707","address":"23501 Cinco Ranch Blvd.\r\nKaty, TX 77494","phone":"281.395.5033"},{"latitude":30.128663,"longitude":-94.16181,"name":"Gymboree - Parkdale Mall #420","address":"6155 Eastex Freeway, Suite #752\r\nBeaumont, TX 77706","phone":"409.924.0110"},{"latitude":29.772655,"longitude":-95.560365,"name":"Gymboree - Town & Country #472","address":"12850 Memorial Drive/#430\r\nHouston, TX 77024","phone":"713.468.4847"},{"latitude":36.178305,"longitude":-86.302713,"name":"Gymboree Outlet - Lebanon Premium Outlets #5121","address":"150 Outlet Village Boulevard\r\nLebanon, TN 37090","phone":"615.449.9340"},{"latitude":29.753087,"longitude":-95.40859,"name":"Gymboree - River Oaks Shopping Center #423","address":"2012 West Gray\r\nHouston, TX 77019","phone":"713.529.9095"},{"latitude":29.737955,"longitude":-95.46342,"name":"Gymboree - The Galleria #164","address":"5135 W. Alabama, Suite #5310\r\nHouston, TX 77056","phone":"713.871.1311"},{"latitude":35.8584,"longitude":-86.42305,"name":"Gymboree - The Avenue Murfreesboro #1712","address":"2615 Medical Center Pkwy, Suite #1525\r\nMurfreesburo, TN 37129","phone":"615.849.8627"},{"latitude":38.20483,"longitude":-85.348456,"name":"Gymboree Outlet - The Outlet Shoppes of the Bluegrass #5181","address":"1155 Buck Creek Road, Suite 608\r\nSimpsonville, KY 40067","phone":"502.722.5202"},{"latitude":29.71504,"longitude":-95.418406,"name":"Gymboree - Village Arcade #1717","address":"2548 University Blvd.\r\nHouston, TX 77005","phone":"713.533.0020"},{"latitude":41.730077,"longitude":-85.001783,"name":"Gymboree Outlet - The Outlet Shoppes at Fremont #5143","address":"6245 North Old 27\r\nFremont, IN 46737","phone":"260.833.3293"},{"latitude":29.5922,"longitude":-95.629199,"name":"Gymboree - First Colony Mall #303","address":"16535 SW Freeway, Suite 330\r\nSugar Land, TX 77479","phone":"281.565.3525"},{"latitude":29.555624,"longitude":-95.401056,"name":"Gymboree - Pearland Town Center #689","address":"11200 Broadway Street, Suite #760\r\nPearland, TX 77584","phone":"713.436.8610"},{"latitude":29.54564,"longitude":-95.149223,"name":"Gymboree - Baybrook Mall #85","address":"1366 Baybrook Mall\r\nFriendswood, TX 77546","phone":"281.286.2577"},{"latitude":43.466,"longitude":-112.015,"name":"Gymboree - Grand Teton Mall #1760","address":"2300 East 17th Street, Space #1224\r\nIdaho Falls, ID 83404","phone":"208.522.3556"},{"latitude":34.7517,"longitude":-86.681,"name":"Gymboree - Bridge Street Town Centre #1713","address":"365 The Bridge Street, Suite 105\r\nHuntsville, AL 35806","phone":"256.327.8525"},{"latitude":44.722882,"longitude":-85.637108,"name":"Gymboree - Grand Traverse Mall #402","address":"3200 South Airport Road West #426\r\nTraverse City, MI 49684","phone":"231.933.5257"},{"latitude":29.427465,"longitude":-95.057864,"name":"Gymboree Outlet - Tanger Outlets - Houston #5165","address":"5885 Gulf Freeway, Suite #740\r\nTexas City, TX 77591","phone":"281.337.8690"},{"latitude":38.994115,"longitude":-84.652378,"name":"Gymboree - Florence Mall #306","address":"1038 Florence Mall\r\nFlorence, KY 41042","phone":"859.371.3745"},{"latitude":34.707799,"longitude":-86.589394,"name":"Gymboree - Parkway Place #635","address":"2801 Memorial Parkway, SW\r\nHuntsville, AL 35801","phone":"256.534.4006"},{"latitude":39.28945,"longitude":-84.466719,"name":"Gymboree - Tri County Mall #74","address":"11700 Princeton Pike, #B-209\r\nCincinnati, OH 45246","phone":"513.671.8718"},{"latitude":32.356673,"longitude":-88.674208,"name":"Gymboree - Bonita Lakes Mall #523","address":"1530 Bonita Lakes Circle\r\nMeridian, MS 39301","phone":"601.693.3883"},{"latitude":42.2474,"longitude":-84.435365,"name":"Gymboree - Westwood #493","address":"1822 W. Michigan Ave. #822\r\nJackson, MI 49202","phone":"517.782.0931"},{"latitude":39.4404,"longitude":-84.3644,"name":"Gymboree Outlet - Cincinnati Premium Outlets #5131","address":"120 Premium Outlet Drive\r\nMonroe, OH 45050","phone":"513.539.8424"},{"latitude":42.763124,"longitude":-84.517665,"name":"Gymboree - Eastwood Towne Center #1779","address":"2910 Towne Centre Blvd., Space #C2A\r\nLansing, MI 48912","phone":"517.485.2044"},{"latitude":39.19975,"longitude":-84.378219,"name":"Gymboree - Kenwood Town Centre #100","address":"7875 Montgomery Rd., #U84\r\nCincinnati, OH 45236","phone":"513.745.9920"},{"latitude":39.308003,"longitude":-84.317755,"name":"Gymboree - Deerfield Town Center #642","address":"5503 Deerfield Blvd.\r\nMason, OH 45040","phone":"513.770.0430"},{"latitude":39.637303,"longitude":-84.222198,"name":"Gymboree - Dayton Mall #259","address":"2700 Miamisberg Centerville Rd #336\r\nDayton, OH 45459","phone":"937.291.1127"},{"latitude":33.194974,"longitude":-87.52587,"name":"Gymboree - University Mall #456","address":"1701 McFarland Blvd.\r\nTuscaloosa, AL 35404","phone":"205.562.8840"},{"latitude":37.988014,"longitude":-84.525201,"name":"Gymboree - Fayette Mall #258","address":"3519 Nicolasville Rd #A-112\r\nLexington, KY 40503","phone":"859.272.3736"},{"latitude":39.6939,"longitude":-84.10319,"name":"Gymboree - Greene Town Center #671","address":"4456 Glengarry Drive\r\nBeavercreek, OH 45440","phone":"937.429.2502"},{"latitude":38.02461,"longitude":-84.423059,"name":"Gymboree - Hamburg Village #614","address":"2300 Sir Barton Way, Suite #140\r\nLexington, KY 40509","phone":"859.263.3421"},{"latitude":30.391422,"longitude":-91.091255,"name":"Gymboree - Mall of Louisiana #386","address":"6401 Bluebonnet Boulevard, Space #1052\r\nBaton Rouge, LA 70836","phone":"225.766.9601"},{"latitude":31.3232,"longitude":-89.376399,"name":"Gymboree - Turtle Creek Mall #452","address":"1000 Turtle Creek Drive/#630\r\nHattisburg, MS 39402","phone":"601.271.6583"},{"latitude":42.621469,"longitude":-83.993444,"name":"Gymboree Outlet - Tanger Outlets - Howell Kensington Valley #5136","address":"1475 N. Burkhart Road, Suite #E105\r\nHowell, MI 48855","phone":"517.552.3872"},{"latitude":33.38017,"longitude":-86.806727,"name":"Gymboree - Riverchase Galleria #137","address":"2000-110 Riverchase Galleria\r\nBirmingham, AL 35244","phone":"205.988.5758"},{"latitude":30.212026,"longitude":-90.950642,"name":"Gymboree Outlet - Tanger Outlets - Gonzales #5135","address":"2400 South Tanger Blvd., Space #145\r\nGonzales, LA 70737","phone":"225.647.0707"},{"latitude":42.242823,"longitude":-83.746372,"name":"Gymboree - Briarwood Mall #142","address":"404 Briarwood Circle\r\nAnn Arbor, MI 48108","phone":"734.665.6300"},{"latitude":41.52761,"longitude":-83.63998,"name":"Gymboree - Town Center at Levis Commons #623","address":"3175 Levis Commons Blvd.\r\nPerrysburgh, OH 43551","phone":"419.874.2159"},{"latitude":41.697624,"longitude":-83.640629,"name":"Gymboree - Franklin Park #106","address":"5001 Monroe Street, space #1450\r\nToledo, OH 43623","phone":"419.472.2126"},{"latitude":33.5367,"longitude":-86.5564,"name":"Gymboree Outlet - The Shops of Grand River #5141","address":"6200 Grand River, Bldg E, Suite #688\r\nLeeds, AL 35094","phone":"205.699.7584"},{"latitude":39.619542,"longitude":-83.603521,"name":"Gymboree Outlet - Tanger Outlets - Jeffersonville #5004","address":"8305 Factory Shops Blvd.\r\nJeffersonville, OH 43128","phone":"740.948.2379"},{"latitude":44.248866,"longitude":-84.225531,"name":"Gymboree Outlet - Outlets at West Branch #5159","address":"2990 Cook Road, Suite #111\r\nWest Branch, MI 48661","phone":"989.345.0195"},{"latitude":42.981226,"longitude":-83.772131,"name":"Gymboree - Genesee Valley #182","address":"3299 Linden Road\r\nFlint, MI 48507","phone":"810.732.0270"},{"latitude":35.13036,"longitude":-85.237235,"name":"Gymboree - Northgate Mall #427","address":"309 Northgate Mall, #E4\r\nChattanooga, TN 37415","phone":"423.877.6055"},{"latitude":43.249087,"longitude":-83.78271,"name":"Gymboree Outlet - Birch Run Premium Outlets #5001","address":"12156 South Beyer Rd, Suite 220\r\nBirch Run, MI 48415","phone":"989.624.5365"},{"latitude":35.03205,"longitude":-85.236259,"name":"Gymboree - Hamilton Place #209","address":"2100 Hamilton Place Blvd., #216\r\nChattanooga, TN 37421","phone":"423.499.8507"},{"latitude":42.489392,"longitude":-83.475961,"name":"Gymboree - Twleve Oaks Mall #135","address":"27218 Novi Road\r\nNovi, MI 48377","phone":"248.347.4550"},{"latitude":42.4109,"longitude":-83.417498,"name":"Gymboree - Laurel Park Place #141","address":"37554 W. Six Mile Road\r\nLivonia, MI 48152","phone":"734.462.9272"},{"latitude":42.7029,"longitude":-83.306627,"name":"Gymboree Outlet - Great Lakes Crossing #5016","address":"4766 Baldwin Rd, Space #131\r\nAuburn Hills, MI 48326","phone":"248.454.9062"},{"latitude":42.309821,"longitude":-83.220999,"name":"Gymboree - Fairlane Town Center #261","address":"18900 Michigan Ave., Space #F319\r\nDearborn, MI 48126","phone":"313.594.8748"},{"latitude":40.076377,"longitude":-83.129896,"name":"Gymboree - Mall at Tuttle Crossing #391","address":"5043 Tuttle Crossing Blvd #188\r\nDublin, OH 43016","phone":"614.336.9170"},{"latitude":42.561441,"longitude":-83.183849,"name":"Gymboree - Somerset Collection #300","address":"2800 W. Big Beaver Rd., #M-317\r\nTroy, MI 48084","phone":"248.816.9778"},{"latitude":40.00717,"longitude":-83.05363,"name":"Gymboree - Shops on Lane Ave #639","address":"1623 W. Lane Ave\r\nUpper Arlington, OH 43221","phone":"614.488.8506"},{"latitude":30.020234,"longitude":-90.247713,"name":"Gymboree - Esplanade Mall #170","address":"1401 W. Esplanade Avenue, #502\r\nKenner, LA 70065","phone":"504.464.4877"},{"latitude":42.534255,"longitude":-83.110405,"name":"Gymboree - Oakland Mall #442","address":"476 W. 14 Mile Road, #476\r\nTroy, MI 48083","phone":"248.577.3845"},{"latitude":40.141593,"longitude":-82.977387,"name":"Gymboree - Polaris Fashion Place #580","address":"1500 Polaris Pkwy, #1158\r\nColumbus, OH 43240","phone":"614.430.3078"},{"latitude":30.003604,"longitude":-90.157098,"name":"Gymboree - Lakeside Mall #203","address":"3301 Veterans Memorial Blvd., #51\r\nMetairie, LA 70002","phone":"504.833.6171"},{"latitude":42.27309,"longitude":-83.00431,"name":"Gymboree - Devonshire Mall #726","address":"3100 Howard Avenue, #C5\r\nWindsor, ON N8X 3Y8","phone":"519.250.3463"},{"latitude":40.052066,"longitude":-82.914941,"name":"Gymboree - Easton Town Center #598","address":"4022 Fenlon St., Suite #814\r\nColumbus, OH 43219","phone":"614.478.3395"},{"latitude":37.115566,"longitude":-113.55201,"name":"Gymboree Outlet - Zion Factory Stores #5097","address":"250 North Red Cliffs Drive, Suite 27\r\nSt. George, UT 84790","phone":"435.628.5166"},{"latitude":42.62535,"longitude":-82.983139,"name":"Gymboree - Lakeside Mall #90","address":"14600 Lakeside Circle, #H113\r\nSterling Heights, MI 48313","phone":"586.247.8589"},{"latitude":29.947315,"longitude":-90.062892,"name":"Gymboree Outlet - The Outlet Collection at Riverwalk #5182","address":"500 Port of New Orleans Place, Suite 117\r\nNew Orleans, LA 70130","phone":"504.581.5361"},{"latitude":42.389936,"longitude":-82.923781,"name":"Gymboree - Grosse Pointe #486","address":"17009 Kercheval\r\nGrosse Pointe, MI 48230","phone":"313.886.7082"},{"latitude":35.928479,"longitude":-84.036171,"name":"Gymboree - West Town Mall #208","address":"7600 Kingston Pike\r\nKnoxville, TN 37919","phone":"865.531.2241"},{"latitude":34.459518,"longitude":-84.92353,"name":"Gymboree Outlet - Calhoun Premium Outlets #5081","address":"455 Belwood Road, Suite B038\r\nCalhoun, GA 30701","phone":"706.624.4370"},{"latitude":30.43067,"longitude":-89.097347,"name":"Gymboree Outlet - Gulfport Premium Outlets #5082","address":"10340 Factory Shops Blvd.\r\nGulfport, MS 39503","phone":"228.863.4130"},{"latitude":40.772539,"longitude":-82.593551,"name":"Gymboree - Richland Mall #552","address":"2176 Richland Mall C4 & C4A\r\nMansfield, OH 44906","phone":"419.528.3247"},{"latitude":39.731904,"longitude":-82.6233,"name":"Gymboree - River Valley Mall #424","address":"1635 River Valley Mall#313\r\nLancaster, OH 43130","phone":"740.689.1340"},{"latitude":27.545703,"longitude":-99.502597,"name":"Gymboree - Mall del Norte #518","address":"5300 San Dario-Suite 120A\r\nLaredo, TX 78041","phone":"956.729.9848"},{"latitude":33.384746,"longitude":-111.753999,"name":"Gymboree - Dana Park Village Square #1719","address":"1652 Val Vista Drive, Suite 125\r\nMesa, AZ 85204","phone":"480.497.9966"},{"latitude":33.8708,"longitude":-112.144346,"name":"Gymboree Outlet - Outlets at Anthem #5037","address":"4250 W. Anthem Way, Unit 760\r\nPhoenix, AZ 85086","phone":"623.465.1299"},{"latitude":33.599721,"longitude":-111.983497,"name":"Gymboree - Paradise Valley Mall #360","address":"4550-58 East Cactus Road\r\nPhoenix, AZ 85032","phone":"602.996.7940"},{"latitude":33.3069,"longitude":-111.744332,"name":"Gymboree - SanTan Village #685","address":"2174 E. Williamsfield Road, Space #116\r\nGilbert, AZ 85295","phone":"480.722.1773"},{"latitude":33.502319,"longitude":-111.928979,"name":"Gymboree - Scottsdale Fashion Square #290","address":"7014 East Camelback Road, #2292\r\nScottsdale, AZ 85251","phone":"480.970.8262"},{"latitude":32.3228,"longitude":-110.9298,"name":"Gymboree - La Encantada #608","address":"2905 E. Skyline Dr., #182\r\nTucson, AZ 85718","phone":"520.615.1183"},{"latitude":35.833018,"longitude":-83.572837,"name":"Gymboree Outlet - Tanger Outlets - Sevierville #5011","address":"1645 Parkway, Suite #950\r\nSevierville, TN 37862","phone":"865.428.2383"},{"latitude":43.035769,"longitude":-82.456446,"name":"Gymboree - Birchwood Mall #517","address":"4350 24th Avenue\r\nFort Gratiot, MI 48059","phone":"810.385.2783"},{"latitude":33.305711,"longitude":-111.896554,"name":"Gymboree - Chandler Fashion Center #581","address":"3111 W. Chandler Blvd., #2132\r\nChandler, AZ 85226","phone":"480.917.3769"},{"latitude":33.379399,"longitude":-111.965396,"name":"Gymboree Outlet - Arizona Mills #5040","address":"5000 Arizona Mills Circle, # 411\r\nTempe, AZ 85282","phone":"480.831.3001"},{"latitude":32.28831,"longitude":-110.978139,"name":"Gymboree - Tucson Mall #131","address":"4500 N. Oracle Road, Box 339\r\nTucson, AZ 85705","phone":"520.293.2119"},{"latitude":33.953452,"longitude":-84.657913,"name":"Gymboree - Avenue at West Cobb #626","address":"3625 Dallas Hwy., Suite 450\r\nMarietta, GA 30064","phone":"678.331.8590"},{"latitude":34.122282,"longitude":-84.524156,"name":"Gymboree Outlet - The Outlets Shoppes at Atlanta #5164","address":"915 Ridgewalk Pkwy, Suite #433\r\nWoodstock, GA 30188","phone":"770.517.4152"},{"latitude":34.012578,"longitude":-84.563566,"name":"Gymboree - Town Center at Cobb #67","address":"400 Ernest W. Barrett Pkwy., #167\r\nKennesaw, GA 30144","phone":"770.514.9141"},{"latitude":33.725977,"longitude":-84.748532,"name":"Gymboree - Arbor Place #567","address":"2430 Arbor Place Mall\r\nDouglasville, GA 30135","phone":"770.920.0947"},{"latitude":30.668238,"longitude":-87.852073,"name":"Gymboree - Eastern Shore Center #620","address":"30500 State Hwy 181, Suite 222\r\nSpanish Fort, AL 36527","phone":"251.621.9720"},{"latitude":33.534996,"longitude":-112.265004,"name":"Gymboree Outlet - Tanger Outlets - Westgate #5167","address":"6800 North 95th Ave., Suite #755\r\nGlendale, AZ 85305","phone":"623.877.9848"},{"latitude":41.00239,"longitude":-81.996242,"name":"Gymboree Outlet - Lodi Station Outlet #5161","address":"9911 Avon Lake Rd., Unit #240\r\nBurbank, OH 44214","phone":"33.0948.5106"},{"latitude":39.988652,"longitude":-82.022945,"name":"Gymboree - Colony Square Mall #545","address":"3575 Maple Ave #506\r\nZanesville, OH 43701","phone":"740.588.0026"},{"latitude":41.458326,"longitude":-81.951865,"name":"Gymboree - Crocker Park #628","address":"156 Main Street\r\nWestlake, OH 44145","phone":"440.808.8747"},{"latitude":33.986595,"longitude":-84.421534,"name":"Gymboree - Avenue at East Cobb #542","address":"4475 Roswell Road, Suite #930\r\nMarietta, GA 30062","phone":"678.560.0527"},{"latitude":38.3921,"longitude":-82.285,"name":"Gymboree - Huntington Mall #506","address":"500 Mall Road, Space #635\r\nBarboursville, WV 25504","phone":"304.733.5084"},{"latitude":33.882257,"longitude":-84.468309,"name":"Gymboree - Cumberland Mall #160","address":"1331 Cumberland Mall #220\r\nAtlanta, GA 30339","phone":"770.319.7007"},{"latitude":41.418376,"longitude":-81.909493,"name":"Gymboree - Great Northern Mall #102","address":"806 Great Northern Mall\r\nNorth Olmsted, OH 44070","phone":"440.734.3066"},{"latitude":34.070904,"longitude":-84.277273,"name":"Gymboree - Avalon #1775","address":"4140 Avalon Blvd\r\nAlpharetta, GA 30009","phone":"678.248.5246"},{"latitude":34.356439,"longitude":-84.045771,"name":"Gymboree Outlet - North Georgia Premium Outlets #5025","address":"800 Highway 400 South, Ste. 355\r\nDawsonville, GA 30534","phone":"706.344.1451"},{"latitude":34.15245,"longitude":-84.174004,"name":"Gymboree - The Collection at Forsyth #1736","address":"410 Peachtree Parkway, Suite #4120\r\nCumming, GA 30041","phone":"770.887.8730"},{"latitude":33.9237,"longitude":-84.338099,"name":"Gymboree - Perimeter Mall #97","address":"4400 Ashford-Dunwood Rd, Space #1610\r\nAtlanta, GA 30346","phone":"770.551.0070"},{"latitude":41.312999,"longitude":-81.819191,"name":"Gymboree - Southpark Mall #330","address":"848 Southpark Center\r\nStrongsville, OH 44136","phone":"440.846.9950"},{"latitude":33.848931,"longitude":-84.364994,"name":"Gymboree - Lenox Square #293","address":"3393 Peachtree Rd. NE, #4060\r\nAtlanta, GA 30326","phone":"404.846.8707"},{"latitude":33.981037,"longitude":-84.215471,"name":"Gymboree - The Forum @ Peachtree Parkway #1702","address":"5155 Peachtree Parkway, Suite #323\r\nNorcross, GA 30092","phone":"770.447.1022"},{"latitude":33.394941,"longitude":-84.590439,"name":"Gymboree - The Avenue Peachtree City #1764","address":"253 City Circle\r\nPeachtree City, GA 30269","phone":"770.632.2627"},{"latitude":33.957055,"longitude":-84.133191,"name":"Gymboree - Gwinnett Place #72","address":"2100 Pleasant Hill Road, Suite #226\r\nDuluth, GA 30096","phone":"770.623.0838"},{"latitude":30.3749,"longitude":-87.6832,"name":"Gymboree Outlet - Tanger Outlets - Foley #5010","address":"2601 S. McKenzie Street, Suite #484\r\nFoley, AL 36535","phone":"251.970.5915"},{"latitude":41.132251,"longitude":-81.618385,"name":"Gymboree - Summit Mall #345","address":"3265 West Market Street, #484\r\nAkron, OH 44333","phone":"330.869.6440"},{"latitude":33.9812,"longitude":-84.075699,"name":"Gymboree Outlet - Sugarloaf Mills #5112","address":"5900 Sugarloaf Pkwy, Suite #585\r\nLawrenceville, GA 30043","phone":"678.847.0046"},{"latitude":34.067314,"longitude":-83.986827,"name":"Gymboree - Mall of Georgia #568","address":"3333 Buford Drive #1082\r\nBuford, GA 30519","phone":"678.482.4046"},{"latitude":41.5013,"longitude":-81.503488,"name":"Gymboree - Legacy Village #1729","address":"24681 Cedar Road\r\nLyndhurst, OH 44124","phone":"216.382.5621"},{"latitude":33.896319,"longitude":-84.006613,"name":"Gymboree - The Shoppes at Webb Gin #680","address":"1350 Scenic Highway, Suite 616\r\nSnellville, GA 30078","phone":"770.985.5066"},{"latitude":41.242387,"longitude":-81.441999,"name":"Gymboree - First and Main #632","address":"93 1st Street\r\nHudson, OH 44236","phone":"330.653.5165"},{"latitude":40.858406,"longitude":-81.430485,"name":"Gymboree - Belden Village Mall #339","address":"4299 Belden Village Mall\r\nCanton, OH 44718","phone":"330.305.1550"},{"latitude":30.474362,"longitude":-87.212326,"name":"Gymboree - Cordova Mall #215","address":"5100 N. 9th Avenue\r\nPensacola, FL 32504","phone":"850.478.6700"},{"latitude":41.661389,"longitude":-81.359628,"name":"Gymboree - Great Lakes Mall #271","address":"7850 Mentor Ave #290\r\nMentor, OH 44060","phone":"440.205.0102"},{"latitude":41.302467,"longitude":-81.345591,"name":"Gymboree Outlet - Aurora Farms Premium Outlets #5152","address":"549 South Chillicothe Rd. Ste #392\r\nAurora, OH 44202","phone":"330.562.0588"},{"latitude":32.50777,"longitude":-84.938799,"name":"Gymboree - Peachtree Mall #272","address":"3507 Manchester Expressway #19\r\nColumbus, GA 31909","phone":"706.324.0012"},{"latitude":36.338531,"longitude":-82.37404,"name":"Gymboree - Mall at Johnson City #417","address":"2011 North Roan Street, #27\r\nJohnson City, TN 37601","phone":"423.610.1091"},{"latitude":38.352931,"longitude":-81.638203,"name":"Gymboree - Charleston Town Center #217","address":"1047 Charleston Town Center\r\nCharleston, WV 25389","phone":"304.346.0692"},{"latitude":46.84393,"longitude":-114.025129,"name":"Gymboree - Southgate Mall #432","address":"2901 Brooks Street, Space D-7\r\nMissoula, MT 59801","phone":"406.542.4741"},{"latitude":34.248729,"longitude":-83.475138,"name":"Gymboree Outlet - Tanger Outlets - Commerce #5100","address":"800 Steven B Tanger Blvd., Space #1205\r\nCommerce, GA 30529","phone":"706.335.3061"},{"latitude":33.351711,"longitude":-84.12132,"name":"Gymboree Outlet - Tanger Outlets - Locust Grove #5137","address":"1000 Tanger Drive\r\nLocust Grove, GA 30248","phone":"770.914.7715"},{"latitude":43.025801,"longitude":-81.282184,"name":"Gymboree - Masonville Place #712","address":"1680 Richmond Street/UO38\r\nLondon, ON N6G 3Y9","phone":"519.672.7288"},{"latitude":42.934402,"longitude":-81.223569,"name":"Gymboree - White Oaks Mall #743","address":"1105 Wellington Road South\r\nLondon, ON N6E 1V4","phone":"519.668.7491"},{"latitude":33.940863,"longitude":-83.466649,"name":"Gymboree - Georgia Square Mall #431","address":"3700 Atlanta Highway #90\r\nAthens, GA 30606","phone":"706.354.4811"},{"latitude":36.0638,"longitude":-115.040012,"name":"Gymboree - Galleria at Sunset #301","address":"1300 West Sunset, Suite 1249\r\nHenderson, NV 89014","phone":"702.898.8010"},{"latitude":36.232695,"longitude":-115.157303,"name":"Gymboree Outlet - Las Vegas Premium Outlets - North #5052","address":"785 Grand Central Pkwy, Suite #2167\r\nLas Vegas, NV 89106","phone":"702.366.1106"},{"latitude":36.021446,"longitude":-115.086774,"name":"Gymboree - The District at Green Valley Ranch #629","address":"2260 Village Walk Drive, Suite 116\r\nHenderson, NV 89052","phone":"702.263.5067"},{"latitude":26.1843,"longitude":-98.233298,"name":"Gymboree - La Plaza Mall #407","address":"2200 South Tenth Avenue\r\nMcAllen, TX 78503","phone":"956.664.9564"},{"latitude":36.170208,"longitude":-115.197008,"name":"Gymboree - Meadows Mall #395","address":"4300 Meadows Lane, Suite #124\r\nLas Vegas, NV 89107","phone":"702.880.4228"},{"latitude":41.2113,"longitude":-80.753694,"name":"Gymboree - Eastwood Mall #361","address":"5555 Youngstown-Warren Rd.\r\nNiles, OH 44446","phone":"330.505.1558"},{"latitude":36.068968,"longitude":-115.172277,"name":"Gymboree - Town Square at Las Vegas #687","address":"6605 South Las Vegas Blvd., Suite #N-B137\r\nLas Vegas, NV 89119","phone":"702.740.7000"},{"latitude":36.055054,"longitude":-115.172199,"name":"Gymboree Outlet - Las Vegas Premium Outlets - South #5024","address":"7400 South Las Vegas Blvd., Suite #201A\r\nLas Vegas, NV 89123","phone":"702.240.3589"},{"latitude":26.158831,"longitude":-97.888668,"name":"Gymboree Outlet - Rio Grande Premium Outlets #5066","address":"5001 East Expressway 83\r\nMercedes, TX 78570","phone":"956.514.5400"},{"latitude":36.12771,"longitude":-115.237929,"name":"Gymboree - Fashion Show Mall #351","address":"3200 South Las Vegas Blvd., Suite #2680\r\nLas Vegas, NV 89109","phone":"702.734.0127"},{"latitude":30.393266,"longitude":-86.424626,"name":"Gymboree - Destin Commons #643","address":"4109 Legendary Drive\r\nDestin, FL 32541","phone":"850.650.5434"},{"latitude":31.251903,"longitude":-85.419501,"name":"Gymboree - Wiregrass Commons Mall #469","address":"900 Commons Mall, Suite #308\r\nDothan, AL 36303","phone":"334.673.0099"},{"latitude":41.02281,"longitude":-80.662699,"name":"Gymboree - Southern Park Mall #356","address":"7401 Market ST. #709\r\nYoungstown, OH 44512","phone":"330.629.6434"},{"latitude":30.379875,"longitude":-86.354564,"name":"Gymboree Outlet - Silver Sands Outlets #5147","address":"10746 Emerald Coast Parkway W., Space #149A\r\nDestin, FL 32550","phone":"850.269.0300"},{"latitude":32.926623,"longitude":-83.712567,"name":"Gymboree - Shoppes at River Crossing #1716","address":"5080 Riverside Drive, Suite #412\r\nMacon, GA 31210","phone":"478.474.5469"},{"latitude":36.141756,"longitude":-81.670006,"name":"Gymboree Outlet - Tanger Outlets - Blowing Rock #5156","address":"278 Shoppes on the Parkway Road, Suite #54\r\nBlowing Rock, NC 28605","phone":"828.295.8741"},{"latitude":34.8497,"longitude":-82.337759,"name":"Gymboree - Haywood Mall #196","address":"700 Haywood Road, Box #2019A\r\nGreenville, SC 29607","phone":"864.297.0051"},{"latitude":35.610999,"longitude":-115.388099,"name":"Gymboree Outlet - Fashion Outlets of Las Vegas #5039","address":"32100 Las Vegas Blvd. S., # 242\r\nPrimm, NV 89019","phone":"702.874.1719"},{"latitude":40.674,"longitude":-80.3131,"name":"Gymboree - Beaver Valley #415","address":"528 Beaver Valley Road\r\nMonaca, PA 15061","phone":"724.773.0477"},{"latitude":43.42442,"longitude":-80.44121,"name":"Gymboree - Fairview Park #747","address":"2960 Kingsway Drive, Space #M025A\r\nKitchner, ON N2C 1X1","phone":"519.896.0555"},{"latitude":40.223526,"longitude":-80.214272,"name":"Gymboree Outlet - Tanger Outlets - Pittsburgh #5088","address":"2200 Tanger Blvd, Suite #962\r\nWashington, PA 15301","phone":"724.222.2956"},{"latitude":41.1434,"longitude":-80.1536,"name":"Gymboree Outlet - Grove City Premium Outlets #5023","address":"1911 Leesburg Grove City Road, Space #1120\r\nGrove City, PA 16127","phone":"724.748.4442"},{"latitude":40.69496,"longitude":-80.104395,"name":"Gymboree - Streets of Cranberry #672","address":"20430 Route 19, Suite 130\r\nCranberry Township, PA 16066","phone":"724.772.8818"},{"latitude":42.066533,"longitude":-80.093231,"name":"Gymboree - Millcreek Mall #227","address":"170 Millcreek Mall\r\nErie, PA 16565","phone":"814.864.4990"},{"latitude":43.515652,"longitude":-80.239557,"name":"Gymboree - Stone Road Mall #756","address":"435 Stone Road West, Unit A3A\r\nGuelph, ON N1G 2X6","phone":"519.829.1087"},{"latitude":40.357617,"longitude":-80.050311,"name":"Gymboree - The Galleria of Mt Lebanon #41","address":"1500 Washington Road, Suite #1201A\r\nPittsburgh, PA 15228","phone":"412.341.1892"},{"latitude":35.082707,"longitude":-81.70914,"name":"Gymboree Outlet - Gaffney Premium Outlets #5029","address":"535 Factory Shops Blvd.\r\nGaffney, SC 29341","phone":"864.902.0711"},{"latitude":40.54234,"longitude":-80.012369,"name":"Gymboree - Ross Park Mall #377","address":"1000 Ross Park Mall Drive\r\nPittsburgh, PA 15237","phone":"412.364.8989"},{"latitude":35.7068,"longitude":-81.305643,"name":"Gymboree - Valley Hills Mall #553","address":"1960 Highway 70 Southeast\r\nHickory, NC 28602","phone":"828.345.1324"},{"latitude":43.223098,"longitude":-79.86507,"name":"Gymboree - Lime Ridge Mall #733","address":"999 Upper Wentworth St, Space 163A\r\nHamilton, ON L9A 4X5","phone":"905.575.4651"},{"latitude":43.327868,"longitude":-79.81955,"name":"Gymboree - Mapleview Shopping Centre #728","address":"900 Maple Ave. #B18\r\nBurlington, ON L7S 2J8","phone":"905.631.5673"},{"latitude":43.4622,"longitude":-79.68899,"name":"Gymboree - Oakville Place #750","address":"240 Leighland Ave., Unit #230\r\nOakville, ON L6H 3H6","phone":"905.337.1117"},{"latitude":43.55879,"longitude":-79.70681,"name":"Gymboree - Erin Mills Town Centre #744","address":"5100 Erin Mills Pkwy, Unit #E028\r\nMississauga, ON L5M 4Z5","phone":"905.569.6100"},{"latitude":43.71732,"longitude":-79.723585,"name":"Gymboree - Bramalea City Centre #740","address":"25 Peel Centre Drive, Space #215\r\nBrampton, ON L6T 3R5","phone":"905.494.0943"},{"latitude":40.300777,"longitude":-79.533532,"name":"Gymboree - Westmoreland Mall #340","address":"1 Westmoreland Mall Ste. 222\r\nGreensburg, PA 15601","phone":"724.853.8080"},{"latitude":43.59224,"longitude":-79.63909,"name":"Gymboree - Square One #731","address":"100 City Centre Drive, Unit 2-180\r\nMississauga, ON L5B 2C9","phone":"905.273.5713"},{"latitude":33.467498,"longitude":-82.07988,"name":"Gymboree - Augusta Mall #192","address":"3450 Wrightsboro Rd\r\nAugusta, GA 30909","phone":"706.733.9693"},{"latitude":35.445453,"longitude":-80.879891,"name":"Gymboree - Birkdale Village #605","address":"16916 Birkdale Commons Pkwy\r\nHuntersville, NC 28078","phone":"704.987.0632"},{"latitude":43.610085,"longitude":-79.560905,"name":"Gymboree - Sherway Gardens #704","address":"25 The West Mall, Space # 1912\r\nEtobicoke, ON M9C 1B8","phone":"416.622.8885"},{"latitude":44.41279,"longitude":-79.710557,"name":"Gymboree - Georgian Mall #737","address":"509 Bayfield Street, Sp. #N12\r\nBarrie, ON L4M 4Z8","phone":"705.726.9616"},{"latitude":35.353002,"longitude":-80.855899,"name":"Gymboree - Northlake #641","address":"6801 North lake mall Dr\r\nCharlotte, NC 28216","phone":"704.599.4616"},{"latitude":43.82275,"longitude":-79.53323,"name":"Gymboree - Vaughan Mills #752","address":"1 Bass Pro Mills Drive, Unit #267\r\nVaughan, ON L4K 5W4","phone":"905.761.8748"},{"latitude":35.239059,"longitude":-80.90179,"name":"Gymboree Outlet - Charlotte Premium Outlets #5190","address":"5506 New Fashion Way, Suite 340\r\nCharlotte, NC 28278","phone":"704.587.7139"},{"latitude":37.30277,"longitude":-79.958239,"name":"Gymboree - Valley View Mall #350","address":"4802 Valley View Blvd. NW\r\nRoanoke, VA 24012","phone":"540.265.7059"},{"latitude":43.724667,"longitude":-79.457111,"name":"Gymboree - Yorkdale Shopping Centre #701","address":"3401 Dufferin Road, Ste 229\r\nToronto, ON M6A 2T9","phone":"416.787.3537"},{"latitude":43.8092,"longitude":-79.45343,"name":"Gymboree - Promenade #709","address":"One Promenade Circle\r\nThornhill, ON L4J 4P8","phone":"905.709.6128"},{"latitude":44.056998,"longitude":-79.480908,"name":"Gymboree - Upper Canada Mall #723","address":"17600 Yonge Street\r\nNewmarket, ON L3Y 4Z1","phone":"905.853.5427"},{"latitude":35.082804,"longitude":-80.879792,"name":"Gymboree - Carolina Place Mall #248","address":"11025 Carolina Place Parkway, #C23\r\nPineville, NC 28134","phone":"704.543.4966"},{"latitude":35.371465,"longitude":-80.718445,"name":"Gymboree Outlet - Concord Mills #5021","address":"8111 Concord Mills Blvd., Ste #274\r\nConcord, NC 28027","phone":"704.979.0409"},{"latitude":43.73485,"longitude":-79.34464,"name":"Gymboree - Don Mills Centre #739","address":"16 Karl Frazer Road, Space #J3B\r\nToronto, ON M3C 0E8","phone":"416.384.1285"},{"latitude":43.775864,"longitude":-79.343865,"name":"Gymboree - Fairview Mall #702","address":"1800 Sheppard, Box 134\r\nWillowdale, ON M2J 5A7","phone":"416.490.6215"},{"latitude":43.133612,"longitude":-79.223246,"name":"Gymboree - Penn Centre #748","address":"221 Glendale Ave., Unit #96A\r\nSt. Catharines, ON L2T 2K9","phone":"905.682.1110"},{"latitude":36.073307,"longitude":-80.29815,"name":"Gymboree - Hanes Mall #229","address":"3320 Silas Creek Parkway, #4432\r\nWinston-Salem, NC 27103","phone":"336.768.3115"},{"latitude":43.865551,"longitude":-79.291417,"name":"Gymboree - Markville Shopping Center #711","address":"5000 HWY 7 East/323A\r\nMarkham, ON L3R 4M9","phone":"905.944.9977"},{"latitude":43.773646,"longitude":-79.26105,"name":"Gymboree - Scarborough #730","address":"300 Borough Drive, Unit 273\r\nScarborough, ON M1P 4P5","phone":"416.290.5672"},{"latitude":30.43443,"longitude":-84.254999,"name":"Gymboree - Governor's Square Mall #188","address":"1500 Apalachee Parkway, Suite #2165\r\nTallahassee, FL 32301","phone":"850.402.7645"},{"latitude":43.09841,"longitude":-78.976142,"name":"Gymboree Outlet - Fashion Outlets at Niagara Falls #5085","address":"1954 Military Road\r\nNiagara Falls, NY 14304","phone":"716.297.2015"},{"latitude":34.074582,"longitude":-81.155459,"name":"Gymboree - Columbiana Center #191","address":"100 Columbiana Circle, #1122\r\nColumbia, SC 29212","phone":"803.749.0004"},{"latitude":43.838122,"longitude":-79.087302,"name":"Gymboree - Pickering Town Center #738","address":"1355 Kingston Road\r\nPickering, ON L1V 1B8","phone":"905.831.0745"},{"latitude":40.297542,"longitude":-78.835671,"name":"Gymboree - Johnstown Galleria #463","address":"500 Galleria Drive / #279\r\nJohnstown, PA 15904","phone":"814.262.6080"},{"latitude":42.988694,"longitude":-78.822558,"name":"Gymboree - Boulevard Mall #156","address":"1257 Niagara Falls Blvd.\r\nAmherst, NY 14226","phone":"716.836.0622"},{"latitude":42.908842,"longitude":-78.761978,"name":"Gymboree - Walden Galleria #64","address":"B208 Walden Galleria\r\nBuffalo, NY 14225","phone":"716.681.2451"},{"latitude":34.01832,"longitude":-80.992219,"name":"Gymboree - Midtown at Forest Acres #495","address":"3400 Forest Drive #1043\r\nColumbia, SC 29204","phone":"803.787.5399"},{"latitude":43.893932,"longitude":-78.879173,"name":"Gymboree - Oshawa Centre #751","address":"419 King Street West, Suite #2410A\r\nOshawa, ON L1J 2K5","phone":"905.579.0606"},{"latitude":34.126371,"longitude":-80.876201,"name":"Gymboree - Village at Sandhill #696","address":"471 Town Center Place\r\nColumbia, SC 29229","phone":"803.736.4704"},{"latitude":36.083638,"longitude":-79.831383,"name":"Gymboree - Friendly Shopping Center #411","address":"638 Friendly Center Road\r\nGreensboro, NC 27408","phone":"336.851.2274"},{"latitude":36.038911,"longitude":-79.836999,"name":"Gymboree - Four Seasons Town Center #167","address":"400 Four Seasons Town Center, Suite #234\r\nGreensboro, NC 27407","phone":"336.292.9037"},{"latitude":32.765027,"longitude":-115.535073,"name":"Gymboree - Imperial Valley Mall #1703","address":"3451 South Dogwood Avenue, Suite 1040\r\nEl Centro, CA 92243","phone":"760.336.0905"},{"latitude":32.665567,"longitude":-115.52794,"name":"Gymboree Outlet - Gran Plaza Outlets #5172","address":"888 West Second Street, Suite #F140\r\nCalexico, CA 92231","phone":"760.768.2948"},{"latitude":40.5744,"longitude":-78.33225,"name":"Gymboree - Logan Valley Mall #387","address":"Route 220 & Goods Lane #608\r\nAltoona, PA 16602","phone":"814.942.4110"},{"latitude":50.94957,"longitude":-114.06124,"name":"Gymboree - South Centre Mall #732","address":"100 Anderson Road S.E.\r\nCalgary, AB T2J 3V1","phone":"403.271.0210"},{"latitude":34.848574,"longitude":-117.083539,"name":"Gymboree Outlet - Tanger Outlets - Barstow #5099","address":"2796 Tanger Way, Suite 365\r\nBarstow, CA 92311","phone":"760.253.2972"},{"latitude":50.996073,"longitude":-114.0717,"name":"Gymboree - Chinook Centre #727","address":"6455 Macleod Trail SW #172A\r\nCalgary, AB T2H 0K8","phone":"403.301.2020"},{"latitude":47.676022,"longitude":-117.205976,"name":"Gymboree - Spokane Valley Mall #546","address":"E. 14700 Indiana, Suite 1040\r\nSpokane, WA 99216","phone":"509.893.2728"},{"latitude":51.0856,"longitude":-114.15301,"name":"Gymboree - Market Mall #710","address":"3625 Shaganappi Trail NW/C006\r\nCalgary, AB T3A 0E2","phone":"403.202.2478"},{"latitude":51.204539,"longitude":-113.993185,"name":"Gymboree - CrossIron Mills #741","address":"261055 CrossIron Blvd., Space #347\r\nRocky View, AB T4A 0G3","phone":"587.619.9241"},{"latitude":36.074115,"longitude":-79.269595,"name":"Gymboree Outlet - Tanger Outlets - Piedmont Outlet Center #5124","address":"4000 Arrowhead Blvd., Suite #250\r\nMebane, NC 27302","phone":"919.304.1690"},{"latitude":47.6886,"longitude":-117.389,"name":"Gymboree - Northtown Mall #241","address":"4750 N Division St\r\nSpokane, WA 99207","phone":"509.487.5688"},{"latitude":47.659033,"longitude":-117.423684,"name":"Gymboree - River Park Square #1725","address":"808 W. Main Street, Suite 205\r\nSpokane, WA 99201","phone":"509.363.9019"},{"latitude":39.2338,"longitude":-78.233153,"name":"Gymboree - Apple Blossom Mall #439","address":"1850 Apple Blossom Drive N-135\r\nWinchester, VA 22601","phone":"540.723.9670"},{"latitude":38.07829,"longitude":-78.471842,"name":"Gymboree - Charlottesville Fashion Square #226","address":"1560 Rio Road\r\nCharlottesville, VA 22901","phone":"434.975.2251"},{"latitude":40.83134,"longitude":-77.800869,"name":"Gymboree - Nittany Mall #464","address":"2900 E. College Ave./ 607\r\nState College, PA 16801","phone":"814.861.3803"},{"latitude":32.111429,"longitude":-81.254363,"name":"Gymboree Outlet - Tanger Outlets - Savannah #5177","address":"200 Tanger Outlet Blvd., Suite 717\r\nPooler, GA 31322","phone":"912.450.0895"},{"latitude":35.90595,"longitude":-78.937428,"name":"Gymboree - The Streets of Southpoint #589","address":"6910 Fayetteville Road\r\nDurham, NC 27713","phone":"919.806.5990"},{"latitude":39.608214,"longitude":-77.73322,"name":"Gymboree Outlet - Hagerstown Premium Outlets #5008","address":"495 Premium Outlets Blvd., Suite #B022\r\nHagerstown, MD 21740","phone":"301.766.0255"},{"latitude":39.5442,"longitude":-119.4707,"name":"Gymboree Outlet - The Legends at Sparks Marina #5127","address":"1350 Scheels Drive., Suite 126\r\nSparks, NV 89434","phone":"775.358.0648"},{"latitude":32.005189,"longitude":-81.117408,"name":"Gymboree - Oglethorpe Mall #619","address":"7804 Abercorn St., Space #26\r\nSavannah, GA 31406","phone":"912.356.0241"},{"latitude":43.027708,"longitude":-77.447299,"name":"Gymboree - Eastview Mall #245","address":"431 Eastview Mall\r\nVictor, NY 14564","phone":"585.425.9970"},{"latitude":35.77148,"longitude":-78.763149,"name":"Gymboree - Cary Towne Center #228","address":"1105 Walnut Street #G138\r\nCary, NC 27511","phone":"919.469.2772"},{"latitude":33.526271,"longitude":-117.157957,"name":"Gymboree - The Promenade at Temecula #572","address":"40820 Winchester Rd., Space #1300\r\nTemecula, CA 92591","phone":"951.719.1444"},{"latitude":34.11209,"longitude":-117.53238,"name":"Gymboree - Victoria Gardens #615","address":"12507 North Mainstreet, 1st Floor\r\nRancho Cucamonga, CA 91739","phone":"909.463.2241"},{"latitude":35.841233,"longitude":-78.678477,"name":"Gymboree - Crabtree Valley Mall #255","address":"4325 Glenwood Ave Unit 2085\r\nRaleigh, NC 27612","phone":"919.783.0708"},{"latitude":32.24098,"longitude":-80.81939,"name":"Gymboree Outlet - Tanger Outlets - Hilton Head #5043","address":"1414 Fording Island Road , Suite #A135\r\nBluffton, SC 29910","phone":"843.837.7811"},{"latitude":34.07447,"longitude":-117.556379,"name":"Gymboree Outlet - Ontario Mills #5012","address":"One Mills Circle sp 710\r\nOntario, CA 91764","phone":"909.481.9409"},{"latitude":33.909906,"longitude":-117.458978,"name":"Gymboree - Galleria at Tyler #84","address":"1266 Galleria at Tyler\r\nRiverside, CA 92503","phone":"951.352.3916"},{"latitude":33.70239,"longitude":-117.354449,"name":"Gymboree Outlet - Lake Elsinore Outlets #5095","address":"17600 Collier Ave; Suite 139A\r\nLake Elsinore, CA 92530","phone":"951.245.3806"},{"latitude":39.109745,"longitude":-77.536529,"name":"Gymboree Outlet - Leesburg Corner Premium Outlets #5028","address":"241 Fort Evans Road NE, Space 1149\r\nLeesburg, VA 20176","phone":"571.258.0690"},{"latitude":35.073026,"longitude":-78.96384,"name":"Gymboree - Cross Creek Mall #675","address":"233 Cross Creek Mall #TC06A\r\nFayetteville, NC 28303","phone":"910.864.0155"},{"latitude":35.866663,"longitude":-78.57147,"name":"Gymboree - Triangle Town Center #1753","address":"5959 Triangle Town Blvd.\r\nRaleigh, NC 27616","phone":"919.449.2526"},{"latitude":33.812447,"longitude":-117.506329,"name":"Gymboree - The Shops at Dos Lagos #661","address":"2780 Cabot Drive, Suite 120\r\nCorona, CA 92883","phone":"951.277.5810"},{"latitude":39.376075,"longitude":-77.409622,"name":"Gymboree - Westive Promenade #1739","address":"5235 Buckeystown Pike\r\nFrederick, MD 21703","phone":"301.631.1785"},{"latitude":34.085,"longitude":-117.695064,"name":"Gymboree - Montclair Place #39","address":"5036 S Montclair Plaza Lane\r\nMontclair, CA 91763","phone":"909.625.2877"},{"latitude":39.406268,"longitude":-119.748464,"name":"Gymboree - Summit Sierra #1718","address":"13921 S. Virginia Street, Suite #118\r\nReno, NV 89511","phone":"775.852.7647"},{"latitude":33.069065,"longitude":-117.068519,"name":"Gymboree - North County Fair #75","address":"200 E. Via Rancho Pkwy., #485\r\nEscondido, CA 92025","phone":"760.740.8606"},{"latitude":39.034289,"longitude":-77.422673,"name":"Gymboree - Dulles Town Center #564","address":"21100 Dulles Town Circle #225\r\nDulles, VA 20166","phone":"703.433.0991"},{"latitude":46.224679,"longitude":-119.224011,"name":"Gymboree - Columbia Center #426","address":"1321 North Columbia Center Blvd\r\nKennewick, WA 99336","phone":"509.735.8545"},{"latitude":34.000608,"longitude":-117.73023,"name":"Gymboree - Shoppes at Chino Hills #1711","address":"13925 City Center Drive, Suite #2045\r\nChino Hills, CA 91709","phone":"909.591.9469"},{"latitude":32.941871,"longitude":-80.04232,"name":"Gymboree - Northwoods Mall #230","address":"2150 Northwoods Blvd., #C3\r\nNorth Charleston, SC 29406","phone":"843.764.0780"},{"latitude":39.79586,"longitude":-77.199429,"name":"Gymboree Outlet - Outlet Shoppes at Gettysburg #5106","address":"1863 Gettysburg Village Drive, suite B430\r\nGettysburg, PA 17325","phone":"717.334.8593"},{"latitude":38.291183,"longitude":-77.51544,"name":"Gymboree - Spotsylvania Mall #511","address":"720 Spotsylvania Mall\r\nFredericksburg, VA 22407","phone":"540.548.2061"},{"latitude":38.865768,"longitude":-77.360273,"name":"Gymboree - Fair Oaks Mall #32","address":"11819U Fair Oaks\r\nFairfax, VA 22033","phone":"703.273.4708"},{"latitude":33.109299,"longitude":-117.2303,"name":"Gymboree Outlet - Carlsbad Premium Outlets #5078","address":"5600 Paseo del Norte, Suite A109\r\nCarlsbad, CA 92008","phone":"760.804.5852"},{"latitude":32.873013,"longitude":-80.023179,"name":"Gymboree Outlet - Tanger Outlets - Charleston #5020","address":"4840 Tanger Outlet Blvd, Suite 1074\r\nNorth Charleston, SC 29418","phone":"843.744.3361"},{"latitude":33.179657,"longitude":-117.326861,"name":"Gymboree - The Shoppes at Carlsbad #312","address":"2525 El Camino Real, Suite #131\r\nCarlsbad, CA 92008","phone":"760.729.2822"},{"latitude":37.654302,"longitude":-77.6233,"name":"Gymboree - Short Pump Town Center #1773","address":"11800 West Borad Street, Suite #1502\r\nRichmond, VA 23233","phone":"804.364.3971"},{"latitude":39.15098,"longitude":-77.205929,"name":"Gymboree - Lakeforest Mall #92","address":"701 Russell Avenue\r\nGaithersburg, MD 20877","phone":"301.869.6825"},{"latitude":34.068699,"longitude":-117.934197,"name":"Gymboree - West Covina #284","address":"226 Plaza Drive\r\nWest Covina, CA 91790","phone":"626.338.6997"},{"latitude":33.610823,"longitude":-117.666482,"name":"Gymboree - The Shops at Mission Viejo #43","address":"244 Shops at Mission Viejo\r\nMission Viejo, CA 92691","phone":"949.347.0866"},{"latitude":38.6458,"longitude":-77.298799,"name":"Gymboree Outlet - Potomac Mills #5006","address":"2700 Potomac Mills Circle\r\nWoodbridge, VA 22192","phone":"703.497.0469"},{"latitude":38.923227,"longitude":-77.220386,"name":"Gymboree - Tyson's Corner #26","address":"7970L Tyson's Corner Center\r\nMcLean, VA 22102","phone":"703.790.8858"},{"latitude":37.505561,"longitude":-77.608951,"name":"Gymboree - Chesterfield Towne Center #276","address":"11500 Midlothian Turnpike\r\nRichmond, VA 23235","phone":"804.378.7892"},{"latitude":38.6276,"longitude":-77.2851,"name":"Gymboree - Stone Bridge at Potomac #1758","address":"14900 Potomac Town Place\r\nWoodbridge, VA 22191","phone":"703.680.5973"},{"latitude":42.9543,"longitude":-76.9176,"name":"Gymboree Outlet - Waterloo Premium Outlets #5057","address":"655 State Route 318, Suite #7\r\nWaterloo, NY 13165","phone":"315.539.3189"},{"latitude":37.601022,"longitude":-77.563965,"name":"Gymboree - Regency Square #116","address":"1404 Parham Road #K210\r\nRichmond, VA 23229","phone":"804.740.0172"},{"latitude":33.91331,"longitude":-117.884407,"name":"Gymboree - Brea Mall #11","address":"1065 Brea Mall Ste 2055\r\nBrea, CA 92821","phone":"714.990.2231"},{"latitude":32.65572,"longitude":-117.067891,"name":"Gymboree - Plaza Bonita #310","address":"3030 Plaza Bonita Road, Suite 2336\r\nNational City, CA 91950","phone":"619.470.6733"},{"latitude":32.857599,"longitude":-117.2088,"name":"Gymboree - Westfield UTC #105","address":"4373 LaJolla Village Dr., Suite #G2\r\nSan Diego, CA 92122","phone":"858.597.1043"},{"latitude":37.549701,"longitude":-77.568228,"name":"Gymboree - Stony Point Parkway #592","address":"9200 Stony Point Pkwy, Sp 142\r\nRichmond, VA 23235","phone":"804.320.3380"},{"latitude":39.022074,"longitude":-77.146788,"name":"Gymboree - Westfield Montgomery #66","address":"7101 Democracy Blvd. #2214\r\nBethesda, MD 20817","phone":"301.299.3085"},{"latitude":34.13403,"longitude":-118.054254,"name":"Gymboree - Santa Anita Fashion Centre #206","address":"400 S. Baldwin Avenue\r\nArcadia, CA 91007","phone":"626.445.4107"},{"latitude":40.8238,"longitude":-76.8718,"name":"Gymboree - Susquehanna Valley Mall #447","address":"One Susquehanna Valley Mall Drive, Suite B6\r\nSelinsgrove, PA 17870","phone":"570.374.8899"},{"latitude":35.505294,"longitude":-78.349483,"name":"Gymboree Outlet - Carolina  Premium Outlets #5049","address":"1025 Outlet Center Drive, Suite 0310B\r\nSmithfield, NC 27577","phone":"919.934.2373"},{"latitude":40.222649,"longitude":-76.930348,"name":"Gymboree - Capital City Mall #365","address":"3565 Capital Mall Dr.\r\nCamp Hill, PA 17011","phone":"717.975.5110"},{"latitude":32.545429,"longitude":-117.042498,"name":"Gymboree Outlet - The Gateway Shops at Las Americas #5017","address":"4211 Camino de la Plaza\r\nSan Diego, CA 92173","phone":"619.690.1450"},{"latitude":38.772427,"longitude":-77.176722,"name":"Gymboree - Springfield Town Center #65","address":"6715 Springfield Mall\r\nSpringfield, VA 22150","phone":"703.971.0267"},{"latitude":33.77658,"longitude":-117.867439,"name":"Gymboree - Main Place #7","address":"2800 N. Main St #544A\r\nSanta Ana, CA 92705","phone":"714.973.1163"},{"latitude":41.237212,"longitude":-76.811764,"name":"Gymboree - Lycoming Mall #478","address":"300 Lycoming Mall Cir Ste. 644\r\nMuncy, PA 17756","phone":"570.546.8330"},{"latitude":37.674101,"longitude":-77.460798,"name":"Gymboree - Virginia Center #537","address":"10101 Brook Avenue #408\r\nGlen Allen, VA 23059","phone":"804.261.2460"},{"latitude":33.7801,"longitude":-117.894299,"name":"Gymboree Outlet - The Outlets at Orange #5119","address":"20 City Boulevard West, Suite #121B\r\nOrange, CA 92868","phone":"714.939.6448"},{"latitude":32.769486,"longitude":-117.239327,"name":"Gymboree - Fashion Valley #49","address":"7007 Friars Road, Suite 960\r\nSan Diego, CA 92108","phone":"619.298.0381"},{"latitude":32.829779,"longitude":-79.828423,"name":"Gymboree - Mt. Pleasant Towne Centre #697","address":"1600 Palmetto Grande Drive, Ste. 1-7\r\nMt. Pleasant, SC 29464","phone":"843.849.5114"},{"latitude":32.71407,"longitude":-117.231063,"name":"Gymboree - Horton Plaza #12","address":"265 Horton Plaza\r\nSan Diego, CA 92101","phone":"619.544.0448"},{"latitude":34.034763,"longitude":-118.085812,"name":"Gymboree - Shops at Montebello #1701","address":"2080 Montebello Town Center, Space #AU21\r\nMontebello, CA 90640","phone":"323.726.9309"},{"latitude":39.038212,"longitude":-77.05264,"name":"Gymboree - Wheaton Mall #527","address":"11160 Veirs Mill Rd #P214\r\nWheaton, MD 20902","phone":"301.962.0654"},{"latitude":33.690413,"longitude":-117.885642,"name":"Gymboree - South Coast Plaza #18","address":"3333 Bristol Street #1037\r\nCosta Mesa, CA 92626","phone":"714.641.1600"},{"latitude":38.863512,"longitude":-77.059442,"name":"Gymboree - Fashion Centre at Pentagon City #86","address":"1100 South Hayes Street, Space #2044\r\nArlington, VA 22202","phone":"703.412.2580"},{"latitude":29.659564,"longitude":-82.411065,"name":"Gymboree - The Oaks Mall #232","address":"6419 W Newberry Road, #H2\r\nGainsville, FL 32605","phone":"352.331.5066"},{"latitude":34.0048,"longitude":-118.152999,"name":"Gymboree Outlet - Citadel Outlets #5087","address":"100 Citadel Drive, Suite 113\r\nCity of Commerce, CA 90040","phone":"323.726.9147"},{"latitude":33.745965,"longitude":-118.008919,"name":"Gymboree - Westminster Mall #30","address":"2040 Westminster Mall\r\nWestminster, CA 92683","phone":"714.895.1355"},{"latitude":36.310474,"longitude":-119.313892,"name":"Gymboree - Visalia Mall #480","address":"2207 S. Mooney Blvd/#475\r\nVisalia, CA 93277","phone":"559.733.3340"},{"latitude":38.796017,"longitude":-77.003186,"name":"Gymboree Outlet - Tanger National Harbor #5183","address":"6800 Oxon Hill Road, Suite #865\r\nNational Harbor, MD 20745","phone":"301.839.0831"},{"latitude":34.146371,"longitude":-118.259232,"name":"Gymboree - Glendale Galleria #14","address":"1314 Glendale Galleria\r\nGlendale, CA 91210","phone":"818.546.1209"},{"latitude":33.865028,"longitude":-118.094722,"name":"Gymboree - Los Cerritos Center #195","address":"180 Los Cerritos Center\r\nCerritos, CA 90703","phone":"562.809.6844"},{"latitude":35.236398,"longitude":-118.840382,"name":"Gymboree Outlet - Outlets at Tejon Ranch #5193","address":"5701 Outlets at Tejon Parkway, Suite #740\r\nArvin, CA 93203","phone":"661.858.2532"},{"latitude":36.230032,"longitude":-119.335078,"name":"Gymboree Outlet - Tulare Outlet Center #5102","address":"1491 Retherford Street, Suite D020\r\nTulare, CA 93274","phone":"559.687.7969"},{"latitude":40.294679,"longitude":-76.647992,"name":"Gymboree Outlet - Tanger Outlet Center #5062","address":"146 Outlet Square\r\nHershey, PA 17033","phone":"717.533.7870"},{"latitude":39.19645,"longitude":-76.8136,"name":"Gymboree - Columbia Mall #103","address":"10300 Little Patuxent Parkway, Suite #1075\r\nColumbia, MD 21044","phone":"410.772.6145"},{"latitude":39.988352,"longitude":-76.672938,"name":"Gymboree - York Galleria #416","address":"225 York Galleria\r\nYork, PA 17402","phone":"717.751.2263"},{"latitude":35.339372,"longitude":-119.032389,"name":"Gymboree - Valley Plaza Mall #220","address":"2701 Ming Avenue, #26\r\nBakersfield, CA 93304","phone":"661.836.8175"},{"latitude":34.413207,"longitude":-118.557665,"name":"Gymboree - The Patios at Westfield Valencia Town Center #144","address":"24201 Valencia Blvd., #1090\r\nValencia, CA 91355","phone":"661.288.1067"},{"latitude":34.15761,"longitude":-118.435251,"name":"Gymboree - Westfield Fashion Square #40","address":"14006 Riverside Drive, Suite #72\r\nSherman Oaks, CA 91423","phone":"818.783.6821"},{"latitude":39.232409,"longitude":-76.725747,"name":"Gymboree Outlet - Arundel Mills #5019","address":"7000 Arundel Mills Circle, Sp. 419\r\nHanover, MD 21076","phone":"410.579.1980"},{"latitude":33.699847,"longitude":-78.926467,"name":"Gymboree - Coastal Grand #624","address":"2000 Coastal Grand Circle #185\r\nMyrtle Beach, SC 29577","phone":"843.946.7455"},{"latitude":39.495828,"longitude":-76.654001,"name":"Gymboree - Hunt Valley Towne Centre #1756","address":"118 Shawan Road, Suite L\r\nHunt Valley, MD 21031","phone":"410.785.4975"},{"latitude":30.2555,"longitude":-81.525305,"name":"Gymboree - St. John's Towne Center #1757","address":"4791 River City Drive, Suite #131\r\nJacksonville, FL 32246","phone":"904.642.2521"},{"latitude":34.040589,"longitude":-118.427548,"name":"Gymboree - Westside Pavilion #5","address":"10800 West Pico Blvd., Suite #379\r\nLos Angeles, CA 90064","phone":"310.474.8404"},{"latitude":34.23911,"longitude":-118.553559,"name":"Gymboree - Northridge Fashion Center #299","address":"9301 Tampa Ave, Space #83B\r\nNorthridge, CA 91324","phone":"818.882.8986"},{"latitude":33.870765,"longitude":-118.352706,"name":"Gymboree - South Bay Galleria #24","address":"1815 Hawthorne Blvd., #282\r\nRedondo Beach, CA 90278","phone":"310.371.2024"},{"latitude":44.264894,"longitude":-76.568613,"name":"Gymboree - Cataraqui Centre #755","address":"945 Gardiners Rd., Unit #L10\r\nKingston, ON K7M 7H4","phone":"613.389.7419"},{"latitude":30.180269,"longitude":-81.551755,"name":"Gymboree - The Avenues #118","address":"10300 Southside Blvd., #1480\r\nJacksonville, FL 32256","phone":"904.363.1771"},{"latitude":36.80845,"longitude":-119.779139,"name":"Gymboree - Fashion Fair #260","address":"501 E. Shaw Avenue\r\nFresno, CA 93710","phone":"559.244.0185"},{"latitude":33.828711,"longitude":-118.352031,"name":"Gymboree - Del Amo Fashion Center #36","address":"21712 Hawthorne Blvd., #228B\r\nTorrance, CA 90503","phone":"310.371.5607"},{"latitude":39.404726,"longitude":-76.601477,"name":"Gymboree - Towson Town Center #81","address":"825 Dulaney Valley Road, #3075\r\nTowson, MD 21204","phone":"410.821.8958"},{"latitude":33.898445,"longitude":-118.395899,"name":"Gymboree - Manhattan Village #622","address":"3200 Sepulveda Blvd., Space A-2\r\nManhattan Beach, CA 90266","phone":"310.939.9188"},{"latitude":33.784997,"longitude":-78.770444,"name":"Gymboree Outlet - Tanger Outlets - Myrtle Beach #5101","address":"10839 Kings Road, Suite #710\r\nMyrtle Beach, SC 29572","phone":"843.449.2819"},{"latitude":34.01473,"longitude":-118.49407,"name":"Gymboree - Santa Monica Place #1751","address":"395 Santa Monica Place\r\nSanta Monica, CA 90401","phone":"310.451.2751"},{"latitude":34.153791,"longitude":-118.644573,"name":"Gymboree - Commons at Calabasas #562","address":"4719 Commons Way, Ste. F7A\r\nCalabasas, CA 91302","phone":"818.876.0094"},{"latitude":38.991201,"longitude":-76.547829,"name":"Gymboree - Westfield Annapolis #163","address":"1745 Annapolis Mall\r\nAnnapolis, MD 21401","phone":"410.266.6901"},{"latitude":53.48581,"longitude":-113.523584,"name":"Gymboree - Southgate Centre #735","address":"111 Street NW\r\nEdmonton, AB T6H 4M6","phone":"780.988.5505"},{"latitude":40.065671,"longitude":-76.340276,"name":"Gymboree - Park City Center #199","address":"381 Park City Center\r\nLancaster, PA 17601","phone":"717.397.7175"},{"latitude":34.284181,"longitude":-118.777833,"name":"Gymboree - Simi Valley #588","address":"1555 Simi Town Center Way #527\r\nSimi Valley, CA 93065","phone":"805.582.2184"},{"latitude":53.56934,"longitude":-113.4963,"name":"Gymboree - Kingsway Garden Mall #725","address":"109 St. & Princess Elizabeth Ave. #147\r\nEdmonton, AB T5G 3A6","phone":"780.471.5225"},{"latitude":43.07189,"longitude":-76.171243,"name":"Gymboree - Destiny USA #60","address":"9774 Destiny USA Dr\r\nSyracuse, NY 13290","phone":"315.466.4704"},{"latitude":53.5149,"longitude":-113.61549,"name":"Gymboree - West Edmonton Mall #700","address":"8770 170th St #1808\r\nEdmonton, AB T5T 4J2","phone":"780.444.2180"},{"latitude":40.02307,"longitude":-76.197028,"name":"Gymboree Outlet - Rockvale Outlets #5064","address":"35 S. Willowdale Drive, Ste. 1723\r\nLancaster, PA 17602","phone":"717.390.7650"},{"latitude":29.922712,"longitude":-81.41798,"name":"Gymboree Outlet - St. Augustine Premium Outlets #5075","address":"2700 State Road 16, Suite # 302\r\nSt. Augustine, FL 32092","phone":"904.810.9843"},{"latitude":34.18727,"longitude":-118.887914,"name":"Gymboree - The Oaks Shopping Center #73","address":"290 W. Hillcrest Drive\r\nThousand Oaks, CA 91360","phone":"805.496.1510"},{"latitude":42.125279,"longitude":-75.971868,"name":"Gymboree - Oakdale Mall #368","address":"223 Reynolds Road, Sp.# 77\r\nJohnson City, NY 13790","phone":"607.766.9242"},{"latitude":37.320438,"longitude":-76.735544,"name":"Gymboree Outlet - Williamsburg Premium Outlets #5014","address":"5711-22 Richmond Rd.\r\nWilliamsburg, VA 23188","phone":"757.221.9547"},{"latitude":38.983447,"longitude":-76.23032,"name":"Gymboree Outlet - Prime Outlets at Queenstown #5035","address":"215 Outlet Center Drive\r\nQueenstown, MD 21658","phone":"410.827.0124"},{"latitude":34.218104,"longitude":-119.061454,"name":"Gymboree Outlet - Camarillo Premium Outlets #5071","address":"740 E. Ventura Blvd., Suite # 524\r\nCamarillo, CA 93010","phone":"805.987.0367"},{"latitude":35.5897,"longitude":-77.367249,"name":"Gymboree - Greenville Mall #494","address":"714 SE Greenville Blvd.\r\nGreenville, NC 27858","phone":"252.353.6918"},{"latitude":40.338252,"longitude":-75.9725,"name":"Gymboree - Berkshire Mall #467","address":"1665 State Hill Road\r\nWyomissing, PA 19610","phone":"610.374.6045"},{"latitude":40.3477,"longitude":-75.96495,"name":"Gymboree - The Shoppes at Wyomissing #1738","address":"752 Woodland Road\r\nWyomissing, PA 19610","phone":"610.374.1010"},{"latitude":41.246997,"longitude":-75.842023,"name":"Gymboree - Wyoming Valley Mall #531","address":"52 Wyoming Valley Mall\r\nWilkes-Barre, PA 18702","phone":"570.824.2361"},{"latitude":34.2174,"longitude":-77.907097,"name":"Gymboree - Independence Mall #344","address":"3500 Oleander Mall, #D-20\r\nWilmington, NC 28403","phone":"910.452.4000"},{"latitude":34.26736,"longitude":-119.250539,"name":"Gymboree - Pacific View #573","address":"3301 East Main Street, Suite #1272\r\nVentura, CA 93003","phone":"805.654.9931"},{"latitude":46.544376,"longitude":-120.655524,"name":"Gymboree - Valley Mall #1755","address":"2529 Main Street, #A16\r\nUnion Gap, WA 98903","phone":"509.452.7449"},{"latitude":44.046876,"longitude":-121.315011,"name":"Gymboree - Old Mill District #1771","address":"450 SW Powerhouse Drive, Suite #409\r\nBend, OR 97702","phone":"541.312.0117"},{"latitude":41.40863,"longitude":-75.669239,"name":"Gymboree - The Mall @ Steamtown #354","address":"124 The Mall at Steamtown\r\nScranton, PA 18503","phone":"570.347.1292"},{"latitude":37.11255,"longitude":-76.499459,"name":"Gymboree - Patrick Henry Mall #477","address":"12300 Jefferson Ave., Suite #800\r\nNewport News, VA 23602","phone":"757.249.0636"},{"latitude":38.648283,"longitude":-121.121196,"name":"Gymboree - Palladio at Broadstone #1747","address":"340 Palladio Parkway, Suite #509\r\nFolsom, CA 95630","phone":"916.986.9110"},{"latitude":38.64431,"longitude":-121.190909,"name":"Gymboree Outlet - Folsom Premium Outlets #5048","address":"13000 Folsom Blvd., Sp. # 0606\r\nFolsom, CA 95630","phone":"916.608.0644"},{"latitude":39.630757,"longitude":-75.717865,"name":"Gymboree - Christiana Mall #54","address":"132 Christiana Stanton Rd\r\nNewark, DE 19702","phone":"302.456.3126"},{"latitude":37.0519,"longitude":-76.4077,"name":"Gymboree - Peninsula Town Center #1749","address":"2307 McMenamin Street\r\nHampton, VA 23666","phone":"757.896.2292"},{"latitude":40.030287,"longitude":-75.623299,"name":"Gymboree - Exton Square #579","address":"342 Exton Square Parkway\r\nExton, PA 19341","phone":"610.524.6510"},{"latitude":38.77213,"longitude":-121.265859,"name":"Gymboree - Galleria at Roseville #595","address":"1151 Galleria Blvd, Suite #163\r\nRoseville, CA 95678","phone":"916.787.2027"},{"latitude":28.017397,"longitude":-82.737534,"name":"Gymboree - Westfield Countryside #335","address":"27001 U.S. 19 N., Suite 1019\r\nClearwater, FL 33761","phone":"727.791.1657"},{"latitude":45.34921,"longitude":-75.80514,"name":"Gymboree - Bayshore Shopping Centre #707","address":"100 Bayshore Drive\r\nNepean, ON K2B 8C1","phone":"613.829.7236"},{"latitude":40.230056,"longitude":-75.559358,"name":"Gymboree Outlet - Philadelphia Premium Outlets #5067","address":"18 Lightcap Road #1019\r\nLimerick, PA 19464","phone":"610.326.7051"},{"latitude":36.82322,"longitude":-76.414909,"name":"Gymboree - Chesapeake Square #295","address":"4200 Portsmouth Blvd, Suite 76\r\nChesapeake, VA 23321","phone":"757.488.9070"},{"latitude":40.628726,"longitude":-75.477723,"name":"Gymboree - Lehigh Valley Mall #401","address":"114 Lehigh Valley Mall\r\nWhitehall, PA 18052","phone":"610.264.7676"},{"latitude":37.688172,"longitude":-121.049948,"name":"Gymboree - Vintage Fair Mall #249","address":"3401 Dale Road #176\r\nModesto, CA 95356","phone":"209.523.6349"},{"latitude":39.884157,"longitude":-75.533899,"name":"Gymboree - Shoppes at Brinton Lake #695","address":"947A Baltimore Pike\r\nGlen Mills, PA 19342","phone":"610.361.1160"},{"latitude":28.068971,"longitude":-82.573237,"name":"Gymboree - Citrus Park Mall #558","address":"7929 Citrus Park Town Center\r\nTampa, FL 33625","phone":"813.920.4526"},{"latitude":40.236202,"longitude":-75.479757,"name":"Gymboree - Providence Town Center #1732","address":"161 Market Street, Suite #5\r\nCollegeville, PA 19426","phone":"610.489.6892"},{"latitude":28.189536,"longitude":-82.391319,"name":"Gymboree Outlet - Tampa Premium Outlets #5175","address":"2244 Grand Cypress Dr., Suite 625\r\nLutz, FL 33559","phone":"813.909.1403"},{"latitude":45.426147,"longitude":-75.691887,"name":"Gymboree - Rideau Centre #705","address":"80 Rideau Street, Unit 385\r\nOttawa, ON K1N 9J7","phone":"613.565.3323"},{"latitude":34.44044,"longitude":-119.747373,"name":"Gymboree - La Cumbre Plaza #121","address":"110 South Hope Ave., Space #H128A\r\nSanta Barbara, CA 93105","phone":"805.569.7124"},{"latitude":36.84961,"longitude":-76.289629,"name":"Gymboree - MacArthur Center #543","address":"300 Monticello Avenue #185\r\nNorfolk, VA 23510","phone":"757.623.0900"},{"latitude":41.048552,"longitude":-75.311218,"name":"Gymboree Outlet - The Crossings Premium Outlets #5055","address":"1000 Route 611, G09\r\nTannersville, PA 18372","phone":"570.619.5240"},{"latitude":45.42398,"longitude":-75.63728,"name":"Gymboree - St Laurent SC #722","address":"1200 St. Laurent Blvd. #246\r\nOttawa, ON K1K 3B8","phone":"613.842.4716"},{"latitude":28.2017,"longitude":-82.307,"name":"Gymboree - Shops at Wiregrass #694","address":"28163 Paseo Drive, Unit #180 Bldg. #8\r\nWesley Chapel, FL 33543","phone":"813.994.2280"},{"latitude":38.599688,"longitude":-121.427074,"name":"Gymboree - Arden Fair Mall #38","address":"1689 Arden Fair Way, Suite #2068\r\nSacramento, CA 95815","phone":"916.929.0440"},{"latitude":40.088281,"longitude":-75.388335,"name":"Gymboree - King of Prussia Mall #55","address":"326 Mall Boulevard\r\nKing of Prussia, PA 19406","phone":"610.992.0470"},{"latitude":27.946066,"longitude":-82.527299,"name":"Gymboree - West Shore Plaza #140","address":"273 West Shore Plaza\r\nTampa, FL 33609","phone":"813.286.2278"},{"latitude":38.002063,"longitude":-121.317056,"name":"Gymboree - Stonecreek Village #1734","address":"5757 Pacific Avenue, Suite #B125\r\nStockton, CA 95207","phone":"209.954.9753"},{"latitude":39.913467,"longitude":-75.350823,"name":"Gymboree - Springfield Mall #268","address":"1250 Baltimore Pike\r\nSpringfield, PA 19064","phone":"610.328.9747"},{"latitude":40.131477,"longitude":-75.300966,"name":"Gymboree - Plymouth Meeting Mall #535","address":"500 W. Germantown Pike\r\nPlymouth Meeting, PA 19462","phone":"610.397.0266"},{"latitude":45.476049,"longitude":-75.518351,"name":"Gymboree - Place d'Orleans #754","address":"110 Place d'Orleans #1345\r\nOrleans, ON K1C 2L9","phone":"613.834.5190"},{"latitude":40.236434,"longitude":-75.242196,"name":"Gymboree - Montgomery Mall #193","address":"146 Montgomery Mall\r\nNorth Wales, PA 19454","phone":"215.393.5481"},{"latitude":49.881767,"longitude":-119.501476,"name":"Gymboree - Orchard Park #753","address":"961-2271 Harvey Ave.\r\nKelowna, BC V1Y 6H2","phone":"250.868.0179"},{"latitude":29.1989,"longitude":-81.0444,"name":"Gymboree - Volusia Mall #278","address":"1700 W. International Speedway Blvd.\r\nDaytona Beach, FL 32114","phone":"386.257.2616"},{"latitude":38.400238,"longitude":-75.570319,"name":"Gymboree - The Centre at Salisbury #559","address":"2300 N. Salisbury Boulevard #D104\r\nSalisbury, MD 21801","phone":"410.572.8666"},{"latitude":36.82063,"longitude":-76.067049,"name":"Gymboree - Lynnhaven Mall #165","address":"701 Lynn Haven Parkway\r\nVirginia Beach, VA 23452","phone":"757.463.2898"},{"latitude":27.933944,"longitude":-82.328599,"name":"Gymboree - Westfield Brandon #1709","address":"953 Brandon Town Center Mall\r\nBrandon, FL 33511","phone":"813.661.3937"},{"latitude":40.233101,"longitude":-75.134355,"name":"Gymboree - Valley Square #1704","address":"1576 Main Street\r\nWarrington, PA 18976","phone":"215.491.9171"},{"latitude":28.805669,"longitude":-81.339959,"name":"Gymboree - Seminole Town Center #246","address":"173 Towne Center Circle\r\nSanford, FL 32771","phone":"407.324.1711"},{"latitude":40.3474,"longitude":-75.0322,"name":"Gymboree Outlet - Penn's Purchase #5144","address":"5861 York Road., #F1\r\nLahaska, PA 18931","phone":"215.794.3682"},{"latitude":28.55188,"longitude":-81.514629,"name":"Gymboree - West Oaks Mall #308","address":"9401 W. Colonial Dr., Suite 618\r\nOcoee, FL 34761","phone":"407.578.3082"},{"latitude":39.82821,"longitude":-75.100319,"name":"Gymboree - Deptford Mall #256","address":"1750 Deptford Center Rd, #B2\r\nDeptford, NJ 08096","phone":"856.251.1885"},{"latitude":28.6639,"longitude":-81.377599,"name":"Gymboree - Altamonte Mall #612","address":"451 East Altamonte Dr., #1361\r\nAltamonte Springs, FL 32701","phone":"407.831.0118"},{"latitude":39.784375,"longitude":-75.050683,"name":"Gymboree Outlet - Gloucester Premium Outlets #5189","address":"100 Premium Outlets Dr., Suite 423\r\nBlackwood, NJ 08012","phone":"856.221.8748"},{"latitude":39.938746,"longitude":-75.017267,"name":"Gymboree - Cherry Hill Mall #16","address":"2000 Route 38, Suite 38\r\nCherry Hill, NJ 08002","phone":"856.488.8273"},{"latitude":40.087087,"longitude":-74.959223,"name":"Gymboree Outlet - Philadelphia Mills #5113","address":"1805 Franklin Mills Circle\r\nPhiladelphia, PA 19154","phone":"215.612.6830"},{"latitude":28.474057,"longitude":-81.449922,"name":"Gymboree Outlet - Orlando Premium Outlets - International Drive #5063","address":"4963 International Drive, Suite # 2C.05\r\nOrlando, FL 32819","phone":"407.354.9833"},{"latitude":27.534522,"longitude":-82.506622,"name":"Gymboree Outlet - Ellenton Premium Outlets #5009","address":"5419 Factory Shops Blvd\r\nEllenton, FL 34222","phone":"941.721.3630"},{"latitude":28.489387,"longitude":-81.429466,"name":"Gymboree - The Mall at Millenia #591","address":"4200 Conroy Road\r\nOrlando, FL 32839","phone":"407.226.2325"},{"latitude":28.664599,"longitude":-81.235852,"name":"Gymboree - Oviedo Mall #461","address":"1230 Oviedo Mall Blvd., Suite #1055\r\nOviedo, FL 32765","phone":"407.977.4412"},{"latitude":35.136872,"longitude":-120.629061,"name":"Gymboree Outlet - Pismo Beach Premium Outlets #5122","address":"333 Five Cities Drive, Suite #138\r\nPismo Beach, CA 93449","phone":"805.773.2980"},{"latitude":40.50528,"longitude":-74.861349,"name":"Gymboree Outlet - Liberty Village Premium Outlets #5077","address":"43 Liberty Village\r\nFlemington, NJ 08822","phone":"908.284.2900"},{"latitude":28.386612,"longitude":-81.495565,"name":"Gymboree Outlet - Orlando Premium Outlets - Vineland Ave #5054","address":"8174 Vineland Ave\r\nOrlando, FL 32821","phone":"407.239.1747"},{"latitude":39.9009,"longitude":-74.933342,"name":"Gymboree - The Promenade at Sagemore #590","address":"500 South Route 73\r\nMarlton, NJ 08053","phone":"856.810.0107"},{"latitude":37.943628,"longitude":-121.739077,"name":"Gymboree - Streets of Brentwood #1720","address":"2505 Sand Creek Road\r\nBrentwood, CA 94513","phone":"925.516.9215"},{"latitude":40.17899,"longitude":-74.879439,"name":"Gymboree - Oxford Valley #210","address":"2300 E. Lincoln Highway, #220\r\nLanghorne, PA 19047","phone":"215.702.9860"},{"latitude":40.43698,"longitude":-122.290139,"name":"Gymboree Outlet - Shasta Outlets #5129","address":"1741 Highway 273\r\nAnderson, CA 96007","phone":"530.365.7438"},{"latitude":28.44983,"longitude":-81.400829,"name":"Gymboree - Florida Mall #297","address":"8001 S. Orange Blossom Trail #164\r\nOrlando, FL 32809","phone":"407.438.8400"},{"latitude":38.719194,"longitude":-75.112796,"name":"Gymboree Outlet - Tanger Outlets - Rehoboth #5107","address":"36470 Seaside Outlet Drive, Suite #1740\r\nRehoboth, DE 19971","phone":"302.227.6970"},{"latitude":37.713637,"longitude":-121.763543,"name":"Gymboree Outlet - San Francisco Premium Outlets #5134","address":"3350 Livermore Outlets Drive\r\nLivermore, CA 94551","phone":"925.961.9050"},{"latitude":38.365945,"longitude":-121.954704,"name":"Gymboree Outlet - Vacaville Premium Outlets #5072","address":"321 Nut Tree Road, Suite #101C\r\nVacaville, CA 95687","phone":"707.451.4391"},{"latitude":40.785461,"longitude":-74.683096,"name":"Gymboree - Streets of Chester #673","address":"210 State Rte 206 South Space #B-182\r\nChester, NJ 07930","phone":"908.879.0243"},{"latitude":37.023703,"longitude":-121.563123,"name":"Gymboree Outlet - Gilroy Premium Outlets #5027","address":"681 Leavesley Road, Ste. C080\r\nGilroy, CA 95020","phone":"408.848.8412"},{"latitude":27.311145,"longitude":-82.519453,"name":"Gymboree - Mall at University Town Center #1770","address":"140 University Town Center Drive Suite No. 296\r\nSarasota, FL 34243","phone":"941.702.9937"},{"latitude":27.299795,"longitude":-82.530065,"name":"Gymboree - Southgate Mall #422","address":"98 Southgate Plaza\r\nSarasota, FL 34239","phone":"941.366.2238"},{"latitude":38.336834,"longitude":-75.107428,"name":"Gymboree Outlet - Tanger Ocean City #5184","address":"12741 Ocean Gateway, Suite #770\r\nOcean City, MD 21842","phone":"410.213.1989"},{"latitude":40.29319,"longitude":-74.682563,"name":"Gymboree - Quakerbridge #244","address":"150 Quaker Bridge Mall\r\nLawrenceville, NJ 08648","phone":"609.799.4353"},{"latitude":40.313942,"longitude":-74.65932,"name":"Gymboree - MarketFair #15","address":"3535 US Highway 1 #232\r\nPrinceton, NJ 08540","phone":"609.452.1221"},{"latitude":40.587323,"longitude":-74.617218,"name":"Gymboree - Bridgewater Commons #17","address":"400 Commons Way, Suite 206\r\nBridgewater, NJ 08807","phone":"908.707.0034"},{"latitude":38.258229,"longitude":-122.051163,"name":"Gymboree - Solano Mall #448","address":"1350 Travis Blvd. 1443-B\r\nFairfield, CA 94533","phone":"707.432.0713"},{"latitude":40.186636,"longitude":-74.656397,"name":"Gymboree - The Shoppes at Hamilton #669","address":"541 Route 130, Suite 669\r\nHamilton, NJ 08691","phone":"609.581.1617"},{"latitude":40.902502,"longitude":-74.546,"name":"Gymboree - Rockaway Town Square #37","address":"301 Mt. Hope Avenue, Space #1026\r\nRockaway, NJ 07866","phone":"973.328.8722"},{"latitude":37.692366,"longitude":-121.929895,"name":"Gymboree - Stoneridge Shopping Center #44","address":"1360 Stoneridge Mall\r\nPleasanton, CA 94588","phone":"925.734.8555"},{"latitude":37.967134,"longitude":-122.062123,"name":"Gymboree - Sunvalley Mall #45","address":"238 Sunvalley Mall\r\nConcord, CA 94520","phone":"925.687.3789"},{"latitude":37.4174,"longitude":-121.895289,"name":"Gymboree Outlet - Great Mall of the Bay Area #5003","address":"209 Great Mall Dr\r\nMilpitas, CA 95035","phone":"408.945.1072"},{"latitude":37.896733,"longitude":-122.058606,"name":"Gymboree - Broadway Plaza #9","address":"1145 Broadway Plaza\r\nWalnut Creek, CA 94596","phone":"925.935.6820"},{"latitude":45.544431,"longitude":-122.389366,"name":"Gymboree Outlet - Columbia Gorge Outlets #5090","address":"450 NW 257th Way, Suite 346\r\nTroutdale, OR 97060","phone":"503.491.1370"},{"latitude":37.25049,"longitude":-121.863437,"name":"Gymboree - Oakridge Mall #363","address":"925 Blossom Hill Road, Ste. 180\r\nSan Jose, CA 95123","phone":"408.227.2458"},{"latitude":39.451598,"longitude":-74.644666,"name":"Gymboree - Hamilton Mall #359","address":"4403 Black Horse Pike #115A\r\nMays Landing, NJ 08330","phone":"609.383.6060"},{"latitude":47.490859,"longitude":-121.792045,"name":"Gymboree Outlet - Northbend Premium Outlets #5079","address":"421 South Fork Ave. SW, Suite # G\r\nNorth Bend, WA 98045","phone":"425.888.2043"},{"latitude":40.4494,"longitude":-74.4629,"name":"Gymboree - The Shoppes at North Brunswick #670","address":"755 Shoppes Blvd\r\nNorth Brunswick, NJ 08902","phone":"732.937.9950"},{"latitude":37.528296,"longitude":-122.000385,"name":"Gymboree - Newpark Mall #482","address":"1039 Newpark Mall\r\nNewark, CA 94560","phone":"510.742.6842"},{"latitude":37.325694,"longitude":-121.947215,"name":"Gymboree - Valley Fair #1","address":"2855 Stevens Creek Blvd. #1323\r\nSanta Clara, CA 95050","phone":"408.247.9900"},{"latitude":40.737923,"longitude":-74.36489,"name":"Gymboree - The Mall at Short Hills #76","address":"1200 Morris Turnpike #B112\r\nShort Hills, NJ 07078","phone":"973.912.8333"},{"latitude":40.1567,"longitude":-74.4292,"name":"Gymboree Outlet - Jackson Premium Outlets #5051","address":"537 Monmouth Road\r\nJackson, NJ 08527","phone":"732.833.2397"},{"latitude":42.341981,"longitude":-122.878248,"name":"Gymboree - Rogue Valley Mall #497","address":"1600 N. Riverside Avenue\r\nMedford, OR 97501","phone":"541.732.0755"},{"latitude":38.29573,"longitude":-122.303698,"name":"Gymboree Outlet - Napa Premium Outlets #5033","address":"629 Factory Stores Drive\r\nNapa, CA 94558","phone":"707.251.9045"},{"latitude":37.222909,"longitude":-121.983701,"name":"Gymboree - Los Gatos #593","address":"5 North Santa Cruz Ave.\r\nLos Gatos, CA 95030","phone":"408.399.0556"},{"latitude":45.4358,"longitude":-122.579099,"name":"Gymboree - Clackamas Town Center #242","address":"12000 SE 82nd Ave, #B105\r\nHappy Valley, OR 97086","phone":"503.654.0927"},{"latitude":40.54808,"longitude":-74.337578,"name":"Gymboree - Menlo Park Mall #474","address":"438 Menlo Park, Space #2432\r\nEdison, NJ 08837","phone":"732.321.1390"},{"latitude":35.91249,"longitude":-75.601015,"name":"Gymboree Outlet - Tanger Outlets - Nags Head #5138","address":"7100 South Croatan Hwy\r\nNags Head, NC 27959","phone":"252.441.2733"},{"latitude":40.55582,"longitude":-74.304095,"name":"Gymboree - Woodbridge Center #25","address":"303 Woodbridge Center Drive\r\nWoodbridge, NJ 07095","phone":"732.634.6163"},{"latitude":40.890964,"longitude":-74.261473,"name":"Gymboree - Willowbrook Mall #128","address":"1400 Willowbrook Mall\r\nWayne, NJ 07470","phone":"973.785.0767"},{"latitude":45.65637,"longitude":-122.583419,"name":"Gymboree - Vancouver Mall #366","address":"8700 NE Vancouver Mall Dr\r\nVancouver, WA 98662","phone":"360.254.3533"},{"latitude":36.97465,"longitude":-121.965009,"name":"Gymboree - Capitola Mall #336","address":"1855 41st Ave, #G3\r\nCapitola, CA 95010","phone":"831.464.6850"},{"latitude":37.711784,"longitude":-122.233192,"name":"Gymboree Outlet - Marina Square Outlet Shopping Center #5162","address":"1273 Marina Blvd\r\nSan Leandro, CA 94577","phone":"510.351.5065"},{"latitude":37.442662,"longitude":-122.170191,"name":"Gymboree - Stanford Shopping Center #4","address":"99 Stanford Shopping Ctr\r\nPalo Alto, CA 94304","phone":"650.326.9376"},{"latitude":41.314303,"longitude":-74.126441,"name":"Gymboree Outlet - Woodbury Common Premium Outlets #5061","address":"615 Bluebird Court\r\nCentral Valley, NY 10917","phone":"845.928.2802"},{"latitude":36.583374,"longitude":-121.897468,"name":"Gymboree - Del Monte Center #288","address":"450 Del Monte Center\r\nMonterey, CA 93940","phone":"831.655.2372"},{"latitude":45.395412,"longitude":-122.750835,"name":"Gymboree - Bridgeport Village #1726","address":"7287 SW Bridgeport Road\r\nTigard, OR 97224","phone":"503.431.2098"},{"latitude":40.66178,"longitude":-74.175299,"name":"Gymboree Outlet - Jersey Gardens #5022","address":"651 Kapkowski Road, #1204\r\nElizabeth, NJ 07201","phone":"908.659.0826"},{"latitude":40.58237,"longitude":-74.168937,"name":"Gymboree - Staten Island Mall #51","address":"2655 Richmond Avenue, #121\r\nStaten Island, NY 10314","phone":"718.370.8679"},{"latitude":45.449234,"longitude":-122.783104,"name":"Gymboree - Washington Square #127","address":"9563 SW Washington Square Rd., Space #B2\r\nTigard, OR 97223","phone":"503.620.2898"},{"latitude":47.1585,"longitude":-122.292999,"name":"Gymboree - South Hill Mall #325","address":"3500 South Meridan #745\r\nPuyallup, WA 98373","phone":"253.845.9171"},{"latitude":37.537338,"longitude":-122.300344,"name":"Gymboree - Hillsdale Shopping Center #2","address":"324 Hillsdale Mall Ste #1272\r\nSan Mateo, CA 94403","phone":"650.573.7666"},{"latitude":45.1535,"longitude":-122.8789,"name":"Gymboree Outlet - Woodburn Premium Outlets #5038","address":"1001 Arney Road; Suite 709\r\nWoodburn, OR 97071","phone":"503.982.4559"},{"latitude":40.91475,"longitude":-74.079019,"name":"Gymboree - Garden State Plaza #113","address":"One Garden State Plaza, Suite C3\r\nParamus, NJ 07652","phone":"201.909.8680"},{"latitude":40.95345,"longitude":-74.068,"name":"Gymboree - Paramus Park #27","address":"1390 Paramus Park\r\nParamus, NJ 07652","phone":"201.967.7889"},{"latitude":47.308295,"longitude":-122.26665,"name":"Gymboree Outlet - The Outlet Collection of Seattle #5103","address":"1101 Outlet Collection Way, Suite #119\r\nAuburn, WA 98001","phone":"253.288.9871"},{"latitude":47.670596,"longitude":-122.121071,"name":"Gymboree - Redmond Town Center #379","address":"7430 164th Avenue, Suite B118\r\nRedmond, WA 98052","phone":"425.558.7832"},{"latitude":40.92309,"longitude":-74.05481,"name":"Gymboree Outlet - Bergen Town Center #5146","address":"530 Bergen Town Center, Suite #12\r\nParamus, NJ 07652","phone":"201.291.4020"},{"latitude":39.979959,"longitude":-74.182194,"name":"Gymboree - Ocean County Mall #1745","address":"1201 Hooper Avenue, Space #1068\r\nToms River, NJ 08753","phone":"732.736.7405"},{"latitude":40.9085,"longitude":-74.031197,"name":"Gymboree - The Shops at Riverside #428","address":"250 Riverside Square\r\nHackensack, NJ 07601","phone":"201.342.6888"},{"latitude":44.069195,"longitude":-123.105597,"name":"Gymboree - Valley River Center #326","address":"270 Valley River Center\r\nEugene, OR 97401","phone":"541.465.3813"},{"latitude":37.786814,"longitude":-122.450251,"name":"Gymboree - Laurel Village #269","address":"3407 California Street\r\nSan Francisco, CA 94118","phone":"415.668.1387"},{"latitude":47.615589,"longitude":-122.202391,"name":"Gymboree - Bellevue Square #79","address":"256 Bellevue Square\r\nBellevue, WA 98004","phone":"425.453.6938"},{"latitude":45.536853,"longitude":-122.878358,"name":"Gymboree - Streets of Tanasbourne #631","address":"2165 NW Allie Ave.\r\nHillsboro, OR 97124","phone":"503.533.7117"},{"latitude":38.091454,"longitude":-122.55648,"name":"Gymboree - Vintage Oaks #1759","address":"132 Vintage Way Suite F5\r\nNovato, CA 94945","phone":"415.878.0221"},{"latitude":40.223426,"longitude":-74.092725,"name":"Gymboree Outlet - Jersey Shore Premium Outlets #5092","address":"1 Premium Outlets Blvd.\r\nTinton Falls, NJ 07753","phone":"732.493.1842"},{"latitude":47.4652,"longitude":-122.2923,"name":"Gymboree - South Center Mall #383","address":"1056 Southcenter Mall Space #1240\r\nTukwila, WA 98188","phone":"206.246.8997"},{"latitude":37.898261,"longitude":-122.515705,"name":"Gymboree - Strawberry Village #1780","address":"800 Redwood Highway, Suite 310\r\nMill Valley, CA 94941","phone":"415.381.1458"},{"latitude":41.098841,"longitude":-73.960913,"name":"Gymboree - Palisades Center #459","address":"3701 Palisades Center Drive\r\nWest Nyack, NY 10994","phone":"845.358.5336"},{"latitude":37.728454,"longitude":-122.475569,"name":"Gymboree - Stonestown Galleria #8","address":"3251 - 20th Avenue, Ste #152\r\nSan Francisco, CA 94132","phone":"415.564.4859"},{"latitude":44.942963,"longitude":-123.035874,"name":"Gymboree - Salem Center #540","address":"480 Center Street NE/Suite 204\r\nSalem, OR 97301","phone":"503.566.8881"},{"latitude":40.2909,"longitude":-74.05125,"name":"Gymboree - Monmouth Mall #82","address":"180 State Route 35, Suite #3234\r\nEatontown, NJ 07724","phone":"732.935.0609"},{"latitude":38.2552,"longitude":-122.651519,"name":"Gymboree Outlet - Petaluma Village Premium Outlets #5128","address":"2200 Petaluma Blvd. North, Suite #220\r\nPetaluma, CA 94952","phone":"707.766.8151"},{"latitude":43.538368,"longitude":-123.232798,"name":"Gymboree Outlet - Boise Outlets #5169","address":"6964 S. Eisenman Road\r\nBoise, ID 83717","phone":"208.342.3591"},{"latitude":40.772448,"longitude":-73.958645,"name":"Gymboree - Third Avenue #162","address":"1332 Third Ave\r\nNew York, NY 10021","phone":"212.517.5548"},{"latitude":38.439694,"longitude":-122.717673,"name":"Gymboree - Santa Rosa Plaza #152","address":"1047 Santa Rosa Plaza, Space #1029\r\nSanta Rosa, CA 95401","phone":"707.576.8026"},{"latitude":40.134323,"longitude":-74.043695,"name":"Gymboree - Brook 35 & West Plaza #1723","address":"2157 NJ State Hwy 35\r\nSea Girt, NJ 08750","phone":"732.449.1364"},{"latitude":47.217864,"longitude":-122.467654,"name":"Gymboree - Tacoma Mall #1752","address":"4502 South Steele ST. Space #339A\r\nTacoma, WA 98409","phone":"253.473.8806"},{"latitude":47.6126,"longitude":-122.3347,"name":"Gymboree - Pacific Place #515","address":"600 Pine Street\r\nSeattle, WA 98101","phone":"206.287.1991"},{"latitude":43.608596,"longitude":-123.284489,"name":"Gymboree - Boise Towne Square #342","address":"350 N. Milwaukee, Suite #1168\r\nBoise, ID 83704","phone":"208.373.0030"},{"latitude":47.7079,"longitude":-122.323607,"name":"Gymboree - Northgate Mall #313","address":"401 NE Northgate Way, Suite #529\r\nSeattle, WA 98125","phone":"206.366.0133"},{"latitude":47.831853,"longitude":-122.27336,"name":"Gymboree - Alderwood Mall #61","address":"3000 - 184th St. SW # 270\r\nLynnwood, WA 98037","phone":"425.771.4558"},{"latitude":42.654353,"longitude":-73.759092,"name":"Gymboree - Crossgates Mall #63","address":"120 Washington Ave\r\nAlbany, NY 12203","phone":"518.869.2427"},{"latitude":48.091712,"longitude":-122.185661,"name":"Gymboree Outlet - Seattle Premium Outlets #5073","address":"10600 Quil Ceda Blvd.\r\nTulalip, WA 98271","phone":"360.716.3893"},{"latitude":40.70934,"longitude":-73.869873,"name":"Gymboree - Shops at Atlas Park #664","address":"80-28 Cooper Avenue, Suite 6107\r\nGlendale, NY 11385","phone":"718.386.6139"},{"latitude":43.621758,"longitude":-123.350545,"name":"Gymboree - Village at Meridian #1782","address":"3525 E Longwing Lane\r\nMeridian, ID 83646","phone":"208.888.0098"},{"latitude":43.104861,"longitude":-73.741418,"name":"Gymboree - Wilton Mall #399","address":"3065 Route 50 #E-15\r\nSaratoga Springs, NY 12866","phone":"518.580.9141"},{"latitude":40.970733,"longitude":-73.806125,"name":"Gymboree - Vernon Hills Shopping #454","address":"696 White Plains Road\r\nScarsdale, NY 10583","phone":"914.472.5899"},{"latitude":43.365291,"longitude":-73.700001,"name":"Gymboree Outlet - French Mountain Commons #5034","address":"1429 State Rte. 9, #6\r\nLake George, NY 12845","phone":"518.792.8493"},{"latitude":41.03254,"longitude":-73.758729,"name":"Gymboree - The Westchester #212","address":"125 Westchester Avenue, #3400\r\nWhite Plains, NY 10601","phone":"914.644.8410"},{"latitude":46.732225,"longitude":-122.977628,"name":"Gymboree Outlet - Centralia Outlets #5130","address":"1340 Lum Road\r\nCentralia, WA 98531","phone":"360.330.9361"},{"latitude":40.727145,"longitude":-73.638954,"name":"Gymboree - Roosevelt Field Mall #186","address":"630 Old Country Rd\r\nGarden City, NY 11530","phone":"516.294.1437"},{"latitude":47.042001,"longitude":-122.929097,"name":"Gymboree - Capital Mall #510","address":"625 Blacklake Blvd. SW, Suite #225\r\nOlympia, WA 98502","phone":"360.786.5254"},{"latitude":41.053606,"longitude":-73.536098,"name":"Gymboree - Stamford Town Center #93","address":"100 Greyrock Place\r\nStamford, CT 06901","phone":"203.975.1004"},{"latitude":41.375792,"longitude":-73.485507,"name":"Gymboree - Danbury Fair Mall #53","address":"7 Backus Avenue #212\r\nDanbury, CT 06810","phone":"203.730.9500"},{"latitude":26.493639,"longitude":-81.974708,"name":"Gymboree Outlet - Tanger Outlets - Sanibel #5139","address":"20350 Summerlin Road, Space #3120\r\nFort Myers, FL 33908","phone":"239.274.3800"},{"latitude":42.29652,"longitude":-73.236859,"name":"Gymboree Outlet - Lee Premium Outlets #5083","address":"230 Premium Outlets Blvd.\r\nLee, MA 01238","phone":"413.243.1501"},{"latitude":40.7613,"longitude":-73.3278,"name":"Gymboree Outlet - Tanger Outlets -The Arches #5108","address":"1526 The Arches Circle\r\nDeer Park, NY 11729","phone":"631.242.0248"},{"latitude":27.635656,"longitude":-80.521581,"name":"Gymboree Outlet - Vero Beach Outlets #5142","address":"1742 94th Drive, Space #G185\r\nVero Beach, FL 32966","phone":"772.794.9300"},{"latitude":41.498684,"longitude":-73.213264,"name":"Gymboree - Southbury Green #1765","address":"775 Main St., Bldg. #C\r\nSouthbury, CT 06488","phone":"203.264.3922"},{"latitude":41.229632,"longitude":-73.219707,"name":"Gymboree - Trumbull Mall #42","address":"5065 Main Street, Suite #210\r\nTrumbull, CT 06611","phone":"203.372.3600"},{"latitude":27.639129,"longitude":-80.454204,"name":"Gymboree - Indian River #362","address":"6200 20th Street\r\nVero Beach, FL 32966","phone":"772.567.7210"},{"latitude":44.465177,"longitude":-73.181026,"name":"Gymboree - University Mall #331","address":"155 Dorset St., Unit G4\r\nS. Burlington, VT 05403","phone":"802.658.3015"},{"latitude":26.43518,"longitude":-81.772299,"name":"Gymboree Outlet - Miromar Outlets #5018","address":"10801 Corkscrew Road, Suite #128\r\nEstero, FL 33928","phone":"239.949.0664"},{"latitude":26.40098,"longitude":-81.807238,"name":"Gymboree - Coconut Point Town Center #662","address":"23191 Fashion Drive, Suite 107\r\nEstero, FL 33928","phone":"239.948.1712"},{"latitude":40.86505,"longitude":-73.127148,"name":"Gymboree - Smith Haven #107","address":"313 Smith Haven Mall,  #N01\r\nLake Grove, NY 11755","phone":"631.979.9195"},{"latitude":44.507471,"longitude":-73.079003,"name":"Gymboree Outlet - Essex Shoppes & Cinema #5163","address":"21 Essex Way, Space #216\r\nEssex, VT 05452","phone":"802.878.3349"},{"latitude":41.236583,"longitude":-73.038641,"name":"Gymboree - Connecticut Post Mall #551","address":"1201 Boston Post Road\r\nMilford, CT 06460","phone":"203.877.4286"},{"latitude":44.959362,"longitude":-124.012459,"name":"Gymboree Outlet - Lincoln City Outlets #5123","address":"1500 SE East Devils Lake Road, Suite #413\r\nLincoln City, OR 97367","phone":"541.557.2338"},{"latitude":26.170319,"longitude":-81.799499,"name":"Gymboree - Coastland Center #298","address":"1934 North Tamiami Trail\r\nNaples, FL 34102","phone":"239.434.0788"},{"latitude":49.192593,"longitude":-122.802879,"name":"Gymboree - Guildford Town Centre #742","address":"10355 152nd Street, Suite #1047\r\nSurrey, BC V3R 7C1","phone":"604.930.8035"},{"latitude":41.550255,"longitude":-72.803682,"name":"Gymboree - Meriden Square Mall #373","address":"470 Lewis Ave., Suite #1000\r\nMeriden, CT 06450","phone":"203.238.1900"},{"latitude":49.277069,"longitude":-122.800384,"name":"Gymboree - Coquitlam Centre #749","address":"2929 Barnet Highway, Unit #2506\r\nCoquitlam, BC V3B 5R5","phone":"604.468.1085"},{"latitude":41.723824,"longitude":-72.760407,"name":"Gymboree - Westfarms Mall #77","address":"116 Westfarms Mall\r\nFarmington, CT 06032","phone":"860.561.2566"},{"latitude":49.012802,"longitude":-123.085427,"name":"Gymboree - Tsawwassen Mills #758","address":"5000 Canoe Pass Way, Unit 518\r\nTsawwassen, BC V4M 0B3","phone":"604.948.1841"},{"latitude":40.920999,"longitude":-72.717779,"name":"Gymboree Outlet - Tanger Outlets - Riverhead #5030","address":"1212 Tanger Mall Drive #1212\r\nRiverhead, NY 11901","phone":"631.208.0393"},{"latitude":27.242675,"longitude":-80.271333,"name":"Gymboree - Treasure Coast Square #491","address":"3228 NW Federal Highway\r\nJensen Beach, FL 34957","phone":"772.692.4698"},{"latitude":48.446393,"longitude":-123.372333,"name":"Gymboree - Mayfair Centre #734","address":"3147 Douglas St., Suite 132\r\nVictoria, BC V8Z 6E3","phone":"250.388.5437"},{"latitude":49.22836,"longitude":-122.99919,"name":"Gymboree - Metropolis at Metrotown #724","address":"1133-4700 Kingway\r\nBurnaby, BC V5H 4M1","phone":"604.438.1552"},{"latitude":41.72189,"longitude":-72.617079,"name":"Gymboree - Shops at Somerset Square #488","address":"140 Glastonbury Boulevard\r\nGlastonbury, CT 06033","phone":"860.657.1071"},{"latitude":41.8097,"longitude":-72.547499,"name":"Gymboree - Shoppes at Buckland Hills #221","address":"194 Buckland Hills Drive, #2152\r\nManchester, CT 06040","phone":"860.648.0146"},{"latitude":49.23364,"longitude":-123.11783,"name":"Gymboree - Oakridge Centre #703","address":"650 W. 41st Avenue #260\r\nVancouver, BC V5Z 2M9","phone":"604.261.6929"},{"latitude":49.239771,"longitude":-123.14018,"name":"Gymboree - Richmond Centre #729","address":"6060 Minoru Boulevard, #1820\r\nRichmond, BC V6Y 2V7","phone":"604.273.9400"},{"latitude":41.292324,"longitude":-72.530577,"name":"Gymboree Outlet - Clinton Crossing Premium Outlet #5089","address":"20A Killingworth Turnpike , Suite #248\r\nClinton, CT 06413","phone":"860.664.9659"},{"latitude":49.326528,"longitude":-123.137775,"name":"Gymboree - Park Royal Shopping Centre #745","address":"1011 Park Royal South\r\nWest Vancouver, BC V7T 1A1","phone":"604-922-0796"},{"latitude":41.374783,"longitude":-72.141068,"name":"Gymboree - Crystal Mall #231","address":"850 Hartford Turnpike, #L119\r\nWaterford, CT 06385","phone":"860.437.8221"},{"latitude":26.650973,"longitude":-80.207658,"name":"Gymboree - Wellington Green #586","address":"10300 Forest Hill Blvd., #215\r\nWellington, FL 33414","phone":"561.793.9970"},{"latitude":26.72382,"longitude":-80.084819,"name":"Gymboree Outlet - Palm Beach Fashion Outlet #5171","address":"1751 Palm Beach Lakes Blvd., Suite #E105\r\nWest Palm Beach, FL 33401","phone":"561.681.9292"},{"latitude":26.707523,"longitude":-80.05719,"name":"Gymboree - Cityplace #575","address":"700 South Rosemary Ave., Ste. 136\r\nWest Palm Beach, FL 33401","phone":"561.833.8008"},{"latitude":41.481309,"longitude":-71.967537,"name":"Gymboree Outlet - Foxwoods Designer Outlets #5166","address":"455 Trolley Line Blvd., Suite #790\r\nMashantucket, CT 06338","phone":"860.383.4759"},{"latitude":42.203884,"longitude":-71.836833,"name":"Gymboree - Auburn Mall #445","address":"385 Southbridge S-120\r\nAuburn, MA 01501","phone":"508.721.9088"},{"latitude":26.453643,"longitude":-80.189938,"name":"Gymboree - Delray Marketplace #1778","address":"9173 Atlantic Ave., Suite #110\r\nDelray Beach, FL 33446","phone":"561.865.8883"},{"latitude":26.534726,"longitude":-80.090704,"name":"Gymboree - Boynton Beach #413","address":"801 North Congress Avenue #361\r\nBoynton Beach, FL 33426","phone":"561.733.3144"},{"latitude":26.368599,"longitude":-80.137197,"name":"Gymboree - Town Center at Boca Raton #46","address":"6000 West Glades Rd. #1034\r\nBoca Raton, FL 33431","phone":"561.368.0802"},{"latitude":26.239047,"longitude":-80.24875,"name":"Gymboree - Coral Square Mall #282","address":"9153 W. Atlantic Blvd.\r\nCoral Springs, FL 33071","phone":"954.346.1088"},{"latitude":26.284078,"longitude":-80.186511,"name":"Gymboree - Promenade at Coconut Creek #1768","address":"4425 Lyons Road, Suite #F101\r\nCoconut Creek, FL 33073","phone":"954.972.6291"},{"latitude":42.354471,"longitude":-71.612028,"name":"Gymboree - Solomon Pond Mall #322","address":"601 Donald Lynch Blvd. #2136\r\nMarlborough, MA 01752","phone":"508.303.6526"},{"latitude":26.144876,"longitude":-80.323966,"name":"Gymboree Outlet - Sawgrass Mills #5013","address":"12801 West Sunrise Blvd. , #805\r\nSunrise, FL 33323","phone":"954.837.0343"},{"latitude":43.459022,"longitude":-71.558514,"name":"Gymboree Outlet - Tanger Outlets - Tilton #5109","address":"120 Laconia Road, Suite 106\r\nTilton, NH 03276","phone":"603.286.7616"},{"latitude":42.857362,"longitude":-71.51436,"name":"Gymboree Outlet - Merrimack Premium Outlets #5132","address":"80 Premium Outlet Blvd., Suite #725\r\nMerrimack, NH 03054","phone":"603.424.7487"},{"latitude":26.1207,"longitude":-80.2535,"name":"Gymboree - Broward Mall #34","address":"8000 West Broward Blvd., Suite #234\r\nPlantation, FL 33388","phone":"954.370.3345"},{"latitude":42.702978,"longitude":-71.440988,"name":"Gymboree - Pheasant Lane Mall #202","address":"310 Daniel Webster Highway, #W137\r\nNashua, NH 03060","phone":"603.891.2244"},{"latitude":42.95633,"longitude":-71.435739,"name":"Gymboree - Mall of New Hampshire #237","address":"1500 S. Willow Street\r\nManchester, NH 03103","phone":"603.668.5807"},{"latitude":26.0078,"longitude":-80.300299,"name":"Gymboree - Pembroke Lakes #189","address":"11401 Pines Blvd.\r\nPembroke Pine, FL 33026","phone":"954.430.4007"},{"latitude":41.726519,"longitude":-71.479975,"name":"Gymboree - Warwick Mall #83","address":"400 Bald Hill Road, Space D111\r\nWarwick, RI 02886","phone":"401.737.2047"},{"latitude":42.482591,"longitude":-71.415607,"name":"Gymboree - Brookside Shops #1740","address":"145 Great Road, Route 2A\r\nActon, MA 01720","phone":"978.263.1315"},{"latitude":26.137758,"longitude":-80.123357,"name":"Gymboree - Galleria at Fort Lauderdale #1772","address":"2318 E. Sunrise Bld., Suite #2222A\r\nFort Lauderdale, FL 33304","phone":"954.565.5195"},{"latitude":42.299233,"longitude":-71.385213,"name":"Gymboree - Natick Mall #175","address":"1245 Worcester Street\r\nNatick, MA 01760","phone":"508.651.1123"},{"latitude":42.0498,"longitude":-71.345899,"name":"Gymboree Outlet - Wrentham Premium Outlets #5060","address":"One Premium Outlets Boulevard, Sp. # 610\r\nWrentham, MA 02093","phone":"508.384.6128"},{"latitude":41.944853,"longitude":-71.349049,"name":"Gymboree - Emerald Square Mall #47","address":"208 Emerald Square #E215\r\nNorth Attleboro, MA 02760","phone":"508.695.2122"},{"latitude":25.782766,"longitude":-80.376828,"name":"Gymboree Outlet - Dolphin Mall #5002","address":"11401 N.W. 12th St\r\nMiami, FL 33172","phone":"305.629.6757"},{"latitude":25.786728,"longitude":-80.368599,"name":"Gymboree - Miami International #281","address":"1455 NW 107 Ave, Rm 772\r\nMiami, FL 33172","phone":"305.594.9800"},{"latitude":25.957002,"longitude":-80.146799,"name":"Gymboree - Aventura Mall #382","address":"19575 North Biscayne Blvd. #139\r\nNorth Miami Beach, FL 33180","phone":"305.466.0337"},{"latitude":42.7665,"longitude":-71.227029,"name":"Gymboree - Mall at Rockingham Park #679","address":"99 Rockingham Park Blvd. #W205A\r\nSalem, NH 03079","phone":"603.893.4217"},{"latitude":42.363423,"longitude":-71.232636,"name":"Gymboree Outlet - Arsenal Mall #5145","address":"485 Arsenal Street., Space #C12\r\nWatertown, MA 02472","phone":"617.923.7649"},{"latitude":42.2443,"longitude":-71.2373,"name":"Gymboree - Legacy Place #1714","address":"230 Legacy Place\r\nDedham, MA 02026","phone":"781.461.4589"},{"latitude":42.491389,"longitude":-71.193137,"name":"Gymboree - Burlington Mall #22","address":"75 Middlesex Turnpike\r\nBurlington, MA 01803","phone":"781.272.0967"},{"latitude":42.320451,"longitude":-71.174968,"name":"Gymboree - Chestnut Hill #80","address":"199 Boylston Street, S-201\r\nChestnut Hill, MA 02467","phone":"617.969.9936"},{"latitude":33.722323,"longitude":-123.394093,"name":"Gymboree - Westfield Palm Desert #252","address":"72-840 Highway 111, #213\r\nPalm Desert, CA 92260","phone":"760.340.5061"},{"latitude":25.6887,"longitude":-80.312921,"name":"Gymboree - Dadeland Mall #153","address":"7431 N Kendall Mall\r\nMiami, FL 33156","phone":"305.665.3013"},{"latitude":25.646669,"longitude":-80.337935,"name":"Gymboree - The Falls Shopping Center #305","address":"8888 SW 136 Street, Suite 230\r\nMiami, FL 33176","phone":"305.234.2467"},{"latitude":44.023577,"longitude":-71.109397,"name":"Gymboree Outlet - Settlers Green Outlet Village #5031","address":"39 Common Court, Sp. H20\r\nNorth Conway, NH 03860","phone":"603.356.3282"},{"latitude":42.39233,"longitude":-71.090274,"name":"Gymboree Outlet - Assembly Row #5187","address":"451 Artisan Way\r\nSomerville, MA 02145","phone":"617.625.0360"},{"latitude":42.530584,"longitude":-71.03242,"name":"Gymboree - Market Street at Lynnfield #1776","address":"405 Market Street\r\nLynnfield, MA 01940","phone":"781.334.4015"},{"latitude":25.447985,"longitude":-80.473158,"name":"Gymboree Outlet - Florida Keys Outlet Center #5155","address":"250 East Palm Drive, Suite #105\r\nFlorida City, FL 33034","phone":"305.248.3514"},{"latitude":42.463819,"longitude":-71.024943,"name":"Gymboree - Square One Mall #618","address":"1201 Broadway, Route One South, #S-120\r\nSaugus, MA 01906","phone":"781.233.3572"},{"latitude":42.220499,"longitude":-71.028064,"name":"Gymboree - South Shore Plaza #35","address":"250 Granite Street, Suite #2032\r\nBraintree, MA 02184","phone":"781.848.6113"},{"latitude":41.867076,"longitude":-71.050056,"name":"Gymboree - Silver City #316","address":"2 Galleria Mall Dr., Suite B203\r\nTaunton, MA 02780","phone":"508.821.4445"},{"latitude":42.5327,"longitude":-70.9647,"name":"Gymboree - Northshore Mall #133","address":"210 Andover Street, Suite #E169\r\nPeabody, MA 01960","phone":"978.532.6644"},{"latitude":42.180358,"longitude":-70.906635,"name":"Gymboree - Derby Street Shoppes #616","address":"94 Derby Street, Suite 233\r\nHingham, MA 02043","phone":"781.740.4719"},{"latitude":33.930295,"longitude":-123.81844,"name":"Gymboree Outlet - Desert Hills Premium Outlets #5047","address":"48400 Seminole Drive, Sp. #0622\r\nCabazon, CA 92230","phone":"951.849.6107"},{"latitude":43.099972,"longitude":-70.807909,"name":"Gymboree - Fox Run Mall #504","address":"50 Fox Run Road #L11\r\nNewington, NH 03801","phone":"603.422.0710"},{"latitude":43.117056,"longitude":-70.726217,"name":"Gymboree Outlet - Kittery Premium Outlets #5076","address":"375 US Route 1, Suite # T130\r\nKittery, ME 03904","phone":"207.439.0283"},{"latitude":41.952891,"longitude":-70.714182,"name":"Gymboree - The Village at Colony Place #681","address":"132 Colony Place\r\nPlymouth, MA 02360","phone":"508.732.0241"},{"latitude":43.633093,"longitude":-70.338809,"name":"Gymboree - Maine Mall #197","address":"364 Maine Mall Road Spc #W107\r\nSouth Portland, ME 04106","phone":"207.774.5735"},{"latitude":41.6553,"longitude":-70.2979,"name":"Gymboree - Cape Cod Mall #174","address":"769 Route 132\r\nHyannis, MA 02601","phone":"508.778.9010"},{"latitude":43.856443,"longitude":-70.104208,"name":"Gymboree Outlet - Freeport Outlet #5154","address":"48 Main Street\r\nFreeport, ME 04032","phone":"207.865.4869"},{"latitude":32.807276,"longitude":-123.967399,"name":"Gymboree - Parkway Plaza #634","address":"415 Parkway Plaza\r\nEl Cajon, CA 92020","phone":"619.442.9008"},{"latitude":32.621,"longitude":-123.9639,"name":"Gymboree - Otay Ranch #677","address":"2015 Birch Run Road, Space #1007\r\nChula Vista, CA 91915","phone":"619.397.2670"},{"latitude":44.647815,"longitude":-63.619965,"name":"Gymboree - Halifax Shopping Centre #746","address":"7001 Mumford Road, Unit #258\r\nHalifax, NS B3L 4N9","phone":"902.455.7985"},{"latitude":44.678638,"longitude":-63.572263,"name":"Gymboree - Mic Mac Mall #757","address":"21 Mic Mac Blvd., Unit #241\r\nDartmouth, NS B3A 4N3","phone":"902.465.4007"},{"latitude":18.43746,"longitude":-66.542759,"name":"Gymboree Outlet - Premium Outlets at Puerto Rico #5895","address":"1 Premium Outlets Blvd\r\nBarceloneta, PR 00617","phone":"787.970.2030"},{"latitude":18.4194,"longitude":-66.064499,"name":"Gymboree - Plaza Las Americas #1990","address":"525 Avenida F.D. Roosevelt Hato Rey\r\nSan Juan, PR 00918","phone":"787.764.5734"},{"latitude":61.217567,"longitude":-149.889474,"name":"Gymboree - Anchorage 5th Avenue Mall #496","address":"320 W. 5th Ave.\r\nAnchorage, AK 99501","phone":"907.272.0763"}]