[{"latitude":" 29.17634","longitude":"-81.02583","name":" Jimmy John's Gourmet Sandwiches","address":" USA-United States"},{"latitude":" 35.94513","longitude":"-86.82137","name":" Jimmy John's Gourmet Sandwiches","address":" USA-United States"},{"latitude":" 32.58521","longitude":"-85.48825","name":" Jimmy John's Gourmet Sandwiches","address":" USA-United States"},{"latitude":" 29.18578","longitude":"-81.07724","name":" Jimmy John's Gourmet Sandwiches","address":" USA-United States"},{"latitude":" 35.90248","longitude":"-84.15113","name":" Jimmy John's Gourmet Sandwiches","address":" USA-United States"},{"latitude":" 34.09370","longitude":"-84.27959","name":" Jimmy John's Gourmet Sandwiches","address":" USA-United States"},{"latitude":" 33.95870","longitude":"-83.37490","name":" Jimmy John's Gourmet Sandwiches","address":" USA-United States"},{"latitude":" 25.75002","longitude":"-80.25734","name":" Jimmy John's Gourmet Sandwiches","address":" USA-United States"},{"latitude":" 34.93059","longitude":"-88.54133","name":" Jimmy John's Gourmet Sandwiches","address":" USA-United States"},{"latitude":" 29.65211","longitude":"-82.34516","name":" Jimmy John's Gourmet Sandwiches","address":" USA-United States"},{"latitude":" 33.84476","longitude":"-84.36962","name":" Jimmy John's Gourmet Sandwiches","address":" USA-United States"},{"latitude":" 26.80952","longitude":"-80.12651","name":" Jimmy John's Gourmet Sandwiches","address":" USA-United States"},{"latitude":" 27.36107","longitude":"-82.54661","name":" Jimmy John's Gourmet Sandwiches","address":" USA-United States"},{"latitude":" 33.80716","longitude":"-84.39350","name":" Jimmy John's Gourmet Sandwiches","address":" USA-United States"},{"latitude":" 27.95989","longitude":"-82.79993","name":" Jimmy John's Gourmet Sandwiches","address":" USA-United States"},{"latitude":" 25.77442","longitude":"-80.19454","name":" Jimmy John's Gourmet Sandwiches","address":" USA-United States"},{"latitude":" 33.99873","longitude":"-81.01662","name":" Jimmy John's Gourmet Sandwiches","address":" USA-United States"},{"latitude":" 30.43086","longitude":"-84.24740","name":" Jimmy John's Gourmet Sandwiches","address":" USA-United States"},{"latitude":" 30.43086","longitude":"-84.24740","name":" Jimmy John's Gourmet Sandwiches","address":" USA-United States"},{"latitude":" 36.14813","longitude":"-86.80596","name":" Jimmy John's Gourmet Sandwiches","address":" USA-United States"},{"latitude":" 30.84686","longitude":"-83.30851","name":" Jimmy John's Gourmet Sandwiches","address":" USA-United States"},{"latitude":" 26.36472","longitude":"-81.78130","name":" Jimmy John's Gourmet Sandwiches","address":" USA-United States"},{"latitude":" 28.05437","longitude":"-82.43256","name":" Jimmy John's Gourmet Sandwiches","address":" USA-United States"},{"latitude":" 26.39544","longitude":"-80.10369","name":" Jimmy John's Gourmet Sandwiches","address":" USA-United States"},{"latitude":" 29.63521","longitude":"-82.35476","name":" Jimmy John's Gourmet Sandwiches","address":" USA-United States"},{"latitude":" 35.95545","longitude":"-83.93529","name":" Jimmy John's Gourmet Sandwiches","address":" USA-United States"},{"latitude":" 26.53488","longitude":"-81.87120","name":" Jimmy John's Gourmet Sandwiches","address":" USA-United States"},{"latitude":" 33.99936","longitude":"-81.04043","name":" Jimmy John's Gourmet Sandwiches","address":" USA-United States"},{"latitude":" 33.99936","longitude":"-81.04043","name":" Jimmy John's Gourmet Sandwiches","address":" USA-United States"},{"latitude":" 34.96567","longitude":"-81.93163","name":" Jimmy John's Gourmet Sandwiches","address":" USA-United States"},{"latitude":" 28.58687","longitude":"-81.36379","name":" Jimmy John's Gourmet Sandwiches","address":" USA-United States"},{"latitude":" 33.78009","longitude":"-84.38415","name":" Jimmy John's Gourmet Sandwiches","address":" USA-United States"},{"latitude":" 27.94879","longitude":"-82.45894","name":" Jimmy John's Gourmet Sandwiches","address":" USA-United States"},{"latitude":" 27.17907","longitude":"-80.23779","name":" Jimmy John's Gourmet Sandwiches","address":" USA-United States"},{"latitude":" 33.96842","longitude":"-84.19435","name":" Jimmy John's Gourmet Sandwiches","address":" USA-United States"},{"latitude":" 26.53666","longitude":"-80.09056","name":" Jimmy John's Gourmet Sandwiches","address":" USA-United States"},{"latitude":" 33.77813","longitude":"-84.38081","name":" Jimmy John's Gourmet Sandwiches","address":" USA-United States"},{"latitude":" 30.44883","longitude":"-84.30318","name":" Jimmy John's Gourmet Sandwiches","address":" USA-United States"},{"latitude":" 33.23660","longitude":"-87.55755","name":" Jimmy John's Gourmet Sandwiches","address":" USA-United States"},{"latitude":" 35.30165","longitude":"-80.74947","name":" Jimmy John's Gourmet Sandwiches","address":" USA-United States"},{"latitude":" 32.78366","longitude":"-79.93629","name":" Jimmy John's Gourmet Sandwiches","address":" USA-United States"},{"latitude":" 33.98403","longitude":"-80.96820","name":" Jimmy John's Gourmet Sandwiches","address":" USA-United States"},{"latitude":" 34.84921","longitude":"-82.39808","name":" Jimmy John's Gourmet Sandwiches","address":" USA-United States"},{"latitude":" 32.50918","longitude":"-84.96204","name":" Jimmy John's Gourmet Sandwiches","address":" USA-United States"},{"latitude":" 28.59771","longitude":"-81.21922","name":" Jimmy John's Gourmet Sandwiches","address":" USA-United States"},{"latitude":" 33.95005","longitude":"-83.38392","name":" Jimmy John's Gourmet Sandwiches","address":" USA-United States"},{"latitude":" 27.27178","longitude":"-80.31738","name":" Jimmy John's Gourmet Sandwiches","address":" USA-United States"},{"latitude":" 35.67193","longitude":"-88.85304","name":" Jimmy John's Gourmet Sandwiches","address":" USA-United States"},{"latitude":" 26.21409","longitude":"-80.10629","name":" Jimmy John's Gourmet Sandwiches","address":" USA-United States"},{"latitude":" 26.89877","longitude":"-80.10192","name":" Jimmy John's Gourmet Sandwiches","address":" USA-United States"},{"latitude":" 28.40768","longitude":"-81.38280","name":" Jimmy John's Gourmet Sandwiches","address":" USA-United States"},{"latitude":" 33.78647","longitude":"-84.39901","name":" Jimmy John's Gourmet Sandwiches","address":" USA-United States"},{"latitude":" 35.12803","longitude":"-80.70246","name":" Jimmy John's Gourmet Sandwiches","address":" USA-United States"},{"latitude":" 27.78545","longitude":"-82.72850","name":" Jimmy John's Gourmet Sandwiches","address":" USA-United States"},{"latitude":" 35.85695","longitude":"-86.43016","name":" Jimmy John's Gourmet Sandwiches","address":" USA-United States"},{"latitude":" 26.71306","longitude":"-80.05303","name":" Jimmy John's Gourmet Sandwiches","address":" USA-United States"},{"latitude":" 30.68381","longitude":"-88.20255","name":" Jimmy John's Gourmet Sandwiches","address":" USA-United States"},{"latitude":" 32.60722","longitude":"-85.48173","name":" Jimmy John's Gourmet Sandwiches","address":" USA-United States"},{"latitude":" 26.67793","longitude":"-80.20251","name":" Jimmy John's Gourmet Sandwiches","address":" USA-United States"},{"latitude":" 30.44035","longitude":"-84.31884","name":" Jimmy John's Gourmet Sandwiches","address":" USA-United States"},{"latitude":" 29.12873","longitude":"-81.02552","name":" Jimmy John's Gourmet Sandwiches","address":" USA-United States"},{"latitude":" 36.97951","longitude":"-86.46793","name":" Jimmy John's Gourmet Sandwiches","address":" USA-United States"},{"latitude":" 30.68785","longitude":"-88.13073","name":" Jimmy John's Gourmet Sandwiches","address":" USA-United States"},{"latitude":" 36.31782","longitude":"-86.59548","name":" Jimmy John's Gourmet Sandwiches","address":" USA-United States"},{"latitude":" 35.22603","longitude":"-80.84546","name":" Jimmy John's Gourmet Sandwiches","address":" USA-United States"},{"latitude":" 35.10938","longitude":"-89.88926","name":" Jimmy John's Gourmet Sandwiches","address":" USA-United States"},{"latitude":" 35.13479","longitude":"-80.73683","name":" Jimmy John's Gourmet Sandwiches","address":" USA-United States"},{"latitude":" 28.03570","longitude":"-80.64127","name":" Jimmy John's Gourmet Sandwiches","address":" USA-United States"},{"latitude":" 33.21071","longitude":"-87.55264","name":" Jimmy John's Gourmet Sandwiches","address":" USA-United States"}]