[{"latitude":"34.80474","longitude":"-86.95045","name":"Kmart-Athens,AL","address":"104 Us 31 N, Athens,AL, (256) 233-1551"},{"latitude":"31.25417","longitude":"-85.38911","name":"Kmart-Dothan,AL","address":"2185 Reeves St, Dothan,AL, (334) 794-8756"},{"latitude":"34.72993","longitude":"-87.66766","name":"Kmart-Muscle Shoals,AL","address":"3401 Woodward Ave, Muscle Shoals,AL, (256) 383-7716"},{"latitude":"33.16507","longitude":"-87.54605","name":"Kmart-Tuscaloosa,AL","address":"635 Skyland Blvd, Tuscaloosa,AL, (205) 759-4461"},{"latitude":"34.27573","longitude":"-86.20307","name":"Kmart-Albertville,AL","address":"7200 Us 431, Albertville,AL, (256) 878-9030"},{"latitude":"33.5762","longitude":"-86.27303","name":"Kmart-Pell City,AL","address":"803 Martin St S, Pell City,AL, (205) 884-2900"},{"latitude":"34.77103","longitude":"-92.39496","name":"Kmart-Little Rock,AR","address":"10901 N Rodney Parham Rd, Little Rock,AR, (501) 227-6460"},{"latitude":"35.27819","longitude":"-93.10085","name":"Kmart-Russellville,AR","address":"2821 E Main St, Russellville,AR, (479) 968-4133"},{"latitude":"34.93659","longitude":"-92.0088","name":"Kmart-Cabot,AR","address":"State Highway 89, Cabot,AR, (501) 843-2206"},{"latitude":"32.87971","longitude":"-111.735","name":"Kmart-Casa Grande,AZ","address":"1214 E Florence Blvd, Casa Grande,AZ, (520) 836-3466"},{"latitude":"33.3893","longitude":"-111.68452","name":"Kmart-Mesa,AZ","address":"1445 S Power Rd, Mesa,AZ, (480) 985-8448"},{"latitude":"34.47738","longitude":"-114.33578","name":"Kmart-Lake Havasu City,AZ","address":"1870 Mcculloch Blvd N, Lake Havasu City,AZ, (928) 453-5919"},{"latitude":"35.10579","longitude":"-114.59788","name":"Kmart-Bullhead City,AZ","address":"2250 Highway 95, Bullhead City,AZ, (928) 763-7878"},{"latitude":"33.55325","longitude":"-112.1135","name":"Kmart-Phoenix,AZ","address":"2526 W Northern Ave, Phoenix,AZ, (602) 995-8867"},{"latitude":"35.22141","longitude":"-114.00701","name":"Kmart-Kingman,AZ","address":"3340 E Andy Devine Ave, Kingman,AZ, (928) 757-3202"},{"latitude":"32.221262","longitude":"-110.842259","name":"Kmart-Tucson,AZ","address":"7055 East Broadway, Tucson,AZ 85710, (520) 546-6565"},{"latitude":"34.24669","longitude":"-110.04978","name":"Kmart-Show Low,AZ","address":"750 W Deuce Of Clubs, Show Low,AZ, (928) 537-3192"},{"latitude":"33.464465","longitude":"-112.247572","name":"Kmart-Tolleson,AZ","address":"8701 West Mcdowell, Tolleson,AZ, (623) 936-1284"},{"latitude":"34.18758","longitude":"-118.31766","name":"Kmart-Burbank,CA","address":"1000 N San Fernando Blvd, Burbank,CA, (818) 843-4221"},{"latitude":"33.90196","longitude":"-118.11205","name":"Kmart-Bellflower,CA","address":"10400 Rosecrans Ave, Bellflower,CA, (562) 925-9561"},{"latitude":"36.696294","longitude":"-121.668642","name":"Kmart-Salinas,CA","address":"1050 North Davis Rd, Salinas,CA 93907, (831) 757-3601"},{"latitude":"38.35858","longitude":"-120.804047","name":"Kmart-Jackson,CA","address":"10500 Wicklow Way, Jackson,CA, (209) 223-4910"},{"latitude":"38.911869","longitude":"-120.003922","name":"Kmart-South Lake Tahoe,CA","address":"1056 Emerald Bay Rd, South Lake Tahoe,CA, (530) 541-8971"},{"latitude":"36.808704","longitude":"-119.695969","name":"Kmart-Clovis,CA","address":"1075 Shaw Ave, Clovis,CA, (559) 298-9772"},{"latitude":"39.199684","longitude":"-121.060547","name":"Kmart-Grass Valley,CA","address":"111 W McKnight Way, Grass Valley,CA, (530) 272-9611"},{"latitude":"37.489799","longitude":"-122.223068","name":"Kmart-Redwood City,CA","address":"1155 Veterans Blvd, Redwood City,CA, (650) 364-7640"},{"latitude":"38.720581","longitude":"-121.290564","name":"Kmart-Bishop,CA","address":"1200 N Main St, Bishop,CA 93514, (760) 872-7030"},{"latitude":"34.20133","longitude":"-118.41609","name":"Kmart-North Hollywood,CA","address":"13007 Sherman Way, North Hollywood,CA, (818) 764-0250"},{"latitude":"37.609428","longitude":"-120.974907","name":"Kmart-Modesto,CA","address":"1351 E Hatch Rd, Modesto,CA, (209) 521-9610"},{"latitude":"33.9466","longitude":"-116.50146","name":"Kmart-Desert Hot Springs,CA","address":"14011 Palm Dr, Desert Hot Springs,CA, (760) 329-1093"},{"latitude":"33.61025","longitude":"-114.61349","name":"Kmart-Blythe,CA","address":"1455 W Hobsonway, Blythe,CA, (760) 921-8442"},{"latitude":"40.932655","longitude":"-124.101761","name":"Kmart-McKinleyville,CA","address":"1500 Anna Sparks Way, McKinleyville,CA, (707) 839-5063"},{"latitude":"37.990871","longitude":"-122.306328","name":"Kmart-Pinole,CA","address":"1500 Fitzgerald Dr, Pinole,CA, (510) 222-5280"},{"latitude":"35.1305","longitude":"-120.60534","name":"Kmart-Arroyo Grande,CA","address":"1570 W Branch St, Arroyo Grande,CA, (805) 481-8484"},{"latitude":"34.06276","longitude":"-117.21046","name":"Kmart-Redlands,CA","address":"1625 W Redlands Blvd, Redlands,CA, (909) 793-0711"},{"latitude":"34.07747","longitude":"-117.61761","name":"Kmart-Ontario,CA","address":"1670 E 4th St, Ontario,CA, (909) 984-6119"},{"latitude":"34.42047","longitude":"-117.29331","name":"Kmart-Hesperia,CA","address":"16968 Main St, Hesperia,CA, (760) 244-7800"},{"latitude":"36.933067","longitude":"-121.77079","name":"Kmart-Freedom,CA","address":"1702 Freedom Blvd, Freedom,CA, (831) 728-9771"},{"latitude":"37.770809","longitude":"-120.82975","name":"Kmart-Oakdale,CA","address":"175 South Maag Ave, Oakdale,CA, (209) 847-7091"},{"latitude":"33.03444","longitude":"-116.88181","name":"Kmart-Ramona,CA","address":"1855 Main St, Ramona,CA, (760) 788-7886"},{"latitude":"39.02763","longitude":"-122.916237","name":"Kmart-Lakeport,CA","address":"2019 S Main, Lakeport,CA, (707) 263-9305"},{"latitude":"34.47127","longitude":"-117.21028","name":"Kmart-Apple Valley,CA","address":"20777 Bear Valley Rd, Apple Valley,CA, (760) 240-1488"},{"latitude":"36.30101","longitude":"-119.786369","name":"Kmart-Lemoore,CA","address":"215 West Hanford\/Arm, Lemoore,CA, (209) 924-8896"},{"latitude":"39.757858","longitude":"-121.845734","name":"Kmart-Chico,CA","address":"2155 Pillsbury Rd, Chico,CA, (530) 345-9461"},{"latitude":"37.93763","longitude":"-121.241211","name":"Kmart-Stockton,CA","address":"2180 E Mariposa Rd, Stockton,CA, (209) 948-8205"},{"latitude":"33.6541","longitude":"-117.91893","name":"Kmart-Costa Mesa,CA","address":"2200 Harbor Blvd, Costa Mesa,CA, (949) 646-7701"},{"latitude":"33.83928","longitude":"-117.88584","name":"Kmart-Anaheim,CA","address":"2222 E Lincoln Ave, Anaheim,CA, (714) 991-6111"},{"latitude":"34.42278","longitude":"-118.54418","name":"Kmart-Valencia,CA","address":"23222 Valencia Blvd, Valencia,CA, (661) 255-7610"},{"latitude":"38.942295","longitude":"-121.091698","name":"Kmart-Auburn,CA","address":"2505 Bell Rd, Auburn,CA, (530) 823-6943"},{"latitude":"34.02764","longitude":"-117.65118","name":"Kmart-Ontario,CA","address":"2530 S Euclid Ave, Ontario,CA, (909) 983-2291"},{"latitude":"37.819225","longitude":"-121.220352","name":"Kmart-Manteca,CA","address":"255 Northgate Dr, Manteca,CA, (209) 825-3033"},{"latitude":"38.25185","longitude":"-122.630653","name":"Kmart-Petaluma,CA","address":"261 N McDowell Blvd, Petaluma,CA, (707) 778-6234"},{"latitude":"37.649525","longitude":"-122.065857","name":"Kmart-Hayward,CA","address":"26231 Mission Blvd, Hayward,CA, (510) 582-3884"},{"latitude":"33.52126","longitude":"-117.15711","name":"Kmart-Temecula,CA","address":"26471 Ynez Rd, Temecula,CA, (951) 296-1570"},{"latitude":"40.568054","longitude":"-122.358742","name":"Kmart-Redding,CA","address":"2685 Hilltop Dr, Redding,CA, (530) 221-8055"},{"latitude":"37.047562","longitude":"-122.031639","name":"Kmart-Scotts Valley,CA","address":"270 Mt Hermon Rd, Scotts Valley,CA, (831) 438-0545"},{"latitude":"34.90793","longitude":"-120.43334","name":"Kmart-Santa Maria,CA","address":"2875 Santa Maria Way, Santa Maria,CA, (805) 937-6351"},{"latitude":"33.80904","longitude":"-118.12502","name":"Kmart-Long Beach,CA","address":"2900 N Bellflower Blvd, Long Beach,CA, (562) 377-0618"},{"latitude":"35.13674","longitude":"-119.44695","name":"Kmart-Taft,CA","address":"301 Gardner Field Rd, Taft,CA, (661) 763-5949"},{"latitude":"36.326618","longitude":"-119.327164","name":"Kmart-Visalia,CA","address":"3247 Noble Ave, Visalia,CA, (559) 739-8491"},{"latitude":"38.005087","longitude":"-121.755533","name":"Kmart-Antioch,CA","address":"3625 East 18th St, Antioch,CA 94509, (925) 777-0145"},{"latitude":"33.91616","longitude":"-117.32533","name":"Kmart-Riverside,CA","address":"375 E Alessandro Blvd, Riverside,CA, (951) 789-1076"},{"latitude":"38.479576","longitude":"-122.734497","name":"Kmart-Santa Rosa,CA","address":"3771 Cleveland Ave, Santa Rosa,CA, (707) 544-2245"},{"latitude":"38.705544","longitude":"-120.829147","name":"Kmart-Placerville,CA","address":"3968 A Missouri Flat, Placerville,CA, (530) 626-7080"},{"latitude":"35.49932","longitude":"-120.68323","name":"Kmart-Atascadero,CA","address":"3980 El Camino Real, Atascadero,CA, (805) 466-7700"},{"latitude":"34.2484","longitude":"-116.88305","name":"Kmart-Big Bear Lake,CA","address":"42126 Big Bear Blvd, Big Bear Lake,CA, (909) 866-9200"},{"latitude":"40.766247","longitude":"-124.191368","name":"Kmart-Eureka,CA","address":"4325 Broadway, Eureka,CA, (707) 444-9605"},{"latitude":"32.54555","longitude":"-117.04147","name":"Kmart-San Ysidro,CA","address":"4330 Camino De La Plz, San Ysidro,CA, (619) 428-0303"},{"latitude":"36.839264","longitude":"-121.392952","name":"Kmart-Hollister,CA","address":"491 Tres Pinos Rd, Hollister,CA, (831) 637-5730"},{"latitude":"33.84025","longitude":"-118.28371","name":"Kmart-Carson,CA","address":"500 Carson Town Ctr, Carson,CA, (310) 533-0285"},{"latitude":"37.956032","longitude":"-121.968941","name":"Kmart-Concord,CA","address":"5100 Clayton Rd, Concord,CA, (925) 671-2000"},{"latitude":"38.529099","longitude":"-121.444649","name":"Kmart-Sacramento,CA","address":"5100 Stockton Blvd, Sacramento,CA, (916) 452-7681"},{"latitude":"34.10266","longitude":"-118.07378","name":"Kmart-Temple City,CA","address":"5665 Rosemead Blvd, Temple City,CA, (626) 287-9646"},{"latitude":"34.07121","longitude":"-118.35941","name":"Kmart-Los Angeles,CA","address":"6310 W 3rd St, Los Angeles,CA, (323) 933-7306"},{"latitude":"39.775551","longitude":"-121.592491","name":"Kmart-Paradise,CA","address":"6600 Clark Rd, Paradise,CA, (530) 877-0733"},{"latitude":"34.43002","longitude":"-119.86746","name":"Kmart-Goleta,CA","address":"6865 Hollister Ave, Goleta,CA, (805) 968-4462"},{"latitude":"35.1315","longitude":"-118.46072","name":"Kmart-Tehachapi,CA","address":"710 W Tehachapi Blvd, Tehachapi,CA, (661) 822-7496"},{"latitude":"33.94561","longitude":"-117.45139","name":"Kmart-Riverside,CA","address":"7200 Arlington Ave, Riverside,CA, (951) 687-6920"},{"latitude":"34.07081","longitude":"-117.94414","name":"Kmart-West Covina,CA","address":"730 S Orange Ave, West Covina,CA, (626) 960-3756"},{"latitude":"33.97829","longitude":"-117.45493","name":"Kmart-Riverside,CA","address":"7840 Limonite Ave, Riverside,CA, (951) 681-3391"},{"latitude":"33.96185","longitude":"-118.18624","name":"Kmart-Cudahy,CA","address":"8017 Atlantic Ave, Cudahy,CA, (323) 771-9500"},{"latitude":"34.33669","longitude":"-119.08507","name":"Kmart-Santa Paula,CA","address":"895 Faulkner Rd, Santa Paula,CA, (805) 525-6989"},{"latitude":"35.63622","longitude":"-117.66966","name":"Kmart-Ridgecrest,CA","address":"910 N China Lake Blvd, Ridgecrest,CA, (760) 446-6591"},{"latitude":"35.79029","longitude":"-119.24681","name":"Kmart-Delano,CA","address":"912 County Line Rd, Delano,CA, (661) 721-7001"},{"latitude":"32.712806","longitude":"-117.012707","name":"Kmart-Spring Valley,CA","address":"935 Sweetwater Rd, Spring Valley,CA 91977, (619) 469-1343"},{"latitude":"34.22631","longitude":"-119.03878","name":"Kmart-Camarillo,CA","address":"940 Arneill Rd, Camarillo,CA, (805) 484-4311"},{"latitude":"39.739864","longitude":"-104.811511","name":"Kmart-Aurora,CO","address":"15200 E Colfax Ave, Aurora,CO 80011, (303) 341-4811"},{"latitude":"39.62297","longitude":"-104.990737","name":"Kmart-Englewood,CO","address":"200 W Belleview, Englewood,CO, (303)794-1200"},{"latitude":"40.40751","longitude":"-105.11299","name":"Kmart-Loveland,CO","address":"2665 W Eisenhower Blvd, Loveland,CO, (970) 663-2440"},{"latitude":"38.87519","longitude":"-104.81977","name":"Kmart-Colorado Springs,CO","address":"3020 N Nevada Ave, Colorado Springs,CO, (719) 471-3555"},{"latitude":"38.30485","longitude":"-104.61546","name":"Kmart-Pueblo,CO","address":"3415 N Elizabeth St, Pueblo,CO, (719) 545-9621"},{"latitude":"39.80212","longitude":"-105.10796","name":"Kmart-Arvada,CO","address":"9881 W 58th Ave, Arvada,CO, (303) 421-8394"},{"latitude":"41.47965","longitude":"-73.21322","name":"Kmart-Southbury,CT","address":"100 Main St N, Southbury,CT, (203) 264-7227"},{"latitude":"41.82684","longitude":"-72.49156","name":"Kmart-Vernon,CT","address":"295 Hartford Tpke, Vernon,CT, (860) 872-8391"},{"latitude":"41.20743","longitude":"-73.08688","name":"Kmart-Milford,CT","address":"589 Bridgeport Ave, Milford,CT, (203) 877-6036"},{"latitude":"41.57534","longitude":"-73.09982","name":"Kmart-Watertown,CT","address":"595 Straits Tpke, Watertown,CT, (860) 274-9204"},{"latitude":"39.680102","longitude":"-75.733948","name":"Kmart-Newark,DE","address":"301 College Sq, Newark,DE, (302) 738-7290"},{"latitude":"39.63178","longitude":"-75.66278","name":"Kmart-Bear,DE","address":"401 Governors Pl, Bear,DE, (302) 834-5580"},{"latitude":"38.7208558","longitude":"-75.1185335","name":"Kmart-Rehoboth Beach,DE","address":"4364 Hwy 1, Rehoboth Beach,DE, (302) 226-0223"},{"latitude":"39.7383315","longitude":"-75.6903477","name":"Kmart-Wilmington,DE","address":"4700 Limestone Rd, Wilmington,DE, (302) 998-4789"},{"latitude":"28.54686","longitude":"-81.72942","name":"Kmart-Clermont,FL","address":"1002 E Highway 50, Clermont,FL, (352) 394-8667"},{"latitude":"25.11426","longitude":"-80.4217","name":"Kmart-Key Largo,FL","address":"101499 Overseas Hwy, Key Largo,FL, (305) 451-5017"},{"latitude":"29.05483","longitude":"-82.04194","name":"Kmart-Belleview,FL","address":"10301 SE Us 441, Belleview,FL, (352) 245-0155"},{"latitude":"25.8741","longitude":"-80.17104","name":"Kmart-North Miami,FL","address":"10700 Biscayne Blvd, North Miami,FL, (305) 893-3900"},{"latitude":"26.57465","longitude":"-80.05365","name":"Kmart-Lantana,FL","address":"1201 S Dixie Hwy, Lantana,FL, (561) 586-7222"},{"latitude":"25.76075","longitude":"-80.39582","name":"Kmart-Miami,FL","address":"12350 SW 8th St, Miami,FL, (305) 553-5762"},{"latitude":"28.33706","longitude":"-82.69901","name":"Kmart-Hudson,FL","address":"12412 Us 19, Hudson,FL, (727) 863-2475"},{"latitude":"26.35094","longitude":"-80.11379","name":"Kmart-Boca Raton,FL","address":"1401 W Palmetto Park Rd, Boca Raton,FL, (561) 392-8665"},{"latitude":"25.68536","longitude":"-80.42251","name":"Kmart-Miami,FL","address":"14091 Sw 88th St, Miami,FL, (305) 385-5970"},{"latitude":"25.86638","longitude":"-80.31144","name":"Kmart-Hialeah,FL","address":"1460 W 49th St, Hialeah,FL, (305) 822-7360"},{"latitude":"27.62884","longitude":"-80.38937","name":"Kmart-Vero Beach,FL","address":"1501 Us Highway 1, Vero Beach,FL, (772) 562-7801"},{"latitude":"27.93797","longitude":"-82.30849","name":"Kmart-Brandon,FL","address":"1602 W Brandon Blvd, Brandon,FL, (813) 685-2994"},{"latitude":"30.42217","longitude":"-86.61092","name":"Kmart-Fort Walton Beach,FL","address":"200 Irwin Ave Ne, Fort Walton Beach,FL, (850) 243-8185"},{"latitude":"25.57628","longitude":"-80.37153","name":"Kmart-Miami,FL","address":"20505 S Dixie Hwy, Miami,FL, (305) 254-0455"},{"latitude":"28.01765","longitude":"-82.7384","name":"Kmart-Clearwater,FL","address":"26996 Us 19 N, Clearwater,FL, (727) 796-1035"},{"latitude":"24.56636","longitude":"-81.77152","name":"Kmart-Key West,FL","address":"2928 N Roosevelt Blvd, Key West,FL, (305) 293-9211"},{"latitude":"29.19938","longitude":"-82.0844","name":"Kmart-Ocala,FL","address":"3711 E Silver Springs Blvd, Ocala,FL, (352) 694-2191"},{"latitude":"26.04354","longitude":"-80.16042","name":"Kmart-Hollywood,FL","address":"3800 Oakwood Blvd, Hollywood,FL, (954) 922-7686"},{"latitude":"25.77904","longitude":"-80.25779","name":"Kmart-Miami,FL","address":"3825 Nw 7th St, Miami,FL, (305) 649-2688"},{"latitude":"26.706752","longitude":"-80.107735","name":"Kmart-West Palm Beach,FL","address":"4340 Okeechobee Blvd, West Palm Beach,FL 33409, (561) 689-3130"},{"latitude":"27.81258","longitude":"-82.72835","name":"Kmart-St Petersburg,FL","address":"4501 66th St N, St Petersburg,FL, (727) 544-2578"},{"latitude":"27.97963","longitude":"-81.95771","name":"Kmart-Lakeland,FL","address":"4717 S Florida Ave, Lakeland,FL, (863) 644-8746"},{"latitude":"28.03275","longitude":"-82.39598","name":"Kmart-Tampa,FL","address":"5400 E Busch Blvd, Tampa,FL, (813) 985-6641"},{"latitude":"24.71648","longitude":"-81.07429","name":"Kmart-Marathon,FL","address":"5561 Overseas Hwy, Marathon,FL, (305) 743-9434"},{"latitude":"30.60296","longitude":"-87.07082","name":"Kmart-Milton,FL","address":"6050 Highway 90, Milton,FL, (850) 626-7653"},{"latitude":"27.53175","longitude":"-82.50183","name":"Kmart-Ellenton,FL","address":"6126 Us 301 N, Ellenton,FL, (941) 729-3711"},{"latitude":"27.49624","longitude":"-82.63493","name":"Kmart-Bradenton,FL","address":"7350 Manatee Ave W, Bradenton,FL, (941) 792-1223"},{"latitude":"28.02333","longitude":"-82.45938","name":"Kmart-Tampa,FL","address":"8245 N Florida Ave, Tampa,FL, (813) 933-1702"},{"latitude":"25.92841","longitude":"-80.18259","name":"Kmart-North Miami Beach,FL","address":"900 N Miami Beach Blvd, North Miami Beach,FL, (305) 944-1681"},{"latitude":"29.66038","longitude":"-82.42413","name":"Kmart-Gainesville,FL","address":"900 Nw 76th Blvd, Gainesville,FL, (352) 332-2105"},{"latitude":"27.49141","longitude":"-81.4846","name":"Kmart-Sebring,FL","address":"901 Us 27 N #100, Sebring,FL, (863) 471-2266"},{"latitude":"34.79186","longitude":"-84.96223","name":"Kmart-Dalton,GA","address":"1203 Cleveland Hwy, Dalton,GA, (706) 278-7437"},{"latitude":"34.48452","longitude":"-84.94472","name":"Kmart-Calhoun,GA","address":"122 WC Bryant Pky, Calhoun,GA, (706) 625-0625"},{"latitude":"31.49022","longitude":"-82.85075","name":"Kmart-Douglas,GA","address":"1300 Madison Ave S, Douglas,GA, (912) 384-0761"},{"latitude":"34.7596","longitude":"-84.9912","name":"Kmart-Dalton,GA","address":"1308 W Walnut Ave, Dalton,GA, (706) 226-1980"},{"latitude":"31.45299","longitude":"-83.52805","name":"Kmart-Tifton,GA","address":"144 Virginia Ave S, Tifton,GA, (229) 386-2822"},{"latitude":"32.89931","longitude":"-83.68884","name":"Kmart-Macon,GA","address":"156 Tom Hill Sr Blvd, Macon,GA, (478) 474-6194"},{"latitude":"32.51964","longitude":"-84.9576","name":"Kmart-Columbus,GA","address":"2500 Airport Thruway, Columbus,GA, (706) 322-1572"},{"latitude":"31.61029","longitude":"-84.21127","name":"Kmart-Albany,GA","address":"2525 Dawson Rd, Albany,GA, (229) 436-7711"},{"latitude":"33.37729","longitude":"-84.55968","name":"Kmart-Peachtree City,GA","address":"400 Crosstown Rd, Peachtree City,GA, (770) 487-2295"},{"latitude":"34.95477","longitude":"-85.25654","name":"Kmart-Fort Oglethorpe,GA","address":"526 Battlefield Pky, Fort Oglethorpe,GA, (706) 866-1337"},{"latitude":"33.81747","longitude":"-84.5756","name":"Kmart-Mableton,GA","address":"5590 Mableton Pky Se, Mableton,GA, (770) 745-1133"},{"latitude":"33.60371","longitude":"-83.87616","name":"Kmart-Covington,GA","address":"6239 Turner Lake Rd Nw, Covington,GA, (770) 787-7877"},{"latitude":"32.43867","longitude":"-81.76263","name":"Kmart-Statesboro,GA","address":"715 Northside Dr E, Statesboro,GA, (912) 764-6992"},{"latitude":"31.60629","longitude":"-81.90675","name":"Kmart-Jesup,GA","address":"950 Sunset Blvd, Jesup,GA, (912) 427-9583"},{"latitude":"21.96912","longitude":"-159.37605","name":"Kmart-Lihue,HI","address":"4303 Nawiliwili Rd, Lihue,HI, (808) 245-7742"},{"latitude":"21.33039","longitude":"-158.08582","name":"Kmart-Kapolei,HI","address":"500 Kamokila Blvd, Kapolei,HI, (808) 674-9355"},{"latitude":"19.65076","longitude":"-155.99872","name":"Kmart-Kailua Kona,HI","address":"74\/5465 Kamakaeha Ave, Kailua Kona,HI, (808) 326-2331"},{"latitude":"42.76142","longitude":"-95.55176","name":"Kmart-Cherokee,IA","address":"1111 N 2nd St, Cherokee,IA, (712) 225-6141"},{"latitude":"43.052551","longitude":"-92.672684","name":"Kmart-Charles City,IA","address":"1405 S Grand, Charles City,IA, (641) 228-7935"},{"latitude":"43.08313","longitude":"-94.2364","name":"Kmart-Algona,IA","address":"1501 Highway 169 N, Algona,IA, (515) 295-7775"},{"latitude":"42.02818","longitude":"-92.91245","name":"Kmart-Marshalltown,IA","address":"1720 S Center St, Marshalltown,IA, (641) 753-0945"},{"latitude":"42.651371","longitude":"-91.91346","name":"Kmart-Oelwein,IA","address":"2105 South Frederick, Oelwein,IA, (319) 283-4931"},{"latitude":"42.45296","longitude":"-93.81633","name":"Kmart-Webster City,IA","address":"2307 Superior St, Webster City,IA, (515) 832-5523"},{"latitude":"41.02774","longitude":"-95.23312","name":"Kmart-Red Oak,IA","address":"2501 N Broadway St, Red Oak,IA, (712) 623-2586"},{"latitude":"41.6091","longitude":"-93.56947","name":"Kmart-Des Moines,IA","address":"2535 Hubbell Ave, Des Moines,IA, (515) 262-5628"},{"latitude":"41.27928","longitude":"-95.80897","name":"Kmart-Council Bluffs,IA","address":"2803 E Kanesville Blvd, Council Bluffs,IA, (712) 325-0930"},{"latitude":"42.06924","longitude":"-94.87557","name":"Kmart-Carroll,IA","address":"715 W Us Highway 30, Carroll,IA, (712) 792-5938"},{"latitude":"41.61489","longitude":"-93.72078","name":"Kmart-Urbandale,IA","address":"7501 Hickman Rd, Urbandale,IA, (515) 276-6712"},{"latitude":"41.64268","longitude":"-91.52417","name":"Kmart-Iowa City,IA","address":"901 Hollywood Blvd, Iowa City,IA, (319) 351-8170"},{"latitude":"43.60569","longitude":"-116.60366","name":"Kmart-Nampa,ID","address":"1813 Caldwell Blvd, Nampa,ID, (208) 467-4463"},{"latitude":"46.401875","longitude":"-117.001793","name":"Kmart-Lewiston,ID","address":"1815 21st St, Lewiston,ID, (208) 743-4587"},{"latitude":"42.56293","longitude":"-114.43893","name":"Kmart-Twin Falls,ID","address":"2258 Addison Ave E, Twin Falls,ID, (208) 734-5400"},{"latitude":"43.482082","longitude":"-111.97224","name":"Kmart-Ammon,ID","address":"3101 East 17th St, Ammon,ID, (208) 522-1229"},{"latitude":"47.707436","longitude":"-116.784477","name":"Kmart-Coeur D\\'Alene,ID","address":"W 201 Neider Rd, Coeur D\\'Alene,ID, (208) 667-3551"},{"latitude":"39.13157","longitude":"-88.56078","name":"Kmart-Effingham,IL","address":"1006 N Keller Dr, Effingham,IL, (217) 347-0411"},{"latitude":"42.02376","longitude":"-87.89548","name":"Kmart-Des Plaines,IL","address":"1155 E Oakton St, Des Plaines,IL, (847) 296-6136"},{"latitude":"42.22326","longitude":"-89.07681","name":"Kmart-Rockford,IL","address":"1321 Sandy Hollow Rd, Rockford,IL, (815) 226-9490"},{"latitude":"41.94991","longitude":"-88.12067","name":"Kmart-Bloomingdale,IL","address":"156 S Gary Ave, Bloomingdale,IL, (630) 307-0260"},{"latitude":"41.89345","longitude":"-87.96241","name":"Kmart-Elmhurst,IL","address":"265 S Il 83, Elmhurst,IL, (630) 589-1500"},{"latitude":"37.89709","longitude":"-88.95625","name":"Kmart-West Frankfort,IL","address":"3 W Frankfort Plz, West Frankfort,IL, (618) 937-3588"},{"latitude":"41.47234","longitude":"-87.63621","name":"Kmart-Steger,IL","address":"3231 Chicago Rd, Steger,IL, (708) 755-4200"},{"latitude":"39.80171","longitude":"-89.60446","name":"Kmart-Springfield,IL","address":"3250 E Clear Lake Ave, Springfield,IL, (217) 528-7595"},{"latitude":"38.31444","longitude":"-88.93359","name":"Kmart-Mt Vernon,IL","address":"3404 Broadway St #2, Mt Vernon,IL, (618) 244-6200"},{"latitude":"41.9464","longitude":"-87.71416","name":"Kmart-Chicago,IL","address":"3443 W Addison St, Chicago,IL, (773) 478-1334"},{"latitude":"39.93525","longitude":"-91.35637","name":"Kmart-Quincy,IL","address":"3701 Broadway St, Quincy,IL, (217) 224-1700"},{"latitude":"41.72028","longitude":"-87.72389","name":"Kmart-Oak Lawn,IL","address":"4101 W 95th St, Oak Lawn,IL, (708) 422-5872"},{"latitude":"41.9566","longitude":"-87.80709","name":"Kmart-Norridge,IL","address":"4201 N Harlem Ave, Norridge,IL, (708) 457-0153"},{"latitude":"41.49173","longitude":"-90.489891","name":"Kmart-Moline,IL","address":"5000 Avenue of the C, Moline,IL, (309) 797-2561"},{"latitude":"42.2666","longitude":"-89.00143","name":"Kmart-Rockford,IL","address":"5909 E State St, Rockford,IL, (815) 229-5711"},{"latitude":"38.54492","longitude":"-90.05206","name":"Kmart-Belleville,IL","address":"7230 Westfield Plaza Dr, Belleville,IL, (618) 236-0371"},{"latitude":"41.74793","longitude":"-87.80232","name":"Kmart-Bridgeview,IL","address":"7325 W 79th St, Bridgeview,IL, (708) 594-7250"},{"latitude":"40.48799","longitude":"-85.59504","name":"Kmart-Gas City,IN","address":"1015 E Main St, Gas City,IN, (765) 674-6988"},{"latitude":"40.7467","longitude":"-86.09412","name":"Kmart-Peru,IN","address":"11 Sherwood Sq, Peru,IN, (765) 472-3991"},{"latitude":"40.26489","longitude":"-85.81808","name":"Kmart-Elwood,IN","address":"1519 S State Road 37, Elwood,IN, (765) 552-3348"},{"latitude":"41.4938","longitude":"-87.04605","name":"Kmart-Valparaiso,IN","address":"2801 Calumet Ave, Valparaiso,IN, (219) 464-1091"},{"latitude":"40.14666","longitude":"-85.6758","name":"Kmart-Anderson,IN","address":"2828 Broadway St, Anderson,IN, (765) 649-5524"},{"latitude":"39.82277","longitude":"-84.94417","name":"Kmart-Richmond,IN","address":"3150 National Rd W, Richmond,IN, (765) 966-2561"},{"latitude":"39.16452","longitude":"-86.57009","name":"Kmart-Bloomington,IN","address":"3175 W 3rd St, Bloomington,IN, (812) 339-8781"},{"latitude":"41.22683","longitude":"-85.79584","name":"Kmart-Warsaw,IN","address":"3350 Lake City Hwy, Warsaw,IN, (574) 269-3410"},{"latitude":"41.68053","longitude":"-86.18716","name":"Kmart-Mishawaka,IN","address":"420 W Mckinley Ave, Mishawaka,IN, (574) 259-6361"},{"latitude":"41.55154","longitude":"-87.43102","name":"Kmart-Griffith,IN","address":"430 W Ridge Rd, Griffith,IN, (219) 972-0135"},{"latitude":"39.69444","longitude":"-86.08225","name":"Kmart-Indianapolis,IN","address":"5101 E Thompson Rd, Indianapolis,IN, (317) 786-1421"},{"latitude":"39.744501","longitude":"-86.277832","name":"Kmart-Indianapolis,IN","address":"6780 W Washington St, Indianapolis,IN 46241, (317) 247-4771"},{"latitude":"40.4929","longitude":"-86.16515","name":"Kmart-Kokomo,IN","address":"705 N Dixon Rd, Kokomo,IN, (765) 457-1111"},{"latitude":"38.37844","longitude":"-86.91656","name":"Kmart-Jasper,IN","address":"723 3rd Ave, Jasper,IN, (812) 482-2200"},{"latitude":"39.8569","longitude":"-86.39233","name":"Kmart-Brownsburg,IN","address":"975 N Green St, Brownsburg,IN, (317) 852-6555"},{"latitude":"39.03454","longitude":"-95.76185","name":"Kmart-Topeka,KS","address":"1740 Sw Wanamaker Rd, Topeka,KS, (785) 273-9100"},{"latitude":"38.83419","longitude":"-97.62507","name":"Kmart-Salina,KS","address":"400 S Broadway Blvd, Salina,KS, (785) 825-1591"},{"latitude":"37.6071","longitude":"-97.333782","name":"Kmart-Wichita,KS","address":"4830 S Broadway, Wichita,KS, (316) 522-4751"},{"latitude":"39.1166","longitude":"-94.76237","name":"Kmart-Kansas City,KS","address":"7836 State Ave, Kansas City,KS, (913) 299-1434"},{"latitude":"36.99854","longitude":"-85.92827","name":"Kmart-Glasgow,KY","address":"230 S L Rogers Wells Blvd, Glasgow,KY, (270) 651-4989"},{"latitude":"37.044315","longitude":"-88.65667","name":"Kmart-Paducah,KY","address":"2440 Lone Oak Rd, Paducah,KY, (270) 554-9500"},{"latitude":"38.00156","longitude":"-84.51989","name":"Kmart-Lexington,KY","address":"2520 Nicholasville Rd, Lexington,KY, (859) 278-8481"},{"latitude":"37.82761","longitude":"-87.55551","name":"Kmart-Henderson,KY","address":"2606 Zion Rd, Henderson,KY, (270) 827-3772"},{"latitude":"37.7484","longitude":"-87.11321","name":"Kmart-Owensboro,KY","address":"2760 Frederica St, Owensboro,KY, (270) 684-0685"},{"latitude":"37.06992","longitude":"-85.07172","name":"Kmart-Russell Springs,KY","address":"301 S Highway 127, Russell Springs,KY, (270) 866-7161"},{"latitude":"39.02114","longitude":"-84.58841","name":"Kmart-Erlanger,KY","address":"3071 Dixie Hwy, Erlanger,KY, (859) 331-7080"},{"latitude":"37.1026","longitude":"-84.57623","name":"Kmart-Somerset,KY","address":"420 E Highway 80, Somerset,KY, (606) 679-7366"},{"latitude":"38.05003","longitude":"-84.70935","name":"Kmart-Versailles,KY","address":"501 Marsailles Dr, Versailles,KY, (859) 873-3287"},{"latitude":"38.34752","longitude":"-82.93606","name":"Kmart-Grayson,KY","address":"600 CW Stevens Blvd, Grayson,KY, (606) 474-8855"},{"latitude":"38.16784","longitude":"-84.89955","name":"Kmart-Frankfort,KY","address":"US 127 S, Frankfort,KY, (502) 875-5970"},{"latitude":"30.00266","longitude":"-90.1516","name":"Kmart-Metairie,LA","address":"2940 Veterans Memorial Blvd, Metairie,LA, (504) 834-5883"},{"latitude":"30.39172","longitude":"-90.08286","name":"Kmart-Mandeville,LA","address":"3555 Us 190, Mandeville,LA, (985) 626-5258"},{"latitude":"30.18418","longitude":"-93.21873","name":"Kmart-Lake Charles,LA","address":"4070 Ryan St, Lake Charles,LA, (337) 477-9665"},{"latitude":"30.00495","longitude":"-90.21709","name":"Kmart-Metairie,LA","address":"7000 Veterans Memorial Blvd, Metairie,LA, (504) 885-1364"},{"latitude":"42.13641","longitude":"-72.58364","name":"Kmart-Springfield,MA","address":"1277 Liberty St, Springfield,MA, (413) 737-9122"},{"latitude":"42.55364","longitude":"-71.7841","name":"Kmart-Fitchburg,MA","address":"140 Whalon St, Fitchburg,MA, (978) 345-7362"},{"latitude":"42.16071","longitude":"-72.35517","name":"Kmart-Palmer,MA","address":"159 Wilbraham St, Palmer,MA, (413) 283-7635"},{"latitude":"42.466633","longitude":"-71.027298","name":"Kmart-Saugus,MA","address":"180 Main St, Saugus,MA, (781) 231-0404"},{"latitude":"42.04595","longitude":"-71.01036","name":"Kmart-Brockton,MA","address":"2001 Main St, Brockton,MA, (508) 588-9010"},{"latitude":"42.18675","longitude":"-72.63036","name":"Kmart-Holyoke,MA","address":"2203 North Hampton St, Holyoke,MA, (413) 538-7655"},{"latitude":"42.47385","longitude":"-71.45433","name":"Kmart-Acton,MA","address":"252 Main St, Acton,MA, (978) 263-7756"},{"latitude":"42.82037","longitude":"-70.908","name":"Kmart-Newburyport,MA","address":"45 Storey Ave, Newburyport,MA, (978) 462-8521"},{"latitude":"42.55606","longitude":"-71.26648","name":"Kmart-Billerica,MA","address":"484 Boston Rd, Billerica,MA, (978) 667-4176"},{"latitude":"42.0696","longitude":"-71.86581","name":"Kmart-Webster,MA","address":"70 Worcester Rd, Webster,MA, (508) 943-9540"},{"latitude":"41.66989","longitude":"-70.29764","name":"Kmart-Hyannis,MA","address":"768 Iyannough Rd, Hyannis,MA, (508) 771-0012"},{"latitude":"42.3937","longitude":"-71.08316","name":"Kmart-Somerville,MA","address":"77 Middlesex Ave, Somerville,MA, (617) 628-9500"},{"latitude":"39.4169378","longitude":"-77.4413237","name":"Kmart-Frederick,MD","address":"1003 W Patrick St, Frederick,MD, (301) 662-7232"},{"latitude":"39.0845682","longitude":"-77.0761294","name":"Kmart-Silver Spring,MD","address":"14014 Connecticut Ave, Silver Spring,MD, (301) 871-6640"},{"latitude":"39.5993192","longitude":"-75.824253","name":"Kmart-Elkton,MD","address":"161 Big Elk Mall, Elkton,MD, (410) 398-8000"},{"latitude":"39.0178211","longitude":"-76.6936707","name":"Kmart-Crofton,MD","address":"1647 Crofton Ctr, Crofton,MD, (410) 721-7000"},{"latitude":"39.6288021","longitude":"-77.7646865","name":"Kmart-Hagerstown,MD","address":"1713 Massey Blvd, Hagerstown,MD, (301) 797-2030"},{"latitude":"38.9772004","longitude":"-76.3203","name":"Kmart-Stevensville,MD","address":"200 Kent Lndg, Stevensville,MD, (410) 643-9600"},{"latitude":"39.1259793","longitude":"-77.2370074","name":"Kmart-Gaithersburg,MD","address":"209 Kentlands Blvd, Gaithersburg,MD, (301) 208-9091"},{"latitude":"38.3644173","longitude":"-75.5466686","name":"Kmart-Salisbury,MD","address":"301 Tilghman Rd, Salisbury,MD, (410) 749-1145"},{"latitude":"38.9305019","longitude":"-76.5655631","name":"Kmart-Edgewater,MD","address":"3255 Solomons Island Rd, Edgewater,MD, (410) 956-0056"},{"latitude":"38.8044241","longitude":"-76.98217","name":"Kmart-Oxon Hill,MD","address":"6163 Oxon Hill Rd, Oxon Hill,MD, (301) 839-0550"},{"latitude":"38.9672672","longitude":"-76.9845022","name":"Kmart-Hyattsville,MD","address":"6411 Riggs Rd, Hyattsville,MD, (410) 853-3102"},{"latitude":"39.1241843","longitude":"-76.5902304","name":"Kmart-Pasadena,MD","address":"8036 Jumpers Mall, Pasadena,MD, (410) 760-2222"},{"latitude":"38.5563716","longitude":"-76.5955997","name":"Kmart-Prince Frederick,MD","address":"835 Solomons Island Rd N, Prince Frederick,MD, (301) 535-2802"},{"latitude":"38.7707109","longitude":"-76.8836416","name":"Kmart-Clinton,MD","address":"8827 Woodyard Rd, Clinton,MD, (301) 719-1200"},{"latitude":"39.4024449","longitude":"-76.5409742","name":"Kmart-Baltimore,MD","address":"8980 Waltham Woods Rd, Baltimore,MD, (410) 882-9400"},{"latitude":"44.546844","longitude":"-69.635719","name":"Kmart-Waterville,ME","address":"18 Elm Plz, Waterville,ME, (207) 873-5641"},{"latitude":"47.355299","longitude":"-68.32349","name":"Kmart-Madawaska,ME","address":"389 Main St, Madawaska,ME 04756, (207) 728-6361"},{"latitude":"44.31153","longitude":"-69.78629","name":"Kmart-Augusta,ME","address":"58 Western Ave, Augusta,ME, (207) 623-3821"},{"latitude":"44.12494","longitude":"-70.22467","name":"Kmart-Auburn,ME","address":"603 Center St, Auburn,ME, (207) 784-2911"},{"latitude":"45.301277","longitude":"-85.257689","name":"Kmart-Charlevoix,MI","address":"06600 M 66 North, Charlevoix,MI, (231) 547-0912"},{"latitude":"42.766981","longitude":"-83.239364","name":"Kmart-Lake Orion,MI","address":"1025 Lapeer Rd South, Lake Orion,MI, (248) 693-6252"},{"latitude":"45.105037","longitude":"-87.61522","name":"Kmart-Menominee,MI","address":"1101 7th Ave, Menominee,MI, (906) 863-4461"},{"latitude":"45.640573","longitude":"-84.458278","name":"Kmart-Cheboygan,MI","address":"1131 E State St, Cheboygan,MI, (231) 627-5653"},{"latitude":"41.933945","longitude":"-83.389728","name":"Kmart-Monroe,MI","address":"1290 N Monroe St, Monroe,MI, (734) 242-5200"},{"latitude":"42.27111","longitude":"-84.986909","name":"Kmart-Marshall,MI","address":"15861 Michigan Ave, Marshall,MI, (269) 781-3333"},{"latitude":"44.735664","longitude":"-85.595524","name":"Kmart-Traverse City,MI","address":"1712 S Garfield Ave, Traverse City,MI, (231) 941-0600"},{"latitude":"43.614145","longitude":"-84.213816","name":"Kmart-Midland,MI","address":"1820 S Saginaw Rd, Midland,MI, (989) 631-3620"},{"latitude":"42.315024","longitude":"-85.190138","name":"Kmart-Battle Creek,MI","address":"200 Capital Ave SW, Battle Creek,MI, (269) 965-7701"},{"latitude":"42.476263","longitude":"-83.083031","name":"Kmart-Warren,MI","address":"2000 Ten Mile Rd, Warren,MI, (586) 467-0300"},{"latitude":"43.288964","longitude":"-85.254007","name":"Kmart-Greenville,MI","address":"205 South Greenville, Greenville,MI, (616) 754-1800"},{"latitude":"42.593219","longitude":"-83.088232","name":"Kmart-Sterling Heights,MI","address":"2051 18 Mile Rd, Sterling Heights,MI, (586) 739-0800"},{"latitude":"42.215926","longitude":"-83.544287","name":"Kmart-Belleville,MI","address":"2095 Rawsonville Rd, Belleville,MI, (734) 485-8510"},{"latitude":"44.273973","longitude":"-84.221651","name":"Kmart-West Branch,MI","address":"2110 South M 76, West Branch,MI, (989) 345-4880"},{"latitude":"43.580443","longitude":"-84.767236","name":"Kmart-Mt Pleasant,MI","address":"2125 S Mission St, Mt Pleasant,MI, (989) 772-0951"},{"latitude":"42.464936","longitude":"-82.910897","name":"Kmart-Saint Clair Shores,MI","address":"22801 Harper Ave., Saint Clair Shores,MI, (586) 779-3300"},{"latitude":"44.65123","longitude":"-84.70812","name":"Kmart-Grayling,MI","address":"2425 S P 75 Business, Grayling,MI, (989) 348-2866"},{"latitude":"43.623559","longitude":"-83.914053","name":"Kmart-Bay City,MI","address":"4001 N Euclid Ave, Bay City,MI, (989) 684-7211"},{"latitude":"42.602389","longitude":"-82.952723","name":"Kmart-Clinton Township,MI","address":"41601 Garfield, Clinton Township,MI, (586) 263-0550"},{"latitude":"43.177754","longitude":"-83.765129","name":"Kmart-Clio,MI","address":"4290 West Vienna Rd, Clio,MI, (810) 564-3088"},{"latitude":"42.693644","longitude":"-83.390686","name":"Kmart-Waterford,MI","address":"5100 Dixie Hwy, Waterford,MI, (248) 674-2236"},{"latitude":"43.420676","longitude":"-82.852034","name":"Kmart-Sandusky,MI","address":"545 West Sanilac, Sandusky,MI, (810) 648-4953"},{"latitude":"44.446885","longitude":"-83.329996","name":"Kmart-Oscoda,MI","address":"5719 N US 23, Oscoda,MI, (989) 739-9191"},{"latitude":"42.695451","longitude":"-82.506157","name":"Kmart-Marine City,MI","address":"6730 S River Rd, Marine City,MI 48039, (810) 765-3537"},{"latitude":"42.79757","longitude":"-82.737328","name":"Kmart-Richmond,MI","address":"67300 Main St, Richmond,MI, (586) 727-2751"},{"latitude":"42.669668","longitude":"-83.037557","name":"Kmart-Shelby Township,MI","address":"7601 23 Mile Rd, Shelby Township,MI, (586) 739-1811"},{"latitude":"45.754926","longitude":"-87.077166","name":"Kmart-Escanaba,MI","address":"801 N Lincoln Rd, Escanaba,MI, (906) 786-8508"},{"latitude":"42.648524","longitude":"-85.299925","name":"Kmart-Hastings,MI","address":"802 West State St, Hastings,MI, (269) 948-9440"},{"latitude":"44.94855","longitude":"-93.27824","name":"Kmart-Minneapolis,MN","address":"10 W Lake St, Minneapolis,MN, (612) 827-5491"},{"latitude":"48.10824","longitude":"-96.14928","name":"Kmart-Thief River Falls,MN","address":"1547 Highway 59 S, Thief River Falls,MN, (218) 681-1301"},{"latitude":"48.59587","longitude":"-93.427499","name":"Kmart-International Falls,MN","address":"1606 Hwy 1171, International Falls,MN, (218) 283-9466"},{"latitude":"44.01274","longitude":"-92.45996","name":"Kmart-Rochester,MN","address":"201 9th St Se, Rochester,MN, (507) 288-9567"},{"latitude":"46.73662","longitude":"-92.166697","name":"Kmart-Duluth,MN","address":"215 North Central Ave, Duluth,MN, (218) 624-9335"},{"latitude":"44.9772","longitude":"-93.09032","name":"Kmart-St Paul,MN","address":"245 Maryland Ave E, St Paul,MN, (651) 488-0555"},{"latitude":"38.81095","longitude":"-90.29945","name":"Kmart-Florissant,MO","address":"1 Flower Valley Shopping Ctr, Florissant,MO, (314) 831-0400"},{"latitude":"37.30618","longitude":"-89.5519","name":"Kmart-Cape Girardeau,MO","address":"11 S Kingshighway St, Cape Girardeau,MO, (573) 334-5063"},{"latitude":"38.700642","longitude":"-93.250732","name":"Kmart-Sedalia,MO","address":"1400 S Limit, Sedalia,MO, (660) 827-1550"},{"latitude":"38.21618","longitude":"-90.38674","name":"Kmart-Crystal City,MO","address":"155 Twin City Mall, Crystal City,MO, (636) 937-7484"},{"latitude":"39.11806","longitude":"-94.38258","name":"Kmart-Independence,MO","address":"16200 E Us 24, Independence,MO, (816) 257-1600"},{"latitude":"36.779411","longitude":"-90.424515","name":"Kmart-Poplar Bluff,MO","address":"2233 North Westwood, Poplar Bluff,MO, (573) 785-2271"},{"latitude":"39.79458","longitude":"-94.81191","name":"Kmart-St. Joseph,MO","address":"2901 5 N Belt Hwy, St. Joseph,MO, (816) 233-5101"},{"latitude":"38.50726","longitude":"-90.32466","name":"Kmart-St Louis,MO","address":"3901 Lemay Ferry Rd, St Louis,MO, (314) 487-3434"},{"latitude":"39.04784","longitude":"-94.41494","name":"Kmart-Independence,MO","address":"4023 S Noland Rd, Independence,MO, (816) 254-1180"},{"latitude":"39.223785","longitude":"-94.651123","name":"Kmart-Kansas City,MO","address":"7100 NW Prairie View Rd, Kansas City,MO, (816) 505-5300"},{"latitude":"30.45784","longitude":"-89.10096","name":"Kmart-Gulfport,MS","address":"12057 Highway 49, Gulfport,MS, (228) 832-7753"},{"latitude":"33.53117","longitude":"-88.437","name":"Kmart-Columbus,MS","address":"2308 Highway 45 N, Columbus,MS, (662) 327-0056"},{"latitude":"47.516899","longitude":"-111.312141","name":"Kmart-Great Falls,MT","address":"1000 3rd St NW, Great Falls,MT, (406) 453-5424"},{"latitude":"46.257339","longitude":"-114.157333","name":"Kmart-Hamilton,MT","address":"1235 North First St, Hamilton,MT, (406) 363-2922"},{"latitude":"47.105618","longitude":"-104.735451","name":"Kmart-Glendive,MT","address":"1515 W Bell St, Glendive,MT, (406) 365-6088"},{"latitude":"46.606869","longitude":"-112.012939","name":"Kmart-Helena,MT","address":"1700 Cedar St, Helena,MT, (406) 443-4745"},{"latitude":"48.20163","longitude":"-114.314903","name":"Kmart-Kalispell,MT","address":"2024 US Hwy 2 E, Kalispell,MT, (406) 752-4261"},{"latitude":"48.556496","longitude":"-109.730072","name":"Kmart-Havre,MT","address":"3180 Hwy 2 West, Havre,MT, (406) 265-2020"},{"latitude":"45.977398","longitude":"-112.507851","name":"Kmart-Butte,MT","address":"3300 Harrison Ave, Butte,MT, (406) 494-1071"},{"latitude":"35.58698","longitude":"-82.59046","name":"Kmart-Asheville,NC","address":"1001 Patton Ave, Asheville,NC, (828) 252-8295"},{"latitude":"35.75478","longitude":"-81.71622","name":"Kmart-Morganton,NC","address":"110 Bost Rd, Morganton,NC, (828) 433-5850"},{"latitude":"34.78245","longitude":"-77.42497","name":"Kmart-Jacksonville,NC","address":"1130 Henderson Dr, Jacksonville,NC, (910) 455-4894"},{"latitude":"35.509394","longitude":"-82.993621","name":"Kmart-Waynesville,NC","address":"1209 Russ Ave, Waynesville,NC, (828) 452-0384"},{"latitude":"35.79071","longitude":"-80.85854","name":"Kmart-Statesville,NC","address":"1530 E Broad St, Statesville,NC, (704) 878-8671"},{"latitude":"34.71695","longitude":"-77.32478","name":"Kmart-Midway Park,NC","address":"175 Freedom Way, Midway Park,NC, (910) 577-7767"},{"latitude":"36.0363","longitude":"-75.67419","name":"Kmart-Kill Devil Hills,NC","address":"1901 N Croatan Hwy, Kill Devil Hills,NC, (252) 441-1935"},{"latitude":"36.03149","longitude":"-80.38283","name":"Kmart-Clemmons,NC","address":"2455 Lewisville Clemmons Rd, Clemmons,NC, (336) 766-4899"},{"latitude":"35.45943","longitude":"-79.14514","name":"Kmart-Sanford,NC","address":"2515 S Horner Blvd, Sanford,NC, (919) 775-7901"},{"latitude":"35.78497","longitude":"-78.70292","name":"Kmart-Raleigh,NC","address":"4500 Western Blvd, Raleigh,NC, (919) 851-1104"},{"latitude":"34.73362","longitude":"-76.78777","name":"Kmart-Morehead City,NC","address":"4915 Arendall St, Morehead City,NC, (252) 247-2600"},{"latitude":"35.27457","longitude":"-81.53033","name":"Kmart-Shelby,NC","address":"706 E Dixon Blvd, Shelby,NC, (704) 482-8916"},{"latitude":"35.66064","longitude":"-80.46265","name":"Kmart-Salisbury,NC","address":"815 E Innes St, Salisbury,NC, (704) 638-0448"},{"latitude":"35.89848","longitude":"-78.65115","name":"Kmart-Raleigh,NC","address":"8701 Six Forks Rd, Raleigh,NC, (919) 846-6989"},{"latitude":"35.52702","longitude":"-82.60658","name":"Kmart-Asheville,NC","address":"980 Brevard Rd, Asheville,NC, (828) 665-7082"},{"latitude":"35.1807","longitude":"-83.3859","name":"Kmart-Franklin,NC","address":"Westgate Plaza Rd, Franklin,NC, (828) 524-5126"},{"latitude":"48.211951","longitude":"-101.292034","name":"Kmart-Minot,ND","address":"1 20th Ave SE, Minot,ND, (701) 852-4175"},{"latitude":"47.901176","longitude":"-97.04855","name":"Kmart-Grand Forks,ND","address":"1900 S Washington St, Grand Forks,ND, (701) 772-6676"},{"latitude":"46.844681","longitude":"-96.800359","name":"Kmart-Fargo,ND","address":"2301 University Dr S, Fargo,ND, (701) 232-8943"},{"latitude":"46.835347","longitude":"-100.770517","name":"Kmart-Bismarck,ND","address":"2625 State St, Bismarck,ND, (701) 223-0074"},{"latitude":"48.102563","longitude":"-98.860522","name":"Kmart-Devils Lake,ND","address":"701 5th Ave Se, Devils Lake,ND, (701) 662-4621"},{"latitude":"42.096583","longitude":"-102.894554","name":"Kmart-Alliance,NE","address":"1515 W 3rd, Alliance,NE, (308) 762-8330"},{"latitude":"41.2127","longitude":"-95.99103","name":"Kmart-Omaha,NE","address":"5000 L St, Omaha,NE, (402) 733-8437"},{"latitude":"43.04749","longitude":"-71.43625","name":"Kmart-Hooksett,NH","address":"1267 Hooksett Rd, Hooksett,NH, (603) 625-5741"},{"latitude":"42.76809","longitude":"-71.21933","name":"Kmart-Salem,NH","address":"161 S Broadway, Salem,NH, (603) 893-6181"},{"latitude":"43.319305","longitude":"-70.975395","name":"Kmart-Rochester,NH","address":"21 Lilac Mall, Rochester,NH, (603) 332-2430"},{"latitude":"43.60087","longitude":"-72.32542","name":"Kmart-West Lebanon,NH","address":"Route 12a, West Lebanon,NH, (603) 298-5915"},{"latitude":"40.9613622","longitude":"-74.2380122","name":"Kmart-Wayne,NJ","address":"1020 Hamburg Tpke, Wayne,NJ, (973) 696-8312"},{"latitude":"40.2056436","longitude":"-74.6948808","name":"Kmart-Trenton,NJ","address":"1061 White Horse Ave, Trenton,NJ, (609) 585-9700"},{"latitude":"40.2969517","longitude":"-74.029705","name":"Kmart-West Long Branch,NJ","address":"108 Monmouth Rd, West Long Branch,NJ, (732) 542-5747"},{"latitude":"40.5909708","longitude":"-74.2900645","name":"Kmart-Avenel,NJ","address":"1550 Saint George Ave, Avenel,NJ, (732) 574-3500"},{"latitude":"40.9196835","longitude":"-74.1213265","name":"Kmart-Elmwood Park,NJ","address":"180 Broadway, Elmwood Park,NJ, (201) 791-7007"},{"latitude":"40.1653364","longitude":"-74.0497289","name":"Kmart-Wall,NJ","address":"1825 State Route 35, Wall,NJ, (732) 280-8010"},{"latitude":"40.07255","longitude":"-74.11748","name":"Kmart-Brick,NJ","address":"1930 Rt 88, Brick,NJ, (732) 840-0800"},{"latitude":"40.7604428","longitude":"-74.1594465","name":"Kmart-Kearny,NJ","address":"200 Passaic Ave, Kearny,NJ, (201) 997-9300"},{"latitude":"39.9616706","longitude":"-74.1829192","name":"Kmart-Toms River,NJ","address":"213 Route 37 E, Toms River,NJ, (732) 244-3001"},{"latitude":"39.7905118","longitude":"-75.1760918","name":"Kmart-Mantua,NJ","address":"222 Bridgeton Pike, Mantua,NJ, (856) 468-7575"},{"latitude":"40.8045613","longitude":"-74.2473689","name":"Kmart-West Orange,NJ","address":"235 Prospect Ave, West Orange,NJ, (973) 731-8210"},{"latitude":"40.8760179","longitude":"-74.1213","name":"Kmart-Passaic,NJ","address":"24 34 Barbour Ave, Passaic,NJ, (973) 365-0722"},{"latitude":"39.3260185","longitude":"-74.5954873","name":"Kmart-Somers Point,NJ","address":"250 New Rd, Somers Point,NJ, (609) 653-6927"},{"latitude":"40.7091251","longitude":"-74.1005873","name":"Kmart-Jersey City,NJ","address":"321 Stadium Plz St, Jersey City,NJ, (201) 435-2102"},{"latitude":"40.7932399","longitude":"-74.1456146","name":"Kmart-Belleville,NJ","address":"371 411 Main St, Belleville,NJ, (973) 751-3331"},{"latitude":"39.9459987","longitude":"-74.9672224","name":"Kmart-Moorestown,NJ","address":"401 Rt 38, Moorestown,NJ, (856) 234-8450"},{"latitude":"40.9972554","longitude":"-74.0379443","name":"Kmart-Westwood,NJ","address":"700 Broadway, Westwood,NJ, (201) 666-6501"},{"latitude":"39.7076411","longitude":"-74.2785408","name":"Kmart-Manahawkin,NJ","address":"733 Route 72 W, Manahawkin,NJ, (609) 978-0560"},{"latitude":"39.7229994","longitude":"-75.1163219","name":"Kmart-Glassboro,NJ","address":"779 Delsea Dr N, Glassboro,NJ, (856) 589-5150"},{"latitude":"40.8635429","longitude":"-74.3756131","name":"Kmart-Parsippany,NJ","address":"808 Us 46, Parsippany,NJ, (973) 396-0500"},{"latitude":"40.5123811","longitude":"-74.4876664","name":"Kmart-Somerset,NJ","address":"970 Easton Ave, Somerset,NJ, (732) 828-2120"},{"latitude":"36.882636","longitude":"-104.439843","name":"Kmart-Raton,NM","address":"1235 S 2nd St, Raton,NM, (505) 445-5588"},{"latitude":"33.37241","longitude":"-104.52283","name":"Kmart-Roswell,NM","address":"1705 S Main St, Roswell,NM, (505) 623-7480"},{"latitude":"35.65907","longitude":"-105.97223","name":"Kmart-Santa Fe,NM","address":"1712 Saint Michaels Dr, Santa Fe,NM, (505) 471-9007"},{"latitude":"32.35076","longitude":"-106.76578","name":"Kmart-Las Cruces,NM","address":"1900 Bataan Memorial E, Las Cruces,NM, (575) 522-7135"},{"latitude":"35.10218","longitude":"-106.60392","name":"Kmart-Albuquerque,NM","address":"2100 Carlisle Blvd Ne, Albuquerque,NM, (505) 265-5911"},{"latitude":"35.17172","longitude":"-103.70048","name":"Kmart-Tucumcari,NM","address":"2100 Tucumcari Blvd, Tucumcari,NM, (575) 461-3580"},{"latitude":"32.72488","longitude":"-103.14472","name":"Kmart-Hobbs,NM","address":"2220 N Grimes St, Hobbs,NM, (505) 397-3587"},{"latitude":"36.745176","longitude":"-108.165404","name":"Kmart-Farmington,NM","address":"3000 East Main St, Farmington,NM, (505) 327-3352"},{"latitude":"32.92904","longitude":"-105.96197","name":"Kmart-Alamogordo,NM","address":"3201 N White Sands Blvd, Alamogordo,NM, (505) 434-1901"},{"latitude":"39.545316","longitude":"-119.772311","name":"Kmart-Sparks,NV","address":"2125 Oddie Blvd, Sparks,NV, (775) 358-5050"},{"latitude":"40.836845","longitude":"-115.789469","name":"Kmart-Elko,NV","address":"2450 Mountain City, Elko,NV, (775) 375-5935"},{"latitude":"36.20842","longitude":"-115.10963","name":"Kmart-North Las Vegas,NV","address":"2671 Las Vegas Blvd N, North Las Vegas,NV, (702) 642-2183"},{"latitude":"36.14408","longitude":"-115.11053","name":"Kmart-Las Vegas,NV","address":"2975 E Sahara Ave, Las Vegas,NV, (702) 457-1037"},{"latitude":"36.07148","longitude":"-115.09267","name":"Kmart-Las Vegas,NV","address":"3760 E Sunset Rd, Las Vegas,NV, (702) 458-8008"},{"latitude":"36.24129","longitude":"-115.23382","name":"Kmart-Las Vegas,NV","address":"4500 N Rancho Dr, Las Vegas,NV, (702) 658-5977"},{"latitude":"36.17392","longitude":"-115.06322","name":"Kmart-Las Vegas,NV","address":"5051 E Bonanza Rd, Las Vegas,NV, (702) 459-2000"},{"latitude":"36.0164","longitude":"-114.95065","name":"Kmart-Henderson,NV","address":"732 S Racetrack Rd, Henderson,NV, (702) 564-8860"},{"latitude":"36.18123","longitude":"-115.25688","name":"Kmart-Las Vegas,NV","address":"7501 W Washington Ave, Las Vegas,NV, (702) 255-8666"},{"latitude":"43.029418","longitude":"-77.438469","name":"Kmart-Victor,NY","address":"10 Cobblestone Court, Victor,NY, (585) 223-8310"},{"latitude":"40.684519","longitude":"-73.35048","name":"Kmart-West Babylon,NY","address":"1000 W Montauk Hwy, West Babylon,NY, (631) 661-1234"},{"latitude":"42.947661","longitude":"-78.871434","name":"Kmart-Buffalo,NY","address":"1001 Hertel Ave, Buffalo,NY, (716) 875-5692"},{"latitude":"42.157082","longitude":"-76.822953","name":"Kmart-Horseheads,NY","address":"1020 Center St, Horseheads,NY, (607) 739-3661"},{"latitude":"42.127392","longitude":"-77.963451","name":"Kmart-Wellsville,NY","address":"121 Bolivar Rd, Wellsville,NY, (585) 593-0030"},{"latitude":"43.097877","longitude":"-73.510951","name":"Kmart-Greenwich,NY","address":"1251 Rt 29, Greenwich,NY, (518) 692-9608"},{"latitude":"42.298715","longitude":"-75.411302","name":"Kmart-Sidney,NY","address":"171 Delaware Ave, Sidney,NY, (607) 563-7004"},{"latitude":"40.824438","longitude":"-73.857046","name":"Kmart-Bronx,NY","address":"1998 Bruckner Blvd, Bronx,NY, (718) 430-9439"},{"latitude":"43.027445","longitude":"-74.985737","name":"Kmart-Herkimer,NY","address":"200 S Washington St, Herkimer,NY, (315) 866-4910"},{"latitude":"40.933526","longitude":"-72.316917","name":"Kmart-Bridgehampton,NY","address":"2044 Montauk Hwy, Bridgehampton,NY, (631) 537-6449"},{"latitude":"43.973826","longitude":"-75.954246","name":"Kmart-Watertown,NY","address":"21082 Pioneer Plaza, Watertown,NY, (315) 782-0015"},{"latitude":"40.827","longitude":"-73.024","name":"Kmart-Farmingville,NY","address":"2280 North Ocean Ave., Farmingville,NY, (631) 732-1725"},{"latitude":"44.848226","longitude":"-74.305659","name":"Kmart-Malone,NY","address":"230 W Main St, Malone,NY, (518) 483-8131"},{"latitude":"40.751514","longitude":"-73.992235","name":"Kmart-New York,NY","address":"250 W 34th St, New York,NY, (212) 760-1188"},{"latitude":"40.6365485","longitude":"-73.7401007","name":"Kmart-Rosedale,NY","address":"25301 Rockaway Blvd, Rosedale,NY, (516) 295-4186"},{"latitude":"43.106706","longitude":"-78.984434","name":"Kmart-Niagara Falls,NY","address":"2590 Military Rd, Niagara Falls,NY, (716) 297-3900"},{"latitude":"40.56704","longitude":"-74.112889","name":"Kmart-Staten Island,NY","address":"2660 Hylan Blvd, Staten Island,NY, (718) 351-8500"},{"latitude":"42.076829","longitude":"-78.461536","name":"Kmart-Olean,NY","address":"2801 W State St, Olean,NY, (716) 373-2220"},{"latitude":"43.107046","longitude":"-76.146259","name":"Kmart-Mattydale,NY","address":"2803 Brewerton Rd, Mattydale,NY, (315) 455-7393"},{"latitude":"40.866251","longitude":"-73.83032","name":"Kmart-Bronx,NY","address":"300 Baychester Ave, Bronx,NY, (718) 671-5377"},{"latitude":"43.315346","longitude":"-73.61153","name":"Kmart-Queensbury,NY","address":"308 Dix Ave, Queensbury,NY, (518) 743-0290"},{"latitude":"42.834163","longitude":"-78.784986","name":"Kmart-West Seneca,NY","address":"349 Orchard Park Rd, West Seneca,NY, (716) 827-8675"},{"latitude":"43.15043","longitude":"-77.690954","name":"Kmart-Vail Gate,NY","address":"374 Windsor Hwy, Vail Gate,NY, (845) 561-2334"},{"latitude":"41.04303","longitude":"-73.79775","name":"Kmart-White Plains,NY","address":"399 Tarrytown Rd, White Plains,NY, (914) 684-1184"},{"latitude":"42.341515","longitude":"-77.336526","name":"Kmart-Bath,NY","address":"420 West Morris St, Bath,NY, (607) 776-4117"},{"latitude":"40.7647926","longitude":"-73.0907651","name":"Kmart-Bohemia,NY","address":"5151 Sunrise Hwy, Bohemia,NY, (631) 567-3060"},{"latitude":"44.695817","longitude":"-73.494718","name":"Kmart-Plattsburgh,NY","address":"57 Centre Dr, Plattsburgh,NY 12901, (518) 561-8900"},{"latitude":"40.9352653","longitude":"-72.6613813","name":"Kmart-Riverhead,NY","address":"605 Old Country Rd, Riverhead,NY, (631) 369-0040"},{"latitude":"41.69688","longitude":"-73.890004","name":"Kmart-Poughkeepsie,NY","address":"635 Dutchess Tpke, Poughkeepsie,NY, (845) 471-9300"},{"latitude":"40.712228","longitude":"-73.891536","name":"Kmart-Middle Village,NY","address":"6626 Metropolitan Ave, Middle Village,NY, (718) 821-2412"},{"latitude":"40.700264","longitude":"-73.941351","name":"Kmart-New York,NY","address":"770 Broadway, New York,NY, (212) 673-1540"},{"latitude":"43.15929","longitude":"-76.230072","name":"Kmart-Liverpool,NY","address":"8007 Oswego Rd, Liverpool,NY, (315) 652-4494"},{"latitude":"43.106256","longitude":"-77.748696","name":"Kmart-Rochester,NY","address":"810 Paul Rd, Rochester,NY, (585) 426-0760"},{"latitude":"43.008744","longitude":"-78.207905","name":"Kmart-Batavia,NY","address":"8363 Lewiston Rd, Batavia,NY, (585) 345-0301"},{"latitude":"40.859184","longitude":"-73.418512","name":"Kmart-Huntington,NY","address":"839 New York Ave, Huntington,NY, (631) 421-5005"},{"latitude":"42.571118","longitude":"-76.216745","name":"Kmart-Cortland,NY","address":"854 Rt 13 Cortland Crossing, Cortland,NY, (607) 753-9663"},{"latitude":"42.810697","longitude":"-73.98902","name":"Kmart-Schenectady,NY","address":"93 West Campbell, Schenectady,NY, (518) 372-1273"},{"latitude":"43.208358","longitude":"-77.462964","name":"Kmart-Webster,NY","address":"950 Ridge Rd, Webster,NY, (585) 787-0030"},{"latitude":"42.097345","longitude":"-79.29295","name":"Kmart-Jamestown,NY","address":"975 Fairmount Ave W, Jamestown,NY, (716) 488-0755"},{"latitude":"41.393551","longitude":"-73.721887","name":"Kmart-Mahopac,NY","address":"987 Route 6, Mahopac,NY, (845) 628-6247"},{"latitude":"41.274062","longitude":"-73.78221","name":"Kmart-Yorktown Heights,NY","address":"Rt 118 355 Downing, Yorktown Heights,NY, (914) 243-3685"},{"latitude":"39.25283","longitude":"-84.79424","name":"Kmart-Harrison,OH","address":"10560 Harrison Ave, Harrison,OH, (513) 367-0392"},{"latitude":"39.220762","longitude":"-83.608813","name":"Kmart-Hillsboro,OH","address":"1249 North High St, Hillsboro,OH 45133, (937) 393-8323"},{"latitude":"41.39724","longitude":"-81.60202","name":"Kmart-Garfield Heights,OH","address":"12501 Rockside Rd, Garfield Heights,OH, (216) 662-3521"},{"latitude":"40.54903","longitude":"-84.40151","name":"Kmart-St Marys,OH","address":"1292 Indiana Ave, St Marys,OH, (419) 394-3211"},{"latitude":"40.89188","longitude":"-81.40652","name":"Kmart-North Canton,OH","address":"1447 N Main St, North Canton,OH, (330) 494-7100"},{"latitude":"39.366636","longitude":"-82.976148","name":"Kmart-Chillicothe,OH","address":"1470 North Bridge St, Chillicothe,OH 45601, (614) 773-9393"},{"latitude":"41.452972","longitude":"-81.800728","name":"Kmart-Cleveland,OH","address":"14901 Lorain, Cleveland,OH, (216) 671-2122"},{"latitude":"40.67101","longitude":"-80.58401","name":"Kmart-East Liverpool,OH","address":"15891 Oh 170, East Liverpool,OH, (330) 385-8638"},{"latitude":"41.372074","longitude":"-81.825241","name":"Kmart-Middleburg Heights,OH","address":"17840 Bagley Rd, Middleburg Heights,OH, (440) 234-9303"},{"latitude":"40.82821","longitude":"-81.91404","name":"Kmart-Wooster,OH","address":"1799 Portage Rd, Wooster,OH, (330) 262-2116"},{"latitude":"41.72109","longitude":"-83.58728","name":"Kmart-Toledo,OH","address":"1801 W Alexis Rd, Toledo,OH, (419) 473-3071"},{"latitude":"41.214718","longitude":"-80.740569","name":"Kmart-Warren,OH","address":"2100 Niles Cortland Rd Se, Warren,OH 44484, (216) 544-2098"},{"latitude":"39.88017","longitude":"-83.06581","name":"Kmart-Grove City,OH","address":"2400 Stringtown Rd, Grove City,OH, (614) 871-4530"},{"latitude":"41.01693","longitude":"-81.60476","name":"Kmart-Barberton,OH","address":"241 Wooster Rd N, Barberton,OH, (330) 745-4426"},{"latitude":"40.79734","longitude":"-81.48581","name":"Kmart-Massillon,OH","address":"2600 Lincoln Way E, Massillon,OH, (330) 832-5018"},{"latitude":"41.6367","longitude":"-83.4801","name":"Kmart-Oregon,OH","address":"2830 Navarre Ave, Oregon,OH, (419) 693-0746"},{"latitude":"41.23843","longitude":"-81.80448","name":"Kmart-Brunswick,OH","address":"3301 Center Rd, Brunswick,OH, (330) 225-0700"},{"latitude":"41.10156","longitude":"-80.73477","name":"Kmart-Austintown,OH","address":"4475 Mahoning Ave, Austintown,OH, (330) 792-1926"},{"latitude":"39.69709","longitude":"-84.1049","name":"Kmart-Dayton,OH","address":"4480 Indian Ripple Rd, Dayton,OH, (937) 429-3460"},{"latitude":"39.41039","longitude":"-81.4285","name":"Kmart-Marietta,OH","address":"502 Pike St, Marietta,OH, (740) 374-8019"},{"latitude":"41.08619","longitude":"-81.44127","name":"Kmart-Tallmadge,OH","address":"555 South Ave, Tallmadge,OH, (330) 630-2990"},{"latitude":"39.75789","longitude":"-84.12041","name":"Kmart-Dayton,OH","address":"601 Woodman Dr, Dayton,OH, (937) 252-9951"},{"latitude":"39.99602","longitude":"-81.576854","name":"Kmart-Cambridge,OH","address":"61690 Southgate Pkwy, Cambridge,OH 43725, (740) 439-2510"},{"latitude":"41.17889","longitude":"-83.42561","name":"Kmart-Fostoria,OH","address":"620 Plaza Dr, Fostoria,OH, (419) 435-1856"},{"latitude":"41.439449","longitude":"-81.701485","name":"Kmart-Cleveland,OH","address":"7701 Broadview Rd, Cleveland,OH, (216) 524-0180"},{"latitude":"41.23746","longitude":"-81.33709","name":"Kmart-Streetsboro,OH","address":"9059 Oh 14, Streetsboro,OH, (330) 626-4946"},{"latitude":"36.13369","longitude":"-95.86381","name":"Kmart-Tulsa,OK","address":"10131 E 21st St, Tulsa,OK, (918) 663-0230"},{"latitude":"35.35641","longitude":"-96.91193","name":"Kmart-Shawnee,OK","address":"2323 N Harrison St, Shawnee,OK, (405) 275-8500"},{"latitude":"35.4995","longitude":"-98.98765","name":"Kmart-Clinton,OK","address":"2501 Red Wheat Dr, Clinton,OK, (580) 323-1850"},{"latitude":"36.39102","longitude":"-97.92726","name":"Kmart-Enid,OK","address":"4010 W Owen K Garriott Rd, Enid,OK, (580) 233-5200"},{"latitude":"36.74678","longitude":"-95.979019","name":"Kmart-Bartlesville,OK","address":"501 SE Washington, Bartlesville,OK, (918) 333-4901"},{"latitude":"45.55665","longitude":"-122.53505","name":"Kmart-Portland,OR","address":"12350 Ne Sandy Blvd, Portland,OR, (503) 255-8903"},{"latitude":"44.92289","longitude":"-123.01144","name":"Kmart-Salem,OR","address":"2470 Mission St Se, Salem,OR, (503) 581-8511"},{"latitude":"45.61735","longitude":"-121.21084","name":"Kmart-The Dalles,OR","address":"2640 W 6th St, The Dalles,OR, (541) 298-5522"},{"latitude":"43.239956","longitude":"-123.365265","name":"Kmart-Roseburg,OR","address":"2757 NW Stewart Pkwy, Roseburg,OR, (541) 673-5113"},{"latitude":"45.49199","longitude":"-122.82632","name":"Kmart-Beaverton,OR","address":"3955 Sw Murray Blvd, Beaverton,OR, (503) 643-6565"},{"latitude":"44.58873","longitude":"-123.25225","name":"Kmart-Corvallis,OR","address":"400 Ne Circle Blvd, Corvallis,OR, (541) 757-8840"},{"latitude":"45.50982","longitude":"-122.43509","name":"Kmart-Gresham,OR","address":"440 Nw Burnside Rd, Gresham,OR, (503) 665-7102"},{"latitude":"40.3054135","longitude":"-75.9827249","name":"Kmart-Shillington,PA","address":"1 Parkside Ave, Shillington,PA, (610) 777-7651"},{"latitude":"40.59086","longitude":"-79.75112","name":"Kmart-New Kensington,PA","address":"100 Tarentum Rd, New Kensington,PA, (724) 337-6511"},{"latitude":"41.989283","longitude":"-76.547096","name":"Kmart-Sayre,PA","address":"1000 N Elmira St, Sayre,PA, (570) 888-9613"},{"latitude":"40.1330937","longitude":"-75.5368836","name":"Kmart-Phoenixville,PA","address":"1000 Nutt Rd, Phoenixville,PA, (610) 935-0443"},{"latitude":"39.91362","longitude":"-77.65257","name":"Kmart-Chambersburg,PA","address":"1005 Wayne Ave, Chambersburg,PA, (717) 263-9831"},{"latitude":"41.4672642","longitude":"-75.6449795","name":"Kmart-Scranton,PA","address":"1011 Scranton Carbondale Hwy, Scranton,PA, (570) 489-7591"},{"latitude":"40.36674","longitude":"-80.10613","name":"Kmart-Bridgeville,PA","address":"1025 Washington Pike, Bridgeville,PA, (412) 221-0220"},{"latitude":"39.9598382","longitude":"-76.6819402","name":"Kmart-York,PA","address":"1094 Haines Rd, York,PA, (717) 757-3544"},{"latitude":"41.35189","longitude":"-74.71965","name":"Kmart-Matamoras,PA","address":"111 Hulst Dr, Matamoras,PA, (570) 491-4841"},{"latitude":"40.1688237","longitude":"-76.2009987","name":"Kmart-Ephrata,PA","address":"1127 S State St, Ephrata,PA, (717) 738-4221"},{"latitude":"40.270055","longitude":"-76.6881006","name":"Kmart-Hummelstown,PA","address":"1170 Mae St, Hummelstown,PA, (717) 533-8020"},{"latitude":"40.1795826","longitude":"-77.2196772","name":"Kmart-Carlisle,PA","address":"1180 Walnut Bottom Rd, Carlisle,PA, (717) 243-3233"},{"latitude":"40.58584","longitude":"-75.45986","name":"Kmart-Allentown,PA","address":"1502 S 4th St, Allentown,PA, (610) 791-3033"},{"latitude":"41.04874","longitude":"-76.259","name":"Kmart-Berwick,PA","address":"1520 W Front St, Berwick,PA, (570) 759-0381"},{"latitude":"40.1382973","longitude":"-76.5850617","name":"Kmart-Elizabethtown,PA","address":"1605 S Market St, Elizabethtown,PA, (717) 361-8001"},{"latitude":"41.62295","longitude":"-80.20128","name":"Kmart-Meadville,PA","address":"16881 Conneaut Lake Rd, Meadville,PA, (814) 333-6671"},{"latitude":"40.31163","longitude":"-76.425","name":"Kmart-Lebanon,PA","address":"1745 Quentin Rd, Lebanon,PA, (717) 274-6707"},{"latitude":"40.15337","longitude":"-75.00729","name":"Kmart-Feasterville,PA","address":"176 W Street Rd, Feasterville,PA, (215) 355-5515"},{"latitude":"41.2551269","longitude":"-75.9075557","name":"Kmart-Kingston,PA","address":"18 Mark Plaza, Kingston,PA 18704, (570) 288-7501"},{"latitude":"40.09554","longitude":"-74.94432","name":"Kmart-Bensalem,PA","address":"1837 Street Rd, Bensalem,PA, (215) 245-8845"},{"latitude":"41.32072","longitude":"-75.76868","name":"Kmart-Pittston,PA","address":"1874 N Township Blvd, Pittston,PA, (570) 655-6821"},{"latitude":"40.36801","longitude":"-79.77962","name":"Kmart-North Versailles,PA","address":"1901 Lincoln Hwy, North Versailles,PA, (412) 823-4010"},{"latitude":"41.250109","longitude":"-76.964114","name":"Kmart-Williamsport,PA","address":"1915 E Third St, Williamsport,PA, (570) 326-3717"},{"latitude":"40.284584","longitude":"-79.390137","name":"Kmart-Latrobe,PA","address":"200 Mountain Laurel, Latrobe,PA, (724) 537-7832"},{"latitude":"41.23354","longitude":"-80.46853","name":"Kmart-Hermitage,PA","address":"2235 E State St, Hermitage,PA, (724) 981-4311"},{"latitude":"41.194238","longitude":"-79.392443","name":"Kmart-Clarion,PA","address":"22631 Rt 68 Ste 30, Clarion,PA 16214, (814) 226-5580"},{"latitude":"40.60656","longitude":"-79.18236","name":"Kmart-Indiana,PA","address":"2334 Oakland Ave, Indiana,PA, (724) 349-7654"},{"latitude":"40.6444807","longitude":"-75.4927573","name":"Kmart-Whitehall,PA","address":"2520 Macarthur Rd, Whitehall,PA, (610) 821-5513"},{"latitude":"39.9839379","longitude":"-76.2828817","name":"Kmart-Willow Street,PA","address":"2600 North Willow Street, Willow Street,PA, (717) 464-4012"},{"latitude":"40.14474","longitude":"-75.12302","name":"Kmart-Willow Grove,PA","address":"2620 W Moreland Rd, Willow Grove,PA, (215) 657-4800"},{"latitude":"40.96542","longitude":"-80.30717","name":"Kmart-New Castle,PA","address":"2652 Ellwood Rd, New Castle,PA, (724) 658-2681"},{"latitude":"42.088234","longitude":"-80.136928","name":"Kmart-Erie,PA","address":"2873 W 26th St, Erie,PA, (814) 838-1987"},{"latitude":"40.9917364","longitude":"-75.1829762","name":"Kmart-East Stroudsburg,PA","address":"300 Lincoln Ave, East Stroudsburg,PA, (570) 424-8700"},{"latitude":"40.857741","longitude":"-79.908972","name":"Kmart-Butler,PA","address":"300 Pullman Square, Butler,PA, (724) 282-4186"},{"latitude":"40.6844589","longitude":"-75.2499215","name":"Kmart-Easton,PA","address":"320 S 25th St, Easton,PA, (610) 258-2324"},{"latitude":"39.99379","longitude":"-75.76019","name":"Kmart-Thorndale,PA","address":"3205 E Lincoln Hwy, Thorndale,PA, (610) 383-6400"},{"latitude":"39.98982","longitude":"-75.10355","name":"Kmart-Philadelphia,PA","address":"3301 Aramingo Ave, Philadelphia,PA, (215) 426-8010"},{"latitude":"41.37348","longitude":"-75.70218","name":"Kmart-Moosic,PA","address":"3382 Birney Plz, Moosic,PA, (570) 961-5371"},{"latitude":"40.0370886","longitude":"-76.4525229","name":"Kmart-Columbia,PA","address":"3975 Columbia Ave, Columbia,PA, (717) 285-2220"},{"latitude":"40.7616887","longitude":"-75.5944898","name":"Kmart-Walnutport,PA","address":"400 N Best Ave, Walnutport,PA, (610) 767-1812"},{"latitude":"40.26758","longitude":"-80.12872","name":"Kmart-Mc Murray,PA","address":"4041 Washington Rd, Mc Murray,PA, (724) 942-4897"},{"latitude":"40.33083","longitude":"-75.1336","name":"Kmart-Doylestown,PA","address":"4377 W Swamp Rd, Doylestown,PA, (215) 348-0610"},{"latitude":"42.146083","longitude":"-80.002876","name":"Kmart-Erie,PA","address":"4401 Buffalo Rd, Erie,PA, (814) 899-7647"},{"latitude":"40.60465","longitude":"-79.60496","name":"Kmart-Leechburg,PA","address":"451 Hyde Park Rd, Leechburg,PA, (724) 845-6051"},{"latitude":"40.3008746","longitude":"-76.9274801","name":"Kmart-Enola,PA","address":"463 N Enola Rd, Enola,PA, (717) 732-3673"},{"latitude":"40.58948","longitude":"-75.56139","name":"Kmart-Allentown,PA","address":"4701 W Tilghman St, Allentown,PA, (610) 395-0341"},{"latitude":"41.40167","longitude":"-79.81062","name":"Kmart-Franklin,PA","address":"491 Allegheny Blvd, Franklin,PA, (814) 437-7717"},{"latitude":"40.98179","longitude":"-76.01608","name":"Kmart-Hazleton,PA","address":"5 Laurel Mall, Hazleton,PA, (570) 455-5553"},{"latitude":"40.3088428","longitude":"-76.8039423","name":"Kmart-Harrisburg,PA","address":"5050 Jonestown Rd, Harrisburg,PA, (717) 652-4770"},{"latitude":"40.4734","longitude":"-78.40601","name":"Kmart-Altoona,PA","address":"528 W Plank Rd, Altoona,PA, (814) 944-4527"},{"latitude":"39.8991783","longitude":"-75.3045731","name":"Kmart-Holmes,PA","address":"600 Macdade Blvd, Holmes,PA, (610) 522-9220"},{"latitude":"41.55132","longitude":"-75.23103","name":"Kmart-Honesdale,PA","address":"650 Old Willow Ave, Honesdale,PA, (570) 253-2544"},{"latitude":"40.0468529","longitude":"-75.4079541","name":"Kmart-Wayne,PA","address":"704 West Lancaster Ave, Wayne,PA 19087, (610) 687-8090"},{"latitude":"40.04137","longitude":"-75.057","name":"Kmart-Philadelphia,PA","address":"7101 E Roosevelt Blvd, Philadelphia,PA, (215) 333-4500"},{"latitude":"39.9343364","longitude":"-75.2860076","name":"Kmart-Clifton Heights,PA","address":"713 E Baltimore Ave, Clifton Heights,PA, (610) 622-5000"},{"latitude":"40.32743","longitude":"-79.94482","name":"Kmart-Pleasant Hills,PA","address":"720 Clairton Blvd, Pleasant Hills,PA, (412) 653-8846"},{"latitude":"40.13563","longitude":"-79.84277","name":"Kmart-Belle Vernon,PA","address":"780 Rostraver Rd, Belle Vernon,PA, (724) 929-3040"},{"latitude":"40.8382634","longitude":"-75.2985169","name":"Kmart-Wind Gap,PA","address":"803 Male Rd, Wind Gap,PA, (610) 863-8550"},{"latitude":"40.51638","longitude":"-80.22033","name":"Kmart-Coraopolis,PA","address":"825 Beaver Grade Rd, Coraopolis,PA, (412) 262-1961"},{"latitude":"40.5108","longitude":"-79.9463","name":"Kmart-Pittsburgh,PA","address":"880 Butler St, Pittsburgh,PA, (412) 782-3475"},{"latitude":"41.22487","longitude":"-75.87827","name":"Kmart-Wilkes Barre,PA","address":"910 Wilkes Barre Township Blvd, Wilkes Barre,PA, (570) 824-4681"},{"latitude":"39.9710442","longitude":"-75.585408","name":"Kmart-West Chester,PA","address":"985 Paoli Pike, West Chester,PA, (610) 431-3770"},{"latitude":"40.51646","longitude":"-80.03735","name":"Kmart-Pittsburgh,PA","address":"996 W View Park Dr, Pittsburgh,PA, (412) 931-3700"},{"latitude":"40.8575931","longitude":"-76.8121404","name":"Kmart-Shamokin Dam,PA","address":"North Susquehanna Tr, Shamokin Dam,PA, (570) 743-8164"},{"latitude":"41.775792","longitude":"-76.452339","name":"Kmart-Towanda,PA","address":"Rt 6 Brandford Town, Towanda,PA, (570) 265-7538"},{"latitude":"18.355591","longitude":"-66.004936","name":"Kmart-Trujillo Alto,PR","address":"200 Carr 181, Trujillo Alto,PR, (787) 755-7025"},{"latitude":"18.013611","longitude":"-66.614899","name":"Kmart-Ponce,PR","address":"2643 Ponce Bypass, Ponce,PR, (787) 812-1610"},{"latitude":"18.03343","longitude":"-66.848442","name":"Kmart-Yauco,PR","address":"601 Yauco Plaza, Yauco,PR, (787) 267-6600"},{"latitude":"18.38118","longitude":"-65.957527","name":"Kmart-Carolina,PR","address":"65th Infantry Ave, Carolina,PR, (787) 768-2677"},{"latitude":"18.32226","longitude":"-66.092987","name":"Kmart-Rio Piedra,PR","address":"9410 Avenue Los Rome, Rio Piedra,PR, (787) 720-5377"},{"latitude":"18.114491","longitude":"-66.169594","name":"Kmart-Cayey,PR","address":"Ave Jesus T Pinero 4, Cayey,PR, (787) 263-5940"},{"latitude":"18.422831","longitude":"-66.053413","name":"Kmart-Hato Rey,PR","address":"Calle Kalaf 525, Hato Rey,PR, (787) 282-2280"},{"latitude":"18.40155","longitude":"-66.090244","name":"Kmart-San Juan,PR","address":"Caparra Heights, San Juan,PR, (787) 792-4041"},{"latitude":"18.41223","longitude":"-66.331734","name":"Kmart-Vega Alta,PR","address":"Carr Estatal Number, Vega Alta,PR, (787) 883-8300"},{"latitude":"18.39407","longitude":"-66.147392","name":"Kmart-Bayamon,PR","address":"De Diego Expressway, Bayamon,PR, (787) 795-4949"},{"latitude":"18.22814","longitude":"-66.036598","name":"Kmart-Caguas,PR","address":"PO Box 517, Caguas,PR, (787) 745-6305"},{"latitude":"18.39407","longitude":"-66.147392","name":"Kmart-Bayamon,PR","address":"PR 167 and PR 199, Bayamon,PR, (787) 730-2500"},{"latitude":"18.08649","longitude":"-67.043569","name":"Kmart-San German,PR","address":"PR 2 and Castro Pere, San German,PR, (787) 892-0000"},{"latitude":"18.35915","longitude":"-66.112289","name":"Kmart-Guaynabo,PR","address":"PR 20 and Esmeralda, Guaynabo,PR, (787) 287-9797"},{"latitude":"18.217703","longitude":"-67.150566","name":"Kmart-Mayaguez,PR","address":"PR Rt 2 KM 149.5, Mayaguez,PR, (787) 265-4500"},{"latitude":"17.97695","longitude":"-66.110474","name":"Kmart-Guayama,PR","address":"Puerto Rico Hwy 3, Guayama,PR, (787) 864-3800"},{"latitude":"18.22814","longitude":"-66.036598","name":"Kmart-Caguas,PR","address":"Rafael Cordero Hwy, Caguas,PR, (787) 743-8777"},{"latitude":"18.408974","longitude":"-67.155357","name":"Kmart-Aguadilla,PR","address":"Road 2 KM 126.5, Aguadilla,PR, (787) 891-1800"},{"latitude":"18.074574","longitude":"-66.497214","name":"Kmart-Juana Diaz,PR","address":"State 149 and State, Juana Diaz,PR, (787) 837-1410"},{"latitude":"18.40476","longitude":"-66.675209","name":"Kmart-Arecibo,PR","address":"State Road 2 KM 802, Arecibo,PR, (787) 879-3550"},{"latitude":"18.32807","longitude":"-65.653259","name":"Kmart-Fajardo,PR","address":"State Road 3, Fajardo,PR, (787) 863-6262"},{"latitude":"41.79551","longitude":"-71.4453","name":"Kmart-Cranston,RI","address":"296 Garfield Ave, Cranston,RI, (401) 946-3400"},{"latitude":"34.87444","longitude":"-82.41367","name":"Kmart-Greenville,SC","address":"1 KMart Plz, Greenville,SC, (864) 242-5414"},{"latitude":"33.95448","longitude":"-80.3792","name":"Kmart-Sumter,SC","address":"1143 Broad St, Sumter,SC, (803) 469-2566"},{"latitude":"34.77807","longitude":"-82.31091","name":"Kmart-Mauldin,SC","address":"129 W Butler Ave, Mauldin,SC, (864) 297-0830"},{"latitude":"33.51482","longitude":"-80.86337","name":"Kmart-Orangeburg,SC","address":"1470 Chestnut St, Orangeburg,SC, (803) 531-0350"},{"latitude":"33.97404","longitude":"-81.07668","name":"Kmart-West Columbia,SC","address":"1500 Charleston Hwy, West Columbia,SC, (803) 794-9150"},{"latitude":"33.84599","longitude":"-79.06341","name":"Kmart-Conway,SC","address":"1610 U Church St, Conway,SC, (843) 248-2411"},{"latitude":"34.69039","longitude":"-82.98911","name":"Kmart-Seneca,SC","address":"201 Applewood Center Pl, Seneca,SC, (864) 882-1302"},{"latitude":"34.19091","longitude":"-79.80666","name":"Kmart-Florence,SC","address":"2011 Hoffmeyer Rd, Florence,SC, (843) 669-5655"},{"latitude":"32.44159","longitude":"-80.69212","name":"Kmart-Beaufort,SC","address":"2127 Boundary St, Beaufort,SC, (843) 524-1087"},{"latitude":"34.96702","longitude":"-80.99566","name":"Kmart-Rock Hill,SC","address":"2302 Cherry Rd, Rock Hill,SC, (803) 366-6191"},{"latitude":"32.956669","longitude":"-80.159813","name":"Kmart-Summerville,SC","address":"4570 Ladson Rd, Summerville,SC, (843) 821-5500"},{"latitude":"33.98479","longitude":"-81.24992","name":"Kmart-Lexington,SC","address":"748 W Main St, Lexington,SC, (803) 957-6647"},{"latitude":"44.087448","longitude":"-103.192879","name":"Kmart-Rapid City,SD","address":"1111 E North St, Rapid City,SD, (605) 343-5626"},{"latitude":"45.459362","longitude":"-98.461442","name":"Kmart-Aberdeen,SD","address":"1815 6th Ave SE, Aberdeen,SD, (605) 229-5510"},{"latitude":"36.172848","longitude":"-82.796318","name":"Kmart-Greeneville,TN","address":"1355 Tusculum Blvd, Greeneville,TN, (423) 636-1118"},{"latitude":"36.21655","longitude":"-86.33065","name":"Kmart-Lebanon,TN","address":"1443 W Main St, Lebanon,TN, (615) 449-4061"},{"latitude":"36.287688","longitude":"-86.705165","name":"Kmart-Madison,TN","address":"1508 S Gallatin Rd, Madison,TN, (615) 865-0040"},{"latitude":"36.546155","longitude":"-82.514446","name":"Kmart-Kingsport,TN","address":"1805 E Stone Dr, Kingsport,TN 37660, (615) 246-7179"},{"latitude":"35.38204","longitude":"-86.22958","name":"Kmart-Tullahoma,TN","address":"1806 N Jackson St, Tullahoma,TN, (931) 455-6208"},{"latitude":"35.96184","longitude":"-85.04063","name":"Kmart-Crossville,TN","address":"190 Cumberland Sq, Crossville,TN, (931) 484-3516"},{"latitude":"35.86721","longitude":"-83.56785","name":"Kmart-Sevierville,TN","address":"217 Forks Of The River Pky, Sevierville,TN, (865) 428-0014"},{"latitude":"36.32482","longitude":"-86.7028","name":"Kmart-Goodlettsville,TN","address":"230 Long Hollow Pike, Goodlettsville,TN, (615) 859-3687"},{"latitude":"36.352151","longitude":"-82.392971","name":"Kmart-Johnson City,TN","address":"3019 Peoples St, Johnson City,TN 37604, (615) 854-0990"},{"latitude":"36.1473","longitude":"-86.66653","name":"Kmart-Nashville,TN","address":"530 Donelson Pike, Nashville,TN, (615) 889-5112"},{"latitude":"36.151","longitude":"-85.498","name":"Kmart-Cookeville,TN","address":"560 South Jefferson, Cookeville,TN, (931)526-4001"},{"latitude":"36.07181","longitude":"-83.92771","name":"Kmart-Knoxville,TN","address":"6909 Maynardville Pike, Knoxville,TN, (865) 922-7484"},{"latitude":"35.6564","longitude":"-88.85418","name":"Kmart-Jackson,TN","address":"732 Old Hickory Blvd, Jackson,TN, (731) 668-2646"},{"latitude":"27.88403","longitude":"-97.31903","name":"Kmart-Portland,TX","address":"1400 Wildcat Dr, Portland,TX, (361) 643-8571"},{"latitude":"26.18772","longitude":"-98.23256","name":"Kmart-McAllen,TX","address":"1801 S 10th St, McAllen,TX, (956) 682-6166"},{"latitude":"31.701082","longitude":"-106.323029","name":"Kmart-El Paso,TX","address":"411 Zaragosa Road N, El Paso,TX, (915) 858-1919"},{"latitude":"33.418369","longitude":"-94.099579","name":"Kmart-Texarkana,TX","address":"4520 W 7th St, Texarkana,TX, (903) 832-1588"},{"latitude":"27.54495","longitude":"-99.50264","name":"Kmart-Laredo,TX","address":"5000 San Dario Ave, Laredo,TX, (956) 729-1199"},{"latitude":"31.78876","longitude":"-106.40501","name":"Kmart-El Paso,TX","address":"6375 Montana Blvd, El Paso,TX, (915) 779-5084"},{"latitude":"31.8198","longitude":"-106.54131","name":"Kmart-El Paso,TX","address":"655 Sunland Park Dr, El Paso,TX, (915) 760-5001"},{"latitude":"40.66931","longitude":"-111.86544","name":"Kmart-Salt Lake City,UT","address":"4670 S 900 E, Salt Lake City,UT, (801) 266-4437"},{"latitude":"37.095407","longitude":"-113.586503","name":"Kmart-St George,UT","address":"745 S Bluff, St George,UT, (801) 628-4201"},{"latitude":"40.12146","longitude":"-111.6385","name":"Kmart-Spanish Fork,UT","address":"900 E Expressway Ln, Spanish Fork,UT, (801) 798-9856"},{"latitude":"37.28724","longitude":"-76.71693","name":"Kmart-Williamsburg,VA","address":"118 Waller Mill Rd, Williamsburg,VA, (757) 220-2200"},{"latitude":"36.802494","longitude":"-76.175484","name":"Kmart-Virginia Beach,VA","address":"1205 Fordham Dr, Virginia Beach,VA, (757) 424-7835"},{"latitude":"38.06032","longitude":"-78.4903","name":"Kmart-Charlottesville,VA","address":"1801 Hydraulic Rd, Charlottesville,VA, (434) 296-5646"},{"latitude":"36.783783","longitude":"-76.257889","name":"Kmart-Chesapeake,VA","address":"2001 South Military Hwy, Chesapeake,VA, (757) 543-2016"},{"latitude":"37.369827","longitude":"-79.183548","name":"Kmart-Lynchburg,VA","address":"2315 Wards Rd, Lynchburg,VA, (434) 239-2681"},{"latitude":"39.755928","longitude":"-77.578033","name":"Kmart-Waynesboro,VA","address":"2712 West Main St, Waynesboro,VA, (540) 949-8060"},{"latitude":"36.701065","longitude":"-81.978355","name":"Kmart-Abingdon,VA","address":"300 Towne Center Dr, Abingdon,VA, (276) 628-7672"},{"latitude":"36.845089","longitude":"-76.130898","name":"Kmart-Virginia Beach,VA","address":"312 Constitution Dr, Virginia Beach,VA, (757) 497-0389"},{"latitude":"36.585197","longitude":"-79.424797","name":"Kmart-Danville,VA","address":"3311 Riverside Dr, Danville,VA, (434) 793-0311"},{"latitude":"33.16544","longitude":"-85.373619","name":"Kmart-Roanoke,VA","address":"3533 Franklin Rd SW, Roanoke,VA, (540) 982-0995"},{"latitude":"38.83176","longitude":"-77.18906","name":"Kmart-Annandale,VA","address":"4251 John Marr Dr, Annandale,VA, (703) 941-5100"},{"latitude":"37.54343","longitude":"-77.37074","name":"Kmart-Richmond,VA","address":"4715 Nine Mile Rd, Richmond,VA, (804) 222-5684"},{"latitude":"38.96856","longitude":"-77.37807","name":"Kmart-Herndon,VA","address":"494 Elden St, Herndon,VA, (703) 437-7900"},{"latitude":"37.116345","longitude":"-76.464441","name":"Kmart-Tabb,VA","address":"5007 Victory Blvd, Tabb,VA 23693, (757) 874-0170"},{"latitude":"38.78192","longitude":"-77.18858","name":"Kmart-Springfield,VA","address":"6364 Springfield Plz, Springfield,VA, (703) 644-5230"},{"latitude":"42.89405","longitude":"-73.199547","name":"Kmart-Bennington,VT","address":"19 Kocher Dr, Bennington,VT, (802) 442-6305"},{"latitude":"43.57987","longitude":"-72.96547","name":"Kmart-Rutland,VT","address":"2 Diamond Run Mall, Rutland,VT, (802) 775-4429"},{"latitude":"48.77185","longitude":"-122.46166","name":"Kmart-Bellingham,WA","address":"1001 E Sunset Dr, Bellingham,WA, (360) 734-9550"},{"latitude":"46.67221","longitude":"-122.97961","name":"Kmart-Chehalis,WA","address":"1201 Nw Louisiana Ave, Chehalis,WA, (360) 748-6626"},{"latitude":"47.19195","longitude":"-122.40902","name":"Kmart-Tacoma,WA","address":"1414 72nd St E, Tacoma,WA, (253) 531-6824"},{"latitude":"48.45617","longitude":"-122.3354","name":"Kmart-Burlington,WA","address":"1550 S Burlington Blvd, Burlington,WA, (360) 757-7500"},{"latitude":"47.09464","longitude":"-122.43478","name":"Kmart-Spanaway,WA","address":"17911 Pacific Ave S, Spanaway,WA, (253) 847-4313"},{"latitude":"46.076381","longitude":"-118.300362","name":"Kmart-Walla Walla,WA","address":"2200 East Isaacs Ave, Walla Walla,WA, (509) 529-3890"},{"latitude":"47.39443","longitude":"-122.24933","name":"Kmart-Kent,WA","address":"24800 W Valley Hwy, Kent,WA, (253) 852-9071"},{"latitude":"47.657165","longitude":"-117.350358","name":"Kmart-Spokane,WA","address":"4110 E Sprague Ave, Spokane,WA, (509) 534-2668"},{"latitude":"44.534199","longitude":"-89.574799","name":"Kmart-Stevens Point,WI","address":"111 Division St N, Stevens Point,WI, (715) 341-6060"},{"latitude":"43.85616","longitude":"-88.8651","name":"Kmart-Ripon,WI","address":"1200 W Fond Du Lac St, Ripon,WI, (920) 748-2688"},{"latitude":"43.08616","longitude":"-88.47109","name":"Kmart-Oconomowoc,WI","address":"1450 E Summit Ave, Oconomowoc,WI, (262) 567-2300"},{"latitude":"45.139204","longitude":"-90.331132","name":"Kmart-Medford,WI","address":"190 Medford Plaza, Medford,WI, (715) 748-2222"},{"latitude":"41.317322","longitude":"-86.750633","name":"Kmart-La Crosse,WI","address":"2415 State Road, La Crosse,WI, (608) 788-0800"},{"latitude":"42.589466","longitude":"-87.858644","name":"Kmart-Kenosha,WI","address":"4100 52nd St, Kenosha,WI, (262) 658-1636"},{"latitude":"42.78768","longitude":"-87.8103","name":"Kmart-Racine,WI","address":"5141 Douglas Ave, Racine,WI, (262) 639-8780"},{"latitude":"42.93396","longitude":"-87.86113","name":"Kmart-Cudahy,WI","address":"6077 S Packard Ave, Cudahy,WI, (414) 769-6560"},{"latitude":"43.01676","longitude":"-87.99844","name":"Kmart-West Allis,WI","address":"6900 W Greenfield Ave, West Allis,WI, (414) 476-0540"},{"latitude":"43.806358","longitude":"-90.070198","name":"Kmart-Mauston,WI","address":"800 North Union, Mauston,WI, (608) 847-5522"},{"latitude":"44.35788","longitude":"-89.10007","name":"Kmart-Waupaca,WI","address":"830 W Fulton St, Waupaca,WI, (715) 258-9585"},{"latitude":"38.45189","longitude":"-81.93717","name":"Kmart-Scott Depot,WV","address":"101 Great Teays Blvd, Scott Depot,WV, (304) 757-3193"},{"latitude":"39.28086","longitude":"-80.27788","name":"Kmart-Clarksburg,WV","address":"102 Emily Dr, Clarksburg,WV, (304) 624-7171"},{"latitude":"39.43483","longitude":"-77.98615","name":"Kmart-Martinsburg,WV","address":"1287 Winchester Ave, Martinsburg,WV, (304) 264-9004"},{"latitude":"38.388","longitude":"-81.82191","name":"Kmart-St Albans,WV","address":"1477 Maccorkle Ave, St Albans,WV, (304) 722-4216"},{"latitude":"38.36891","longitude":"-81.66477","name":"Kmart-Charleston,WV","address":"1701 4th Ave, Charleston,WV, (304) 344-8091"},{"latitude":"38.4317","longitude":"-81.48328","name":"Kmart-Elkview,WV","address":"201 Crossings Mall, Elkview,WV, (304) 965-7390"},{"latitude":"37.81207","longitude":"-81.18356","name":"Kmart-Beckley,WV","address":"301 Beckley Plz, Beckley,WV, (304) 252-8537"},{"latitude":"38.41147","longitude":"-82.33864","name":"Kmart-Huntington,WV","address":"5636 Us 60, Huntington,WV, (304) 736-2844"},{"latitude":"38.30283","longitude":"-81.5638","name":"Kmart-Charleston,WV","address":"6531 Maccorkle Ave Se, Charleston,WV, (304) 925-4914"},{"latitude":"39.30656","longitude":"-81.5512","name":"Kmart-Vienna,WV","address":"800 Grand Central Ave, Vienna,WV, (304) 295-4586"},{"latitude":"37.7837","longitude":"-80.45554","name":"Kmart-Lewisburg,WV","address":"97 Seneca Trl, Lewisburg,WV, (304) 647-3811"},{"latitude":"44.27457","longitude":"-105.49428","name":"Kmart-Gillette,WY","address":"2150 S Douglas Hwy, Gillette,WY, (307) 687-7774"},{"latitude":"41.580332","longitude":"-109.261843","name":"Kmart-Rock Springs,WY","address":"2450 Foothill Blvd, Rock Springs,WY 82901, (307) 362-8560"},{"latitude":"44.80464","longitude":"-106.95556","name":"Kmart-Sheridan,WY","address":"2571 N Business 90, Sheridan,WY, (307) 672-6468"},{"latitude":"42.84903","longitude":"-106.27558","name":"Kmart-Casper,WY","address":"4000 E 2nd St, Casper,WY, (307) 265-0808"},{"latitude":"41.31907","longitude":"-105.59292","name":"Kmart-Laramie,WY","address":"750 N 3rd St, Laramie,WY, (307) 742-4446"},{"latitude":"43.47997","longitude":"-110.762354","name":"Kmart-Jackson,WY","address":"PO Box 9060, Jackson,WY, (307) 739-0865"}]