[{"latitude":" 47.61560","longitude":"-122.62730","name":" Lowe's","address":" USA-Bremerton"},{"latitude":" 35.14668","longitude":"-80.93661","name":" Lowe's","address":" USA-S W Charlotte"},{"latitude":" 32.64824","longitude":"-116.96527","name":" Lowe's","address":" USA-Eastlake"},{"latitude":" 37.82625","longitude":"-82.82302","name":" Lowe's","address":" USA-Paintsville"},{"latitude":" 41.03455","longitude":"-78.39741","name":" Lowe's","address":" USA-Clearfield"},{"latitude":" 33.54430","longitude":"-101.93810","name":" Lowe's","address":" USA-Lubbock"},{"latitude":" 40.84566","longitude":"-81.94544","name":" Lowe's","address":" USA-Wooster"},{"latitude":" 41.16734","longitude":"-81.47631","name":" Lowe's","address":" USA-Stow"},{"latitude":" 39.19390","longitude":"-76.61430","name":" Lowe's","address":" USA-Glen Burnie"},{"latitude":" 41.64336","longitude":"-93.50833","name":" Lowe's","address":" USA-Altoona"},{"latitude":" 32.43432","longitude":"-81.75634","name":" Lowe's","address":" USA-Statesboro"},{"latitude":" 40.28975","longitude":"-84.20592","name":" Lowe's","address":" USA-Sidney"},{"latitude":" 37.15156","longitude":"-80.58146","name":" Lowe's","address":" USA-Pulaski County (Fairlawn)"},{"latitude":" 39.15036","longitude":"-119.76517","name":" Lowe's","address":" USA-Carson City"},{"latitude":" 33.69334","longitude":"-117.33669","name":" Lowe's","address":" USA-Lake Elsinore"},{"latitude":" 42.28087","longitude":"-71.64538","name":" Lowe's","address":" USA-Westborough"},{"latitude":" 41.35316","longitude":"-74.72329","name":" Lowe's","address":" USA-Matamoras"},{"latitude":" 36.81828","longitude":"-87.47277","name":" Lowe's","address":" USA-Hopkinsville"},{"latitude":" 34.09514","longitude":"-84.28106","name":" Lowe's","address":" USA-N Alpharetta"},{"latitude":" 38.78262","longitude":"-76.08214","name":" Lowe's","address":" USA-Easton"},{"latitude":" 30.20855","longitude":"-95.46139","name":" Lowe's","address":" USA-The Woodlands"},{"latitude":" 30.45720","longitude":"-88.89436","name":" Lowe's","address":" USA-D'iberville"},{"latitude":" 34.93590","longitude":"-82.28010","name":" Lowe's","address":" USA-Greer"},{"latitude":" 33.66622","longitude":"-96.60747","name":" Lowe's","address":" USA-Sherman"},{"latitude":" 33.41950","longitude":"-86.68198","name":" Lowe's","address":" USA-Inverness"},{"latitude":" 39.18850","longitude":"-84.25940","name":" Lowe's","address":" USA-Milford (Miami Twp)"},{"latitude":" 30.32000","longitude":"-81.47180","name":" Lowe's","address":" USA-N E Jacksonville"},{"latitude":" 41.51810","longitude":"-87.46880","name":" Lowe's","address":" USA-Schererville"},{"latitude":" 30.73142","longitude":"-86.57346","name":" Lowe's","address":" USA-Crestview"},{"latitude":" 40.14020","longitude":"-82.98096","name":" Lowe's","address":" USA-N Columbus"},{"latitude":" 34.96752","longitude":"-89.83954","name":" Lowe's","address":" USA-Olive Branch"},{"latitude":" 33.91629","longitude":"-84.37598","name":" Lowe's","address":" USA-Sandy Springs"},{"latitude":" 33.43030","longitude":"-84.18160","name":" Lowe's","address":" USA-Mcdonough"},{"latitude":" 37.10028","longitude":"-113.55560","name":" Lowe's","address":" USA-St George"},{"latitude":" 34.00241","longitude":"-81.21149","name":" Lowe's","address":" USA-Lexington"},{"latitude":" 41.78078","longitude":"-88.37507","name":" Lowe's","address":" USA-Aurora"},{"latitude":" 44.70527","longitude":"-75.45812","name":" Lowe's","address":" USA-Ogdensburg"},{"latitude":" 42.24430","longitude":"-70.93790","name":" Lowe's","address":" USA-Weymouth"},{"latitude":" 37.00519","longitude":"-121.55121","name":" Lowe's","address":" USA-Gilroy"},{"latitude":" 31.48383","longitude":"-82.84955","name":" Lowe's","address":" USA-Douglas"},{"latitude":" 39.08016","longitude":"-108.58571","name":" Lowe's","address":" USA-Grand Junction"},{"latitude":" 40.13790","longitude":"-74.22390","name":" Lowe's","address":" USA-Howell"},{"latitude":" 36.96612","longitude":"-81.07224","name":" Lowe's","address":" USA-Wythville"},{"latitude":" 42.91853","longitude":"-87.95314","name":" Lowe's","address":" USA-Franklin"},{"latitude":" 32.59410","longitude":"-97.14690","name":" Lowe's","address":" USA-Mansfield"},{"latitude":" 34.24868","longitude":"-80.64305","name":" Lowe's","address":" USA-Camden"},{"latitude":" 40.01960","longitude":"-74.94240","name":" Lowe's","address":" USA-Delran"},{"latitude":" 34.00300","longitude":"-96.40886","name":" Lowe's","address":" USA-Durant"},{"latitude":" 32.40161","longitude":"-99.76521","name":" Lowe's","address":" USA-Abilene"},{"latitude":" 45.59363","longitude":"-122.68057","name":" Lowe's","address":" USA-Portland - Delta Park"},{"latitude":" 35.42620","longitude":"-80.61110","name":" Lowe's","address":" USA-Concord"},{"latitude":" 38.32808","longitude":"-85.75571","name":" Lowe's","address":" USA-Clarksville"},{"latitude":" 36.81240","longitude":"-76.09660","name":" Lowe's","address":" USA-Virginia Beach"},{"latitude":" 37.97659","longitude":"-87.63738","name":" Lowe's","address":" USA-W Evansville"},{"latitude":" 40.01982","longitude":"-75.66629","name":" Lowe's","address":" USA-E Caln Twp (Downingtown)"},{"latitude":" 40.20080","longitude":"-74.63380","name":" Lowe's","address":" USA-Hamilton"},{"latitude":" 39.56460","longitude":"-76.97220","name":" Lowe's","address":" USA-Westminster"},{"latitude":" 35.22328","longitude":"-97.48181","name":" Lowe's","address":" USA-Norman"},{"latitude":" 41.36186","longitude":"-86.32678","name":" Lowe's","address":" USA-Plymouth"},{"latitude":" 37.51480","longitude":"-77.61420","name":" Lowe's","address":" USA-Midlothian"},{"latitude":" 42.50029","longitude":"-83.28377","name":" Lowe's","address":" USA-Southfield"},{"latitude":" 36.48961","longitude":"-86.88163","name":" Lowe's","address":" USA-Springfield"},{"latitude":" 38.49900","longitude":"-82.67980","name":" Lowe's","address":" USA-Russel \/ Ashland"},{"latitude":" 29.14923","longitude":"-82.18402","name":" Lowe's","address":" USA-Ocala"},{"latitude":" 39.86715","longitude":"-86.12106","name":" Lowe's","address":" USA-C Indianapolis"},{"latitude":" 34.97047","longitude":"-81.88516","name":" Lowe's","address":" USA-E Spartanburg"},{"latitude":" 28.87276","longitude":"-96.99568","name":" Lowe's","address":" USA-Victoria"},{"latitude":" 35.06730","longitude":"-78.96690","name":" Lowe's","address":" USA-Fayetteville"},{"latitude":" 38.71139","longitude":"-93.27393","name":" Lowe's","address":" USA-Sedalia"},{"latitude":" 33.03730","longitude":"-80.15020","name":" Lowe's","address":" USA-Summerville"},{"latitude":" 29.99911","longitude":"-95.16588","name":" Lowe's","address":" USA-Atascocita"},{"latitude":" 28.50770","longitude":"-81.31130","name":" Lowe's","address":" USA-S E Orlando"},{"latitude":" 41.61630","longitude":"-83.66986","name":" Lowe's","address":" USA-S W Toledo"},{"latitude":" 37.34770","longitude":"-77.41150","name":" Lowe's","address":" USA-Chester"},{"latitude":" 38.89350","longitude":"-76.82320","name":" Lowe's","address":" USA-Largo"},{"latitude":" 36.86199","longitude":"-89.58192","name":" Lowe's","address":" USA-Sikeston"},{"latitude":" 38.69462","longitude":"-87.49524","name":" Lowe's","address":" USA-Vincennes"},{"latitude":" 42.65874","longitude":"-83.45474","name":" Lowe's","address":" USA-White Lake"},{"latitude":" 40.69433","longitude":"-74.25811","name":" Lowe's","address":" USA-Union"},{"latitude":" 36.31442","longitude":"-86.59327","name":" Lowe's","address":" USA-Hendersonville"},{"latitude":" 38.31044","longitude":"-80.83454","name":" Lowe's","address":" USA-Summersville"},{"latitude":" 35.65092","longitude":"-97.46183","name":" Lowe's","address":" USA-Edmond"},{"latitude":" 31.81839","longitude":"-81.60275","name":" Lowe's","address":" USA-Hinesville"},{"latitude":" 42.44937","longitude":"-75.02695","name":" Lowe's","address":" USA-Oneonta"},{"latitude":" 29.26058","longitude":"-81.10705","name":" Lowe's","address":" USA-Ormond Beach"},{"latitude":" 33.44565","longitude":"-94.09939","name":" Lowe's","address":" USA-Texarkana"},{"latitude":" 35.77072","longitude":"-95.33134","name":" Lowe's","address":" USA-Muskogee"},{"latitude":" 35.44636","longitude":"-80.86525","name":" Lowe's","address":" USA-Huntersville"},{"latitude":" 41.97310","longitude":"-70.70930","name":" Lowe's","address":" USA-Kingston"},{"latitude":" 39.19470","longitude":"-75.55010","name":" Lowe's","address":" USA-Dover"},{"latitude":" 38.77250","longitude":"-77.08220","name":" Lowe's","address":" USA-Alexandria"},{"latitude":" 37.60080","longitude":"-122.06440","name":" Lowe's","address":" USA-Union City"},{"latitude":" 39.63300","longitude":"-75.65990","name":" Lowe's","address":" USA-Christiana"},{"latitude":" 26.51361","longitude":"-80.07611","name":" Lowe's","address":" USA-Boynton Beach"},{"latitude":" 31.25816","longitude":"-90.47710","name":" Lowe's","address":" USA-Mccomb"},{"latitude":" 35.94505","longitude":"-86.81766","name":" Lowe's","address":" USA-Franklin"},{"latitude":" 38.46748","longitude":"-77.40916","name":" Lowe's","address":" USA-Stafford"},{"latitude":" 39.43522","longitude":"-74.60908","name":" Lowe's","address":" USA-Egg Harbor"},{"latitude":" 42.97218","longitude":"-74.18639","name":" Lowe's","address":" USA-Amsterdam"},{"latitude":" 34.45108","longitude":"-77.60770","name":" Lowe's","address":" USA-Surf City"},{"latitude":" 34.62161","longitude":"-98.44646","name":" Lowe's","address":" USA-Lawton"},{"latitude":" 39.82620","longitude":"-76.98380","name":" Lowe's","address":" USA-Hanover"},{"latitude":" 39.97374","longitude":"-82.90527","name":" Lowe's","address":" USA-E Columbus (Whitehall)"},{"latitude":" 27.90272","longitude":"-81.83785","name":" Lowe's","address":" USA-Bartow"},{"latitude":" 32.42702","longitude":"-80.72684","name":" Lowe's","address":" USA-Beaufort"},{"latitude":" 28.33988","longitude":"-81.41791","name":" Lowe's","address":" USA-N Kissimmee"},{"latitude":" 39.11751","longitude":"-94.74079","name":" Lowe's","address":" USA-Kansas City"},{"latitude":" 37.24069","longitude":"-81.25158","name":" Lowe's","address":" USA-Bluefield"},{"latitude":" 37.06209","longitude":"-94.47917","name":" Lowe's","address":" USA-Joplin"},{"latitude":" 40.37423","longitude":"-75.92776","name":" Lowe's","address":" USA-Reading"},{"latitude":" 26.22190","longitude":"-81.76980","name":" Lowe's","address":" USA-Naples"},{"latitude":" 40.77170","longitude":"-85.16613","name":" Lowe's","address":" USA-Bluffton"},{"latitude":" 34.43516","longitude":"-103.19411","name":" Lowe's","address":" USA-Clovis"},{"latitude":" 32.93756","longitude":"-80.04668","name":" Lowe's","address":" USA-N Charleston"},{"latitude":" 40.15704","longitude":"-75.14007","name":" Lowe's","address":" USA-Upper Moreland"},{"latitude":" 37.81220","longitude":"-80.43409","name":" Lowe's","address":" USA-Lewisburg"},{"latitude":" 45.19741","longitude":"-93.33791","name":" Lowe's","address":" USA-Coon Rapids"},{"latitude":" 35.79020","longitude":"-80.25810","name":" Lowe's","address":" USA-Lexington"},{"latitude":" 27.98740","longitude":"-82.12220","name":" Lowe's","address":" USA-Plant City"},{"latitude":" 42.08181","longitude":"-86.42624","name":" Lowe's","address":" USA-Benton Harbor"},{"latitude":" 40.22731","longitude":"-75.66045","name":" Lowe's","address":" USA-Pottstown"},{"latitude":" 48.77110","longitude":"-122.46010","name":" Lowe's","address":" USA-Bellingham"},{"latitude":" 33.05543","longitude":"-96.69715","name":" Lowe's","address":" USA-E Plano"},{"latitude":" 38.73532","longitude":"-82.86164","name":" Lowe's","address":" USA-Wheelersburg"},{"latitude":" 39.37156","longitude":"-76.46022","name":" Lowe's","address":" USA-White Marsh"},{"latitude":" 29.59294","longitude":"-95.63217","name":" Lowe's","address":" USA-Sugar Land"},{"latitude":" 28.65421","longitude":"-81.24094","name":" Lowe's","address":" USA-Oviedo"},{"latitude":" 34.20242","longitude":"-82.19788","name":" Lowe's","address":" USA-Greenwood"},{"latitude":" 35.59691","longitude":"-78.56074","name":" Lowe's","address":" USA-Clayton"},{"latitude":" 33.38764","longitude":"-111.72089","name":" Lowe's","address":" USA-E Mesa"},{"latitude":" 39.99210","longitude":"-74.17370","name":" Lowe's","address":" USA-Toms River"},{"latitude":" 33.79203","longitude":"-78.99678","name":" Lowe's","address":" USA-Conway"},{"latitude":" 30.36668","longitude":"-87.68092","name":" Lowe's","address":" USA-Foley"},{"latitude":" 35.20260","longitude":"-106.64860","name":" Lowe's","address":" USA-N W Albuquerque"},{"latitude":" 32.68047","longitude":"-97.12220","name":" Lowe's","address":" USA-S Arlington"},{"latitude":" 37.13193","longitude":"-93.45906","name":" Lowe's","address":" USA-Republic"},{"latitude":" 42.15910","longitude":"-75.89720","name":" Lowe's","address":" USA-Binghamton"},{"latitude":" 42.77160","longitude":"-73.89200","name":" Lowe's","address":" USA-Niskayuna"},{"latitude":" 42.87271","longitude":"-77.24069","name":" Lowe's","address":" USA-Canandaigua"},{"latitude":" 47.57933","longitude":"-122.29714","name":" Lowe's","address":" USA-Rainier"},{"latitude":" 38.67141","longitude":"-121.15615","name":" Lowe's","address":" USA-Folsom"},{"latitude":" 32.72828","longitude":"-97.78532","name":" Lowe's","address":" USA-Weatherford"},{"latitude":" 34.31123","longitude":"-89.91598","name":" Lowe's","address":" USA-Batesville"},{"latitude":" 47.87752","longitude":"-122.20208","name":" Lowe's","address":" USA-Millcreek"},{"latitude":" 44.91390","longitude":"-122.98920","name":" Lowe's","address":" USA-Salem"},{"latitude":" 38.53820","longitude":"-91.00580","name":" Lowe's","address":" USA-Washington"},{"latitude":" 41.94870","longitude":"-88.72360","name":" Lowe's","address":" USA-De Kalb"},{"latitude":" 40.27908","longitude":"-76.82008","name":" Lowe's","address":" USA-Harrisburg"},{"latitude":" 26.80681","longitude":"-80.08650","name":" Lowe's","address":" USA-Lake Park"},{"latitude":" 40.68580","longitude":"-80.09350","name":" Lowe's","address":" USA-Cranberry Twp"},{"latitude":" 39.59654","longitude":"-104.88312","name":" Lowe's","address":" USA-Greenwood Village"},{"latitude":" 32.81227","longitude":"-115.56807","name":" Lowe's","address":" USA-El Centro"},{"latitude":" 36.15714","longitude":"-115.11156","name":" Lowe's","address":" USA-Sunrise"},{"latitude":" 26.16730","longitude":"-80.15740","name":" Lowe's","address":" USA-Oakland Park"},{"latitude":" 31.60890","longitude":"-84.22310","name":" Lowe's","address":" USA-Albany"},{"latitude":" 32.74740","longitude":"-79.96890","name":" Lowe's","address":" USA-James Island"},{"latitude":" 33.91720","longitude":"-117.45210","name":" Lowe's","address":" USA-Riverside"},{"latitude":" 47.44180","longitude":"-120.31985","name":" Lowe's","address":" USA-Wenatchee"},{"latitude":" 41.90144","longitude":"-88.34075","name":" Lowe's","address":" USA-St Charles"},{"latitude":" 40.12890","longitude":"-75.45299","name":" Lowe's","address":" USA-Oaks"},{"latitude":" 29.68790","longitude":"-95.45560","name":" Lowe's","address":" USA-Meyerland"},{"latitude":" 35.20600","longitude":"-89.78530","name":" Lowe's","address":" USA-E Bartlett"},{"latitude":" 30.30649","longitude":"-97.94544","name":" Lowe's","address":" USA-Bee Cave"},{"latitude":" 31.09010","longitude":"-97.72030","name":" Lowe's","address":" USA-Killeen"},{"latitude":" 35.75994","longitude":"-78.74144","name":" Lowe's","address":" USA-Cary"},{"latitude":" 39.62762","longitude":"-79.99311","name":" Lowe's","address":" USA-S Morgantown"},{"latitude":" 32.76417","longitude":"-96.89973","name":" Lowe's","address":" USA-W Dallas"},{"latitude":" 30.52900","longitude":"-92.06760","name":" Lowe's","address":" USA-Opelousas"},{"latitude":" 30.48100","longitude":"-87.21790","name":" Lowe's","address":" USA-Pensacola"},{"latitude":" 33.50810","longitude":"-82.09240","name":" Lowe's","address":" USA-Augusta"},{"latitude":" 39.01437","longitude":"-74.88549","name":" Lowe's","address":" USA-Cape May"},{"latitude":" 28.53321","longitude":"-82.40894","name":" Lowe's","address":" USA-Brooksville"},{"latitude":" 35.29280","longitude":"-80.74260","name":" Lowe's","address":" USA-N Charlotte"},{"latitude":" 32.47230","longitude":"-95.38790","name":" Lowe's","address":" USA-Lindale"},{"latitude":" 34.31682","longitude":"-88.71394","name":" Lowe's","address":" USA-Tupelo"},{"latitude":" 39.33663","longitude":"-82.06911","name":" Lowe's","address":" USA-Athens"},{"latitude":" 41.45487","longitude":"-75.64936","name":" Lowe's","address":" USA-Scranton"},{"latitude":" 34.98465","longitude":"-81.21125","name":" Lowe's","address":" USA-York"},{"latitude":" 35.33878","longitude":"-81.89592","name":" Lowe's","address":" USA-Forest City"},{"latitude":" 36.05342","longitude":"-89.40016","name":" Lowe's","address":" USA-Dyersburg"},{"latitude":" 40.96727","longitude":"-76.00770","name":" Lowe's","address":" USA-Hazleton"},{"latitude":" 28.55503","longitude":"-80.84685","name":" Lowe's","address":" USA-Titusville"},{"latitude":" 38.72188","longitude":"-104.70328","name":" Lowe's","address":" USA-Fountain"},{"latitude":" 35.43634","longitude":"-97.40377","name":" Lowe's","address":" USA-Midwest City"},{"latitude":" 31.97990","longitude":"-81.14370","name":" Lowe's","address":" USA-S Savannah"},{"latitude":" 42.79722","longitude":"-78.74670","name":" Lowe's","address":" USA-Orchard Park"},{"latitude":" 30.68301","longitude":"-88.12650","name":" Lowe's","address":" USA-Mobile"},{"latitude":" 42.36866","longitude":"-122.85461","name":" Lowe's","address":" USA-Medford"},{"latitude":" 40.28560","longitude":"-79.38080","name":" Lowe's","address":" USA-Latrobe"},{"latitude":" 33.93102","longitude":"-84.17415","name":" Lowe's","address":" USA-Norcross"},{"latitude":" 40.41162","longitude":"-79.91044","name":" Lowe's","address":" USA-Homestead"},{"latitude":" 33.57998","longitude":"-117.72206","name":" Lowe's","address":" USA-Aliso Viejo"},{"latitude":" 36.61297","longitude":"-93.22950","name":" Lowe's","address":" USA-Branson - (Hollister)"},{"latitude":" 35.82000","longitude":"-90.67510","name":" Lowe's","address":" USA-Jonesboro"},{"latitude":" 30.08996","longitude":"-95.63636","name":" Lowe's","address":" USA-Tomball"},{"latitude":" 39.16630","longitude":"-86.57490","name":" Lowe's","address":" USA-Bloomington"},{"latitude":" 36.20615","longitude":"-83.32606","name":" Lowe's","address":" USA-Morristown"},{"latitude":" 39.02030","longitude":"-84.62360","name":" Lowe's","address":" USA-Florence"},{"latitude":" 43.60353","longitude":"-116.59662","name":" Lowe's","address":" USA-Nampa"},{"latitude":" 32.55327","longitude":"-94.34854","name":" Lowe's","address":" USA-Marshall"},{"latitude":" 38.89560","longitude":"-77.42370","name":" Lowe's","address":" USA-Chantilly"},{"latitude":" 29.73520","longitude":"-95.59055","name":" Lowe's","address":" USA-Royal Oaks"},{"latitude":" 35.17192","longitude":"-106.58040","name":" Lowe's","address":" USA-N E Albuquerque"},{"latitude":" 35.87002","longitude":"-78.71989","name":" Lowe's","address":" USA-W Raleigh"},{"latitude":" 40.67092","longitude":"-111.90189","name":" Lowe's","address":" USA-Murray"},{"latitude":" 38.16347","longitude":"-84.89765","name":" Lowe's","address":" USA-Frankfort"},{"latitude":" 40.15030","longitude":"-105.09875","name":" Lowe's","address":" USA-Longmont"},{"latitude":" 36.29091","longitude":"-95.62918","name":" Lowe's","address":" USA-Claremore"},{"latitude":" 35.39212","longitude":"-86.24014","name":" Lowe's","address":" USA-Tullahoma"},{"latitude":" 38.51039","longitude":"-90.44553","name":" Lowe's","address":" USA-Fenton"},{"latitude":" 41.67477","longitude":"-83.71084","name":" Lowe's","address":" USA-Sylvania Township"},{"latitude":" 31.65375","longitude":"-94.65851","name":" Lowe's","address":" USA-Nacogdoches"},{"latitude":" 33.60830","longitude":"-112.11860","name":" Lowe's","address":" USA-N Phoenix"},{"latitude":" 40.81789","longitude":"-77.90123","name":" Lowe's","address":" USA-State College"},{"latitude":" 40.80512","longitude":"-74.01986","name":" Lowe's","address":" USA-N Bergen"},{"latitude":" 43.90989","longitude":"-69.90747","name":" Lowe's","address":" USA-Brunswick"},{"latitude":" 29.62614","longitude":"-82.37437","name":" Lowe's","address":" USA-S W Gainesville"},{"latitude":" 35.59383","longitude":"-80.86556","name":" Lowe's","address":" USA-Mooresville"},{"latitude":" 34.78745","longitude":"-86.94384","name":" Lowe's","address":" USA-Athens"},{"latitude":" 35.14070","longitude":"-85.24850","name":" Lowe's","address":" USA-N Chattanooga"},{"latitude":" 33.30697","longitude":"-111.89174","name":" Lowe's","address":" USA-Chandler"},{"latitude":" 33.52073","longitude":"-88.41204","name":" Lowe's","address":" USA-Columbus"},{"latitude":" 41.70450","longitude":"-86.18713","name":" Lowe's","address":" USA-Mishawaka"},{"latitude":" 41.79207","longitude":"-86.24883","name":" Lowe's","address":" USA-Niles"},{"latitude":" 39.17042","longitude":"-84.42539","name":" Lowe's","address":" USA-Norwood"},{"latitude":" 38.76903","longitude":"-76.88572","name":" Lowe's","address":" USA-Clinton"},{"latitude":" 38.59255","longitude":"-90.53728","name":" Lowe's","address":" USA-Ballwin"},{"latitude":" 43.63472","longitude":"-116.35233","name":" Lowe's","address":" USA-Meridian"},{"latitude":" 28.29660","longitude":"-80.74150","name":" Lowe's","address":" USA-Rockledge"},{"latitude":" 41.92720","longitude":"-87.78649","name":" Lowe's","address":" USA-Chicago (Brickyard)"},{"latitude":" 29.81010","longitude":"-95.16640","name":" Lowe's","address":" USA-E Houston"},{"latitude":" 33.18180","longitude":"-96.89032","name":" Lowe's","address":" USA-Little Elm"},{"latitude":" 38.41690","longitude":"-82.26680","name":" Lowe's","address":" USA-Barboursville"},{"latitude":" 45.19050","longitude":"-123.21850","name":" Lowe's","address":" USA-Mcminnville"},{"latitude":" 33.86960","longitude":"-117.53930","name":" Lowe's","address":" USA-Corona"},{"latitude":" 33.19532","longitude":"-117.24771","name":" Lowe's","address":" USA-Vista"},{"latitude":" 35.79850","longitude":"-78.79388","name":" Lowe's","address":" USA-N Cary"},{"latitude":" 37.31292","longitude":"-81.13584","name":" Lowe's","address":" USA-Princeton"},{"latitude":" 47.55120","longitude":"-122.05424","name":" Lowe's","address":" USA-Issaquah"},{"latitude":" 43.48020","longitude":"-83.96260","name":" Lowe's","address":" USA-Saginaw"},{"latitude":" 33.64294","longitude":"-117.59692","name":" Lowe's","address":" USA-Rancho Santa Margarita"},{"latitude":" 34.69352","longitude":"-82.98364","name":" Lowe's","address":" USA-Seneca"},{"latitude":" 33.19602","longitude":"-97.09029","name":" Lowe's","address":" USA-Denton"},{"latitude":" 39.82068","longitude":"-84.28669","name":" Lowe's","address":" USA-Dayton - Trotwood"},{"latitude":" 32.83040","longitude":"-79.83170","name":" Lowe's","address":" USA-Mt Pleasant"},{"latitude":" 32.82505","longitude":"-96.62149","name":" Lowe's","address":" USA-Mesquite"},{"latitude":" 34.96476","longitude":"-89.99363","name":" Lowe's","address":" USA-Southaven"},{"latitude":" 35.87522","longitude":"-83.57172","name":" Lowe's","address":" USA-Sevierville"},{"latitude":" 42.99980","longitude":"-83.77290","name":" Lowe's","address":" USA-Flint"},{"latitude":" 33.23172","longitude":"-86.80159","name":" Lowe's","address":" USA-Alabaster"},{"latitude":" 40.41770","longitude":"-75.34350","name":" Lowe's","address":" USA-Quakertown"},{"latitude":" 33.71030","longitude":"-78.89530","name":" Lowe's","address":" USA-Myrtle Beach"},{"latitude":" 42.00152","longitude":"-93.61024","name":" Lowe's","address":" USA-Ames"},{"latitude":" 32.35922","longitude":"-88.67794","name":" Lowe's","address":" USA-Meridian"},{"latitude":" 42.16396","longitude":"-71.50722","name":" Lowe's","address":" USA-Milford"},{"latitude":" 36.18380","longitude":"-80.27460","name":" Lowe's","address":" USA-N Winston"},{"latitude":" 33.46160","longitude":"-112.34350","name":" Lowe's","address":" USA-Goodyear"},{"latitude":" 40.62212","longitude":"-79.19354","name":" Lowe's","address":" USA-Indiana"},{"latitude":" 40.27431","longitude":"-111.69858","name":" Lowe's","address":" USA-Orem"},{"latitude":" 27.25110","longitude":"-80.27770","name":" Lowe's","address":" USA-Jensen Beach"},{"latitude":" 39.35382","longitude":"-82.97594","name":" Lowe's","address":" USA-Chillicothe"},{"latitude":" 47.72009","longitude":"-122.34416","name":" Lowe's","address":" USA-N Seattle"},{"latitude":" 38.23178","longitude":"-77.50495","name":" Lowe's","address":" USA-Spotsylvania County"},{"latitude":" 27.55960","longitude":"-99.50180","name":" Lowe's","address":" USA-Laredo"},{"latitude":" 40.62719","longitude":"-74.16269","name":" Lowe's","address":" USA-N W Staten Island"},{"latitude":" 42.62817","longitude":"-88.61293","name":" Lowe's","address":" USA-Delavan"},{"latitude":" 48.24130","longitude":"-114.33080","name":" Lowe's","address":" USA-Kalispell"},{"latitude":" 42.51577","longitude":"-83.61543","name":" Lowe's","address":" USA-Lyon Township"},{"latitude":" 37.80530","longitude":"-79.40607","name":" Lowe's","address":" USA-Lexington"},{"latitude":" 28.82513","longitude":"-81.64499","name":" Lowe's","address":" USA-Mount Dora"},{"latitude":" 33.74254","longitude":"-117.00421","name":" Lowe's","address":" USA-Hemet"},{"latitude":" 39.77286","longitude":"-84.04878","name":" Lowe's","address":" USA-Beaver Creek"},{"latitude":" 40.39983","longitude":"-82.45215","name":" Lowe's","address":" USA-Mount Vernon"},{"latitude":" 38.02200","longitude":"-121.27000","name":" Lowe's","address":" USA-E Stockton"},{"latitude":" 40.43835","longitude":"-79.76354","name":" Lowe's","address":" USA-Monroeville"},{"latitude":" 33.94660","longitude":"-84.62400","name":" Lowe's","address":" USA-W Marietta"},{"latitude":" 41.29158","longitude":"-96.14299","name":" Lowe's","address":" USA-N W Omaha"},{"latitude":" 36.07003","longitude":"-86.72318","name":" Lowe's","address":" USA-Nashville"},{"latitude":" 39.73691","longitude":"-82.62922","name":" Lowe's","address":" USA-Lancaster"},{"latitude":" 39.38260","longitude":"-77.40460","name":" Lowe's","address":" USA-Frederick"},{"latitude":" 39.02652","longitude":"-77.42645","name":" Lowe's","address":" USA-Sterling"},{"latitude":" 32.13695","longitude":"-94.79670","name":" Lowe's","address":" USA-Henderson"},{"latitude":" 33.63660","longitude":"-111.92309","name":" Lowe's","address":" USA-Scottsdale"},{"latitude":" 36.04137","longitude":"-78.89745","name":" Lowe's","address":" USA-N Durham"},{"latitude":" 35.52004","longitude":"-86.45319","name":" Lowe's","address":" USA-Shelbyville"},{"latitude":" 40.05750","longitude":"-74.15820","name":" Lowe's","address":" USA-Brick Twp"},{"latitude":" 35.27234","longitude":"-82.70325","name":" Lowe's","address":" USA-Brevard"},{"latitude":" 40.33272","longitude":"-83.76144","name":" Lowe's","address":" USA-Bellefontaine"},{"latitude":" 41.67252","longitude":"-86.89344","name":" Lowe's","address":" USA-Michigan City"},{"latitude":" 31.27340","longitude":"-92.45980","name":" Lowe's","address":" USA-Alexandria"},{"latitude":" 35.81442","longitude":"-80.88004","name":" Lowe's","address":" USA-Statesville"},{"latitude":" 40.35410","longitude":"-74.30810","name":" Lowe's","address":" USA-Marlboro"},{"latitude":" 32.85860","longitude":"-97.18375","name":" Lowe's","address":" USA-Hurst"},{"latitude":" 34.15660","longitude":"-77.90060","name":" Lowe's","address":" USA-S Wilmington"},{"latitude":" 32.75320","longitude":"-97.43310","name":" Lowe's","address":" USA-White Settlement"},{"latitude":" 33.81519","longitude":"-116.49236","name":" Lowe's","address":" USA-Palm Springs"},{"latitude":" 30.61990","longitude":"-81.51900","name":" Lowe's","address":" USA-Fernandina Beach"},{"latitude":" 39.44652","longitude":"-83.82804","name":" Lowe's","address":" USA-Wilmington"},{"latitude":" 35.21040","longitude":"-80.69131","name":" Lowe's","address":" USA-E Charlotte"},{"latitude":" 39.96340","longitude":"-105.16696","name":" Lowe's","address":" USA-Louisville"},{"latitude":" 41.79700","longitude":"-71.44260","name":" Lowe's","address":" USA-Cranston"},{"latitude":" 34.08390","longitude":"-84.53870","name":" Lowe's","address":" USA-Woodstock"},{"latitude":" 30.40992","longitude":"-97.67582","name":" Lowe's","address":" USA-N E Austin"},{"latitude":" 36.54863","longitude":"-82.49953","name":" Lowe's","address":" USA-Kingsport"},{"latitude":" 41.02778","longitude":"-80.63399","name":" Lowe's","address":" USA-Boardman"},{"latitude":" 42.61463","longitude":"-83.30984","name":" Lowe's","address":" USA-Bloomfield"},{"latitude":" 47.72117","longitude":"-117.40947","name":" Lowe's","address":" USA-Spokane"},{"latitude":" 47.16714","longitude":"-122.50703","name":" Lowe's","address":" USA-Lakewood"},{"latitude":" 40.30610","longitude":"-78.83040","name":" Lowe's","address":" USA-Johnstown"},{"latitude":" 40.57802","longitude":"-77.62241","name":" Lowe's","address":" USA-Lewistown"},{"latitude":" 28.91220","longitude":"-81.29080","name":" Lowe's","address":" USA-Orange City"},{"latitude":" 34.76010","longitude":"-79.47988","name":" Lowe's","address":" USA-Laurinburg"},{"latitude":" 31.19762","longitude":"-82.32124","name":" Lowe's","address":" USA-Waycross"},{"latitude":" 29.61008","longitude":"-90.74923","name":" Lowe's","address":" USA-Houma"},{"latitude":" 29.65709","longitude":"-81.67197","name":" Lowe's","address":" USA-Palatka"},{"latitude":" 40.58152","longitude":"-83.07921","name":" Lowe's","address":" USA-Marion"},{"latitude":" 37.08442","longitude":"-88.66014","name":" Lowe's","address":" USA-Paducah"},{"latitude":" 42.01091","longitude":"-87.71946","name":" Lowe's","address":" USA-Lincolnwood"},{"latitude":" 34.26400","longitude":"-119.24870","name":" Lowe's","address":" USA-C Ventura"},{"latitude":" 34.03930","longitude":"-84.31490","name":" Lowe's","address":" USA-Alpharetta"},{"latitude":" 41.13958","longitude":"-81.63933","name":" Lowe's","address":" USA-Fairlawn"},{"latitude":" 33.85368","longitude":"-84.60258","name":" Lowe's","address":" USA-Austell"},{"latitude":" 40.81452","longitude":"-91.15054","name":" Lowe's","address":" USA-Burlington"},{"latitude":" 38.12982","longitude":"-79.03824","name":" Lowe's","address":" USA-Staunton"},{"latitude":" 33.91680","longitude":"-117.96810","name":" Lowe's","address":" USA-La Habra"},{"latitude":" 28.27239","longitude":"-82.19011","name":" Lowe's","address":" USA-Zephryhills"},{"latitude":" 28.95771","longitude":"-81.96127","name":" Lowe's","address":" USA-Lady Lake"},{"latitude":" 33.88510","longitude":"-84.01130","name":" Lowe's","address":" USA-Snellville"},{"latitude":" 34.89247","longitude":"-82.40669","name":" Lowe's","address":" USA-N W Greenville"},{"latitude":" 39.21253","longitude":"-81.54507","name":" Lowe's","address":" USA-S Parkersburg"},{"latitude":" 42.88079","longitude":"-85.77362","name":" Lowe's","address":" USA-Grandville"},{"latitude":" 41.90610","longitude":"-71.03140","name":" Lowe's","address":" USA-Raynham"},{"latitude":" 37.69401","longitude":"-121.74373","name":" Lowe's","address":" USA-Livermore"},{"latitude":" 40.90233","longitude":"-81.15611","name":" Lowe's","address":" USA-Alliance"},{"latitude":" 39.68487","longitude":"-104.86735","name":" Lowe's","address":" USA-Aurora"},{"latitude":" 33.52050","longitude":"-81.71600","name":" Lowe's","address":" USA-Aiken"},{"latitude":" 33.72331","longitude":"-117.78517","name":" Lowe's","address":" USA-Irvine"},{"latitude":" 35.20152","longitude":"-84.84984","name":" Lowe's","address":" USA-Cleveland"},{"latitude":" 35.59592","longitude":"-87.05744","name":" Lowe's","address":" USA-Columbia"},{"latitude":" 38.48570","longitude":"-77.97134","name":" Lowe's","address":" USA-Culpeper"},{"latitude":" 41.80850","longitude":"-72.55420","name":" Lowe's","address":" USA-Manchester"},{"latitude":" 32.67009","longitude":"-114.62376","name":" Lowe's","address":" USA-Yuma"},{"latitude":" 30.04320","longitude":"-95.25294","name":" Lowe's","address":" USA-Kingwood"},{"latitude":" 36.06759","longitude":"-79.30100","name":" Lowe's","address":" USA-Mebane"},{"latitude":" 33.91410","longitude":"-83.45110","name":" Lowe's","address":" USA-Athens"},{"latitude":" 34.22040","longitude":"-118.60650","name":" Lowe's","address":" USA-West Hills"},{"latitude":" 28.03416","longitude":"-82.64746","name":" Lowe's","address":" USA-Oldsmar"},{"latitude":" 28.49910","longitude":"-82.59090","name":" Lowe's","address":" USA-Spring Hill"},{"latitude":" 39.49199","longitude":"-84.33085","name":" Lowe's","address":" USA-Middletown"},{"latitude":" 31.31542","longitude":"-94.70964","name":" Lowe's","address":" USA-Lufkin"},{"latitude":" 41.68153","longitude":"-71.49898","name":" Lowe's","address":" USA-Warwick"},{"latitude":" 30.65880","longitude":"-96.32670","name":" Lowe's","address":" USA-Bryan"},{"latitude":" 30.14045","longitude":"-96.39804","name":" Lowe's","address":" USA-Brenham"},{"latitude":" 38.31235","longitude":"-88.95832","name":" Lowe's","address":" USA-Mt Vernon"},{"latitude":" 32.62050","longitude":"-85.40260","name":" Lowe's","address":" USA-Opelika"},{"latitude":" 35.16629","longitude":"-83.39342","name":" Lowe's","address":" USA-Franklin"},{"latitude":" 43.04110","longitude":"-85.61110","name":" Lowe's","address":" USA-N E Grand Rapids"},{"latitude":" 28.07764","longitude":"-80.67356","name":" Lowe's","address":" USA-Melbourne"},{"latitude":" 33.54942","longitude":"-84.27669","name":" Lowe's","address":" USA-Stockbridge"},{"latitude":" 40.87341","longitude":"-81.43411","name":" Lowe's","address":" USA-Canton"},{"latitude":" 40.44010","longitude":"-86.12710","name":" Lowe's","address":" USA-Kokomo"},{"latitude":" 42.14780","longitude":"-72.48960","name":" Lowe's","address":" USA-E Springfield"},{"latitude":" 39.21094","longitude":"-85.87964","name":" Lowe's","address":" USA-Columbus"},{"latitude":" 27.85456","longitude":"-82.32902","name":" Lowe's","address":" USA-Riverview"},{"latitude":" 30.29450","longitude":"-92.02190","name":" Lowe's","address":" USA-N Lafayette"},{"latitude":" 40.18623","longitude":"-87.62956","name":" Lowe's","address":" USA-Danville"},{"latitude":" 36.57570","longitude":"-87.30250","name":" Lowe's","address":" USA-Clarksville"},{"latitude":" 38.05572","longitude":"-121.37434","name":" Lowe's","address":" USA-N Stockton"},{"latitude":" 41.79943","longitude":"-71.32947","name":" Lowe's","address":" USA-Seekonk"},{"latitude":" 34.77318","longitude":"-86.58746","name":" Lowe's","address":" USA-N Huntsville"},{"latitude":" 38.91860","longitude":"-90.16690","name":" Lowe's","address":" USA-Alton"},{"latitude":" 37.97860","longitude":"-84.53380","name":" Lowe's","address":" USA-S Lexington"},{"latitude":" 35.04216","longitude":"-85.67923","name":" Lowe's","address":" USA-Kimball"},{"latitude":" 39.73310","longitude":"-75.03940","name":" Lowe's","address":" USA-Turnersville"},{"latitude":" 39.03620","longitude":"-95.76480","name":" Lowe's","address":" USA-Topeka"},{"latitude":" 39.01028","longitude":"-94.77469","name":" Lowe's","address":" USA-Shawnee"},{"latitude":" 41.07565","longitude":"-74.73991","name":" Lowe's","address":" USA-Hampton Twp"},{"latitude":" 42.48990","longitude":"-90.73310","name":" Lowe's","address":" USA-Dubuque"},{"latitude":" 34.11432","longitude":"-80.88649","name":" Lowe's","address":" USA-Richland County"},{"latitude":" 40.32002","longitude":"-76.56389","name":" Lowe's","address":" USA-Palmyra"},{"latitude":" 37.96486","longitude":"-91.76440","name":" Lowe's","address":" USA-Rolla"},{"latitude":" 43.59139","longitude":"-116.27897","name":" Lowe's","address":" USA-Boise"},{"latitude":" 37.70250","longitude":"-121.06640","name":" Lowe's","address":" USA-Modesto"},{"latitude":" 30.21881","longitude":"-97.82898","name":" Lowe's","address":" USA-S W Austin (Sunset Valley)"},{"latitude":" 28.44880","longitude":"-81.42340","name":" Lowe's","address":" USA-S Orlando"},{"latitude":" 29.88010","longitude":"-97.92900","name":" Lowe's","address":" USA-San Marcos"},{"latitude":" 41.88040","longitude":"-80.76600","name":" Lowe's","address":" USA-Ashtabula"},{"latitude":" 39.92039","longitude":"-75.14155","name":" Lowe's","address":" USA-S Philadelphia"},{"latitude":" 42.45402","longitude":"-96.33322","name":" Lowe's","address":" USA-Sioux City"},{"latitude":" 42.44850","longitude":"-82.93010","name":" Lowe's","address":" USA-Harper Woods"},{"latitude":" 37.66603","longitude":"-92.64907","name":" Lowe's","address":" USA-Lebanon"},{"latitude":" 33.40972","longitude":"-82.02586","name":" Lowe's","address":" USA-S W Augusta"},{"latitude":" 29.98347","longitude":"-90.05600","name":" Lowe's","address":" USA-Central New Orleans"},{"latitude":" 34.42710","longitude":"-118.53610","name":" Lowe's","address":" USA-Santa Clarita"},{"latitude":" 33.83020","longitude":"-118.08750","name":" Lowe's","address":" USA-Long Beach"},{"latitude":" 36.13076","longitude":"-94.14299","name":" Lowe's","address":" USA-Fayetteville"},{"latitude":" 32.42189","longitude":"-96.83305","name":" Lowe's","address":" USA-Waxahachie"},{"latitude":" 38.99868","longitude":"-80.23396","name":" Lowe's","address":" USA-Buckhannon"},{"latitude":" 36.01321","longitude":"-106.06564","name":" Lowe's","address":" USA-Espanola"},{"latitude":" 42.25079","longitude":"-71.17146","name":" Lowe's","address":" USA-Dedham"},{"latitude":" 31.71069","longitude":"-89.14987","name":" Lowe's","address":" USA-Laurel"},{"latitude":" 41.62700","longitude":"-81.42780","name":" Lowe's","address":" USA-Willoughby"},{"latitude":" 35.48440","longitude":"-97.76220","name":" Lowe's","address":" USA-Yukon"},{"latitude":" 40.87760","longitude":"-79.95247","name":" Lowe's","address":" USA-Butler"},{"latitude":" 39.63760","longitude":"-86.11907","name":" Lowe's","address":" USA-S Indianapolis"},{"latitude":" 26.00980","longitude":"-80.24870","name":" Lowe's","address":" USA-Pembroke Pines"},{"latitude":" 45.52936","longitude":"-122.43306","name":" Lowe's","address":" USA-Wood Village"},{"latitude":" 41.16250","longitude":"-87.85120","name":" Lowe's","address":" USA-Kankakee"},{"latitude":" 29.98660","longitude":"-91.85694","name":" Lowe's","address":" USA-New Iberia"},{"latitude":" 35.70242","longitude":"-85.78269","name":" Lowe's","address":" USA-Mcminnville"},{"latitude":" 26.25537","longitude":"-80.10097","name":" Lowe's","address":" USA-Pompano Beach"},{"latitude":" 36.13289","longitude":"-86.90652","name":" Lowe's","address":" USA-W Nashville"},{"latitude":" 38.20867","longitude":"-85.26467","name":" Lowe's","address":" USA-Shelbyville"},{"latitude":" 42.81980","longitude":"-86.09350","name":" Lowe's","address":" USA-Holland"},{"latitude":" 42.58570","longitude":"-114.45757","name":" Lowe's","address":" USA-Twin Falls"},{"latitude":" 36.06230","longitude":"-95.76720","name":" Lowe's","address":" USA-Broken Arrow"},{"latitude":" 33.47100","longitude":"-84.44444","name":" Lowe's","address":" USA-Fayetteville"},{"latitude":" 40.55080","longitude":"-74.29480","name":" Lowe's","address":" USA-Woodbridge"},{"latitude":" 46.83102","longitude":"-100.81300","name":" Lowe's","address":" USA-Bismarck"},{"latitude":" 39.99207","longitude":"-82.02880","name":" Lowe's","address":" USA-Zanesville"},{"latitude":" 39.12680","longitude":"-77.23940","name":" Lowe's","address":" USA-Gaithersburg"},{"latitude":" 35.84556","longitude":"-78.58177","name":" Lowe's","address":" USA-N Raleigh"},{"latitude":" 40.03246","longitude":"-85.99287","name":" Lowe's","address":" USA-Noblesville"},{"latitude":" 35.09814","longitude":"-84.01654","name":" Lowe's","address":" USA-Murphy"},{"latitude":" 41.25830","longitude":"-76.91840","name":" Lowe's","address":" USA-Montoursville"},{"latitude":" 43.22831","longitude":"-75.49155","name":" Lowe's","address":" USA-Rome"},{"latitude":" 34.71130","longitude":"-82.25010","name":" Lowe's","address":" USA-Simpsonville"},{"latitude":" 38.79727","longitude":"-77.60013","name":" Lowe's","address":" USA-Gainesville"},{"latitude":" 41.24294","longitude":"-75.84098","name":" Lowe's","address":" USA-Wilkes - Barre"},{"latitude":" 38.30256","longitude":"-76.52000","name":" Lowe's","address":" USA-St Mary's County"},{"latitude":" 38.00470","longitude":"-121.83070","name":" Lowe's","address":" USA-Antioch"},{"latitude":" 32.32922","longitude":"-96.11287","name":" Lowe's","address":" USA-Gun Barrel City"},{"latitude":" 38.77718","longitude":"-93.73703","name":" Lowe's","address":" USA-Warrensburg"},{"latitude":" 29.94194","longitude":"-93.99331","name":" Lowe's","address":" USA-Port Arthur"},{"latitude":" 44.11110","longitude":"-103.22150","name":" Lowe's","address":" USA-Rapid City"},{"latitude":" 34.08000","longitude":"-81.15090","name":" Lowe's","address":" USA-Irmo"},{"latitude":" 43.01700","longitude":"-83.62650","name":" Lowe's","address":" USA-Burton"},{"latitude":" 39.44670","longitude":"-77.98490","name":" Lowe's","address":" USA-Martinsburg"},{"latitude":" 35.98570","longitude":"-86.55290","name":" Lowe's","address":" USA-Smyrna"},{"latitude":" 34.78820","longitude":"-92.21790","name":" Lowe's","address":" USA-N Little Rock"},{"latitude":" 34.16890","longitude":"-79.77290","name":" Lowe's","address":" USA-S Florence"},{"latitude":" 39.94260","longitude":"-74.97470","name":" Lowe's","address":" USA-Maple Shade"},{"latitude":" 31.32041","longitude":"-89.37447","name":" Lowe's","address":" USA-Hattiesburg"},{"latitude":" 33.21095","longitude":"-97.58013","name":" Lowe's","address":" USA-Decatur"},{"latitude":" 43.14838","longitude":"-76.12552","name":" Lowe's","address":" USA-Cicero"},{"latitude":" 27.44456","longitude":"-82.46303","name":" Lowe's","address":" USA-Bradenton"},{"latitude":" 36.95252","longitude":"-86.43424","name":" Lowe's","address":" USA-Bowling Green"},{"latitude":" 36.06460","longitude":"-80.31320","name":" Lowe's","address":" USA-Winston West"},{"latitude":" 33.46687","longitude":"-112.22282","name":" Lowe's","address":" USA-W Phoenix"},{"latitude":" 35.60679","longitude":"-97.55604","name":" Lowe's","address":" USA-N Oklahoma City"},{"latitude":" 40.97722","longitude":"-90.37784","name":" Lowe's","address":" USA-Galesburg"},{"latitude":" 33.13644","longitude":"-117.17598","name":" Lowe's","address":" USA-San Marcos"},{"latitude":" 36.75020","longitude":"-76.58186","name":" Lowe's","address":" USA-Suffolk"},{"latitude":" 37.57845","longitude":"-97.27654","name":" Lowe's","address":" USA-Derby"},{"latitude":" 37.43503","longitude":"-79.12455","name":" Lowe's","address":" USA-Madison Heights (N Lynchburg)"},{"latitude":" 40.65311","longitude":"-75.28577","name":" Lowe's","address":" USA-Easton"},{"latitude":" 43.04284","longitude":"-76.27101","name":" Lowe's","address":" USA-Camillus"},{"latitude":" 27.70158","longitude":"-97.36133","name":" Lowe's","address":" USA-Corpus Christi"},{"latitude":" 36.96622","longitude":"-84.10364","name":" Lowe's","address":" USA-Corbin"},{"latitude":" 34.18805","longitude":"-79.81996","name":" Lowe's","address":" USA-Florence"},{"latitude":" 36.29417","longitude":"-95.83639","name":" Lowe's","address":" USA-Owasso"},{"latitude":" 41.66400","longitude":"-72.71930","name":" Lowe's","address":" USA-Newington"},{"latitude":" 39.76275","longitude":"-89.71383","name":" Lowe's","address":" USA-Springfield"},{"latitude":" 42.01550","longitude":"-71.48120","name":" Lowe's","address":" USA-Woonsocket"},{"latitude":" 45.01830","longitude":"-93.48200","name":" Lowe's","address":" USA-Plymouth"},{"latitude":" 43.03500","longitude":"-82.45621","name":" Lowe's","address":" USA-Ft Gratiot"},{"latitude":" 28.85661","longitude":"-82.39487","name":" Lowe's","address":" USA-Inverness"},{"latitude":" 34.66696","longitude":"-79.00572","name":" Lowe's","address":" USA-Lumberton"},{"latitude":" 42.24420","longitude":"-85.59080","name":" Lowe's","address":" USA-Portage"},{"latitude":" 36.28411","longitude":"-88.30486","name":" Lowe's","address":" USA-Paris"},{"latitude":" 42.58556","longitude":"-83.87647","name":" Lowe's","address":" USA-Howell"},{"latitude":" 40.14030","longitude":"-79.84270","name":" Lowe's","address":" USA-Belle Vernon"},{"latitude":" 39.63790","longitude":"-104.79140","name":" Lowe's","address":" USA-S E Aurora"},{"latitude":" 34.55260","longitude":"-82.68820","name":" Lowe's","address":" USA-Anderson"},{"latitude":" 39.93440","longitude":"-91.32050","name":" Lowe's","address":" USA-Quincy"},{"latitude":" 31.44442","longitude":"-83.54514","name":" Lowe's","address":" USA-Tifton"},{"latitude":" 36.10130","longitude":"-115.30110","name":" Lowe's","address":" USA-W Spring Valley"},{"latitude":" 35.94590","longitude":"-79.01260","name":" Lowe's","address":" USA-Chapel Hill"},{"latitude":" 32.64368","longitude":"-96.85531","name":" Lowe's","address":" USA-S W Dallas"},{"latitude":" 34.88691","longitude":"-92.10442","name":" Lowe's","address":" USA-Jacksonville"},{"latitude":" 39.91750","longitude":"-83.11917","name":" Lowe's","address":" USA-S W Columbus"},{"latitude":" 38.03393","longitude":"-81.12024","name":" Lowe's","address":" USA-Fayetteville"},{"latitude":" 35.55074","longitude":"-88.81098","name":" Lowe's","address":" USA-S Jackson"},{"latitude":" 38.61943","longitude":"-90.33425","name":" Lowe's","address":" USA-Maplewood"},{"latitude":" 41.01482","longitude":"-80.39934","name":" Lowe's","address":" USA-New Castle (Union Twp)"},{"latitude":" 39.92150","longitude":"-88.95460","name":" Lowe's","address":" USA-Decatur"},{"latitude":" 30.39945","longitude":"-89.08707","name":" Lowe's","address":" USA-Gulfport"},{"latitude":" 31.43080","longitude":"-100.50620","name":" Lowe's","address":" USA-San Angelo"},{"latitude":" 61.18181","longitude":"-149.87825","name":" Lowe's","address":" USA-Anchorage"},{"latitude":" 33.39650","longitude":"-84.74910","name":" Lowe's","address":" USA-Newnan"},{"latitude":" 37.06722","longitude":"-84.62094","name":" Lowe's","address":" USA-Somerset"},{"latitude":" 39.28720","longitude":"-76.73601","name":" Lowe's","address":" USA-Catonsville"},{"latitude":" 40.83002","longitude":"-76.84264","name":" Lowe's","address":" USA-Sunbury"},{"latitude":" 35.33039","longitude":"-82.45042","name":" Lowe's","address":" USA-Hendersonville"},{"latitude":" 39.06790","longitude":"-84.29630","name":" Lowe's","address":" USA-S E Cincinnati (Withamsville)"},{"latitude":" 40.10310","longitude":"-75.29440","name":" Lowe's","address":" USA-Plymouth Meeting"},{"latitude":" 40.40646","longitude":"-105.03801","name":" Lowe's","address":" USA-Loveland"},{"latitude":" 42.27052","longitude":"-88.97781","name":" Lowe's","address":" USA-Rockford"},{"latitude":" 35.11934","longitude":"-89.79697","name":" Lowe's","address":" USA-Germantown Parkway"},{"latitude":" 47.23519","longitude":"-122.50320","name":" Lowe's","address":" USA-Tacoma"},{"latitude":" 33.53231","longitude":"-117.14814","name":" Lowe's","address":" USA-Temecula"},{"latitude":" 36.23893","longitude":"-115.22625","name":" Lowe's","address":" USA-N W Las Vegas"},{"latitude":" 31.12263","longitude":"-93.27149","name":" Lowe's","address":" USA-Leesville"},{"latitude":" 43.09131","longitude":"-87.98436","name":" Lowe's","address":" USA-C Milwaukee"},{"latitude":" 40.88500","longitude":"-74.70100","name":" Lowe's","address":" USA-Mt Olive"},{"latitude":" 42.42881","longitude":"-76.50946","name":" Lowe's","address":" USA-Ithaca"},{"latitude":" 30.46172","longitude":"-91.09384","name":" Lowe's","address":" USA-N Baton Rouge"},{"latitude":" 31.86153","longitude":"-106.57317","name":" Lowe's","address":" USA-W El Paso"},{"latitude":" 35.32233","longitude":"-78.63743","name":" Lowe's","address":" USA-Erwin (Dunn)"},{"latitude":" 36.10656","longitude":"-80.10288","name":" Lowe's","address":" USA-Kernersville"},{"latitude":" 39.85966","longitude":"-105.05957","name":" Lowe's","address":" USA-Westminster"},{"latitude":" 42.18180","longitude":"-88.33565","name":" Lowe's","address":" USA-Lake In The Hills"},{"latitude":" 42.26060","longitude":"-85.17420","name":" Lowe's","address":" USA-Battle Creek"},{"latitude":" 43.65760","longitude":"-84.24850","name":" Lowe's","address":" USA-Midland"},{"latitude":" 39.94027","longitude":"-104.99105","name":" Lowe's","address":" USA-N Westminster"},{"latitude":" 42.74064","longitude":"-84.67168","name":" Lowe's","address":" USA-W Lansing"},{"latitude":" 36.19310","longitude":"-86.61979","name":" Lowe's","address":" USA-Hermitage"},{"latitude":" 44.10914","longitude":"-121.29720","name":" Lowe's","address":" USA-Bend"},{"latitude":" 39.88191","longitude":"-83.00434","name":" Lowe's","address":" USA-S Columbus"},{"latitude":" 40.29830","longitude":"-74.05699","name":" Lowe's","address":" USA-Eatontown"},{"latitude":" 40.61690","longitude":"-111.98110","name":" Lowe's","address":" USA-W Jordan"},{"latitude":" 36.04942","longitude":"-94.20500","name":" Lowe's","address":" USA-S Fayetteville"},{"latitude":" 38.11711","longitude":"-121.30805","name":" Lowe's","address":" USA-Lodi"},{"latitude":" 39.77888","longitude":"-86.26592","name":" Lowe's","address":" USA-W Indianapolis"},{"latitude":" 32.78252","longitude":"-117.12630","name":" Lowe's","address":" USA-Mission Valley"},{"latitude":" 34.29142","longitude":"-83.84654","name":" Lowe's","address":" USA-Gainesville"},{"latitude":" 36.39040","longitude":"-97.94350","name":" Lowe's","address":" USA-Enid"},{"latitude":" 37.29627","longitude":"-89.58177","name":" Lowe's","address":" USA-Cape Girardeau"},{"latitude":" 34.74112","longitude":"-76.82324","name":" Lowe's","address":" USA-Morehead City"},{"latitude":" 19.64662","longitude":"-155.99094","name":" Lowe's","address":" USA-Kona"},{"latitude":" 27.83987","longitude":"-82.73731","name":" Lowe's","address":" USA-Pinellas Park"},{"latitude":" 33.07115","longitude":"-97.08180","name":" Lowe's","address":" USA-Flower Mound"},{"latitude":" 39.50591","longitude":"-86.06851","name":" Lowe's","address":" USA-Franklin"},{"latitude":" 39.71560","longitude":"-121.79750","name":" Lowe's","address":" USA-Chico"},{"latitude":" 34.30133","longitude":"-86.26731","name":" Lowe's","address":" USA-Guntersville"},{"latitude":" 39.74092","longitude":"-77.53557","name":" Lowe's","address":" USA-Waynesboro"},{"latitude":" 39.76170","longitude":"-86.38240","name":" Lowe's","address":" USA-Avon"},{"latitude":" 47.82010","longitude":"-122.27550","name":" Lowe's","address":" USA-Lynnwood"},{"latitude":" 43.21280","longitude":"-77.47200","name":" Lowe's","address":" USA-Webster"},{"latitude":" 40.02670","longitude":"-82.44240","name":" Lowe's","address":" USA-Heath"},{"latitude":" 39.83230","longitude":"-75.10510","name":" Lowe's","address":" USA-Deptford"},{"latitude":" 40.39537","longitude":"-104.75424","name":" Lowe's","address":" USA-Greeley"},{"latitude":" 33.17189","longitude":"-94.99868","name":" Lowe's","address":" USA-Mt Pleasant"},{"latitude":" 40.82541","longitude":"-72.99742","name":" Lowe's","address":" USA-Medford"},{"latitude":" 35.57790","longitude":"-82.52090","name":" Lowe's","address":" USA-E Asheville"},{"latitude":" 41.50604","longitude":"-87.91758","name":" Lowe's","address":" USA-New Lenox"},{"latitude":" 33.65010","longitude":"-78.98140","name":" Lowe's","address":" USA-S Myrtle Beach"},{"latitude":" 41.01125","longitude":"-76.48731","name":" Lowe's","address":" USA-Bloomsburg"},{"latitude":" 35.03511","longitude":"-85.15003","name":" Lowe's","address":" USA-Chattanooga"},{"latitude":" 36.43449","longitude":"-77.63738","name":" Lowe's","address":" USA-Roanoke Rapids"},{"latitude":" 39.64507","longitude":"-84.10915","name":" Lowe's","address":" USA-Wilmington Pike"},{"latitude":" 39.92642","longitude":"-77.62534","name":" Lowe's","address":" USA-Chambersburg"},{"latitude":" 32.43282","longitude":"-97.78344","name":" Lowe's","address":" USA-Granbury"},{"latitude":" 39.90250","longitude":"-79.75540","name":" Lowe's","address":" USA-Uniontown"},{"latitude":" 30.16840","longitude":"-81.60380","name":" Lowe's","address":" USA-S Jacksonville"},{"latitude":" 38.79040","longitude":"-77.51480","name":" Lowe's","address":" USA-N Manassas"},{"latitude":" 35.74560","longitude":"-78.87710","name":" Lowe's","address":" USA-Apex"},{"latitude":" 39.25970","longitude":"-84.59970","name":" Lowe's","address":" USA-N W Cincinnati"},{"latitude":" 29.78571","longitude":"-95.53075","name":" Lowe's","address":" USA-Bunker Hill"},{"latitude":" 30.16487","longitude":"-81.74593","name":" Lowe's","address":" USA-Orange Park"},{"latitude":" 39.24600","longitude":"-94.45060","name":" Lowe's","address":" USA-Liberty"},{"latitude":" 36.59799","longitude":"-79.42325","name":" Lowe's","address":" USA-Danville"},{"latitude":" 38.66637","longitude":"-90.60187","name":" Lowe's","address":" USA-Chesterfield"},{"latitude":" 42.09009","longitude":"-71.04768","name":" Lowe's","address":" USA-Brockton"},{"latitude":" 35.93041","longitude":"-89.86642","name":" Lowe's","address":" USA-Blytheville"},{"latitude":" 34.76319","longitude":"-84.99501","name":" Lowe's","address":" USA-Dalton"},{"latitude":" 43.67423","longitude":"-70.32313","name":" Lowe's","address":" USA-Portland"},{"latitude":" 39.83145","longitude":"-84.81950","name":" Lowe's","address":" USA-Richmond"},{"latitude":" 37.12640","longitude":"-76.51220","name":" Lowe's","address":" USA-Newport News"},{"latitude":" 35.11780","longitude":"-106.51430","name":" Lowe's","address":" USA-E Albuquerque"},{"latitude":" 27.90320","longitude":"-82.50520","name":" Lowe's","address":" USA-S Tampa"},{"latitude":" 40.01353","longitude":"-82.99460","name":" Lowe's","address":" USA-C Columbus"},{"latitude":" 27.95981","longitude":"-82.72910","name":" Lowe's","address":" USA-S Clearwater"},{"latitude":" 44.69633","longitude":"-73.49129","name":" Lowe's","address":" USA-Plattsburgh"},{"latitude":" 40.05519","longitude":"-82.91893","name":" Lowe's","address":" USA-N E Columbus"},{"latitude":" 33.77031","longitude":"-117.99281","name":" Lowe's","address":" USA-Westminster"},{"latitude":" 36.02916","longitude":"-83.87392","name":" Lowe's","address":" USA-E Knoxville"},{"latitude":" 33.85481","longitude":"-117.91686","name":" Lowe's","address":" USA-Anaheim"},{"latitude":" 32.83904","longitude":"-116.99281","name":" Lowe's","address":" USA-Santee"},{"latitude":" 34.10850","longitude":"-117.81690","name":" Lowe's","address":" USA-San Dimas"},{"latitude":" 37.96238","longitude":"-121.74797","name":" Lowe's","address":" USA-S Antioch"},{"latitude":" 38.21177","longitude":"-90.40680","name":" Lowe's","address":" USA-Festus"},{"latitude":" 38.41430","longitude":"-81.80210","name":" Lowe's","address":" USA-Nitro"},{"latitude":" 32.98629","longitude":"-96.90258","name":" Lowe's","address":" USA-Carrollton"},{"latitude":" 36.13870","longitude":"-85.49519","name":" Lowe's","address":" USA-Cookeville"},{"latitude":" 39.94415","longitude":"-83.83607","name":" Lowe's","address":" USA-Springfield"},{"latitude":" 36.36551","longitude":"-86.48685","name":" Lowe's","address":" USA-Gallatin"},{"latitude":" 36.28312","longitude":"-76.23666","name":" Lowe's","address":" USA-Elizabeth City"},{"latitude":" 34.28321","longitude":"-118.77673","name":" Lowe's","address":" USA-Simi Valley"},{"latitude":" 47.32039","longitude":"-122.22445","name":" Lowe's","address":" USA-Auburn"},{"latitude":" 36.04725","longitude":"-87.35861","name":" Lowe's","address":" USA-Dickson"},{"latitude":" 33.55263","longitude":"-112.18549","name":" Lowe's","address":" USA-Glendale"},{"latitude":" 35.35610","longitude":"-89.89347","name":" Lowe's","address":" USA-Millington"},{"latitude":" 29.69639","longitude":"-95.29632","name":" Lowe's","address":" USA-S E Houston"},{"latitude":" 36.13940","longitude":"-95.92140","name":" Lowe's","address":" USA-N Tulsa"},{"latitude":" 29.05602","longitude":"-81.29738","name":" Lowe's","address":" USA-Deland"},{"latitude":" 41.18823","longitude":"-111.98582","name":" Lowe's","address":" USA-Riverdale"},{"latitude":" 35.52152","longitude":"-82.95764","name":" Lowe's","address":" USA-Waynesville"},{"latitude":" 41.04318","longitude":"-81.69181","name":" Lowe's","address":" USA-Wadsworth"},{"latitude":" 33.65756","longitude":"-84.50042","name":" Lowe's","address":" USA-Camp Creek"},{"latitude":" 42.88538","longitude":"-70.87563","name":" Lowe's","address":" USA-Seabrook"},{"latitude":" 40.16950","longitude":"-74.89480","name":" Lowe's","address":" USA-Middletown Twp"},{"latitude":" 43.48303","longitude":"-112.01527","name":" Lowe's","address":" USA-Idaho Falls"},{"latitude":" 34.56651","longitude":"-87.01111","name":" Lowe's","address":" USA-Decatur"},{"latitude":" 39.08700","longitude":"-76.86120","name":" Lowe's","address":" USA-Laurel (Lakes)"},{"latitude":" 45.00745","longitude":"-122.99717","name":" Lowe's","address":" USA-Keizer"},{"latitude":" 34.47421","longitude":"-117.23959","name":" Lowe's","address":" USA-Apple Valley"},{"latitude":" 29.98060","longitude":"-95.56580","name":" Lowe's","address":" USA-N W Houston"},{"latitude":" 47.65678","longitude":"-117.33522","name":" Lowe's","address":" USA-Spokane Valley"},{"latitude":" 37.79872","longitude":"-85.43258","name":" Lowe's","address":" USA-Bardstown"},{"latitude":" 34.72594","longitude":"-87.66625","name":" Lowe's","address":" USA-Muscle Shoals"},{"latitude":" 37.63820","longitude":"-77.55550","name":" Lowe's","address":" USA-W Richmond"},{"latitude":" 36.00170","longitude":"-95.88730","name":" Lowe's","address":" USA-Bixby"},{"latitude":" 36.56145","longitude":"-82.21114","name":" Lowe's","address":" USA-S Bristol"},{"latitude":" 30.70911","longitude":"-94.95088","name":" Lowe's","address":" USA-Livingston"},{"latitude":" 37.01763","longitude":"-79.85858","name":" Lowe's","address":" USA-Rocky Mount"},{"latitude":" 38.78232","longitude":"-97.60889","name":" Lowe's","address":" USA-Salina"},{"latitude":" 39.64330","longitude":"-78.83360","name":" Lowe's","address":" USA-Allegany"},{"latitude":" 31.52561","longitude":"-97.16952","name":" Lowe's","address":" USA-Waco"},{"latitude":" 33.10676","longitude":"-95.59847","name":" Lowe's","address":" USA-Sulphur Springs"},{"latitude":" 40.08080","longitude":"-75.02740","name":" Lowe's","address":" USA-N E Philadelphia"},{"latitude":" 41.16400","longitude":"-104.79630","name":" Lowe's","address":" USA-Cheyenne"},{"latitude":" 34.01467","longitude":"-117.74009","name":" Lowe's","address":" USA-Chino Hills"},{"latitude":" 40.48840","longitude":"-88.95050","name":" Lowe's","address":" USA-Bloomington"},{"latitude":" 29.20841","longitude":"-82.06943","name":" Lowe's","address":" USA-E Ocala"},{"latitude":" 33.10252","longitude":"-83.24754","name":" Lowe's","address":" USA-Milledgeville"},{"latitude":" 39.79585","longitude":"-105.08220","name":" Lowe's","address":" USA-Arvada"},{"latitude":" 37.16252","longitude":"-80.43054","name":" Lowe's","address":" USA-Christiansburg"},{"latitude":" 42.32345","longitude":"-83.47572","name":" Lowe's","address":" USA-Canton"},{"latitude":" 46.89300","longitude":"-114.03800","name":" Lowe's","address":" USA-Missoula"},{"latitude":" 41.45920","longitude":"-74.37320","name":" Lowe's","address":" USA-Middletown"},{"latitude":" 27.99822","longitude":"-81.92519","name":" Lowe's","address":" USA-Lakeland"},{"latitude":" 30.23136","longitude":"-92.36138","name":" Lowe's","address":" USA-Crowley"},{"latitude":" 33.56210","longitude":"-117.20760","name":" Lowe's","address":" USA-Murrieta"},{"latitude":" 35.99050","longitude":"-80.02840","name":" Lowe's","address":" USA-N High Point"},{"latitude":" 38.19138","longitude":"-83.48176","name":" Lowe's","address":" USA-Morehead"},{"latitude":" 35.38237","longitude":"-119.08897","name":" Lowe's","address":" USA-Bakersfield"},{"latitude":" 36.48572","longitude":"-80.61344","name":" Lowe's","address":" USA-Mt Airy"},{"latitude":" 41.25871","longitude":"-96.03026","name":" Lowe's","address":" USA-Omaha"},{"latitude":" 38.74769","longitude":"-75.17352","name":" Lowe's","address":" USA-Sussex County"},{"latitude":" 32.44167","longitude":"-93.71556","name":" Lowe's","address":" USA-S E Shreveport"},{"latitude":" 41.93817","longitude":"-88.13181","name":" Lowe's","address":" USA-Carol Stream"},{"latitude":" 31.77559","longitude":"-85.93641","name":" Lowe's","address":" USA-Troy"},{"latitude":" 29.54480","longitude":"-98.36630","name":" Lowe's","address":" USA-N E San Antonio"},{"latitude":" 38.65400","longitude":"-77.31020","name":" Lowe's","address":" USA-Dale City"},{"latitude":" 40.13874","longitude":"-74.96160","name":" Lowe's","address":" USA-Bensalem Twp"},{"latitude":" 34.91789","longitude":"-95.74294","name":" Lowe's","address":" USA-Mcalester"},{"latitude":" 41.69176","longitude":"-91.60973","name":" Lowe's","address":" USA-Iowa City \/ Coralville"},{"latitude":" 33.70941","longitude":"-112.11020","name":" Lowe's","address":" USA-Happy Valley"},{"latitude":" 42.95043","longitude":"-76.54871","name":" Lowe's","address":" USA-Auburn"},{"latitude":" 41.95287","longitude":"-83.40069","name":" Lowe's","address":" USA-Frenchtown"},{"latitude":" 38.08843","longitude":"-78.47083","name":" Lowe's","address":" USA-Charlottesville"},{"latitude":" 33.05786","longitude":"-97.01394","name":" Lowe's","address":" USA-Lewisville"},{"latitude":" 46.14776","longitude":"-122.96031","name":" Lowe's","address":" USA-Longview"},{"latitude":" 33.96425","longitude":"-80.94142","name":" Lowe's","address":" USA-S E Columbia"},{"latitude":" 41.72156","longitude":"-83.57042","name":" Lowe's","address":" USA-N Toledo"},{"latitude":" 35.91911","longitude":"-84.08257","name":" Lowe's","address":" USA-W Knoxville"},{"latitude":" 41.59620","longitude":"-93.77260","name":" Lowe's","address":" USA-W Des Moines"},{"latitude":" 40.08046","longitude":"-85.65321","name":" Lowe's","address":" USA-Anderson"},{"latitude":" 35.70447","longitude":"-82.03926","name":" Lowe's","address":" USA-Marion"},{"latitude":" 42.05400","longitude":"-87.99580","name":" Lowe's","address":" USA-Arlington Heights"},{"latitude":" 37.34989","longitude":"-76.73373","name":" Lowe's","address":" USA-Williamsburg"},{"latitude":" 41.40538","longitude":"-82.65978","name":" Lowe's","address":" USA-Sandusky"},{"latitude":" 41.04172","longitude":"-73.94750","name":" Lowe's","address":" USA-Orangeburg"},{"latitude":" 30.33180","longitude":"-95.47910","name":" Lowe's","address":" USA-Conroe"},{"latitude":" 41.75872","longitude":"-111.82744","name":" Lowe's","address":" USA-Logan"},{"latitude":" 38.45480","longitude":"-121.40200","name":" Lowe's","address":" USA-Elk Grove"},{"latitude":" 27.89580","longitude":"-82.79450","name":" Lowe's","address":" USA-Largo"},{"latitude":" 34.06170","longitude":"-117.21387","name":" Lowe's","address":" USA-Redlands"},{"latitude":" 42.99024","longitude":"-78.69952","name":" Lowe's","address":" USA-E Amherst"},{"latitude":" 38.43676","longitude":"-78.84450","name":" Lowe's","address":" USA-Harrisonburg"},{"latitude":" 38.95170","longitude":"-76.72090","name":" Lowe's","address":" USA-Bowie"},{"latitude":" 42.55535","longitude":"-82.90046","name":" Lowe's","address":" USA-S Clinton Twp"},{"latitude":" 41.68470","longitude":"-81.29390","name":" Lowe's","address":" USA-Mentor"},{"latitude":" 35.72380","longitude":"-81.69290","name":" Lowe's","address":" USA-Morganton"},{"latitude":" 42.54211","longitude":"-83.44971","name":" Lowe's","address":" USA-Commerce Twp"},{"latitude":" 37.47782","longitude":"-82.51334","name":" Lowe's","address":" USA-Pikeville"},{"latitude":" 39.90046","longitude":"-86.04677","name":" Lowe's","address":" USA-N E Indianapolis"},{"latitude":" 38.20155","longitude":"-85.66613","name":" Lowe's","address":" USA-Central Louisville"},{"latitude":" 39.83206","longitude":"-75.53913","name":" Lowe's","address":" USA-N Wilmington"},{"latitude":" 38.95679","longitude":"-76.87267","name":" Lowe's","address":" USA-New Carrollton"},{"latitude":" 40.44900","longitude":"-80.17420","name":" Lowe's","address":" USA-Robinson Twp"},{"latitude":" 36.69201","longitude":"-80.87934","name":" Lowe's","address":" USA-Galax"},{"latitude":" 32.68582","longitude":"-97.40854","name":" Lowe's","address":" USA-S Fort Worth"},{"latitude":" 40.20009","longitude":"-77.17736","name":" Lowe's","address":" USA-Carlisle"},{"latitude":" 35.90030","longitude":"-81.52110","name":" Lowe's","address":" USA-Lenoir"},{"latitude":" 33.36902","longitude":"-91.03754","name":" Lowe's","address":" USA-Greenville"},{"latitude":" 40.76516","longitude":"-81.51980","name":" Lowe's","address":" USA-Massilon"},{"latitude":" 30.68423","longitude":"-88.22468","name":" Lowe's","address":" USA-W Mobile"},{"latitude":" 38.78276","longitude":"-85.38056","name":" Lowe's","address":" USA-Madison"},{"latitude":" 40.37040","longitude":"-80.66790","name":" Lowe's","address":" USA-Steubenville"},{"latitude":" 34.82480","longitude":"-82.57430","name":" Lowe's","address":" USA-Easley"},{"latitude":" 33.32061","longitude":"-111.96367","name":" Lowe's","address":" USA-W Chandler"},{"latitude":" 30.39170","longitude":"-87.05050","name":" Lowe's","address":" USA-Gulf Breeze"},{"latitude":" 33.33680","longitude":"-111.79019","name":" Lowe's","address":" USA-Gilbert"},{"latitude":" 36.35806","longitude":"-92.33513","name":" Lowe's","address":" USA-Mountain Home"},{"latitude":" 36.00286","longitude":"-79.79374","name":" Lowe's","address":" USA-S E Greensboro"},{"latitude":" 33.01053","longitude":"-96.79144","name":" Lowe's","address":" USA-W Plano"},{"latitude":" 30.59790","longitude":"-88.16570","name":" Lowe's","address":" USA-S W Mobile"},{"latitude":" 40.83213","longitude":"-74.08876","name":" Lowe's","address":" USA-E Rutherford"},{"latitude":" 38.92930","longitude":"-94.40830","name":" Lowe's","address":" USA-Lees Summit"},{"latitude":" 35.16120","longitude":"-101.92050","name":" Lowe's","address":" USA-Amarillo"},{"latitude":" 42.55734","longitude":"-70.96912","name":" Lowe's","address":" USA-Danvers"},{"latitude":" 38.06455","longitude":"-78.93961","name":" Lowe's","address":" USA-Waynesboro"},{"latitude":" 26.16437","longitude":"-80.25792","name":" Lowe's","address":" USA-Sunrise"},{"latitude":" 39.44860","longitude":"-75.72780","name":" Lowe's","address":" USA-Middletown"},{"latitude":" 32.86488","longitude":"-96.68440","name":" Lowe's","address":" USA-N E Dallas"},{"latitude":" 37.67970","longitude":"-97.42620","name":" Lowe's","address":" USA-W Wichita"},{"latitude":" 38.67798","longitude":"-121.27103","name":" Lowe's","address":" USA-Citrus Heights"},{"latitude":" 33.79988","longitude":"-116.38559","name":" Lowe's","address":" USA-Palm Desert"},{"latitude":" 31.73470","longitude":"-95.62088","name":" Lowe's","address":" USA-Palestine"},{"latitude":" 34.10795","longitude":"-117.68246","name":" Lowe's","address":" USA-Upland"},{"latitude":" 40.31390","longitude":"-75.99491","name":" Lowe's","address":" USA-S Reading"},{"latitude":" 34.93537","longitude":"-81.99267","name":" Lowe's","address":" USA-Spartanburg Relo"},{"latitude":" 35.52170","longitude":"-78.30390","name":" Lowe's","address":" USA-Smithfield"},{"latitude":" 27.92333","longitude":"-97.17877","name":" Lowe's","address":" USA-Aransas Pass"},{"latitude":" 39.65022","longitude":"-79.89797","name":" Lowe's","address":" USA-Morgantown"},{"latitude":" 32.40982","longitude":"-93.79900","name":" Lowe's","address":" USA-Shreveport"},{"latitude":" 36.06130","longitude":"-95.86090","name":" Lowe's","address":" USA-S Tulsa"},{"latitude":" 45.50380","longitude":"-122.95702","name":" Lowe's","address":" USA-Hillsboro"},{"latitude":" 26.19220","longitude":"-98.20304","name":" Lowe's","address":" USA-Pharr"},{"latitude":" 41.54312","longitude":"-83.58725","name":" Lowe's","address":" USA-Perrysburg"},{"latitude":" 32.49393","longitude":"-92.05955","name":" Lowe's","address":" USA-Monroe"},{"latitude":" 29.55011","longitude":"-98.66669","name":" Lowe's","address":" USA-N W San Antonio"},{"latitude":" 36.00900","longitude":"-84.02440","name":" Lowe's","address":" USA-N Knoxville"},{"latitude":" 34.64192","longitude":"-86.56788","name":" Lowe's","address":" USA-Huntsville"},{"latitude":" 33.88060","longitude":"-98.53880","name":" Lowe's","address":" USA-Wichita Falls"},{"latitude":" 38.37167","longitude":"-121.95853","name":" Lowe's","address":" USA-Vacaville"},{"latitude":" 41.08775","longitude":"-111.98353","name":" Lowe's","address":" USA-Layton"},{"latitude":" 41.09435","longitude":"-85.08840","name":" Lowe's","address":" USA-E Ft Wayne"},{"latitude":" 34.47057","longitude":"-117.34485","name":" Lowe's","address":" USA-Victorville"},{"latitude":" 40.05720","longitude":"-84.24460","name":" Lowe's","address":" USA-Troy"},{"latitude":" 36.29633","longitude":"-119.31141","name":" Lowe's","address":" USA-Visalia"},{"latitude":" 36.05460","longitude":"-79.88910","name":" Lowe's","address":" USA-S W Greensboro"},{"latitude":" 35.27910","longitude":"-81.53454","name":" Lowe's","address":" USA-Shelby"},{"latitude":" 35.06571","longitude":"-80.77238","name":" Lowe's","address":" USA-S Charlotte"},{"latitude":" 34.13928","longitude":"-117.43658","name":" Lowe's","address":" USA-N Fontana"},{"latitude":" 40.68331","longitude":"-112.02492","name":" Lowe's","address":" USA-W Valley City"},{"latitude":" 43.45383","longitude":"-71.57510","name":" Lowe's","address":" USA-Tilton"},{"latitude":" 37.14980","longitude":"-93.26120","name":" Lowe's","address":" USA-Springfield"},{"latitude":" 40.49372","longitude":"-78.38568","name":" Lowe's","address":" USA-Altoona"},{"latitude":" 38.80903","longitude":"-90.29728","name":" Lowe's","address":" USA-Florissant"},{"latitude":" 30.39437","longitude":"-88.66015","name":" Lowe's","address":" USA-Gautier"},{"latitude":" 39.31266","longitude":"-81.55191","name":" Lowe's","address":" USA-Wood County"},{"latitude":" 44.49525","longitude":"-89.51550","name":" Lowe's","address":" USA-Plover"},{"latitude":" 40.68055","longitude":"-89.58391","name":" Lowe's","address":" USA-E Peoria"},{"latitude":" 39.92151","longitude":"-82.83133","name":" Lowe's","address":" USA-S E Columbus"},{"latitude":" 35.91827","longitude":"-80.58478","name":" Lowe's","address":" USA-Mocksville"},{"latitude":" 40.04166","longitude":"-76.36315","name":" Lowe's","address":" USA-W Lancaster"},{"latitude":" 43.07710","longitude":"-77.62830","name":" Lowe's","address":" USA-Henrietta"},{"latitude":" 41.05863","longitude":"-83.59106","name":" Lowe's","address":" USA-Findlay"},{"latitude":" 41.67300","longitude":"-72.83820","name":" Lowe's","address":" USA-Plainville"},{"latitude":" 39.54604","longitude":"-119.77972","name":" Lowe's","address":" USA-Sparks"},{"latitude":" 35.09090","longitude":"-81.66447","name":" Lowe's","address":" USA-Gaffney"},{"latitude":" 40.97881","longitude":"-81.49299","name":" Lowe's","address":" USA-Green"},{"latitude":" 42.15495","longitude":"-76.87608","name":" Lowe's","address":" USA-Big Flats"},{"latitude":" 37.74362","longitude":"-89.19474","name":" Lowe's","address":" USA-Carbondale"},{"latitude":" 26.27460","longitude":"-80.20450","name":" Lowe's","address":" USA-Coral Springs"},{"latitude":" 27.07186","longitude":"-82.42298","name":" Lowe's","address":" USA-Venice"},{"latitude":" 42.45497","longitude":"-92.34815","name":" Lowe's","address":" USA-Waterloo"},{"latitude":" 37.65320","longitude":"-77.60930","name":" Lowe's","address":" USA-Short Pump"},{"latitude":" 40.41820","longitude":"-86.83910","name":" Lowe's","address":" USA-Lafayette"},{"latitude":" 31.31616","longitude":"-85.82934","name":" Lowe's","address":" USA-Enterprise"},{"latitude":" 32.83321","longitude":"-96.99518","name":" Lowe's","address":" USA-Irving"},{"latitude":" 38.78869","longitude":"-121.28021","name":" Lowe's","address":" USA-N Roseville"},{"latitude":" 40.24680","longitude":"-75.24460","name":" Lowe's","address":" USA-Montgomeryville"},{"latitude":" 39.80268","longitude":"-86.01400","name":" Lowe's","address":" USA-E Indianapolis"},{"latitude":" 40.04096","longitude":"-79.07428","name":" Lowe's","address":" USA-Somerset"},{"latitude":" 37.73156","longitude":"-85.88174","name":" Lowe's","address":" USA-Elizabethtown"},{"latitude":" 33.82610","longitude":"-84.09930","name":" Lowe's","address":" USA-Stone Mountain"},{"latitude":" 36.27562","longitude":"-80.84134","name":" Lowe's","address":" USA-Elkin"},{"latitude":" 41.87510","longitude":"-84.03270","name":" Lowe's","address":" USA-Adrian"},{"latitude":" 33.50406","longitude":"-81.96128","name":" Lowe's","address":" USA-N Augusta"},{"latitude":" 36.42037","longitude":"-94.22380","name":" Lowe's","address":" USA-N Bentonville"},{"latitude":" 40.43612","longitude":"-74.30236","name":" Lowe's","address":" USA-Old Bridge"},{"latitude":" 45.75548","longitude":"-108.58312","name":" Lowe's","address":" USA-Billings"},{"latitude":" 34.54246","longitude":"-83.53893","name":" Lowe's","address":" USA-Cornelia"},{"latitude":" 32.01200","longitude":"-102.15960","name":" Lowe's","address":" USA-Midland"},{"latitude":" 39.03706","longitude":"-94.35825","name":" Lowe's","address":" USA-Independence"},{"latitude":" 39.09660","longitude":"-75.54717","name":" Lowe's","address":" USA-Camden"},{"latitude":" 38.81246","longitude":"-94.49334","name":" Lowe's","address":" USA-Raymore"},{"latitude":" 36.41365","longitude":"-89.06682","name":" Lowe's","address":" USA-Union City"},{"latitude":" 47.63143","longitude":"-122.18217","name":" Lowe's","address":" USA-Bellevue"},{"latitude":" 36.69562","longitude":"-79.89804","name":" Lowe's","address":" USA-Martinsville"},{"latitude":" 32.46053","longitude":"-86.40953","name":" Lowe's","address":" USA-Prattville"},{"latitude":" 38.30908","longitude":"-104.62172","name":" Lowe's","address":" USA-Pueblo"},{"latitude":" 41.26885","longitude":"-85.85568","name":" Lowe's","address":" USA-Warsaw"},{"latitude":" 30.50398","longitude":"-90.49635","name":" Lowe's","address":" USA-Hammond"},{"latitude":" 36.07940","longitude":"-79.48335","name":" Lowe's","address":" USA-Burlington"},{"latitude":" 34.43667","longitude":"-85.75351","name":" Lowe's","address":" USA-Ft Payne"},{"latitude":" 41.23150","longitude":"-80.45080","name":" Lowe's","address":" USA-Hermitage"},{"latitude":" 32.54821","longitude":"-93.70843","name":" Lowe's","address":" USA-Bossier City"},{"latitude":" 47.97750","longitude":"-122.19643","name":" Lowe's","address":" USA-Everett"},{"latitude":" 36.73559","longitude":"-78.91666","name":" Lowe's","address":" USA-S Boston"},{"latitude":" 29.81109","longitude":"-95.42836","name":" Lowe's","address":" USA-N Central Houston"},{"latitude":" 32.93946","longitude":"-105.96300","name":" Lowe's","address":" USA-Alamogordo"},{"latitude":" 36.80947","longitude":"-76.35833","name":" Lowe's","address":" USA-Portsmouth"},{"latitude":" 61.57604","longitude":"-149.39848","name":" Lowe's","address":" USA-Wasilla"},{"latitude":" 27.49263","longitude":"-97.85070","name":" Lowe's","address":" USA-Kingsville"},{"latitude":" 32.94170","longitude":"-97.11388","name":" Lowe's","address":" USA-Southlake"},{"latitude":" 37.00288","longitude":"-93.22357","name":" Lowe's","address":" USA-Ozark"},{"latitude":" 32.37953","longitude":"-97.39082","name":" Lowe's","address":" USA-Cleburne"},{"latitude":" 39.03828","longitude":"-84.44961","name":" Lowe's","address":" USA-Highland Heights"},{"latitude":" 38.15273","longitude":"-85.83483","name":" Lowe's","address":" USA-S W Louisville"},{"latitude":" 40.30706","longitude":"-76.42531","name":" Lowe's","address":" USA-Lebanon"},{"latitude":" 35.72550","longitude":"-78.64980","name":" Lowe's","address":" USA-Garner"},{"latitude":" 38.78084","longitude":"-89.95135","name":" Lowe's","address":" USA-Glen Carbon"},{"latitude":" 38.59116","longitude":"-89.98494","name":" Lowe's","address":" USA-Fairview Heights"},{"latitude":" 33.92130","longitude":"-118.32300","name":" Lowe's","address":" USA-Hawthorne"},{"latitude":" 34.92092","longitude":"-79.75014","name":" Lowe's","address":" USA-Rockingham"},{"latitude":" 30.11910","longitude":"-94.16660","name":" Lowe's","address":" USA-Beaumont"},{"latitude":" 40.41570","longitude":"-74.16840","name":" Lowe's","address":" USA-Holmdel"},{"latitude":" 38.58055","longitude":"-92.24394","name":" Lowe's","address":" USA-Jefferson City"},{"latitude":" 29.89547","longitude":"-90.05966","name":" Lowe's","address":" USA-Harvey"},{"latitude":" 46.56370","longitude":"-120.47475","name":" Lowe's","address":" USA-Union Gap"},{"latitude":" 30.05992","longitude":"-95.43479","name":" Lowe's","address":" USA-Spring"},{"latitude":" 35.69030","longitude":"-79.80420","name":" Lowe's","address":" USA-Asheboro"},{"latitude":" 41.61670","longitude":"-85.89200","name":" Lowe's","address":" USA-Goshen"},{"latitude":" 33.45100","longitude":"-86.82300","name":" Lowe's","address":" USA-Homewood"},{"latitude":" 37.32245","longitude":"-79.87062","name":" Lowe's","address":" USA-E Roanoke"},{"latitude":" 37.50535","longitude":"-121.97013","name":" Lowe's","address":" USA-Fremont"},{"latitude":" 41.22951","longitude":"-80.74154","name":" Lowe's","address":" USA-Trumbull County"},{"latitude":" 42.10834","longitude":"-70.76990","name":" Lowe's","address":" USA-Pembroke"},{"latitude":" 32.89751","longitude":"-97.23925","name":" Lowe's","address":" USA-Keller"},{"latitude":" 33.22930","longitude":"-117.31600","name":" Lowe's","address":" USA-Oceanside"},{"latitude":" 37.55504","longitude":"-77.45744","name":" Lowe's","address":" USA-C Richmond"},{"latitude":" 32.54081","longitude":"-84.95283","name":" Lowe's","address":" USA-N Columbus"},{"latitude":" 39.42525","longitude":"-84.59611","name":" Lowe's","address":" USA-Hamilton"},{"latitude":" 33.24579","longitude":"-84.28899","name":" Lowe's","address":" USA-Griffin"},{"latitude":" 36.14911","longitude":"-81.21034","name":" Lowe's","address":" USA-Wilkesboro"},{"latitude":" 37.28523","longitude":"-83.22156","name":" Lowe's","address":" USA-Hazard"},{"latitude":" 43.10550","longitude":"-73.74830","name":" Lowe's","address":" USA-Saratoga Springs"},{"latitude":" 40.57188","longitude":"-79.79272","name":" Lowe's","address":" USA-N E Pittsburgh"},{"latitude":" 40.12654","longitude":"-84.62072","name":" Lowe's","address":" USA-Greenville"},{"latitude":" 32.91066","longitude":"-96.81642","name":" Lowe's","address":" USA-N Dallas"},{"latitude":" 33.88550","longitude":"-84.31740","name":" Lowe's","address":" USA-Chamblee"},{"latitude":" 30.83961","longitude":"-83.32293","name":" Lowe's","address":" USA-Valdosta"},{"latitude":" 35.56479","longitude":"-77.06116","name":" Lowe's","address":" USA-Washington"},{"latitude":" 35.64650","longitude":"-80.45890","name":" Lowe's","address":" USA-Salisbury"},{"latitude":" 41.93859","longitude":"-71.34775","name":" Lowe's","address":" USA-N Attleboro"},{"latitude":" 41.42302","longitude":"-81.73588","name":" Lowe's","address":" USA-Brooklyn"},{"latitude":" 37.89646","longitude":"-76.87089","name":" Lowe's","address":" USA-Tappahannock"},{"latitude":" 33.75906","longitude":"-84.34792","name":" Lowe's","address":" USA-Atlanta - Edgewood"},{"latitude":" 35.38160","longitude":"-77.92920","name":" Lowe's","address":" USA-Goldsboro"},{"latitude":" 30.47671","longitude":"-84.36528","name":" Lowe's","address":" USA-N W Tallahassee"},{"latitude":" 37.79074","longitude":"-90.42989","name":" Lowe's","address":" USA-Farmington"},{"latitude":" 32.46856","longitude":"-90.13314","name":" Lowe's","address":" USA-Madison"},{"latitude":" 27.16172","longitude":"-80.22692","name":" Lowe's","address":" USA-Stuart"},{"latitude":" 33.35600","longitude":"-86.77780","name":" Lowe's","address":" USA-Hoover"},{"latitude":" 40.51820","longitude":"-74.63000","name":" Lowe's","address":" USA-Hillsborough"},{"latitude":" 40.77130","longitude":"-84.16590","name":" Lowe's","address":" USA-Lima"},{"latitude":" 33.72586","longitude":"-84.76056","name":" Lowe's","address":" USA-Douglasville"},{"latitude":" 36.33875","longitude":"-78.43954","name":" Lowe's","address":" USA-Henderson"},{"latitude":" 36.06317","longitude":"-115.03280","name":" Lowe's","address":" USA-Henderson"},{"latitude":" 38.86041","longitude":"-86.52015","name":" Lowe's","address":" USA-Bedford"},{"latitude":" 36.80907","longitude":"-119.69763","name":" Lowe's","address":" USA-Clovis"},{"latitude":" 40.83644","longitude":"-74.82238","name":" Lowe's","address":" USA-Hackettstown"},{"latitude":" 26.52740","longitude":"-81.87220","name":" Lowe's","address":" USA-Ft Myers"},{"latitude":" 39.89047","longitude":"-104.98967","name":" Lowe's","address":" USA-Northglenn"},{"latitude":" 40.09999","longitude":"-83.09498","name":" Lowe's","address":" USA-Dublin"},{"latitude":" 41.36928","longitude":"-72.16341","name":" Lowe's","address":" USA-Waterford"},{"latitude":" 33.40960","longitude":"-86.96420","name":" Lowe's","address":" USA-Bessemer"},{"latitude":" 37.31847","longitude":"-120.49681","name":" Lowe's","address":" USA-Merced"},{"latitude":" 43.02674","longitude":"-71.07322","name":" Lowe's","address":" USA-Epping"},{"latitude":" 40.23881","longitude":"-76.98330","name":" Lowe's","address":" USA-Mechanicsburg Relo"},{"latitude":" 36.20012","longitude":"-81.65614","name":" Lowe's","address":" USA-Boone"},{"latitude":" 35.44484","longitude":"-82.53514","name":" Lowe's","address":" USA-S Asheville"},{"latitude":" 35.16462","longitude":"-79.41984","name":" Lowe's","address":" USA-Southern Pines"},{"latitude":" 27.92190","longitude":"-82.31990","name":" Lowe's","address":" USA-Brandon"},{"latitude":" 43.46355","longitude":"-76.47580","name":" Lowe's","address":" USA-Oswego"},{"latitude":" 38.23972","longitude":"-85.57550","name":" Lowe's","address":" USA-E Louisville"},{"latitude":" 32.89142","longitude":"-96.46908","name":" Lowe's","address":" USA-Rockwall"},{"latitude":" 39.25375","longitude":"-94.65691","name":" Lowe's","address":" USA-N Kansas City"},{"latitude":" 39.40960","longitude":"-87.41160","name":" Lowe's","address":" USA-Terre Haute"},{"latitude":" 39.74063","longitude":"-105.11460","name":" Lowe's","address":" USA-N Lakewood"},{"latitude":" 36.76360","longitude":"-76.25170","name":" Lowe's","address":" USA-Chesapeake"},{"latitude":" 30.73465","longitude":"-85.18958","name":" Lowe's","address":" USA-Marianna"},{"latitude":" 33.91450","longitude":"-84.11440","name":" Lowe's","address":" USA-Gwinnett"},{"latitude":" 30.46660","longitude":"-97.79150","name":" Lowe's","address":" USA-N W Austin"},{"latitude":" 37.33925","longitude":"-85.36206","name":" Lowe's","address":" USA-Campbellsville"},{"latitude":" 35.22219","longitude":"-91.72323","name":" Lowe's","address":" USA-Searcy"},{"latitude":" 36.16071","longitude":"-115.32968","name":" Lowe's","address":" USA-W Summerlin"},{"latitude":" 32.28410","longitude":"-95.30330","name":" Lowe's","address":" USA-Tyler"},{"latitude":" 35.45442","longitude":"-79.13484","name":" Lowe's","address":" USA-Sanford"},{"latitude":" 41.07460","longitude":"-85.19910","name":" Lowe's","address":" USA-W Ft Wayne"},{"latitude":" 42.02512","longitude":"-88.14414","name":" Lowe's","address":" USA-Schaumburg"},{"latitude":" 31.20580","longitude":"-85.42430","name":" Lowe's","address":" USA-Dothan"},{"latitude":" 38.40930","longitude":"-82.52900","name":" Lowe's","address":" USA-Burlington"},{"latitude":" 34.55711","longitude":"-118.04365","name":" Lowe's","address":" USA-E Palmdale"},{"latitude":" 37.53082","longitude":"-77.53567","name":" Lowe's","address":" USA-S Richmond"},{"latitude":" 35.46834","longitude":"-94.35480","name":" Lowe's","address":" USA-Van Buren"},{"latitude":" 39.28600","longitude":"-84.46080","name":" Lowe's","address":" USA-Springdale"},{"latitude":" 35.79703","longitude":"-78.48583","name":" Lowe's","address":" USA-Knightdale"},{"latitude":" 42.91200","longitude":"-85.58410","name":" Lowe's","address":" USA-Kentwood"},{"latitude":" 41.47350","longitude":"-87.31680","name":" Lowe's","address":" USA-Merrillville"},{"latitude":" 38.00760","longitude":"-84.45190","name":" Lowe's","address":" USA-E Lexington"},{"latitude":" 38.88500","longitude":"-94.60580","name":" Lowe's","address":" USA-South Kansas City"},{"latitude":" 36.18044","longitude":"-115.25853","name":" Lowe's","address":" USA-Summerlin"},{"latitude":" 34.46122","longitude":"-93.05946","name":" Lowe's","address":" USA-Hot Springs"},{"latitude":" 35.10938","longitude":"-92.44210","name":" Lowe's","address":" USA-Conway"},{"latitude":" 28.66570","longitude":"-81.41900","name":" Lowe's","address":" USA-Altamonte Springs"},{"latitude":" 45.67746","longitude":"-122.55205","name":" Lowe's","address":" USA-E  Vancouver"},{"latitude":" 38.87403","longitude":"-104.71858","name":" Lowe's","address":" USA-E Colorado Springs"},{"latitude":" 35.66842","longitude":"-88.84734","name":" Lowe's","address":" USA-Jackson"},{"latitude":" 35.47929","longitude":"-81.23231","name":" Lowe's","address":" USA-Lincolnton"},{"latitude":" 39.30337","longitude":"-84.31289","name":" Lowe's","address":" USA-Mason"},{"latitude":" 37.34750","longitude":"-79.23320","name":" Lowe's","address":" USA-Lynchburg"},{"latitude":" 38.07219","longitude":"-97.89487","name":" Lowe's","address":" USA-Hutchinson"},{"latitude":" 41.62178","longitude":"-73.92112","name":" Lowe's","address":" USA-Poughkeepsie"},{"latitude":" 42.60730","longitude":"-73.79130","name":" Lowe's","address":" USA-Glenmont"},{"latitude":" 25.93340","longitude":"-80.29420","name":" Lowe's","address":" USA-N W Miami \/ Dade"},{"latitude":" 43.33320","longitude":"-73.65020","name":" Lowe's","address":" USA-Glens Falls"},{"latitude":" 39.80600","longitude":"-94.81460","name":" Lowe's","address":" USA-St Joseph"},{"latitude":" 26.35155","longitude":"-80.20158","name":" Lowe's","address":" USA-W Boca Raton"},{"latitude":" 36.91413","longitude":"-93.89910","name":" Lowe's","address":" USA-Monett"},{"latitude":" 29.11142","longitude":"-81.02684","name":" Lowe's","address":" USA-Port Orange"},{"latitude":" 41.32260","longitude":"-72.88190","name":" Lowe's","address":" USA-New Haven"},{"latitude":" 34.28390","longitude":"-81.59292","name":" Lowe's","address":" USA-Newberry"},{"latitude":" 29.54200","longitude":"-95.13950","name":" Lowe's","address":" USA-Baybrook"},{"latitude":" 36.17372","longitude":"-94.17595","name":" Lowe's","address":" USA-Springdale"},{"latitude":" 34.68253","longitude":"-84.47849","name":" Lowe's","address":" USA-E Elijay"},{"latitude":" 35.44741","longitude":"-84.62518","name":" Lowe's","address":" USA-Athens"},{"latitude":" 44.72275","longitude":"-85.64623","name":" Lowe's","address":" USA-Traverse City"},{"latitude":" 44.78073","longitude":"-93.46716","name":" Lowe's","address":" USA-Shakopee"},{"latitude":" 61.12270","longitude":"-149.86490","name":" Lowe's","address":" USA-S Anchorage"},{"latitude":" 33.94062","longitude":"-83.32219","name":" Lowe's","address":" USA-E Athens"},{"latitude":" 38.64100","longitude":"-76.89660","name":" Lowe's","address":" USA-Charles County"},{"latitude":" 36.38680","longitude":"-79.66740","name":" Lowe's","address":" USA-Reidsville"},{"latitude":" 35.11443","longitude":"-78.88478","name":" Lowe's","address":" USA-N Fayetteville"},{"latitude":" 35.26014","longitude":"-77.64938","name":" Lowe's","address":" USA-Kinston"},{"latitude":" 48.14939","longitude":"-122.18550","name":" Lowe's","address":" USA-Smokey Point"},{"latitude":" 33.56347","longitude":"-83.47983","name":" Lowe's","address":" USA-Madison"},{"latitude":" 44.11920","longitude":"-70.22569","name":" Lowe's","address":" USA-Auburn"},{"latitude":" 36.77149","longitude":"-108.14055","name":" Lowe's","address":" USA-Farmington"},{"latitude":" 41.54936","longitude":"-87.17496","name":" Lowe's","address":" USA-Portage"},{"latitude":" 30.18014","longitude":"-82.67867","name":" Lowe's","address":" USA-Lake City"},{"latitude":" 35.29850","longitude":"-119.02940","name":" Lowe's","address":" USA-S Bakersfield"},{"latitude":" 42.50435","longitude":"-71.13051","name":" Lowe's","address":" USA-Woburn"},{"latitude":" 38.31306","longitude":"-81.56539","name":" Lowe's","address":" USA-E Charleston"},{"latitude":" 36.57350","longitude":"-94.76752","name":" Lowe's","address":" USA-Grove"},{"latitude":" 38.41112","longitude":"-75.56834","name":" Lowe's","address":" USA-Salisbury"},{"latitude":" 39.62200","longitude":"-105.09040","name":" Lowe's","address":" USA-Lakewood"},{"latitude":" 26.67900","longitude":"-80.20336","name":" Lowe's","address":" USA-Royal Palm Beach"},{"latitude":" 36.62862","longitude":"-88.31444","name":" Lowe's","address":" USA-Murray"},{"latitude":" 40.53771","longitude":"-85.67384","name":" Lowe's","address":" USA-Marion"},{"latitude":" 41.23305","longitude":"-96.20377","name":" Lowe's","address":" USA-S W Omaha"},{"latitude":" 35.38236","longitude":"-96.92736","name":" Lowe's","address":" USA-Shawnee"},{"latitude":" 40.99086","longitude":"-74.33669","name":" Lowe's","address":" USA-Butler"},{"latitude":" 39.83852","longitude":"-89.60163","name":" Lowe's","address":" USA-N Springfield"},{"latitude":" 40.73710","longitude":"-73.60380","name":" Lowe's","address":" USA-Garden City"},{"latitude":" 40.74710","longitude":"-89.63200","name":" Lowe's","address":" USA-Peoria"},{"latitude":" 33.81029","longitude":"-118.12378","name":" Lowe's","address":" USA-C Long Beach"},{"latitude":" 33.89553","longitude":"-118.04733","name":" Lowe's","address":" USA-Norwalk"},{"latitude":" 41.27630","longitude":"-72.99070","name":" Lowe's","address":" USA-Orange"},{"latitude":" 41.12300","longitude":"-78.72876","name":" Lowe's","address":" USA-Dubois"},{"latitude":" 37.63877","longitude":"-122.42167","name":" Lowe's","address":" USA-San Bruno"},{"latitude":" 40.21869","longitude":"-85.44207","name":" Lowe's","address":" USA-Muncie"},{"latitude":" 26.66860","longitude":"-81.94080","name":" Lowe's","address":" USA-Cape Coral"},{"latitude":" 47.15730","longitude":"-122.28910","name":" Lowe's","address":" USA-Puyallup"},{"latitude":" 30.47917","longitude":"-84.23589","name":" Lowe's","address":" USA-N E Tallahassee"},{"latitude":" 39.40630","longitude":"-81.41880","name":" Lowe's","address":" USA-Marietta"},{"latitude":" 42.05650","longitude":"-80.08910","name":" Lowe's","address":" USA-Erie"},{"latitude":" 38.32939","longitude":"-81.71294","name":" Lowe's","address":" USA-S Charleston"},{"latitude":" 41.14100","longitude":"-85.16450","name":" Lowe's","address":" USA-N Ft Wayne"},{"latitude":" 39.27362","longitude":"-80.28164","name":" Lowe's","address":" USA-Clarksburg"},{"latitude":" 29.03960","longitude":"-95.45310","name":" Lowe's","address":" USA-Lake Jackson"},{"latitude":" 42.07260","longitude":"-80.18190","name":" Lowe's","address":" USA-W Erie"},{"latitude":" 35.34312","longitude":"-80.17474","name":" Lowe's","address":" USA-Albemarle"},{"latitude":" 43.25103","longitude":"-123.35775","name":" Lowe's","address":" USA-Roseburg"},{"latitude":" 35.73582","longitude":"-77.95104","name":" Lowe's","address":" USA-Wilson"},{"latitude":" 38.15746","longitude":"-92.60350","name":" Lowe's","address":" USA-Osage Beach"},{"latitude":" 32.56203","longitude":"-97.31618","name":" Lowe's","address":" USA-Burleson"},{"latitude":" 36.15770","longitude":"-115.20323","name":" Lowe's","address":" USA-C Las Vegas"},{"latitude":" 28.01591","longitude":"-82.73790","name":" Lowe's","address":" USA-Clearwater"},{"latitude":" 41.31384","longitude":"-81.52349","name":" Lowe's","address":" USA-Macedonia"},{"latitude":" 29.49150","longitude":"-98.43430","name":" Lowe's","address":" USA-N E Central San Antonio"},{"latitude":" 28.28025","longitude":"-82.67332","name":" Lowe's","address":" USA-Port Richey"},{"latitude":" 38.96110","longitude":"-92.29230","name":" Lowe's","address":" USA-Columbia"},{"latitude":" 43.97383","longitude":"-75.95635","name":" Lowe's","address":" USA-Watertown"},{"latitude":" 64.85767","longitude":"-147.69120","name":" Lowe's","address":" USA-Fairbanks"},{"latitude":" 32.94378","longitude":"-96.60968","name":" Lowe's","address":" USA-Garland"},{"latitude":" 35.14663","longitude":"-89.90900","name":" Lowe's","address":" USA-Memphis"},{"latitude":" 40.31107","longitude":"-74.66176","name":" Lowe's","address":" USA-W Windsor"},{"latitude":" 37.67760","longitude":"-97.20600","name":" Lowe's","address":" USA-E Wichita"},{"latitude":" 39.64070","longitude":"-84.22170","name":" Lowe's","address":" USA-Dayton Mall"},{"latitude":" 29.52925","longitude":"-95.80544","name":" Lowe's","address":" USA-Rosenberg"},{"latitude":" 30.00286","longitude":"-90.16276","name":" Lowe's","address":" USA-Metairie"},{"latitude":" 28.75760","longitude":"-81.28770","name":" Lowe's","address":" USA-Sanford"},{"latitude":" 30.21940","longitude":"-93.32284","name":" Lowe's","address":" USA-Sulphur"},{"latitude":" 32.33487","longitude":"-111.05387","name":" Lowe's","address":" USA-Marana"},{"latitude":" 40.47852","longitude":"-81.43794","name":" Lowe's","address":" USA-New Philadelphia"},{"latitude":" 29.64882","longitude":"-95.15821","name":" Lowe's","address":" USA-Pasadena"},{"latitude":" 41.42386","longitude":"-81.50611","name":" Lowe's","address":" USA-Bedford Heights"},{"latitude":" 35.08780","longitude":"-80.85380","name":" Lowe's","address":" USA-Pineville"},{"latitude":" 39.62940","longitude":"-77.76390","name":" Lowe's","address":" USA-Hagerstown"},{"latitude":" 34.82896","longitude":"-82.29701","name":" Lowe's","address":" USA-Greenville"},{"latitude":" 42.23140","longitude":"-83.68110","name":" Lowe's","address":" USA-Ann Arbor"},{"latitude":" 46.21560","longitude":"-119.22210","name":" Lowe's","address":" USA-Kennewick"},{"latitude":" 33.71668","longitude":"-117.98662","name":" Lowe's","address":" USA-Huntington Beach"},{"latitude":" 33.94230","longitude":"-117.27870","name":" Lowe's","address":" USA-Moreno Valley"},{"latitude":" 35.96490","longitude":"-77.82120","name":" Lowe's","address":" USA-Rocky Mount"},{"latitude":" 36.00710","longitude":"-115.11610","name":" Lowe's","address":" USA-W Henderson"},{"latitude":" 32.76403","longitude":"-97.16541","name":" Lowe's","address":" USA-E Fort Worth"},{"latitude":" 29.39660","longitude":"-94.95220","name":" Lowe's","address":" USA-Texas City"},{"latitude":" 33.61050","longitude":"-86.80466","name":" Lowe's","address":" USA-Fultondale"},{"latitude":" 42.94155","longitude":"-71.47187","name":" Lowe's","address":" USA-Bedford"},{"latitude":" 35.70000","longitude":"-81.28330","name":" Lowe's","address":" USA-Hickory"},{"latitude":" 40.05161","longitude":"-80.72013","name":" Lowe's","address":" USA-Wheeling"},{"latitude":" 47.70181","longitude":"-116.80028","name":" Lowe's","address":" USA-Coeur D' Alene"},{"latitude":" 33.97850","longitude":"-81.10940","name":" Lowe's","address":" USA-W Columbia"},{"latitude":" 32.40063","longitude":"-90.13895","name":" Lowe's","address":" USA-Ridgeland"},{"latitude":" 34.82970","longitude":"-87.62840","name":" Lowe's","address":" USA-Florence"},{"latitude":" 40.13842","longitude":"-88.25816","name":" Lowe's","address":" USA-Champaign"},{"latitude":" 21.39950","longitude":"-158.00350","name":" Lowe's","address":" USA-Waipahu"},{"latitude":" 35.28321","longitude":"-93.09662","name":" Lowe's","address":" USA-Russellville"},{"latitude":" 40.07461","longitude":"-80.86993","name":" Lowe's","address":" USA-St Clairsville"},{"latitude":" 33.63628","longitude":"-112.34961","name":" Lowe's","address":" USA-Surprise"},{"latitude":" 42.56321","longitude":"-83.08817","name":" Lowe's","address":" USA-Sterling Heights"},{"latitude":" 30.31602","longitude":"-81.73177","name":" Lowe's","address":" USA-W Jacksonville"},{"latitude":" 36.97372","longitude":"-82.59434","name":" Lowe's","address":" USA-Wise Cnty"},{"latitude":" 30.44770","longitude":"-90.07990","name":" Lowe's","address":" USA-Covington"},{"latitude":" 33.24649","longitude":"-111.84123","name":" Lowe's","address":" USA-Ocotillo"},{"latitude":" 29.60660","longitude":"-98.51130","name":" Lowe's","address":" USA-N San Antonio"},{"latitude":" 36.18142","longitude":"-82.77664","name":" Lowe's","address":" USA-Greenville"},{"latitude":" 26.03020","longitude":"-80.35980","name":" Lowe's","address":" USA-W Davie"},{"latitude":" 34.18910","longitude":"-97.16236","name":" Lowe's","address":" USA-Ardmore"},{"latitude":" 34.75470","longitude":"-86.74680","name":" Lowe's","address":" USA-Madison"},{"latitude":" 34.18332","longitude":"-84.13663","name":" Lowe's","address":" USA-Cumming"},{"latitude":" 39.86265","longitude":"-75.03532","name":" Lowe's","address":" USA-Lawnside"},{"latitude":" 42.28097","longitude":"-83.21313","name":" Lowe's","address":" USA-Allen Park"},{"latitude":" 32.24243","longitude":"-80.82626","name":" Lowe's","address":" USA-Bluffton (Hilton Head)"},{"latitude":" 43.21277","longitude":"-77.71679","name":" Lowe's","address":" USA-Greece"},{"latitude":" 33.95789","longitude":"-80.38673","name":" Lowe's","address":" USA-Sumter"},{"latitude":" 35.94148","longitude":"-83.21165","name":" Lowe's","address":" USA-Newport"},{"latitude":" 33.98530","longitude":"-118.10430","name":" Lowe's","address":" USA-Pico Rivera"},{"latitude":" 47.46140","longitude":"-122.24943","name":" Lowe's","address":" USA-Tukwila"},{"latitude":" 35.98712","longitude":"-85.03844","name":" Lowe's","address":" USA-Crossville"},{"latitude":" 32.20178","longitude":"-82.35689","name":" Lowe's","address":" USA-Vidalia"},{"latitude":" 42.52250","longitude":"-83.02720","name":" Lowe's","address":" USA-Warren"},{"latitude":" 46.86210","longitude":"-96.87010","name":" Lowe's","address":" USA-Fargo"},{"latitude":" 42.99917","longitude":"-78.81681","name":" Lowe's","address":" USA-W Amherst"},{"latitude":" 40.30619","longitude":"-79.59632","name":" Lowe's","address":" USA-Greensburg"},{"latitude":" 35.04686","longitude":"-89.79731","name":" Lowe's","address":" USA-S E Memphis"},{"latitude":" 32.81124","longitude":"-80.04640","name":" Lowe's","address":" USA-W Ashley"},{"latitude":" 40.22970","longitude":"-75.13830","name":" Lowe's","address":" USA-Warrington"},{"latitude":" 34.19118","longitude":"-118.33439","name":" Lowe's","address":" USA-Burbank"},{"latitude":" 34.67440","longitude":"-118.14633","name":" Lowe's","address":" USA-Lancaster"},{"latitude":" 28.82620","longitude":"-81.79930","name":" Lowe's","address":" USA-Lake County"},{"latitude":" 39.90966","longitude":"-86.22240","name":" Lowe's","address":" USA-N W Indianapolis"},{"latitude":" 32.54110","longitude":"-94.72920","name":" Lowe's","address":" USA-Longview"},{"latitude":" 42.18487","longitude":"-83.18997","name":" Lowe's","address":" USA-Southgate"},{"latitude":" 37.31790","longitude":"-79.96410","name":" Lowe's","address":" USA-Roanoke"},{"latitude":" 37.63450","longitude":"-77.45880","name":" Lowe's","address":" USA-N Richmond"},{"latitude":" 34.23520","longitude":"-77.87400","name":" Lowe's","address":" USA-University Centre"},{"latitude":" 42.86296","longitude":"-73.76682","name":" Lowe's","address":" USA-Halfmoon (Clifton Park)"},{"latitude":" 45.42320","longitude":"-122.58153","name":" Lowe's","address":" USA-Clackamas County"},{"latitude":" 38.56220","longitude":"-90.40640","name":" Lowe's","address":" USA-Kirkwood"},{"latitude":" 29.81326","longitude":"-90.81554","name":" Lowe's","address":" USA-Thibodaux"},{"latitude":" 43.83943","longitude":"-70.44636","name":" Lowe's","address":" USA-N Windham"},{"latitude":" 34.27362","longitude":"-85.23474","name":" Lowe's","address":" USA-Rome"},{"latitude":" 33.99661","longitude":"-85.98813","name":" Lowe's","address":" USA-Gadsden"},{"latitude":" 28.01197","longitude":"-81.72933","name":" Lowe's","address":" USA-Winter Haven"},{"latitude":" 40.72268","longitude":"-74.09350","name":" Lowe's","address":" USA-Jersey City"},{"latitude":" 33.60862","longitude":"-112.23918","name":" Lowe's","address":" USA-Peoria"},{"latitude":" 33.45731","longitude":"-117.60398","name":" Lowe's","address":" USA-San Clemente"},{"latitude":" 34.20470","longitude":"-84.77100","name":" Lowe's","address":" USA-Cartersville"},{"latitude":" 36.84574","longitude":"-119.79144","name":" Lowe's","address":" USA-Fresno"},{"latitude":" 38.22814","longitude":"-84.53477","name":" Lowe's","address":" USA-Georgetown"},{"latitude":" 30.48214","longitude":"-97.67747","name":" Lowe's","address":" USA-Round Rock"},{"latitude":" 37.61685","longitude":"-84.77486","name":" Lowe's","address":" USA-Danville"},{"latitude":" 33.61405","longitude":"-85.80196","name":" Lowe's","address":" USA-Oxford"},{"latitude":" 47.04855","longitude":"-122.83154","name":" Lowe's","address":" USA-Olympia"},{"latitude":" 41.39806","longitude":"-82.11735","name":" Lowe's","address":" USA-Elyria"},{"latitude":" 43.20411","longitude":"-86.19351","name":" Lowe's","address":" USA-Muskegon"},{"latitude":" 48.44142","longitude":"-122.34084","name":" Lowe's","address":" USA-Mt Vernon"},{"latitude":" 28.11563","longitude":"-82.37914","name":" Lowe's","address":" USA-Tampa Palms"},{"latitude":" 41.37290","longitude":"-83.11718","name":" Lowe's","address":" USA-Fremont"},{"latitude":" 36.73952","longitude":"-97.06724","name":" Lowe's","address":" USA-Ponca City"},{"latitude":" 41.97092","longitude":"-73.98604","name":" Lowe's","address":" USA-Ulster"},{"latitude":" 32.23605","longitude":"-110.83887","name":" Lowe's","address":" USA-E Tucson"},{"latitude":" 27.64042","longitude":"-80.45114","name":" Lowe's","address":" USA-Vero Beach"},{"latitude":" 33.10328","longitude":"-96.80421","name":" Lowe's","address":" USA-Frisco"},{"latitude":" 37.00175","longitude":"-85.92648","name":" Lowe's","address":" USA-Glasgow"},{"latitude":" 37.99798","longitude":"-84.21711","name":" Lowe's","address":" USA-Winchester"},{"latitude":" 33.70071","longitude":"-84.16895","name":" Lowe's","address":" USA-S Dekalb - Lithonia"},{"latitude":" 30.33000","longitude":"-81.55300","name":" Lowe's","address":" USA-E Jacksonville"},{"latitude":" 42.62504","longitude":"-82.97086","name":" Lowe's","address":" USA-Clinton Twp"},{"latitude":" 33.82405","longitude":"-118.30892","name":" Lowe's","address":" USA-Torrance"},{"latitude":" 36.01470","longitude":"-114.95610","name":" Lowe's","address":" USA-Central Henderson"},{"latitude":" 32.28223","longitude":"-110.97828","name":" Lowe's","address":" USA-C Tucson"},{"latitude":" 37.25244","longitude":"-93.31194","name":" Lowe's","address":" USA-N Springfield"},{"latitude":" 34.93690","longitude":"-80.96660","name":" Lowe's","address":" USA-Rock Hill"},{"latitude":" 31.90150","longitude":"-106.43840","name":" Lowe's","address":" USA-N El Paso"},{"latitude":" 34.91672","longitude":"-88.50554","name":" Lowe's","address":" USA-Corinth"},{"latitude":" 37.73033","longitude":"-84.28575","name":" Lowe's","address":" USA-Richmond"},{"latitude":" 42.29550","longitude":"-85.64850","name":" Lowe's","address":" USA-Kalamazoo"},{"latitude":" 37.36232","longitude":"-87.49104","name":" Lowe's","address":" USA-Madisonville"},{"latitude":" 36.34488","longitude":"-82.40456","name":" Lowe's","address":" USA-Johnson City"},{"latitude":" 42.74780","longitude":"-73.76220","name":" Lowe's","address":" USA-Colonie"},{"latitude":" 35.56247","longitude":"-77.40780","name":" Lowe's","address":" USA-Greenville"},{"latitude":" 37.06218","longitude":"-81.75021","name":" Lowe's","address":" USA-Claypool Hill"},{"latitude":" 41.56050","longitude":"-90.52610","name":" Lowe's","address":" USA-Davenport"},{"latitude":" 35.04868","longitude":"-81.98500","name":" Lowe's","address":" USA-Boiling Springs"},{"latitude":" 45.42894","longitude":"-122.75372","name":" Lowe's","address":" USA-Tigard"},{"latitude":" 40.55500","longitude":"-74.43920","name":" Lowe's","address":" USA-Piscataway"},{"latitude":" 37.40270","longitude":"-77.66920","name":" Lowe's","address":" USA-W Chesterfield"},{"latitude":" 36.14032","longitude":"-97.05174","name":" Lowe's","address":" USA-Stillwater"},{"latitude":" 38.97071","longitude":"-104.74808","name":" Lowe's","address":" USA-N Colorado Springs"},{"latitude":" 30.37702","longitude":"-91.06450","name":" Lowe's","address":" USA-S Baton Rouge"},{"latitude":" 38.10777","longitude":"-85.67202","name":" Lowe's","address":" USA-S Louisville"},{"latitude":" 38.88170","longitude":"-94.76300","name":" Lowe's","address":" USA-Olathe"},{"latitude":" 35.25784","longitude":"-81.11088","name":" Lowe's","address":" USA-Franklin Square"},{"latitude":" 33.82960","longitude":"-78.67740","name":" Lowe's","address":" USA-N Myrtle Beach"},{"latitude":" 42.09860","longitude":"-75.99990","name":" Lowe's","address":" USA-Vestal"},{"latitude":" 34.99366","longitude":"-78.33988","name":" Lowe's","address":" USA-Clinton"},{"latitude":" 42.33320","longitude":"-83.40970","name":" Lowe's","address":" USA-Westland"},{"latitude":" 40.58678","longitude":"-111.89525","name":" Lowe's","address":" USA-Sandy"},{"latitude":" 32.88092","longitude":"-83.76259","name":" Lowe's","address":" USA-N W Macon"},{"latitude":" 39.15732","longitude":"-78.17051","name":" Lowe's","address":" USA-Winchester"},{"latitude":" 29.87861","longitude":"-95.64459","name":" Lowe's","address":" USA-W Houston"},{"latitude":" 37.38520","longitude":"-76.53381","name":" Lowe's","address":" USA-Gloucester"},{"latitude":" 32.81440","longitude":"-83.67740","name":" Lowe's","address":" USA-Macon"},{"latitude":" 39.61646","longitude":"-86.35805","name":" Lowe's","address":" USA-Mooresville"},{"latitude":" 26.61063","longitude":"-81.80744","name":" Lowe's","address":" USA-N E Fort Myers"},{"latitude":" 41.74690","longitude":"-88.20551","name":" Lowe's","address":" USA-Naperville"},{"latitude":" 39.97544","longitude":"-76.67621","name":" Lowe's","address":" USA-York"},{"latitude":" 40.69722","longitude":"-76.18844","name":" Lowe's","address":" USA-Pottsville"},{"latitude":" 38.78831","longitude":"-90.53255","name":" Lowe's","address":" USA-St Charles"},{"latitude":" 34.95240","longitude":"-85.24610","name":" Lowe's","address":" USA-Ft Oglethorpe"},{"latitude":" 31.07110","longitude":"-97.36130","name":" Lowe's","address":" USA-Temple"},{"latitude":" 29.77814","longitude":"-94.97647","name":" Lowe's","address":" USA-Baytown"},{"latitude":" 42.91180","longitude":"-112.46486","name":" Lowe's","address":" USA-Pocatello"},{"latitude":" 32.80750","longitude":"-97.42530","name":" Lowe's","address":" USA-N W Ft Worth"},{"latitude":" 33.10257","longitude":"-96.68149","name":" Lowe's","address":" USA-Allen"},{"latitude":" 42.65980","longitude":"-84.53730","name":" Lowe's","address":" USA-S Lansing"},{"latitude":" 34.20848","longitude":"-91.97279","name":" Lowe's","address":" USA-Pine Bluff"},{"latitude":" 32.34140","longitude":"-106.77280","name":" Lowe's","address":" USA-Las Cruces"},{"latitude":" 34.08740","longitude":"-83.99080","name":" Lowe's","address":" USA-Buford"},{"latitude":" 36.63292","longitude":"-82.12692","name":" Lowe's","address":" USA-Bristol"},{"latitude":" 30.28094","longitude":"-89.74734","name":" Lowe's","address":" USA-Slidell"},{"latitude":" 27.79280","longitude":"-82.66620","name":" Lowe's","address":" USA-S St Petersburg"},{"latitude":" 37.99578","longitude":"-87.46761","name":" Lowe's","address":" USA-E Evansville"},{"latitude":" 31.19015","longitude":"-83.76244","name":" Lowe's","address":" USA-Moultrie"},{"latitude":" 30.06822","longitude":"-99.11684","name":" Lowe's","address":" USA-Kerrville"},{"latitude":" 33.44730","longitude":"-88.84307","name":" Lowe's","address":" USA-Starkville"},{"latitude":" 40.00000","longitude":"-86.12500","name":" Lowe's","address":" USA-Carmel"},{"latitude":" 33.56437","longitude":"-86.51880","name":" Lowe's","address":" USA-Leeds"},{"latitude":" 40.67752","longitude":"-75.13925","name":" Lowe's","address":" USA-Phillipsburg"},{"latitude":" 42.26960","longitude":"-84.43300","name":" Lowe's","address":" USA-Jackson"},{"latitude":" 40.02681","longitude":"-83.12065","name":" Lowe's","address":" USA-W Columbus"},{"latitude":" 33.97634","longitude":"-78.40332","name":" Lowe's","address":" USA-Shallotte"},{"latitude":" 35.34865","longitude":"-94.34112","name":" Lowe's","address":" USA-Ft Smith"},{"latitude":" 29.51110","longitude":"-98.55370","name":" Lowe's","address":" USA-N W Central San Antonio"},{"latitude":" 34.59996","longitude":"-118.14476","name":" Lowe's","address":" USA-Palmdale"},{"latitude":" 41.69263","longitude":"-88.12506","name":" Lowe's","address":" USA-Bolingbrook"},{"latitude":" 31.72469","longitude":"-106.30384","name":" Lowe's","address":" USA-E El Paso"},{"latitude":" 42.67373","longitude":"-82.82940","name":" Lowe's","address":" USA-N Chesterfield"},{"latitude":" 39.47578","longitude":"-119.79408","name":" Lowe's","address":" USA-Reno"},{"latitude":" 30.44240","longitude":"-86.63880","name":" Lowe's","address":" USA-Ft Walton Beach"},{"latitude":" 35.02604","longitude":"-80.58020","name":" Lowe's","address":" USA-Monroe"},{"latitude":" 34.15622","longitude":"-86.83894","name":" Lowe's","address":" USA-Cullman"},{"latitude":" 30.17167","longitude":"-92.06962","name":" Lowe's","address":" USA-Lafayette"},{"latitude":" 29.43720","longitude":"-98.64860","name":" Lowe's","address":" USA-W San Antonio"},{"latitude":" 35.10222","longitude":"-77.08894","name":" Lowe's","address":" USA-New Bern"},{"latitude":" 30.19190","longitude":"-93.17820","name":" Lowe's","address":" USA-Lake Charles"},{"latitude":" 44.09646","longitude":"-93.24681","name":" Lowe's","address":" USA-Owatonna"},{"latitude":" 43.12730","longitude":"-75.22380","name":" Lowe's","address":" USA-Utica"},{"latitude":" 36.81787","longitude":"-76.43795","name":" Lowe's","address":" USA-W Chesapeake"},{"latitude":" 38.29850","longitude":"-77.50810","name":" Lowe's","address":" USA-Fredericksburg"},{"latitude":" 35.89406","longitude":"-84.55349","name":" Lowe's","address":" USA-Harriman"},{"latitude":" 36.85824","longitude":"-76.21336","name":" Lowe's","address":" USA-Norfolk"},{"latitude":" 39.87708","longitude":"-84.13860","name":" Lowe's","address":" USA-Huber Heights"},{"latitude":" 36.18935","longitude":"-86.29648","name":" Lowe's","address":" USA-Lebanon"},{"latitude":" 30.83712","longitude":"-83.94454","name":" Lowe's","address":" USA-Thomasville"},{"latitude":" 34.10572","longitude":"-117.55494","name":" Lowe's","address":" USA-Rancho Cucamonga"},{"latitude":" 32.34357","longitude":"-90.05779","name":" Lowe's","address":" USA-Flowood"},{"latitude":" 32.76146","longitude":"-89.15068","name":" Lowe's","address":" USA-Philadelphia"},{"latitude":" 33.51736","longitude":"-80.86513","name":" Lowe's","address":" USA-Orangeburg"},{"latitude":" 38.79142","longitude":"-90.69708","name":" Lowe's","address":" USA-O'fallon"},{"latitude":" 40.77960","longitude":"-82.58980","name":" Lowe's","address":" USA-Ontario"},{"latitude":" 37.90135","longitude":"-84.58487","name":" Lowe's","address":" USA-Nicholasville"},{"latitude":" 35.77080","longitude":"-83.98910","name":" Lowe's","address":" USA-Blount County"},{"latitude":" 43.68657","longitude":"-85.51305","name":" Lowe's","address":" USA-Big Rapids"},{"latitude":" 28.54710","longitude":"-81.20750","name":" Lowe's","address":" USA-Waterford Lakes"},{"latitude":" 41.81670","longitude":"-72.71860","name":" Lowe's","address":" USA-Bloomfield"},{"latitude":" 29.78327","longitude":"-95.71440","name":" Lowe's","address":" USA-Katy"},{"latitude":" 35.96840","longitude":"-78.53740","name":" Lowe's","address":" USA-Wake Forest"},{"latitude":" 39.45650","longitude":"-76.63830","name":" Lowe's","address":" USA-Timonium"},{"latitude":" 40.68040","longitude":"-80.31030","name":" Lowe's","address":" USA-Monaca"},{"latitude":" 32.61840","longitude":"-83.66970","name":" Lowe's","address":" USA-Warner Robins"},{"latitude":" 41.50290","longitude":"-74.07260","name":" Lowe's","address":" USA-Newburgh"},{"latitude":" 37.72375","longitude":"-87.12166","name":" Lowe's","address":" USA-Owensboro"},{"latitude":" 36.74069","longitude":"-95.95026","name":" Lowe's","address":" USA-Bartlesville"},{"latitude":" 32.35340","longitude":"-86.22095","name":" Lowe's","address":" USA-S Montgomery"},{"latitude":" 28.02700","longitude":"-82.54490","name":" Lowe's","address":" USA-Central Tampa"},{"latitude":" 30.43450","longitude":"-87.27150","name":" Lowe's","address":" USA-S W Pensacola"},{"latitude":" 40.18490","longitude":"-80.22752","name":" Lowe's","address":" USA-Washington"},{"latitude":" 33.64189","longitude":"-84.01336","name":" Lowe's","address":" USA-Conyers"},{"latitude":" 41.30752","longitude":"-84.36014","name":" Lowe's","address":" USA-Defiance"},{"latitude":" 32.13583","longitude":"-110.99219","name":" Lowe's","address":" USA-S W Tucson"},{"latitude":" 47.28815","longitude":"-122.31278","name":" Lowe's","address":" USA-Federal Way"},{"latitude":" 20.88305","longitude":"-156.45168","name":" Lowe's","address":" USA-Kahului"},{"latitude":" 36.34700","longitude":"-82.24897","name":" Lowe's","address":" USA-Elizabethton"},{"latitude":" 39.55453","longitude":"-107.34173","name":" Lowe's","address":" USA-Glenwood Springs"},{"latitude":" 28.55102","longitude":"-81.50454","name":" Lowe's","address":" USA-W Orlando"},{"latitude":" 33.59770","longitude":"-86.64850","name":" Lowe's","address":" USA-Trussville"},{"latitude":" 41.47110","longitude":"-90.47600","name":" Lowe's","address":" USA-Moline"},{"latitude":" 34.07356","longitude":"-84.16683","name":" Lowe's","address":" USA-Duluth"},{"latitude":" 45.02635","longitude":"-84.69258","name":" Lowe's","address":" USA-Gaylord"},{"latitude":" 36.33758","longitude":"-94.18030","name":" Lowe's","address":" USA-Rogers"},{"latitude":" 39.53625","longitude":"-104.77217","name":" Lowe's","address":" USA-Parker"},{"latitude":" 30.38289","longitude":"-88.52262","name":" Lowe's","address":" USA-Pascagoula"},{"latitude":" 34.03503","longitude":"-84.67438","name":" Lowe's","address":" USA-Acworth"},{"latitude":" 35.12245","longitude":"-80.69727","name":" Lowe's","address":" USA-S E Charlotte"},{"latitude":" 30.90579","longitude":"-94.01902","name":" Lowe's","address":" USA-Jasper"},{"latitude":" 35.84449","longitude":"-86.42550","name":" Lowe's","address":" USA-Murfreesboro"},{"latitude":" 40.67195","longitude":"-73.99693","name":" Lowe's","address":" USA-Brooklyn"},{"latitude":" 37.04010","longitude":"-76.39430","name":" Lowe's","address":" USA-Hampton"},{"latitude":" 33.70883","longitude":"-116.28939","name":" Lowe's","address":" USA-La Quinta"},{"latitude":" 33.95497","longitude":"-78.04473","name":" Lowe's","address":" USA-Southport"},{"latitude":" 34.07170","longitude":"-80.94970","name":" Lowe's","address":" USA-N E Columbia"},{"latitude":" 37.22810","longitude":"-79.97230","name":" Lowe's","address":" USA-S Roanoke"},{"latitude":" 39.98160","longitude":"-74.80562","name":" Lowe's","address":" USA-Mt Holly"},{"latitude":" 30.36560","longitude":"-97.74030","name":" Lowe's","address":" USA-Central Austin"},{"latitude":" 41.24090","longitude":"-81.35270","name":" Lowe's","address":" USA-Streetsboro"},{"latitude":" 34.78220","longitude":"-77.39870","name":" Lowe's","address":" USA-Jacksonville"},{"latitude":" 37.79690","longitude":"-81.17458","name":" Lowe's","address":" USA-Beckley"},{"latitude":" 42.28936","longitude":"-83.84424","name":" Lowe's","address":" USA-Scio Township"},{"latitude":" 44.07702","longitude":"-87.70114","name":" Lowe's","address":" USA-Manitowoc"},{"latitude":" 36.11610","longitude":"-79.83740","name":" Lowe's","address":" USA-N Greensboro"},{"latitude":" 35.38983","longitude":"-97.51389","name":" Lowe's","address":" USA-S Oklahoma City"},{"latitude":" 30.18832","longitude":"-85.65567","name":" Lowe's","address":" USA-Panama City"},{"latitude":" 41.64267","longitude":"-70.98742","name":" Lowe's","address":" USA-N Dartmouth"},{"latitude":" 35.56720","longitude":"-82.62740","name":" Lowe's","address":" USA-W Asheville"},{"latitude":" 39.46429","longitude":"-76.31575","name":" Lowe's","address":" USA-S Bel Air"},{"latitude":" 39.42750","longitude":"-75.04050","name":" Lowe's","address":" USA-Millville"},{"latitude":" 30.20060","longitude":"-97.76380","name":" Lowe's","address":" USA-S E Austin"},{"latitude":" 36.28020","longitude":"-86.71048","name":" Lowe's","address":" USA-Madison"},{"latitude":" 29.55653","longitude":"-95.26367","name":" Lowe's","address":" USA-Pearland"},{"latitude":" 33.16400","longitude":"-87.55050","name":" Lowe's","address":" USA-Tuscaloosa"},{"latitude":" 47.88869","longitude":"-97.08619","name":" Lowe's","address":" USA-Grand Forks"},{"latitude":" 42.29078","longitude":"-71.78149","name":" Lowe's","address":" USA-Worcester"},{"latitude":" 42.57424","longitude":"-87.88702","name":" Lowe's","address":" USA-Kenosha"},{"latitude":" 35.88838","longitude":"-94.97563","name":" Lowe's","address":" USA-Tahlequah"},{"latitude":" 39.07973","longitude":"-84.88544","name":" Lowe's","address":" USA-Lawrenceburg"},{"latitude":" 37.87942","longitude":"-82.04004","name":" Lowe's","address":" USA-Logan"}]