[{"latitude":"33.333799","longitude":"-86.793697","name":"Lumber Liquidators - 2242 Pelham Pkwy; Pelham","address":"AL 35124>205-941-9955"},{"latitude":"33.605392","longitude":"-86.629425","name":"Lumber Liquidators - 1805 Tin Valley Circle; Birmingham","address":"AL 35235>205-572-4850"},{"latitude":"34.654764","longitude":"-86.567015","name":"Lumber Liquidators - 8402 Whitesburg Dr S; Huntsville","address":"AL 35802>256-513-4656"},{"latitude":"32.382405","longitude":"-86.232441","name":"Lumber Liquidators - 4345 Atlanta Hwy; Montgomery","address":"AL 36109>334-239-3488"},{"latitude":"30.671314","longitude":"-88.137674","name":"Lumber Liquidators - 3725 Airport Blvd; Mobile","address":"AL 36608>251-545-3353"},{"latitude":"34.74283","longitude":"-92.3551226","name":"Lumber Liquidators - 6 Freeway Dr; Little Rock","address":"AR 72205>501-588-4735"},{"latitude":"36.175418","longitude":"-94.1504719","name":"Lumber Liquidators - 1840 W Sunset Ave; Springdale","address":"AR 72762>479-439-8544"},{"latitude":"33.428081","longitude":"-112.065592","name":"Lumber Liquidators - 2120 S 7th St; Phoenix","address":"AZ 85034>602-454-2552"},{"latitude":"33.618926","longitude":"-111.899727","name":"Lumber Liquidators - 8340 E Rain Tree Dr: Scottsdale","address":"AZ 85260>480-582-1400"},{"latitude":"33.281488","longitude":"-111.7989","name":"Lumber Liquidators - 2460 E Germann Rd; Chandler","address":"AZ 85286>623-321-3590"},{"latitude":"33.573587","longitude":"-112.256461","name":"Lumber Liquidators - 9700 N 91st Ave; Peoria","address":"AZ 85345>623-239-3062"},{"latitude":"32.27604","longitude":"-111.015358","name":"Lumber Liquidators - 3745 N I-10 EB Frontage Rd; Tucson","address":"AZ 85705>520-790-7029"},{"latitude":"33.990832","longitude":"-118.13994","name":"Lumber Liquidators - 6548 Telegraph Rd; City Of Commerce","address":"CA 90040>323-721-0800"},{"latitude":"34.037659","longitude":"-118.437531","name":"Lumber Liquidators - 2310 Cotner Ave; Los Angeles","address":"CA 90064>213-785-3456"},{"latitude":"34.099132","longitude":"-117.565844","name":"Lumber Liquidators - 10920 Arrow Route; Rancho Cucamonga","address":"CA 91730>909-937-1122"},{"latitude":"33.9934419","longitude":"-117.8735663","name":"Lumber Liquidators - 19555 Walnut Dr S; City Of Industry","address":"CA 91748>626-465-1560"},{"latitude":"32.8867009","longitude":"-117.1482991","name":"Lumber Liquidators - 7924 Miramar Rd; San Diego","address":"CA 92126>858-689-0800"},{"latitude":"33.7996392","longitude":"-116.3819564","name":"Lumber Liquidators - 73-806 Dinah Shore Dr; Palm Desert","address":"CA 92211>760-469-4368"},{"latitude":"33.726497","longitude":"-117.8411033","name":"Lumber Liquidators - 1850 E Edinger Ave; Santa Ana","address":"CA 92705>714-258-8100"},{"latitude":"34.250964","longitude":"-119.20454","name":"Lumber Liquidators - 6250 Inez St; Ventura","address":"CA 93003>805-256-7070"},{"latitude":"35.2441972","longitude":"-120.6709046","name":"Lumber Liquidators - 170 Suburban Rd; San Luis Obispo","address":"CA 93401>805-706-0387"},{"latitude":"37.5951463","longitude":"-122.3698932","name":"Lumber Liquidators - 1501 Adrian Rd; Burlingame","address":"CA 94010>650-204-4663"},{"latitude":"37.981923","longitude":"-122.065337","name":"Lumber Liquidators - 110 2nd Ave S; Pacheco","address":"CA 94553>925-231-1059"},{"latitude":"37.7044458","longitude":"-122.1561501","name":"Lumber Liquidators - 2997 Teagarden St; San Leandro","address":"CA 94578>510-524-7800"},{"latitude":"37.367019","longitude":"-121.905534","name":"Lumber Liquidators - 1575 Terminal Ave; San Jose","address":"CA 95112>408-463-6300"},{"latitude":"39.704804","longitude":"-104.825336","name":"Lumber Liquidators - 14015 E Exposition Ave; Aurora","address":"CO 80012>720-307-6645"},{"latitude":"39.616531","longitude":"-105.092925","name":"Lumber Liquidators - 8500 W Crestline Ave; Littleton","address":"CO 80123>720-593-4350"},{"latitude":"39.5543244","longitude":"-104.8814036","name":"Lumber Liquidators - 8204-B Park Meadows Dr; Lone Tree","address":"CO 80124>720-259-4370"},{"latitude":"39.788562","longitude":"-104.988381","name":"Lumber Liquidators - 5060 Acoma St; Denver","address":"CO 80216>303-292-1515"},{"latitude":"40.151085","longitude":"-105.119921","name":"Lumber Liquidators - 633 Frontage Rd; Longmont","address":"CO 80501>720-204-3477"},{"latitude":"40.1511462","longitude":"-105.1193286","name":"Lumber Liquidators - 633 Frontage Rd; Longmont","address":"CO 80501>720-204-3477"},{"latitude":"40.580045","longitude":"-105.031888","name":"Lumber Liquidators - 2415 E Mulberry St; Fort Collins","address":"CO 80524>970-372-0197"},{"latitude":"38.8986497","longitude":"-104.8269245","name":"Lumber Liquidators - 4624 Northpark Dr; Colorado Springs","address":"CO 80918>719-266-9299"},{"latitude":"39.085758","longitude":"-108.597264","name":"Lumber Liquidators - 2465 Hwy 6 & 50; Grand Junction","address":"CO 81505>970-628-0160"},{"latitude":"41.736749","longitude":"-72.661069","name":"Lumber Liquidators - 121 Brainard Rd; Hartford","address":"CT 06114>860-527-8434"},{"latitude":"41.379353","longitude":"-72.161019","name":"Lumber Liquidators - 150 Cross Rd; Waterford","address":"CT 06385>860-237-4545"},{"latitude":"41.2406","longitude":"-73.030466","name":"Lumber Liquidators - 1389 Boston Post Rd; Milford","address":"CT 06460>203-693-4022"},{"latitude":"41.356961","longitude":"-72.872972","name":"Lumber Liquidators - 430 Universal Dr N; North Haven","address":"CT 06473>203-889-4703"},{"latitude":"41.316212","longitude":"-72.902843","name":"Lumber Liquidators - 1175 State St; New Haven","address":"CT 06511>203-889-4703"},{"latitude":"41.568414","longitude":"-73.005774","name":"Lumber Liquidators - 1012 Wolcott St; Waterbury","address":"CT 06705>203-721-6145"},{"latitude":"41.80007","longitude":"-73.126101","name":"Lumber Liquidators - 237 High St; Torrington","address":"CT 06790>860-387-7032"},{"latitude":"41.408453","longitude":"-73.415058","name":"Lumber Liquidators - 71 Newtown Rd; Danbury","address":"CT 06810>203-702-1430"},{"latitude":"41.0953271","longitude":"-73.4486338","name":"Lumber Liquidators - 651 Connecticut Ave; Norwalk","address":"CT 06854>203-842-0840"},{"latitude":"39.666842","longitude":"-75.671285","name":"Lumber Liquidators - 23 University Plaza; Newark","address":"DE 19702>302-273-8193"},{"latitude":"39.813227","longitude":"-75.444309","name":"Lumber Liquidators - 203 Naamans Rd; Claymont","address":"DE 19703>302-798-1400"},{"latitude":"39.195947","longitude":"-75.549089","name":"Lumber Liquidators - 2940 N DuPont Hwy; Dover","address":"DE 19901>302-747-5988"},{"latitude":"38.4660631","longitude":"-75.5581895","name":"Lumber Liquidators - 38491 Sussex Hwy; Delmar","address":"DE 19940>302-248-5345"},{"latitude":"29.244546","longitude":"-81.063067","name":"Lumber Liquidators - 1757 N Nova Rd; Holly Hill","address":"FL 32117>386- 868-1191"},{"latitude":"30.3321838","longitude":"-81.655651","name":"Lumber Liquidators - 624 Beautyrest Ave; Jacksonville","address":"FL 32205>904-783-6446"},{"latitude":"30.4253183","longitude":"-84.2269174","name":"Lumber Liquidators - 1516 Capital Cir SE; Tallahassee","address":"FL 32301>850-942-0000"},{"latitude":"30.164826","longitude":"-85.625686","name":"Lumber Liquidators - 901 NE Ave; Panama City","address":"FL 32401>850-387-4328"},{"latitude":"28.775124","longitude":"-81.276773","name":"Lumber Liquidators - 2885 S Orlando Dr; Sanford","address":"FL 32773>321-420-1176"},{"latitude":"28.417092","longitude":"-81.403892","name":"Lumber Liquidators - 9655 S Orange Blossom Trl; Orlando","address":"FL 32839>407-999-0020"},{"latitude":"28.078726","longitude":"-80.6614507","name":"Lumber Liquidators - 2525 W New Haven Ave; Melbourne","address":"FL 32904>321-473-3510"},{"latitude":"25.6466066","longitude":"-80.3355894","name":"Lumber Liquidators - 8785 SW 133rd St; Miami","address":"FL 33176>786-507-8820"},{"latitude":"28.034732","longitude":"-82.063096","name":"Lumber Liquidators - 4017 S Frontage Rd; Plant City","address":"FL 33566>863-808-1058"},{"latitude":"27.99654","longitude":"-82.579522","name":"Lumber Liquidators - 8444 W Hillsborough Ave; Tampa","address":"FL 33615>813-867-2760"},{"latitude":"27.792389","longitude":"-82.668596","name":"Lumber Liquidators - 2599 22nd Ave N; Saint Petersburg","address":"FL 33713>727-394-3255"},{"latitude":"34.09089","longitude":"-84.283868","name":"Lumber Liquidators - 735 N Main St; Alpharetta","address":"GA 30009>404-692-4483"},{"latitude":"33.683242","longitude":"-84.032487","name":"Lumber Liquidators - 1820 Rockbridge Rd NW; Conyers","address":"GA 30012>770-860-0606"},{"latitude":"33.951317","longitude":"-84.140336","name":"Lumber Liquidators - 3855 Venture Dr; Duluth","address":"GA 30096>678-430-3953"},{"latitude":"33.725609","longitude":"-84.767558","name":"Lumber Liquidators - 7424 Douglas Blvd; Douglasville","address":"GA 30135>470-377-0055"},{"latitude":"34.015084","longitude":"-84.612928","name":"Lumber Liquidators - 2500 N Cobb Pkwy; Kennesaw","address":"GA 30152>770-850-0606"},{"latitude":"33.402002","longitude":"-84.746388","name":"Lumber Liquidators - 33 Amlajack Blvd; Newnan","address":"GA 30265>678-228-2405"},{"latitude":"33.517971","longitude":"-82.069975","name":"Lumber Liquidators - 3475 Old Petersburg Rd; Augusta","address":"GA 30907>706-955-2789"},{"latitude":"32.6537561","longitude":"-83.7596295","name":"Lumber Liquidators - 150 Tower Centre Dr; Byron","address":"GA 31008>478-225-4604"},{"latitude":"32.047434","longitude":"-81.161742","name":"Lumber Liquidators - 4131 Ogeechee Rd; Savannah","address":"GA 31405>912-480-0519"},{"latitude":"32.5124232","longitude":"-84.9246494","name":"Lumber Liquidators - 4211 Milgen Rd; Columbus","address":"GA 31907>706-405-3367"},{"latitude":"41.6169772","longitude":"-93.7541712","name":"Lumber Liquidators - 10131 Hickman Rd; Urbandale","address":"IA 50322>515-322-1465"},{"latitude":"42.029768","longitude":"-91.62335","name":"Lumber Liquidators - 1418 Twixt Town Rd; Marion","address":"IA 52404>319-243-3035"},{"latitude":"41.5599847","longitude":"-90.5800736","name":"Lumber Liquidators - 321 W Kimberly Rd; Davenport","address":"IA 52806>866-839-7095"},{"latitude":"43.510297","longitude":"-111.982488","name":"Lumber Liquidators - 1574 N Hitt Rd; Idaho Falls","address":"ID 83401>208-881-9782"},{"latitude":"43.5777589","longitude":"-116.274127","name":"Lumber Liquidators - 7428 W Mossy Cup St; Boise","address":"ID 83709>208-286-1180"},{"latitude":"42.0319929","longitude":"-87.9504608","name":"Lumber Liquidators - 1460 E Algonquin Rd; Arlington Heights","address":"IL 60005>847-357-0400"},{"latitude":"41.7203906","longitude":"-87.7247359","name":"Lumber Liquidators - 4145 W 95th St; Oak Lawn","address":"IL 60453>708-572-8888"},{"latitude":"41.9111211","longitude":"-87.660541","name":"Lumber Liquidators - 1606 N Throop St; Chicago","address":"IL 60642>773-696-2600"},{"latitude":"42.2276349","longitude":"-89.0287747","name":"Lumber Liquidators - 3290 S Alpine Rd; Rockford","address":"IL 61109>815-873-6631"},{"latitude":"40.6890828","longitude":"-89.546582","name":"Lumber Liquidators - 1467 N Main St; East Peoria","address":"IL 61611>309-740-1801"},{"latitude":"39.8390364","longitude":"-89.6044477","name":"Lumber Liquidators - 2731 N Dirksen Pkwy; Springfield","address":"IL 62702>217-953-4006 "},{"latitude":"39.585918","longitude":"-86.102962","name":"Lumber Liquidators - 2117 Independence Dr; Greenwood","address":"IN 46143>317-522-0076"},{"latitude":"39.774926","longitude":"-85.986696","name":"Lumber Liquidators - 10207 E Washington St; Indianapolis","address":"IN 46229>317-762-2341"},{"latitude":"39.9081645","longitude":"-86.2210766","name":"Lumber Liquidators - 8410 N Michigan Rd; Indianapolis","address":"IN 46268>317-541-1444"},{"latitude":"41.471805","longitude":"-87.350076","name":"Lumber Liquidators - 1140 W 81st Ave; Merrillville","address":"IN 46410>219-801-7622"},{"latitude":"41.7232596","longitude":"-86.2499676","name":"Lumber Liquidators - 3725 Cleveland Rd; South Bend","address":"IN 46637>574-485-2524"},{"latitude":"41.1121368","longitude":"-85.174854","name":"Lumber Liquidators - 2639 Goshen Rd; Fort Wayne","address":"IN 46808>260-494-3210"},{"latitude":"37.988872","longitude":"-87.538809","name":"Lumber Liquidators - 1200 N Willow Rd; Evansville","address":"IN 47711>812-618-1301"},{"latitude":"40.413658","longitude":"-86.825466","name":"Lumber Liquidators - 4315 Commerce Dr; Lafayette","address":"IN 47905>765-588-3554"},{"latitude":"38.950308","longitude":"-94.724965","name":"Lumber Liquidators - 9800 Quivira Rd; Lenexa","address":"KS 66215>913-254-9800"},{"latitude":"39.028907","longitude":"-95.758081","name":"Lumber Liquidators - 5907 SW 21st St; Topeka","address":"KS 66604>785-783-0608"},{"latitude":"37.669558","longitude":"-97.444677","name":"Lumber Liquidators - 8909 W Kellogg Dr; Wichita","address":"KS 67209>316-768-4552"},{"latitude":"38.162683","longitude":"-85.833295","name":"Lumber Liquidators - 5236 Dixie Hwy; Louisville","address":"KY 40216>502-915-2838"},{"latitude":"38.2122464","longitude":"-85.569506","name":"Lumber Liquidators - 2223 Plantside Dr; Jeffersontown","address":"KY 40299>502-499-6600"},{"latitude":"38.0412419","longitude":"-84.4466924","name":"Lumber Liquidators - 2320 Fortune Dr; Lexington","address":"KY 40509>859-963-1441"},{"latitude":"38.989644","longitude":"-84.65333","name":"Lumber Liquidators - 7800 Connector Dr; Florence","address":"KY 41042>859-918-9961"},{"latitude":"36.9546146","longitude":"-86.4241065","name":"Lumber Liquidators - 1109 Lovers Ln; Bowling Green","address":"KY 42103>270-282-0790"},{"latitude":"29.951933","longitude":"-90.181046","name":"Lumber Liquidators - 800 S Clearview Pkwy; Harahan","address":"LA 70123>504-733-6230"},{"latitude":"30.303272","longitude":"-89.822369","name":"Lumber Liquidators - 2170 Gause Blvd W; Slidell","address":"LA 70460>985-288-1890"},{"latitude":"30.1649656","longitude":"-91.9748744","name":"Lumber Liquidators - 3401 U. 90; Broussard","address":"LA 70518>337-326-4683"},{"latitude":"30.495066","longitude":"-90.8383","name":"Lumber Liquidators - 9125 Comar Dr; Walker","address":"LA 70785>225-263-1990"},{"latitude":"30.393658","longitude":"-91.050246","name":"Lumber Liquidators - 11770 Airline Hwy; Baton Rouge","address":"LA 70809>225-298-1388"},{"latitude":"32.5251516","longitude":"-93.7501789","name":"Lumber Liquidators - 343 Bert Kouns Industrial Loop; Shreveport","address":"LA 71106>318-402-0992"},{"latitude":"42.367687","longitude":"-72.636406","name":"Lumber Liquidators - 10 West St; West Hatfield","address":"MA 01088>413-349-4064"},{"latitude":"42.151338","longitude":"-72.466725","name":"Lumber Liquidators - 2148 Boston Rd; Wilbraham","address":"MA 01095>413-682-1583"},{"latitude":"42.541083","longitude":"-71.758054","name":"Lumber Liquidators - 110 Water Tower Plaza; Leominster","address":"MA 01453>978-751-3745"},{"latitude":"42.275939","longitude":"-71.679816","name":"Lumber Liquidators - 835 Hartford Tpke; Shrewsbury","address":"MA 01545>508-925-9070"},{"latitude":"42.4984449","longitude":"-71.124582","name":"Lumber Liquidators - 345 Washington St; Woburn","address":"MA 01801>781-935-4111"},{"latitude":"42.270023","longitude":"-71.1725","name":"Lumber Liquidators - 1455 VFW Pkwy; Boston","address":"MA 02026>617-327-1222"},{"latitude":"42.2209958","longitude":"-71.0374263","name":"Lumber Liquidators - 240 Wood Rd; Braintree","address":"MA 02184>781-849-9663"},{"latitude":"41.92897","longitude":"-70.651517","name":"Lumber Liquidators - 76 Shops at 5 Way; Plymouth","address":"MA 02360>508-927-1138"},{"latitude":"41.6571","longitude":"-70.284692","name":"Lumber Liquidators - 20 Charles St; Barnstable Town","address":"MA 02601>508-815-4121"},{"latitude":"41.754428","longitude":"-71.212729","name":"Lumber Liquidators - 207 Swansea Mall Dr; Swansea","address":"MA 02777>508-689-5925"},{"latitude":"38.648683","longitude":"-76.884546","name":"Lumber Liquidators - 2260 Crain Hwy; Waldorf","address":"MD 20601>240-435-2092"},{"latitude":"39.030596","longitude":"-76.912887","name":"Lumber Liquidators - 10711 Baltimore Ave; Beltsville","address":"MD 20705>301-931-3467"},{"latitude":"39.094299","longitude":"-77.153999","name":"Lumber Liquidators - 800 Hungerford Dr; Rockville","address":"MD 20850>301-971-4772"},{"latitude":"39.443799","longitude":"-76.291585","name":"Lumber Liquidators - 2710 Pulaski Hwy; Edgewood","address":"MD 21040>443-490-0180"},{"latitude":"39.196732","longitude":"-76.59778","name":"Lumber Liquidators - 585-A E Ordnance Rd; Glen Burnie","address":"MD 21060>443-422-6758"},{"latitude":"39.444317","longitude":"-76.625022","name":"Lumber Liquidators - 2151 York Rd; Lutherville Timonium","address":"MD 21093>443-846-0430"},{"latitude":"39.359695","longitude":"-76.447588","name":"Lumber Liquidators - 9902 C Pulaski Hwy; Middle River","address":"MD 21220>443-274-7266"},{"latitude":"39.3306959","longitude":"-76.7563891","name":"Lumber Liquidators - 2707 N Rolling Rd; Windsor Mill","address":"MD 21244>410-944-9988"},{"latitude":"38.974406","longitude":"-76.524","name":"Lumber Liquidators - 10 Lincoln Ct; Annapolis","address":"MD 21401>443-951-0202"},{"latitude":"39.3899752","longitude":"-77.4128013","name":"Lumber Liquidators - 7311 Grove Rd; Frederick","address":"MD 21704>240-575-3065"},{"latitude":"43.597774","longitude":"-70.331846","name":"Lumber Liquidators - 443 US Rte 1; Scarborough","address":"ME 04074>207-885-9900"},{"latitude":"44.125475","longitude":"-70.226849","name":"Lumber Liquidators - 730 Center St; Auburn","address":"ME 04210>207-692-2236"},{"latitude":"44.7812402","longitude":"-68.7446471","name":"Lumber Liquidators - 510 Wilson St; Brewer","address":"ME 04412>207-631-2370"},{"latitude":"42.56124","longitude":"-82.917367","name":"Lumber Liquidators - 35906 Groesbeck Hwy; Clinton Township","address":"MI 48035>586-863-0090"},{"latitude":"42.196007","longitude":"-83.258689","name":"Lumber Liquidators - 23267 Eureka Rd; Taylor","address":"MI 48180>734-407-7983"},{"latitude":"42.230007","longitude":"-83.650965","name":"Lumber Liquidators - 2623 Ellsworth Rd; Ypsilanti","address":"MI 48197>734-547-3143"},{"latitude":"42.382482","longitude":"-83.313464","name":"Lumber Liquidators - 13080 Inkster Rd; Redford","address":"MI 48239>313-532-1200"},{"latitude":"42.670475","longitude":"-83.241885","name":"Lumber Liquidators - 2434 Pontiac Rd; Auburn Hills","address":"MI 48326>248-630-3941"},{"latitude":"43.434908","longitude":"-84.03292","name":"Lumber Liquidators - 5901 Brockway Rd; Saginaw","address":"MI 48638>989-321-2628"},{"latitude":"42.662482","longitude":"-84.544087","name":"Lumber Liquidators - 462 E Edgewood Blvd; Lansing","address":"MI 48911>517-455-7672"},{"latitude":"42.297027","longitude":"-85.644539","name":"Lumber Liquidators - 4432 W Main St; Kalamazoo","address":"MI 49006>269-743-0030"},{"latitude":"43.033133","longitude":"-85.663654","name":"Lumber Liquidators - 230 Lamoreaux Dr NE; Comstock Park","address":"MI 49321>616-997-2500"},{"latitude":"44.7335709","longitude":"-85.6241571","name":"Lumber Liquidators - 2404 S Airport Rd W; Traverse City","address":"MI 49684>231-668-9207"},{"latitude":"44.947753","longitude":"-92.950411","name":"Lumber Liquidators - 7700 Hudson Rd; Woodbury","address":"MN 55125>651-967-0260"},{"latitude":"44.8591839","longitude":"-93.5945548","name":"Lumber Liquidators - 2973 Water Tower Pl; Chanhassen","address":"MN 55317>952-314-4975 "},{"latitude":"44.749809","longitude":"-93.296328","name":"Lumber Liquidators - 1355 W 141st St; Burnsville","address":"MN 55337>507-298-2469"},{"latitude":"45.131618","longitude":"-93.26617","name":"Lumber Liquidators - 36 County Rd; Blaine","address":"MN 55434>763-784-3440"},{"latitude":"46.764046","longitude":"-92.113644","name":"Lumber Liquidators - 367 Garfield Ave; Duluth","address":"MN 55802>218-260-4917"},{"latitude":"44.0756063","longitude":"-92.5062181","name":"Lumber Liquidators - 5139 US 52; Rochester","address":"MN 55901>507-216-0978"},{"latitude":"44.0756063","longitude":"-92.5062181","name":"Lumber Liquidators - 5139 US 52; Rochester","address":"MN 55901>507-216-0978"},{"latitude":"38.542673","longitude":"-90.4627986","name":"Lumber Liquidators - 958 S Highway Dr; Fenton","address":"MO 63026>636-764-0429"},{"latitude":"38.7957176","longitude":"-90.570295","name":"Lumber Liquidators - 4016 N Service Rd; St Peters","address":"MO 63376>636-875-1044"},{"latitude":"38.918357","longitude":"-94.362526","name":"Lumber Liquidators - 300 NE 291 Hwy; Lees Summit","address":"MO 64086>816-272-2528"},{"latitude":"38.963282","longitude":"-92.290305","name":"Lumber Liquidators - 3200 Clark La; Columbia","address":"MO 65202>573-234-4453"},{"latitude":"37.2098525","longitude":"-93.2313367","name":"Lumber Liquidators - 3103 E Chestnut Expy; Springfield","address":"MO 65802>417-459-4421"},{"latitude":"34.956262","longitude":"-89.999643","name":"Lumber Liquidators - 6550 Interstate Blvd; Horn Lake","address":"MS 38637>662-298-4764"},{"latitude":"32.4002056","longitude":"-90.1557212","name":"Lumber Liquidators - 950 W County Line Rd; Jackson","address":"MS 39213>601-991-9000"},{"latitude":"30.425283","longitude":"-89.089708","name":"Lumber Liquidators - 9444 Hwy 49; Gulfport","address":"MS 39503>228-206-2306"},{"latitude":"36.0590483","longitude":"-79.8853809","name":"Lumber Liquidators - 3402 W Wendover Ave; Greensboro","address":"NC 27407>336-790-0060"},{"latitude":"35.8032369","longitude":"-78.6081848","name":"Lumber Liquidators - 2011 Raleigh Blvd; Raleigh","address":"NC 27604>919-828-4449"},{"latitude":"36.0173294","longitude":"-78.9409404","name":"Lumber Liquidators - 3157 Hillsborough Rd; Durham","address":"NC 27705>919-246-9986"},{"latitude":"35.581457","longitude":"-77.377337","name":"Lumber Liquidators - 315 SE Greenville Blvd; Greenville","address":"NC 27858>252-558-1559"},{"latitude":"35.262561","longitude":"-81.126342","name":"Lumber Liquidators - 2930-39\/42 E Franklin Blvd; Gastonia","address":"NC 28056>704-879-2231"},{"latitude":"35.120274","longitude":"-80.698487","name":"Lumber Liquidators - 11101 E Independence Blvd; Matthews","address":"NC 28105>704-749-2490"},{"latitude":"35.654804","longitude":"-80.462476","name":"Lumber Liquidators - 403 Bendix Dr; Salisbury","address":"NC 28146>704-314-0664"},{"latitude":"35.251795","longitude":"-80.894835","name":"Lumber Liquidators - 1108 Thomasboro Dr; Charlotte","address":"NC 28208>704-509-5555"},{"latitude":"35.069683","longitude":"-78.970094","name":"Lumber Liquidators - 1916 Skibo Rd; Fayetteville","address":"NC 28314>910-302-8180"},{"latitude":"34.2625079","longitude":"-77.83052","name":"Lumber Liquidators - 6816 Gordon Rd; Wilmington","address":"NC 28405>910-795-0025 "},{"latitude":"35.71936","longitude":"-81.348184","name":"Lumber Liquidators - 571 US Hwy 70 SW; Hickory","address":"NC 28602>828-449-3282"},{"latitude":"35.4515559","longitude":"-82.523261","name":"Lumber Liquidators - 495 Watson Rd; Arden","address":"NC 28704>828-483-4189"},{"latitude":"46.8840829","longitude":"-96.834187","name":"Lumber Liquidators - 3453 7th Ave N; Fargo","address":"ND 58102>701-540-4026"},{"latitude":"41.2187977","longitude":"-96.0430541","name":"Lumber Liquidators - 4147 S 84th St; Omaha","address":"NE 68127>402-218-1720"},{"latitude":"40.815976","longitude":"-96.631797","name":"Lumber Liquidators - 6401 Q St; Lincoln","address":"NE 68505>402-858-1927"},{"latitude":"42.7130769","longitude":"-71.4426148","name":"Lumber Liquidators - 225 Daniel Webster Hwy; Nashua","address":"NH 03060>603-821-2136 "},{"latitude":"42.988586","longitude":"-71.4118253","name":"Lumber Liquidators - 1207 Hanover St; Manchester","address":"NH 03104>603-666-0333"},{"latitude":"43.639704","longitude":"-72.2567309","name":"Lumber Liquidators - 91 Mechanic St; Lebanon","address":"NH 03766>603-448-2778"},{"latitude":"42.9971247","longitude":"-70.8149781","name":"Lumber Liquidators - 5 Lafayette Terrace; North Hampton","address":"NH 03862>603-379-6024"},{"latitude":"43.225853","longitude":"-70.88156","name":"Lumber Liquidators - 200 Tri City Plaza; Somersworth","address":"NH 03878>603-617-4760"},{"latitude":"40.879576","longitude":"-74.297654","name":"Lumber Liquidators - 311 Rte 46; Fairfield","address":"NJ 07004>862-881-4606"},{"latitude":"40.697957","longitude":"-74.249358","name":"Lumber Liquidators - 1603 Rte 22; Union","address":"NJ 07083>908-613-0843"},{"latitude":"40.537541","longitude":"-74.296564","name":"Lumber Liquidators - 507 King Georges Rd; Woodbridge","address":"NJ 07095>908-259-4170"},{"latitude":"40.8691351","longitude":"-74.0484997","name":"Lumber Liquidators - 14 E Wesley St; South Hackensack","address":"NJ 07606>201-343-5255"},{"latitude":"40.25344","longitude":"-74.04025","name":"Lumber Liquidators - 1604 SR 35; Oakhurst","address":"NJ 07755>732-963-2035"},{"latitude":"39.918591","longitude":"-75.028223","name":"Lumber Liquidators - 1205 Warren Ave; Cherry Hill","address":"NJ 08002>856-324-4450"},{"latitude":"39.831457","longitude":"-75.111021","name":"Lumber Liquidators - 1450 Clements Bridge Rd; Woodbury","address":"NJ 08096>856-291-6500"},{"latitude":"39.387122","longitude":"-74.514139","name":"Lumber Liquidators - 7034 Black Horse Pike; Pleasantville","address":"NJ 08232>609-910-0897"},{"latitude":"39.426154","longitude":"-75.039235","name":"Lumber Liquidators - 2251 N 2nd St; Millville","address":"NJ 08332>609-736-2404"},{"latitude":"40.202482","longitude":"-74.657867","name":"Lumber Liquidators - 8 Commerce Way; Trenton","address":"NJ 08691>609-588-8082"},{"latitude":"39.98412","longitude":"-74.180691","name":"Lumber Liquidators - 1258 Hooper Ave; Toms River","address":"NJ 08753>848-480-0787"},{"latitude":"40.4411884","longitude":"-74.3971414","name":"Lumber Liquidators - 2 Claire Rd; East Brunswick","address":"NJ 08816>732-387-4274"},{"latitude":"40.532916","longitude":"-74.61688","name":"Lumber Liquidators - 6 Old Camplain Rd; Hillsborough","address":"NJ 08844>908-428-6000"},{"latitude":"35.142263","longitude":"-106.591759","name":"Lumber Liquidators - 5300 Pan American E Fwy NE; Albuquerque","address":"NM 87109>505-883-7200"},{"latitude":"36.028191","longitude":"-115.049187","name":"Lumber Liquidators - 27 South Stephanie St; Las Vegas","address":"NV 89012>702-893-3338"},{"latitude":"36.2434","longitude":"-115.235","name":"Lumber Liquidators - 4588 North Rancho Dr; Las Vegas","address":"NV 89130>702-802-0873"},{"latitude":"39.442591","longitude":"-119.7720129","name":"Lumber Liquidators - 9728 S Virginia St; Reno","address":"NV 89511>775-851-4949"},{"latitude":"40.7377473","longitude":"-73.9900211","name":"Lumber Liquidators - 30 E 18th St; New York","address":"NY 10003>212-352-1111"},{"latitude":"40.940776","longitude":"-73.880853","name":"Lumber Liquidators - 132 Saw Mill River Rd; Yonkers","address":"NY 10701>914-595-1411"},{"latitude":"40.6709563","longitude":"-73.995272","name":"Lumber Liquidators - 64 12th St; Brooklyn","address":"NY 11215>347-756-4215"},{"latitude":"40.75501","longitude":"-73.561488","name":"Lumber Liquidators - 24 Kinkel St; Westbury","address":"NY 11590>516-874-2033"},{"latitude":"40.8071476","longitude":"-73.2176982","name":"Lumber Liquidators - 22 Central Ave; Hauppauge","address":"NY 11788>631-232-2020"},{"latitude":"41.605878","longitude":"-73.91085","name":"Lumber Liquidators - 1708 US- 9; Wappingers Falls","address":"NY 12590>845-223-7764"},{"latitude":"39.925718","longitude":"-82.829056","name":"Lumber Liquidators - 2736 Brice Rd; Reynoldsburg","address":"OH 43068>614-285-3101"},{"latitude":"39.953647","longitude":"-83.114681","name":"Lumber Liquidators - 4242 W Broad St; Columbus","address":"OH 43228>614-851-4500"},{"latitude":"40.06132","longitude":"-82.980055","name":"Lumber Liquidators - 1454 Morse Rd; Columbus","address":"OH 43229>614-636-4666"},{"latitude":"41.533294","longitude":"-83.642444","name":"Lumber Liquidators - 26495 Southpoint Rd; Perrysburg","address":"OH 43551>419-931-6770"},{"latitude":"41.683382","longitude":"-81.292194","name":"Lumber Liquidators - 9690 Mentor Ave; Mentor","address":"OH 44060>440-709-3000"},{"latitude":"41.419543","longitude":"-81.911447","name":"Lumber Liquidators - 26103 Lorain Rd; North Olmsted","address":"OH 44070>440-252-3220"},{"latitude":"41.4205577","longitude":"-81.6807013","name":"Lumber Liquidators - 540 Old Brookpark Rd; Cleveland","address":"OH 44109>216-661-2100"},{"latitude":"41.015718","longitude":"-80.632592","name":"Lumber Liquidators - 7661 S Ave; Youngstown","address":"OH 44512>330-259-3250"},{"latitude":"40.873126","longitude":"-81.4285443","name":"Lumber Liquidators - 6331 Promler Ave; Canton","address":"OH 44720>330-754-0005 "},{"latitude":"40.77409","longitude":"-82.592823","name":"Lumber Liquidators - 2178 W 4th St; Ontario","address":"OH 44906>419-989-4240"},{"latitude":"39.315097","longitude":"-84.4643035","name":"Lumber Liquidators - 4810 Peter Pl; Cincinnati","address":"OH 45246>513-942-4406"},{"latitude":"39.073034","longitude":"-84.310052","name":"Lumber Liquidators - 454 Ohio Pke; Cincinnati","address":"OH 45255>513-823-2544"},{"latitude":"39.646672","longitude":"-84.223374","name":"Lumber Liquidators - 450 Springboro Pike; Dayton","address":"OH 45449>937-684-9660"},{"latitude":"35.209769","longitude":"-97.483612","name":"Lumber Liquidators - 700 Ed Noble Pkwy; Norman","address":"OK 73072>405-896-8223"},{"latitude":"35.465323","longitude":"-97.618314","name":"Lumber Liquidators -5835 W Reno Ave; Oklahoma City","address":"OK 73127>405-948-1800"},{"latitude":"36.062569","longitude":"-95.874027","name":"Lumber Liquidators - 9137 E 71st St; Tulsa","address":"OK 74133>918-270-2111"},{"latitude":"45.541747","longitude":"-122.697674","name":"Lumber Liquidators - 2245 NW Nicolai St; Portland","address":"OR 97210>503-221-4944"},{"latitude":"45.443","longitude":"-122.627601","name":"Lumber Liquidators - 10872 SE Oak St; ilwaukie","address":"OR 97222>503-420-3097"},{"latitude":"45.435167","longitude":"-122.752202","name":"Lumber Liquidators - 7301 SW Dartmouth; Tigard","address":"OR 97223>503-964-6827"},{"latitude":"45.527804","longitude":"-122.536917","name":"Lumber Liquidators - 12225 NE Glisan St; Portland","address":"OR 97230>503-308-8901"},{"latitude":"44.914544","longitude":"-122.982565","name":"Lumber Liquidators - 3920 Rickey St SE; Salem","address":"OR 97301>503-967-7447"},{"latitude":"44.048628","longitude":"-123.161411","name":"Lumber Liquidators - 4095 W 11th Ave; Eugene","address":"OR 97402>541-393-2585"},{"latitude":"44.101417","longitude":"-121.299608","name":"Lumber Liquidators - 20505 Robal Rd; Bend","address":"OR 97701>541-209-0772"},{"latitude":"40.43549","longitude":"-79.733583","name":"Lumber Liquidators - 4721 William Penn Hwy; Monroeville","address":"PA 15146>412-204-0013"},{"latitude":"40.431253","longitude":"-80.134951","name":"Lumber Liquidators - 4700 Campbells Run Rd; Pittsburgh","address":"PA 15205>412-788-4666"},{"latitude":"40.287923","longitude":"-79.545908","name":"Lumber Liquidators - 1075 S Main St; Greensburg","address":"PA 15601>412-927-0354"},{"latitude":"40.1821162","longitude":"-76.8373759","name":"Lumber Liquidators - 2 Laurel Rd; New Cumberland","address":"PA 17070>717-798-8605"},{"latitude":"40.622211","longitude":"-75.481581","name":"Lumber Liquidators - 1204 MacArthur Rd; Whitehall","address":"PA 18052>610-628-1186"},{"latitude":"41.2432877","longitude":"-75.8452515","name":"Lumber Liquidators - 211 Mundy St; Wilkes-Barre","address":"PA 18702>570-301-6908"},{"latitude":"40.0977561","longitude":"-75.01225","name":"Lumber Liquidators - 10500 E Roosevelt Blvd; Philadelphia","address":"PA 19116>267-234-7570"},{"latitude":"41.2033216","longitude":"-77.1945247","name":"Lumber Liquidators - N1420 E Dr 422 Business Ce; Oaks","address":"PA 19456>484-991-4075"},{"latitude":"41.703718","longitude":"-71.494658","name":"Lumber Liquidators - 1301 Bald Hill Rd; Warwick","address":"RI 02886>401-626-4245"},{"latitude":"34.0693602","longitude":"-81.1434768","name":"Lumber Liquidators - 4068 Fernandina Rd; Columbia","address":"SC 29212>803-753-1767"},{"latitude":"32.944739","longitude":"-80.0389","name":"Lumber Liquidators - 2093 Eagle Landing Blvd; North Charleston","address":"SC 29406>843-212-4800"},{"latitude":"32.789108","longitude":"-80.033628","name":"Lumber Liquidators - 2049 Savannah Hwy; Charleston","address":"SC 29407>843-720-7888"},{"latitude":"34.2356245","longitude":"-79.7913672","name":"Lumber Liquidators - 2011 N Cashua Dr; Florence","address":"SC 29501>843-536-4524"},{"latitude":"33.581315","longitude":"-79.020866","name":"Lumber Liquidators - 3338 US 17 Bus; Murrells Inlet","address":"SC 29576>843-310-3502"},{"latitude":"33.810426","longitude":"-78.709047","name":"Lumber Liquidators - 2006 Hwy 17 S; North Myrtle Beach","address":"SC 29582>843-353-0390"},{"latitude":"34.938516","longitude":"-82.264926","name":"Lumber Liquidators - 1367 W Wade Hampton Blvd; Greer","address":"SC 29650>864-416-4670"},{"latitude":"34.7477343","longitude":"-82.2806704","name":"Lumber Liquidators - 3005 Kemet Dr; Simpsonville","address":"SC 29681>864-881-6620"},{"latitude":"34.95999","longitude":"-81.006866","name":"Lumber Liquidators - 1801 Cherry Rd; Rock Hill","address":"SC 29732>803-610-1680"},{"latitude":"43.5231078","longitude":"-96.7767773","name":"Lumber Liquidators - 2519 S Shirley Ave; Sioux Falls","address":"SD 57106>605-610-3230"},{"latitude":"35.991946","longitude":"-86.594208","name":"Lumber Liquidators - 131 Charter Pl; La Vergne","address":"TN 37086>615-793-6993"},{"latitude":"36.290331","longitude":"-86.703074","name":"Lumber Liquidators - 1553 Gallatin Pke N; Madison","address":"TN 37115>615-997-0021"},{"latitude":"35.065133","longitude":"-85.196812","name":"Lumber Liquidators - 4295 Cromwell Rd; Chattanooga","address":"TN 37421>423-933-3201"},{"latitude":"36.549299","longitude":"-82.491927","name":"Lumber Liquidators - 2637 E Stone Dr; Kingsport","address":"TN 37660>423-343-4168"},{"latitude":"35.9095063","longitude":"-84.1355061","name":"Lumber Liquidators - 504 Carden Jennings Ln; Knoxville","address":"TN 37932>865-622-3740"},{"latitude":"35.179019","longitude":"-89.830755","name":"Lumber Liquidators - 6949 Appling Farms Pkwy; Memphis","address":"TN 38133>901-743-3339"},{"latitude":"32.9627575","longitude":"-96.9158615","name":"Lumber Liquidators - 1620 I-35 Frontage Rd; Carrollton","address":"TX 75006>972-323-5077"},{"latitude":"33.023196","longitude":"-96.710845","name":"Lumber Liquidators - 1717 N Central Expy; Plano","address":"TX 75075>972-422-0727"},{"latitude":"29.854013","longitude":"-95.56521","name":"Lumber Liquidators - 5829 W Sam Houston Pkwy N; Houston","address":"TX 77041>832-467-9993"},{"latitude":"29.6943895","longitude":"-95.3192604","name":"Lumber Liquidators - 6148 S Loop E Fwy; Houston","address":"TX 77087>713-649-3900"},{"latitude":"30.0415717","longitude":"-94.1298232","name":"Lumber Liquidators - 4395 W Cardinal Dr; Beaumont","address":"TX 77705>409-299-3645"},{"latitude":"27.7404721","longitude":"-97.4364751","name":"Lumber Liquidators - 1910 S Padre Island Dr; Corpus Christi","address":"TX 78416>361-356-4910"},{"latitude":"26.193351","longitude":"-98.259978","name":"Lumber Liquidators - 3401 W Expy 83; McAllen","address":"TX 78503>956-467-5679"},{"latitude":"30.349748","longitude":"-97.692785","name":"Lumber Liquidators - 8627 I-35 N; Austin","address":"TX 78753>512-444-0244"},{"latitude":"33.547361","longitude":"-101.940427","name":"Lumber Liquidators - 5004 Frankford Ave; Lubbock","address":"TX 79424>806-577-4109"},{"latitude":"31.7474956","longitude":"-106.3348203","name":"Lumber Liquidators - 1111 Barranca Dr; El Paso","address":"TX 79935>915-590-3300"},{"latitude":"40.3372818","longitude":"-111.7220867","name":"Lumber Liquidators - 1451 W 40 S; Lindon","address":"UT 84042>801-429-9465 "},{"latitude":"40.727961","longitude":"-111.902452","name":"Lumber Liquidators - 389 W 1830 S; Salt Lake City","address":"UT 84115>801-886-8878"},{"latitude":"38.777725","longitude":"-77.504009","name":"Lumber Liquidators - 10356 Festival La; Manassas","address":"VA 20109>571-535-4352"},{"latitude":"38.892229","longitude":"-77.441701","name":"Lumber Liquidators - 14310 Sullyfield Cir; Chantilly","address":"VA 20151>703-563-4321"},{"latitude":"39.112527","longitude":"-77.533352","name":"Lumber Liquidators - 1065 Edwards Ferry Rd NE; Leesburg","address":"VA 20176>571-762-0541"},{"latitude":"38.732734","longitude":"-77.189717","name":"Lumber Liquidators - 8245 Backlick Rd; Lorton","address":"VA 22079>703-339-1180"},{"latitude":"38.263775","longitude":"-77.496303","name":"Lumber Liquidators - 4507 Jefferson Davis Hwy; Fredericksburg","address":"VA 22401>540-446-5035"},{"latitude":"37.414153","longitude":"-76.811331","name":"Lumber Liquidators - 3000 John Deere Rd; Toano","address":"VA 23168>757-566-7546"},{"latitude":"37.506578","longitude":"-77.579072","name":"Lumber Liquidators - 9990 Robious Rd; North Chesterfield","address":"VA 23235>804-404-7292"},{"latitude":"37.634555","longitude":"-77.54356","name":"Lumber Liquidators - 8818-B W Broad St; Richmond","address":"VA 23294>804-404-7856"},{"latitude":"36.841384","longitude":"-76.104349","name":"Lumber Liquidators - 3756 Virginia Beach Blvd; Virginia Beach","address":"VA 23452>757-215-0856"},{"latitude":"36.835903","longitude":"-76.262674","name":"Lumber Liquidators - 416 Campostella Rd; Norfolk","address":"VA 23523>757-494-7900"},{"latitude":"37.039155","longitude":"-76.40708","name":"Lumber Liquidators - 2326 W Mercury Blvd; Hampton","address":"VA 23666>757-952-0620"},{"latitude":"37.2734776","longitude":"-80.0507972","name":"Lumber Liquidators - 356 Apperson Dr; Salem","address":"VA 24153>540-765-4200"},{"latitude":"37.360932","longitude":"-79.168438","name":"Lumber Liquidators - 3700 Candlers Mountain Rd; Lynchburg","address":"VA 24502>434-845-1207"},{"latitude":"44.448517","longitude":"-73.115173","name":"Lumber Liquidators - 329 Harvest Ln; Williston","address":"VT 05495>802-316-4113"},{"latitude":"47.62925","longitude":"-122.167047","name":"Lumber Liquidators - 2021 130th Ave NE: Bellevue","address":"WA 98005>425-458-3671"},{"latitude":"47.574041","longitude":"-122.333699","name":"Lumber Liquidators - 3300 1st Ave S; Seattle","address":"WA 98134>206-625-5200"},{"latitude":"47.459544","longitude":"-122.249492","name":"Lumber Liquidators - 120 Andover Park E; Tukwila","address":"WA 98188>253-333-9830"},{"latitude":"47.894635","longitude":"-122.289345","name":"Lumber Liquidators - 11338 Mukilteo Speedway; Mukilteo","address":"WA 98275>425-320-3980"},{"latitude":"47.233025","longitude":"-122.502984","name":"Lumber Liquidators - 3001 S Huson St; Tacoma","address":"WA 98409>253-617-0071"},{"latitude":"47.034704","longitude":"-122.93615","name":"Lumber Liquidators - 1520 Cooper Point Rd SW; Olympia","address":"WA 98502>360-529-4481"},{"latitude":"47.674802","longitude":"-117.230835","name":"Lumber Liquidators - 12918 E Indiana Ave; Spokane Valley","address":"WA 99216>509-891-0111"},{"latitude":"46.2145353","longitude":"-119.2056101","name":"Lumber Liquidators - 6300 W Deschutes Ave; Kennewick","address":"WA 99336>509-396-6912"},{"latitude":"42.568027","longitude":"-87.900604","name":"Lumber Liquidators - 7650 75th St; Kenosha","address":"WI 53142>262-835-1100"},{"latitude":"43.018855","longitude":"-87.996278","name":"Lumber Liquidators - 6740 W Greenfield Ave; West Allis","address":"WI 53214>414-386-0425"},{"latitude":"43.1733649","longitude":"-89.2513929","name":"Lumber Liquidators - 2255 McCoy Rd; Sun Prairie","address":"WI 53590>608-318-4140"},{"latitude":"43.03423","longitude":"-89.45403","name":"Lumber Liquidators - 4615 Verona Rd; Madison","address":"WI 53711>608-620-7306"},{"latitude":"44.439123","longitude":"-88.1005689","name":"Lumber Liquidators - 1452 Mid Valley Dr; De Pere","address":"WI 54115>920-351-4570"},{"latitude":"38.445257","longitude":"-81.833292","name":"Lumber Liquidators - 4200 First Ave; Nitro","address":"WV 25143>304-759-8639"},{"latitude":"39.4562099","longitude":"-77.9638869","name":"Lumber Liquidators - 85 Lynn Haven Dr; Martinsburg ","address":"WV 25404>304-596-0920"},{"latitude":"40.053089","longitude":"-80.725083","name":"Lumber Liquidators - 2738 Chapline St; Wheeling","address":"WV 26003>304-907-0137"}]