[{"latitude":"33.4658148","longitude":"-86.7721682","name":"Macy's - Birmingham (Brookwood Village) - 614 Brookwood Village, Birmingham","address":"AL 35209>205-868-2600"},{"latitude":"33.3778961","longitude":"-86.8108059","name":"Macy's - Birmingham (Riverchase Galleria) - 2600 Riverchase Galleria, Birmingham","address":"AL 35244>205-985-2600"},{"latitude":"33.511084","longitude":"-112.029197","name":"Macy's - Phoenix (Biltmore Fashion Park) - 2410 E Camelback Rd, Phoenix","address":"AZ 85016>602-468-2100"},{"latitude":"33.5992274","longitude":"-111.9817643","name":"Macy's - Phoenix (Paradise Valley Mall) - 4520 E Cactus Rd, Phoenix","address":"AZ 85032>602-494-2100"},{"latitude":"33.578766","longitude":"-112.121658","name":"Macy's - Phoenix (Metro Center) - 9700 N Metro Pkwy W, Phoenix closed","address":"AZ 85051>602-943-2351"},{"latitude":"33.392699","longitude":"-111.862986","name":"Macy's - Mesa (Fiesta Mall) - 1465 W Southern Ave, Mesa closed","address":"AZ 85202>480-835-4500"},{"latitude":"33.392179","longitude":"-111.690445","name":"Macy's - Mesa (Superstition Springs) - 6535 E Southern Ave, Mesa","address":"AZ 85206>480-807-1400"},{"latitude":"33.305318","longitude":"-111.896117","name":"Macy's - Chandler (Fashion Center) - 3107 W Chandler Blvd, Chandler","address":"AZ 85226>480-821-8611"},{"latitude":"33.502346","longitude":"-111.92752","name":"Macy's - Scottsdale (Fashion Square) - 7014 E Camelback Rd, Scottsdale","address":"AZ 85251>480-840-0333"},{"latitude":"33.312153","longitude":"-111.74306","name":"Macy's  - Gilbert (Santan Village) - 2190 E Williams Field Rd, Gilbert","address":"AZ 85295(480) 792-6333 "},{"latitude":"33.642022","longitude":"-112.222454","name":"Macy's - Glendale (Arrowhead Towne Center) - 7600 W Arrowhead Towne Ctr, Glendale","address":"AZ 85308>623-979-7900"},{"latitude":"32.2887289","longitude":"-110.9739304","name":"Macy's - Tucson (Tucson Mall) - 47500 N Oracle Rd, Tucson closed","address":"AZ 85705>520-798-2100"},{"latitude":"32.219162","longitude":"-110.867939","name":"Macy's - Tucson (Park Place) - 5850 E Broadway Blvd, Tucson","address":"AZ 85711>520-322-2100"},{"latitude":"32.22348","longitude":"-110.9191","name":"Macy's - Tucson (El Con Center) - 3435 E Broadway Blvd, Tucson closed","address":"AZ 85716>520-795-3950"},{"latitude":"34.011781","longitude":"-118.335716","name":"Macy's - Los Angeles (Crenshaw Plaza) - 4005 Crenshaw Blvd, Los Angeles","address":"CA 90008>323-298-7541"},{"latitude":"34.048037","longitude":"-118.2584667","name":"Macy's - Los Angeles (Downtown Plaza) - 750 W 7th St, Los Angeles","address":"CA 90017>213-628-9311"},{"latitude":"34.049462","longitude":"-118.2601923","name":"Macy's - Los Angeles (Citicorp Plaza) - 920 W 7th St, Los Angeles","address":"CA 90017>213-683-1144"},{"latitude":"34.1427536","longitude":"-118.2262134","name":"Macy's - Los Angeles (Eagle Rock Plaza) - 2828 Colorado Blvd, Los Angeles","address":"CA 90041>323-258-8303"},{"latitude":"34.141052","longitude":"-118.226132","name":"Macy's - Eagle Rock - 2828 Colorado Blvd, Eagle Rock","address":"CA 90041>323-258-8303 "},{"latitude":"34.0759446","longitude":"-118.3766084","name":"Bloomingdale's - Los Angeles (Beverly Center) - 8500 Beverly Blvd, Los Angeles","address":"CA 90048>310-360-2700"},{"latitude":"34.0759446","longitude":"-118.3766084","name":"Macy's - Los Angeles (Beverly Center) - 8500 Beverly Blvd, Los Angeles","address":"CA 90048>310-854-6655"},{"latitude":"34.041334","longitude":"-118.424571","name":"Macy's - Los Angeles (Westside Pavilion) - 10730 W Pico Blvd, Los Angeles","address":"CA 90064>310-475-4911"},{"latitude":"34.040434","longitude":"-118.425946","name":"Macy's - Los Angeles (Westside Pavilion Furniture)  - 10800 W Pico Blvd, Los Angeles","address":"CA 90064>310-694-3333"},{"latitude":"34.040124","longitude":"-118.427503","name":"Macy's - Los Angeles (Westside Pavillion Home Store) - 10800 W Pico Blvd, Los Angeles","address":"CA 90064>310-694-3333"},{"latitude":"34.090595","longitude":"-118.326332","name":"Macy's - Los Angeles (Century City) - 10250 Santa Monica Blvd, Los Angeles","address":"CA 90067>310-556-1611"},{"latitude":"34.090595","longitude":"-118.326332","name":"Bloomingdale's - Los Angeles (Century City) - 10250 Santa Monica Blvd, Los Angeles","address":"CA 90067>310-772-2100"},{"latitude":"33.986452","longitude":"-118.39376","name":"Macy's - Culver City - 6200 W Slauson Ave, Culver City","address":"CA 90230>310-390-8911"},{"latitude":"33.934894","longitude":"-118.11957","name":"Macy's - Downey - 400 Stonewood St, Downey","address":"CA 90241>562-862-2880"},{"latitude":"33.900081","longitude":"-118.393635","name":"Macy's - Manhattan Beach - 3400 N Sepulveda Blvd, Manhattan Beach","address":"CA 90266>310-546-5525"},{"latitude":"33.87067","longitude":"-118.352852","name":"Macy's - Redondo Beach (South Bay Galleria) - 1801 Hawthorne Blvd, Redondo Beach","address":"CA 90278>310-370-2511"},{"latitude":"34.013812","longitude":"-118.492849","name":"Bloomingdale's - Santa Monica (Santa Monica Place) - 315 Colorado Ave, Santa Monica","address":"CA 90401>310-985-6400"},{"latitude":"34.035305","longitude":"-118.083472","name":"Macy's - Montebello (Montclair Plaza) - 2000 Montebello Town Center, Montebello","address":"CA 90640>909-621-3011"},{"latitude":"33.8616531","longitude":"-118.092522","name":"Macy's - Cerritos (Los Cerritos Center) - 500 Los Cerritos Mall, Cerritos","address":"CA 90703>562-860-0411"},{"latitude":"33.850454","longitude":"-118.140949","name":"Macy's - Lakewood (Lakewood Center Mal)l - 5100 Lakewood Center Mall, Lakewood","address":"CA 90712>562-529-5111"},{"latitude":"34.132837","longitude":"-118.051614","name":"Macy's - Arcadia - (Santa Anita - 400 S Baldwin Ave, Arcadia","address":"CA 91007>626-445-5711"},{"latitude":"34.138966","longitude":"-118.133057","name":"Macy's - Pasadena  - 401 S Lake Ave, Pasadena","address":"CA 91101>626-792-0211"},{"latitude":"34.139011","longitude":"-118.132956","name":"Macy's - Pasadena (Pasadena Plaza) - 401 S Lake Ave, Pasadena","address":"CA 91101>626-796-0411"},{"latitude":"34.146408","longitude":"-118.258617","name":"Macy's - Glendale (Galleria) - 100 W Broadway, Glendale","address":"CA 91210>818-240-8411"},{"latitude":"34.14585","longitude":"-118.255499","name":"Bloomingdale's - Glendale (Galleria) - 103 S Brand Blvd, Glendale","address":"CA 91210>818-638-4100"},{"latitude":"34.1937409","longitude":"-118.6037126","name":"Macy's - Canoga Park (Topanga Plaza) - 21900 Vanowen St, Canoga Park","address":"CA 91303>818-883-7211"},{"latitude":"34.238952","longitude":"-118.557074","name":"Macy's - Northridge - 9301 Tampa Ave, Northridge","address":"CA 91324>818-885-6611"},{"latitude":"34.413807","longitude":"-118.559792","name":"Macy's - Santa Clarita - 26450 Mcbean Pkwy, Santa Clarita","address":"CA 91355>661-287-5911"},{"latitude":"34.157467","longitude":"-118.439377","name":"Bloomingdale's - Sherman Oaks (Fashion Square) - 14060 Riverside Dr, Sherman Oaks","address":"CA 91423>818-325-2200"},{"latitude":"34.157478","longitude":"-118.437889","name":"Macy's - Sherman Oaks - 14000 Riverside Dr, Sherman Oaks","address":"CA 91423>818-788-8350"},{"latitude":"34.184122","longitude":"-118.313287","name":"Macy's - Burbank - 200 E Cypress Ave, Burbank","address":"CA 91502>818-841-2100"},{"latitude":"34.1830393","longitude":"-118.3965629","name":"Macy's - North Hollywood (Laurel Plaza) - 6160 Laurel Canyon Blvd, North Hollywood","address":"CA 91606>818-766-4111"},{"latitude":"34.110729","longitude":"-117.530952","name":"Macy's - Rancho Cucamonga - 7855 Kew Ave, Rancho Cucamonga","address":"CA 91739>909-646-3333"},{"latitude":"34.110741","longitude":"-117.532509","name":"Macy's - Rancho Cucamonga - 12501 S Main St, Rancho Cucamonga","address":"CA 91739>909-646-9944"},{"latitude":"33.992935","longitude":"-117.928894","name":"Macy's - City of Industry (Puente Hills Mall) - 1600 South Azusa Ave, City of Industry","address":"CA 91748>626-965-5941"},{"latitude":"34.0883806","longitude":"-117.6917877","name":"Macy's - Montclair (Montclair Plaza) - 5200 E Montclair Plaza Ln, Montclair","address":"CA 91763>909-621-3011"},{"latitude":"34.068539","longitude":"-117.932549","name":"Macy's - West Covina  1200 W Covina Pkwy W, West Covina","address":"CA 91790>626-960-3611"},{"latitude":"32.6294881","longitude":"-117.0877137","name":"Macy's - Chula Vista (Chula Vista Center) - 555 Broadway, Chula Vista","address":"CA 91910>619-427-1161"},{"latitude":"32.621173","longitude":"-116.966987","name":"Macy's - Chula Vista (Otay Ranch) - 2015 Birch Rd, Chula Vista","address":"CA 91915>619-591-7100"},{"latitude":"32.779644","longitude":"-117.010081","name":"Macy's - La Mesa (Grossmont) - 5500 Grossmont Center Dr, La Mesa","address":"CA 91942>619-465-1121"},{"latitude":"32.657893","longitude":"-117.0663","name":"Macy's - National City (Plaza Bonita) - 3000 Plaza Bonita Rd, National City","address":"CA 91950>619-267-3500"},{"latitude":"33.1671751","longitude":"-117.3444094","name":"Macy's - Carlsbad  - 2559 El Camino Real, Carlsbad","address":"CA 92008>760-729-9121"},{"latitude":"32.806417","longitude":"-116.965086","name":"Macy's - El Cajon  - 291 Fletcher Pkwy, El Cajon","address":"CA 92020>619-440-1011"},{"latitude":"33.0686516","longitude":"-117.0667919","name":"Macy's - Escondido (North County Fair) - 220 E Via Rancho Pkwy, Escondido","address":"CA 92025>760-489-2336"},{"latitude":"32.71394","longitude":"-117.161201","name":"Macy's - San Diego (Horton Plaza) - 160 Horton Plaza, San Diego","address":"CA 92101>619-231-4747"},{"latitude":"32.768097","longitude":"-117.145851","name":"Macy's - San Diego (Mission Valley Center) - 1702 Camino Del Rio N, San Diego","address":"CA 92108>619-297-2511"},{"latitude":"32.76939","longitude":"-117.169167","name":"Macy's - San Diego (Fashion Valley) - 7017 Friars Rd, San Diego","address":"CA 92108>619-299-9811"},{"latitude":"32.769598","longitude":"-117.14922","name":"Macy's - San Diego (Home) - 1555 Camino de La Reina, San Diego","address":"CA 92108>619-299-9811"},{"latitude":"32.76947","longitude":"-117.168541","name":"Bloomingdale's - San Diego (Fashion Valley) - 7057 Friars Rd, San Diego","address":"CA 92108>619-610-6400"},{"latitude":"32.768665","longitude":"-117.164535","name":"Bloomingdale's - San Diego (Mission Valley) - 1646 Camino del Rio N, San Diego","address":"CA 92108>619-881-2050"},{"latitude":"32.872562","longitude":"-117.21331","name":"Macy's - San Diego (University Town Center) - 4333 La Jolla Village Dr, San Diego","address":"CA 92122>858-453-2060"},{"latitude":"32.761996","longitude":"-115.531974","name":"Macy's - El Centro (Imperial Valley) - 3551 S Dogwood Rd, El Centro","address":"CA 92243>760-352-5901"},{"latitude":"33.72118","longitude":"-116.388199","name":"Macy's - Palm Desert  - 72810 Hwy 111, Palm Desert","address":"CA 92260>760-346-9300"},{"latitude":"34.474273","longitude":"-117.345556","name":"Macy's - Victorville - 14580 Bear Valley Rd, Victorville","address":"CA 92392>760-493-3300"},{"latitude":"34.084936","longitude":"-117.298563","name":"Macy's - San Bernardino  - 400 Inland Center Dr, San Bernardino","address":"CA 92408>909-888-1444"},{"latitude":"33.908759","longitude":"-117.456271","name":"Macy's - Riverside  - 3500 Tyler Rd, Riverside","address":"CA 92503>951-687-1021"},{"latitude":"33.938993","longitude":"-117.274126","name":"Macy's - Moreno Valley (Moreno Valley Mall) - 22400 Town Gate Circle, Moreno Valley","address":"CA 92553>951-656-1611"},{"latitude":"33.526485","longitude":"-117.15741","name":"Macy's - Temecula (Promenade Mall) - 40780 Winchester Blvd, Temecula","address":"CA 92591>951-541-3333"},{"latitude":"33.6935128","longitude":"-117.8866053","name":"Macy's - Costa Mesa (South Coast Plaza) - 3333 Bristol St, Costa Mesa","address":"CA 92626>714-556-0611"},{"latitude":"33.6935128","longitude":"-117.8866053","name":"Bloomingdale's - Coast Mesa  - 3333 Bristol St, Coast Mesa","address":"CA 92626>714-824-4600"},{"latitude":"33.60931","longitude":"-117.705028","name":"Macy's - Laguna Hills (Laguna Hills Mall) - 24100 Laguna Hills Mall, Laguna Hills","address":"CA 92653>949-586-1901"},{"latitude":"33.613986","longitude":"-117.875652","name":"Macy's - Newport Beach  - 101 Newport Center, Newport Beach","address":"CA 92660>949-640-8333"},{"latitude":"33.617405","longitude":"-117.875747","name":"Bloomingdale's - Newport Beach - Fashion Valley - 701 Newport Center Dr, Newport Beach","address":"CA 92660>949-729-6600"},{"latitude":"33.74984","longitude":"-118.013283","name":"Macy's - Westminster  - 300 Westminster Mall, Westminster","address":"CA 92683>714-657-3333"},{"latitude":"33.558707","longitude":"-117.668447","name":"Macy's - Mission Viejo (Mission Viejo Mall) - 300 Shops at Mission Viejo, Mission Viejo","address":"CA 92691>949-364-3111"},{"latitude":"33.776684","longitude":"-117.867599","name":"Macy's - Santa Ana (Santa Ana Main Place) - 2850 N Main St, Santa Ana","address":"CA 92705>714-547-7211"},{"latitude":"33.9154787","longitude":"-117.8862215","name":"Macy's - Brea (Brea Mall) - 200 Brea Mall, Brea","address":"CA 92821>714-990-1400"},{"latitude":"34.268127","longitude":"-119.246918","name":"Macy's - Ventura  - 477 S Mills Rd, Ventura","address":"CA 93003>805-642-7511"},{"latitude":"34.283272","longitude":"-118.773987","name":"Macy's - Simi Valley (Simi Center) - 1475 Simi Town Ctr Way, Simi Valley","address":"CA 93065>805-581-3333"},{"latitude":"34.418697","longitude":"-119.698334","name":"Macy's - Santa Barbara  - 701 State St, Santa Barbara","address":"CA 93101>805-963-4566"},{"latitude":"34.440277","longitude":"-119.74749","name":"Macy's - Santa Barbara (La Cumbre Plaza) - 3805 State St, Santa Barbara","address":"CA 93105>805-687-6411"},{"latitude":"36.310571","longitude":"-119.314666","name":"Macy's - Visalia - 2211 S Mooney Blvd, Visalia","address":"CA 93277>559-622-1111 "},{"latitude":"35.337971","longitude":"-119.031887","name":"Macy's - Bakersfield  - 2601 Ming Ave, Bakersfield","address":"CA 93304>818-841-2100"},{"latitude":"34.95182","longitude":"-120.43399","name":"Macy's - Santa Maria (Santa Maria Center) - 302 Town Ctr E, Santa Maria","address":"CA 93454>805-349-8940"},{"latitude":"34.604802","longitude":"-118.150111","name":"Macy's - Palmdale (Antelope Valley) - 1123 Rancho Vista Blvd,  Palmdale","address":"CA 93551>661-456-3333"},{"latitude":"36.809565","longitude":"-119.755425","name":"Macy's - Fresno (Fresno Furniture) - 1732 E Shaw Ave, Fresno","address":"CA 93710>559-222-6611"},{"latitude":"36.806253","longitude":"-119.780146","name":"Macy's - Fresno  - 4888 N Fresno St, Fresno","address":"CA 93726>559-228-3333"},{"latitude":"36.716766","longitude":"-121.655571","name":"Macy's - Salinas  - 200 Northridge Shopping Ctr, Salinas","address":"CA 93906>831-443-1111"},{"latitude":"36.5842389","longitude":"-121.896524","name":"Macy's - Monterey  - 100 Del Monte Ctr, Monterey","address":"CA 93940>831-372-3333"},{"latitude":"36.5854011","longitude":"-121.8970977","name":"Macy's - Monterey (Home) - 260 Del Monte Center, Monterey","address":"CA 93940>831-372-3333"},{"latitude":"37.67351","longitude":"-122.470751","name":"Macy's - Daly City - Serramonte - 1 Serramonte Ctr, Daly City","address":"CA 94015>650-994-3333"},{"latitude":"37.376156","longitude":"-122.031616","name":"Macy's - Sunnyvale  - 200 W Washington Ave, Sunnyvale","address":"CA 94086>408-732-3333"},{"latitude":"37.78455","longitude":"-122.407082","name":"Bloomingdale's - San Francisco  (San Francisco Centre) - 845 Market St, San Francisco","address":"CA 94102>415-856-5300"},{"latitude":"37.78669","longitude":"-122.407082","name":"Macy's - San Francisco (Union Square) - 170 O'Farrell St, San Francisco","address":"CA 94111>415-397-3333"},{"latitude":"37.728969","longitude":"-122.476764","name":"Macy's - San Francisco (Stonestown Mall) - 1 Stonestown Mall, San Francisco","address":"CA 94115>415-753-4000"},{"latitude":"37.4430392","longitude":"-122.1729422","name":"Macy's - Palo Alto (Standford) - 300 Stanford Shopping Court, Palo Alto","address":"CA 94304>650-326-3333"},{"latitude":"37.44291","longitude":"-122.171266","name":"Bloomingdale's - Palo Alto (Standford) - 1 Stanford Shopping Center, Palo Alto","address":"CA 94304>650-463-2000"},{"latitude":"37.541149","longitude":"-122.302437","name":"Macy's - San Mateo (Hillsdale Furniture) - 2838 S El Camino Real, San Mateo","address":"CA 94403>650-341-3333"},{"latitude":"37.537113","longitude":"-122.300067","name":"Macy's - San Mateo (Hillsdale Mall) - 301 Hillsdale Mall, San Mateo","address":"CA 94403>650-341-3333"},{"latitude":"38.0005126","longitude":"-121.841359","name":"Macy's - Antioch  - 2500 Somersville Rd, Antioch","address":"CA 94509>925-219-3333"},{"latitude":"37.9672096","longitude":"-122.0617631","name":"Macy's - Concord  - 341 Sun Valley Mall, Concord","address":"CA 94520>925-689-3333"},{"latitude":"38.259856","longitude":"-122.055954","name":"Macy's - Fairfield  - 1544 Travis Blvd, Fairfield","address":"CA 94533>707-428-3333"},{"latitude":"37.649954","longitude":"-122.103531","name":"Macy's - Hayward  - 800 Southland Mall, Hayward","address":"CA 94545>510-786-4300"},{"latitude":"37.699318","longitude":"-121.84293","name":"Bloomingdale's - Livermore (Premium Outlets) - 3130 Livermore Outlets Dr, Livermore","address":"CA 94551>925-273-6190"},{"latitude":"37.5263612","longitude":"-122.001078","name":"Macy's - Newark  - 200 Newpark Mall, Newark","address":"CA 94560>510-797-3333"},{"latitude":"37.702595","longitude":"-122.124977","name":"Macy's - San Leandro (Bayfair Mall) - 15555 E 14th St, San Leandro","address":"CA 94578>510-357-3333"},{"latitude":"37.604882","longitude":"-122.03921","name":"Macy's - Union City (Furniture Clearanc - 1208 Whipple Rd, Union City","address":"CA 94587>510-441-8833"},{"latitude":"37.6985135","longitude":"-121.8756314","name":"Macy's - Pleasanton (Home) - 4255 Rosewood Dr, Pleasanton","address":"CA 94588>925-227-4800"},{"latitude":"37.6931129","longitude":"-121.928293","name":"Macy's - Pleasanton - 1300 Stoneridge Mall Rd, Pleasanton","address":"CA 94588>925-463-3333"},{"latitude":"37.894985","longitude":"-122.058121","name":"Macy's - Walnut Creek  - 1301 Broadway Plz, Walnut Creek","address":"CA 94596>925-279-3333"},{"latitude":"37.983078","longitude":"-122.329193","name":"Macy's - Richmond (Hilltop Mall) - 2500 Hilltop Mall Rd, Richmond","address":"CA 94806>510-222-3333"},{"latitude":"38.004322","longitude":"-122.543068","name":"Macy's - San Rafael (Northgate Mall) - 1000 Northgate Mall, San Rafael","address":"CA 94903>415-499-5200"},{"latitude":"37.927715","longitude":"-122.513035","name":"Macy's - Corte Madera - 1400 Redwood Hwy, Corte Madera","address":"CA 94925>415-927-3333"},{"latitude":"38.0934646","longitude":"-122.5549855","name":"Macy's - Novato (Home) - 100 Vintage Way, Novato","address":"CA 94945>415-892-3333"},{"latitude":"36.977125","longitude":"-121.966517","name":"Macy's - Capitola - 1855 41st  Ave, Capitola","address":"CA 95010>831-621-3333"},{"latitude":"37.283951","longitude":"-121.834427","name":"Macy's - San Jose (Valley Fair) - 2801 Stevens Creek Blvd, Santa Clara","address":"CA 95050>408-248-3333"},{"latitude":"37.324614","longitude":"-121.948025","name":"Macy's - Santa Clara (Westfield Valley Fair) - 2801 Stevens Creek Blvd, Santa Clara","address":"CA 95050>408-248-3333 "},{"latitude":"37.325826","longitude":"-121.814461","name":"Macy's - San Jose (Eastridge Mall) - 2210 Tully Rd, San Jose","address":"CA 95122>408-238-3333"},{"latitude":"37.253937","longitude":"-121.8619","name":"Macy's - San Jose (Oakridge Mall) - 5411 Thornwood Dr, San Jose","address":"CA 95123>408-224-3333"},{"latitude":"37.9972","longitude":"-121.314743","name":"Macy's - Stockton  - 5242 Pacific Ave, Stockton","address":"CA 95207>209-477-3333"},{"latitude":"37.76161","longitude":"-121.458569","name":"Macy's - Tracy - 3400 Naglee Rd, Tracy","address":"CA 95304>209-221-4500"},{"latitude":"37.720868","longitude":"-121.022042","name":"Macy's - Modesto  - 500 Vintage Faire, Modesto","address":"CA 95356>209-575-3333"},{"latitude":"38.440746","longitude":"-122.717659","name":"Macy's - Santa Rosa (Santa Rosa Plaza) - 800 Santa Rosa Plz, Santa Rosa","address":"CA 95401>707-523-3333"},{"latitude":"38.459072","longitude":"-122.731438","name":"Macy's - Santa Rosa (Coddingtown Center) - 555 Coddingtown Center, Santa Rosa","address":"CA 95401>707-579-3333"},{"latitude":"38.673096","longitude":"-121.266768","name":"Macy's - Citrus Heights  - 6000 Sunrise Blvd, Citrus Heights","address":"CA 95610>916-962-3333"},{"latitude":"38.772499","longitude":"-121.266022","name":"Macy's - Roseville  - 1197 Galleria Blvd, Roseville","address":"CA 95678>916-771-3333"},{"latitude":"38.7705","longitude":"-121.262604","name":"Macy's - Roseville (Furniture Gallery) - 1152 Galleria Blvd, Roseville","address":"CA 95678>916-786-5333 "},{"latitude":"38.582012","longitude":"-121.504852","name":"Macy's - Sacramento (Downtown Sacramento) - 414 K St, Sacramento","address":"CA 95814>916-444-3333"},{"latitude":"38.599556","longitude":"-121.426468","name":"Macy's - Sacramento (Arden Fair) - 1701 Arden Way, Sacramento","address":"CA 95815>916-925-2845"},{"latitude":"40.589581","longitude":"-122.357948","name":"Macy's - Redding  - 1291 Hilltop Dr, Redding","address":"CA 96003>530-722-9111"},{"latitude":"33.8305","longitude":"-118.349721","name":"Macy's - Torrance (Del Amo Fashion Center) - 21600 Hawthorne Blvd, Torrance","address":"CA>90503>310-542-5941"},{"latitude":"34.185436","longitude":"-118.889625","name":"Macy's - Thousand Oaks  - 590 W Hillcrest Dr, Thousand Oaks","address":"CA>91360>805-496-4444"},{"latitude":"39.708634","longitude":"-104.823979","name":"Macy's - Aurora (Aurora Mall) - 14200 E Alameda Ave, Aurora","address":"CO 80012>303-214-1860"},{"latitude":"39.933807","longitude":"-105.134991","name":"Macy's - Broomfield  - 11 W FlatIron Circle, Broomfield","address":"CO 80021>303-222-4000"},{"latitude":"39.592956","longitude":"-104.965119","name":"Macy's - Centennial (Furniture Gallery) - 6797 South Vine St, Centennial","address":"CO 80122>303-703-3333"},{"latitude":"39.593181","longitude":"-104.962524","name":"Macy's - Centennial (Southglenn Shopping Center) - 6801 S. University Blvd,  Centennial","address":"CO 80122>303-729-1123"},{"latitude":"39.593792","longitude":"-104.960358","name":"Macy's - Littleton (Southglenn Shopping Center) - 6801 S University Blvd, Littleton","address":"CO 80122>303-729-1123"},{"latitude":"39.609985","longitude":"-105.0933","name":"Macy's - Littleton (Southwest Plaza) - 8501 W Bowles Ave, Littleton","address":"CO 80123>303-729-2862"},{"latitude":"40.233784","longitude":"-90.615761","name":"Macy's - Littleton (Park Meadows) - 8455 S Park Meadows Center Dr, Littleton","address":"CO 80124>303-566-6370"},{"latitude":"39.716885","longitude":"-104.956417","name":"Macy's - Denver (Furniture Gallery) - 2500 E 1st Ave, Denver","address":"CO 80206>303-394-3333"},{"latitude":"39.716124","longitude":"-104.951366","name":"Macy's - Denver (Cherry Creek Mall) - 15 S Steele St, Denver","address":"CO 80209>303-390-2200"},{"latitude":"39.856655","longitude":"-105.059219","name":"Macy's - Westminster  - 5613 W 88th Ave, Westminster","address":"CO 80238>303-214-6500"},{"latitude":"39.786743","longitude":"-104.865921","name":"Macy's - Denver (Northfield) - 8298 E 49th Ave, Denver","address":"CO 80238>303-227-7222"},{"latitude":"40.02092","longitude":"-105.256218","name":"Macy's - Boulder (Twenty Ninth St Mall)  1900 29th St, Boulder","address":"CO 80301>303-218-5955"},{"latitude":"40.543762","longitude":"-105.074654","name":"Macy's - Fort Collins  - 225 E Foothills Pkwy, Fort Collins","address":"CO 80525>970-226-5300"},{"latitude":"40.4109","longitude":"-104.989601","name":"Macy's - Loveland (Promenade Shops) - 5995 Sky Pond Dr, Loveland","address":"CO 80538>970-612-1401"},{"latitude":"38.946067","longitude":"-104.795129","name":"Macy's - Colorado Springs (The Citadel) - 755 Citadel Dr W, Colorado Springs","address":"CO 80909>719-597-7246"},{"latitude":"38.945293","longitude":"-104.794952","name":"Macy's - Colorado Springs (Chapel Hills) - 1750 Briargate Blvd, Colorado Springs","address":"CO 80920>719-528-1500"},{"latitude":"41.723724","longitude":"-72.760483","name":"Macy's - Farmington (Westfarms Mall) - 100 Westfarms Mall, Farmington","address":"CT 06032>860-561-3030"},{"latitude":"41.804008","longitude":"-72.547279","name":"Macy's - Manchester (Buckland) - 183 Pavilion Dr, Manchester","address":"CT 06042>860-644-6700"},{"latitude":"41.9977","longitude":"-72.584656","name":"Macy's - Enfield (Enfield Square) - 90 Elm St, Enfield","address":"CT 06082>860-741-2111"},{"latitude":"41.372837","longitude":"-72.138306","name":"Macy's - Waterford  - 824 Hartford Tpke, Waterford","address":"CT 06385>860-440-2239"},{"latitude":"41.374822","longitude":"-72.14498","name":"Macy's - Waterford - 850 Hartford Tpke Waterford","address":"CT 06385>860-443-6911"},{"latitude":"41.550179","longitude":"-72.803955","name":"Macy's - Meriden  - 470 Lewis Ave, Meriden","address":"CT 06451>203-238-0741"},{"latitude":"41.19508","longitude":"-73.157448","name":"Macy's - Milford (Connecticut Post) - 1201 Post Rd, Milford","address":"CT 06460>203-877-9393"},{"latitude":"41.23008","longitude":"-73.220047","name":"Macy's - Trumbull (Trumbull Shopping Park) - 5065 Main St, Trumbull","address":"CT 06611>203-374-7200"},{"latitude":"41.546837","longitude":"-73.026314","name":"Macy's - Waterbury  - 575 Union St, Waterbury","address":"CT 06706>203-757-1131"},{"latitude":"41.378666","longitude":"-73.477158","name":"Macy's - Danbury (Danbury Fair Mall) - 7 Backus Ave, Danbury","address":"CT 06810>203-731-3500"},{"latitude":"41.05505","longitude":"-73.53688","name":"Macy's - Stamford (Stamford Center) - 151 Broad St, Stamford","address":"CT 06901>203-462-9611"},{"latitude":"38.904221","longitude":"-77.031799","name":"Macy's - Washington (Metro Center) - 1201 G St NW, Washington","address":"DC 20005>202-628-6661"},{"latitude":"39.666458","longitude":"-75.659248","name":"Macy's - Newark (Christiana Mall) - 501 Christiana Mall Rd, Newark","address":"DE 19702>302-452-3211"},{"latitude":"39.764198","longitude":"-75.543098","name":"Macy's - Wilmington (Concord Mall) - 4747 Concord Pike, Wilmington","address":"DE 19803>302-478-1860"},{"latitude":"39.192219","longitude":"-75.544609","name":"Macy's - Dover (Dover Mall) - 2000 Dover Mall, Dover","address":"DE 19901>302-736-0974"},{"latitude":"29.195026","longitude":"-81.061798","name":"Macy's - Daytona Beach  - 1700 W International Speedway, Daytona Beach","address":"FL 32114>386-254-3300"},{"latitude":"30.43723","longitude":"-84.255908","name":"Macy's - Tallahassee  - 1500 Apalachee Pkwy, Tallahassee","address":"FL 32301>850-325-2800"},{"latitude":"29.659435","longitude":"-82.414566","name":"Macy's - Gainesville  - 6671 W Newberry Rd, Gainesville","address":"FL 32605>352-333-2300"},{"latitude":"28.663803","longitude":"-81.378914","name":"Macy's - Altamonte Springs  - 451 E Altamonte Ave, Altamonte Springs","address":"FL 32701>407-830-2300"},{"latitude":"28.66527","longitude":"-81.416817","name":"Macy's - Altamonte Springs (Furniture Gallery) - 820 W Town Center Pkwy, Altamonte Springs","address":"FL 32714>407-389-2500"},{"latitude":"28.661981","longitude":"-81.231916","name":"Macy's - Oviedo (Oviedo Marketplace) - 1400 Oviedo Marketplace Blvd, Oviedo","address":"FL 32765>407-971-7300"},{"latitude":"28.802319","longitude":"-81.339497","name":"Macy's - Sanford (Seminole) - 330 Towne Center Cir, Sanford","address":"FL 32771>407-328-3300"},{"latitude":"28.555161","longitude":"-81.33946","name":"Macy's - Orlando  - 3505 E Colonial Dr, Orlando","address":"FL 32803>407-896-5300"},{"latitude":"28.443489","longitude":"-81.399096","name":"Macy's - Orlando (Florida Mall) - 8001 S Orange Blossom Trl, Orlando","address":"FL 32809>407-854-2300"},{"latitude":"28.487274","longitude":"-81.433431","name":"Macy's - Orlando (Orlando Millenia Mall) - 4298 Millenia Blvd, Orlando","address":"FL 32839>407-264-2300"},{"latitude":"28.4888064","longitude":"-81.4293129","name":"Bloomingdale's - Orlando ( Millenia Mall) - 4152 Conroy Rd, Orlando","address":"FL 32839>407-264-2400"},{"latitude":"28.081957","longitude":"-80.650981","name":"Macy's - Melbourne  - 1700 W New Haven Ave, Melbourne","address":"FL 32904>321-676-9300"},{"latitude":"28.356557","longitude":"-80.68413","name":"Macy's - Merritt Island  - 777 E Merritt Island Cswy, Merritt Island","address":"FL 32952>321-454-1300"},{"latitude":"27.641386","longitude":"-80.457566","name":"Macy's - Vero Beach  - 6200 20th St, Vero Beach","address":"FL 32966>561-564-2300"},{"latitude":"25.866783","longitude":"-80.318695","name":"Macy's - Hialeah (Westland) - 1777 W 49th St, Hialeah","address":"FL 33012>305-825-7300"},{"latitude":"26.005624","longitude":"-80.329845","name":"Macy's - Pembroke Pines (Furniture Gallery) - 13640 Pines Blvd, Pembroke Pines","address":"FL 33024>954-438-2325"},{"latitude":"26.011492","longitude":"-80.302443","name":"Macy's - Pembroke Pines  - 11605 Pines Blvd, Pembroke Pines","address":"FL 33026>954-438-2400"},{"latitude":"26.2596152","longitude":"-80.1060993","name":"Macy's - Pompano Beach  - 1200 NE 23rd St, Pompano Beach","address":"FL 33064>954-786-6399"},{"latitude":"26.239849","longitude":"-80.251457","name":"Macy's - Coral Springs (Coral Square) - 9129 W Atlantic Blvd, Coral Springs","address":"FL 33071>954-345-3300"},{"latitude":"25.773691","longitude":"-80.193432","name":"Macy's - Miami (Downtown) - 22 E Flagler St, Miami","address":"FL 33131>305-577-1500"},{"latitude":"25.7917999","longitude":"-80.136094","name":"Macy's - Miami Beach  - 1675 Meridian Ave, Miami Beach","address":"FL 33139>305-674-6300"},{"latitude":"25.6469929","longitude":"-80.331406","name":"Macy's - Miami (Furniture Gallery) - 13251 S Dixie Hwy, Miami","address":"FL 33156>305-254-5700"},{"latitude":"25.6888144","longitude":"-80.3117077","name":"Macy's - Miami (Dadeland) - 7303 N Kendall Dr, Miami","address":"FL 33156>305-662-3400"},{"latitude":"25.784516","longitude":"-80.364621","name":"Macy's - Miami (West Dade) - 1245 NW 107th Ave, Miami","address":"FL 33172>305-594-6300"},{"latitude":"25.78674","longitude":"-80.379336","name":"Bloomingdale's - Miami (Dolphin Mall) - 11401 NW 12th St, Miami","address":"FL 33172>305-597-2080"},{"latitude":"25.642713","longitude":"-80.336346","name":"Bloomingdale's - Miami  - 8778 SW 136th St, Miami","address":"FL 33176>305-252-6300"},{"latitude":"25.6435855","longitude":"-80.3377865","name":"Macy's - Miami (The Falls) - 9100 SW 136th St, Miami","address":"FL 33176>305-278-3300"},{"latitude":"25.572644","longitude":"-80.369381","name":"Macy's - Miami  - 20507 S Dixie Hwy, Miami","address":"FL 33180>305-252-5200"},{"latitude":"25.9571002","longitude":"-80.1466943","name":"Macy's - Miami (Macy's Aventura) - 19535 Biscayne Blvd, Miami","address":"FL 33180>305-682-3300"},{"latitude":"25.956417","longitude":"-80.146629","name":"Bloomingdale's - Aventura (Aventura Mall)- 19555 Biscayne Blvd, Aventura","address":"FL 33180>305-792-1000"},{"latitude":"26.137627","longitude":"-80.116478","name":"Macy's - Fort Lauderdale  - 2314 E Sunrise Blvd, Fort Lauderdale","address":"FL 33304>954-537-2300"},{"latitude":"26.183836","longitude":"-80.118835","name":"Macy's - Fort Lauderdale (Furniture Gallery) - 4501 N Federal Hwy, Fort Lauderdale","address":"FL 33308>954-567-6500"},{"latitude":"26.149011","longitude":"-80.324928","name":"Bloomingdale's - Sunrise (Colonnade at Sawgrass Mills) - 12801 W Sunrise Blvd, Sunrise","address":"FL 33323>954-835-2800"},{"latitude":"26.1207233","longitude":"-80.2547143","name":"Macy's - Plantation  - 8000 W Broward Blvd, Plantation","address":"FL 33388>954-475-3400"},{"latitude":"26.709064","longitude":"-80.057274","name":"Macy's - West Palm Beach  - 575 S Rosemary Ave, West Palm Beach","address":"FL 33401>561-242-4085"},{"latitude":"26.8450462","longitude":"-80.0825652","name":"Bloomingdale's - Palm Beach Gardens  - 3105 PGA Blvd, Palm Beach Gardens","address":"FL 33401>561-625-2000"},{"latitude":"26.7253529","longitude":"-80.0894401","name":"Macy's - West Palm Beach  - 1801 Palm Beach Lakes Blvd, West Palm Beach","address":"FL 33401>561-684-4400"},{"latitude":"26.8450462","longitude":"-80.0825674","name":"Macy's - Palm Beach Gardens  - 3107 PGA Blvd, Palm Beach Gardens","address":"FL 33410>561-775-2300"},{"latitude":"26.644067","longitude":"-80.208087","name":"Macy's - Wellington  - 10316 W Forest Hill Blvd, Wellington","address":"FL 33414>561-493-2000"},{"latitude":"26.534731","longitude":"-80.09082","name":"Macy's - Boynton Beach (Boynton Beach Mall) - 801 N Congress Ave, Boynton Beach","address":"FL 33426>561-738-4200"},{"latitude":"26.368361","longitude":"-80.13427","name":"Macy's - Boca Raton  - 5700 W Glades Rd, Boca Raton","address":"FL 33431>561-393-4400"},{"latitude":"26.368443","longitude":"-80.13623","name":"Bloomingdale's - Boca Raton  - 5840 Glades Rd, Boca Raton","address":"FL 33434>561-394-2000"},{"latitude":"26.368135","longitude":"-80.191597","name":"Macy's  - Boca Raton (Furniture Gallery) - 9339 Glades Rd, Boca Raton","address":"FL 33434>561-620-4500"},{"latitude":"27.928303","longitude":"-82.324486","name":"Macy's - Brandon (Brandon Center) - 638 Brandon Town Center Mall, Brandon","address":"FL 33511>813-651-5200"},{"latitude":"28.1895828","longitude":"-82.3473059","name":"Macy's - Wesley Chapel (Wiregrass) - 28233 Paseo Dr, Wesley Chapel","address":"FL 33543>813-528-4300"},{"latitude":"27.890946","longitude":"-82.513325","name":"Macy's - Tampa (Tampa Gallery) - 4130 Gandy Blvd, Tampa","address":"FL 33603>813-805-5270"},{"latitude":"27.9451602","longitude":"-82.5273946","name":"Macy's - Tampa (Westshore) - 298 West Shore Plaza, Tampa","address":"FL 33612>813-286-7525"},{"latitude":"28.05403","longitude":"-82.434271","name":"Macy's - Tampa (University Square) - 2201 E Fowler Ave, Tampa","address":"FL 33612>813-975-2300"},{"latitude":"28.0686779","longitude":"-82.5805446","name":"Macy's - Tampa (Citrus Park) - 7801 Citrus Park Town Ctr Mall, Tampa","address":"FL 33625>813-926-7300"},{"latitude":"27.792845","longitude":"-82.735248","name":"Macy's - Saint Petersburg (Tyrone) - 6901 22nd Ave N, Saint Petersburg","address":"FL 33710>727-344-8300"},{"latitude":"28.017171","longitude":"-82.730909","name":"Macy's - Clearwater (Countryside Mall) - 27001 US Hwy 19 N, Clearwater","address":"FL 33761>727-724-7525"},{"latitude":"28.026018","longitude":"-82.738075","name":"Macy's - Clearwater (Countryside Furniture Gallery) - 26256 US Hwy 19 N, Clearwater","address":"FL 33762>727-712-5500"},{"latitude":"28.0911628","longitude":"-81.9739234","name":"Macy's - Lakeland  - 3800 US Hwy 98 N, Lakeland","address":"FL 33809>863-853-7200"},{"latitude":"28.012505","longitude":"-81.730667","name":"Macy's - Winter Haven (Citi Center) - 700 Third St SW 230 Citi Center, Winter Haven","address":"FL 33880>863-297-6300"},{"latitude":"26.601976","longitude":"-81.87162","name":"Macy's - Fort Myers  - 4125 Cleveland Ave, Fort Myers","address":"FL 33901>941-278-9300"},{"latitude":"26.434245","longitude":"-81.775936","name":"Bloomingdale's - Estero (Miromar Outlets) - 0801 Corkscrew Rd, Estero","address":"FL 33928>239-271-3455"},{"latitude":"27.0075772","longitude":"-82.1316256","name":"Macy's - Port Charlotte  - 1441 Tamiami Trail, Port Charlotte","address":"FL 33948>941-764-5200"},{"latitude":"26.1678669","longitude":"-81.799059","name":"Macy's - Naples (Naples Coastland Center) - 1800 9th St N, Naples","address":"FL 34103>239-434-7525"},{"latitude":"27.471184","longitude":"-82.570831","name":"Macy's - Bradenton (DeSota Square Mall) - 303 US Hwy 301 Blvd W, Bradenton","address":"FL 34205>941-745-5300"},{"latitude":"27.308603","longitude":"-82.523995","name":"Macy's - Sarasota  - 600 Southgate Plaza, Sarasota","address":"FL 34238>941-953-9300"},{"latitude":"27.234525","longitude":"-82.496032","name":"Macy's - Sarasota (South Trail) - 8201 S Tamiami Trail, Sarasota","address":"FL 34239>941-925-5300"},{"latitude":"29.159777","longitude":"-82.174012","name":"Macy's - Ocala  - 3100 SW College Rd, Ocala","address":"FL 34474>239-434-7525"},{"latitude":"28.291735","longitude":"-82.713937","name":"Macy's - Port Richey  - 9409 US Hwy 19 N, Port Richey","address":"FL 34652>727-836-7725"},{"latitude":"27.241932","longitude":"-80.271187","name":"Macy's - Jensen Beach  - 3106 NW Federal Hwy, Jensen Beach","address":"FL 34957>772-692-9400"},{"latitude":"34.043186","longitude":"-84.301796","name":"Macy's - Alpharetta (Furniture Gallery) - 7231 N Point Pkwy, Alpharetta","address":"GA 30022>678-795-2500"},{"latitude":"34.045925","longitude":"-84.297379","name":"Macy's - Alpharetta (Northpoint Mall) - 5000 N Point Cir, Alpharetta","address":"GA 30022>770-410-2600"},{"latitude":"33.8083669","longitude":"-84.276042","name":"Macy's - Decatur (North DeKalb) - 2144 Lawrenceville Hwy, Decatur","address":"GA 30033>404-329-2600"},{"latitude":"33.710551","longitude":"-84.274867","name":"Macy's - Decatur (South DeKalb) - 2731 Candler Rd, Decatur","address":"GA 30034>404-243-2611"},{"latitude":"33.6922262","longitude":"-84.0916083","name":"Macy's - Lithonia (Stonecrest Mall) - 8030 Mall Pkwy, Lithonia","address":"GA 30038>678-526-2300"},{"latitude":"33.956421","longitude":"-84.125198","name":"Macy's - Duluth (Furniture Gallery) - 3360 Ventura Pkwy, Duluth","address":"GA 30095>770-623-2200"},{"latitude":"33.9572496","longitude":"-84.1333124","name":"Macy's - Duluth (Gwinnett Mall) - 2100 Pleasant Hill Rd, Duluth","address":"GA 30096>770-497-2600"},{"latitude":"33.7299059","longitude":"-84.7470396","name":"Macy's - Douglasville (Arbor Place) - 6690 Douglas Blvd, Douglasville","address":"GA 30135>678-391-2300"},{"latitude":"34.019128","longitude":"-84.563608","name":"Macy's - Kennesaw (Town Center) - 400 Ernest G Barrett Pkwy NW, Kennesaw","address":"GA 30144>770-423-2600"},{"latitude":"33.57518","longitude":"-84.347796","name":"Macy's - Morrow (Southlake Mall) - 1500 Southlake Mall, Morrow","address":"GA 30260>770-961-3300"},{"latitude":"31.9946258","longitude":"-81.1030807","name":"Macy's - Savannah (Shannon Mall) - 200 Shannon Mall, Savannah","address":"GA 30291>770-969-2600"},{"latitude":"33.690235","longitude":"-84.489204","name":"Macy's - Atlanta (Greenbriar) - 2841 Greenbriar Park Pkwy, Atlanta","address":"GA 30303>404-346-2690"},{"latitude":"33.848961","longitude":"-84.364044","name":"Macy's - Atlanta (Lenox Square Mall) - 3393 Peachtree Rd NE, Atlanta","address":"GA 30326>404-231-2800"},{"latitude":"33.847226","longitude":"-84.361744","name":"Bloomingdale's - Atlanta (Lenox Square Mall) - 3393 Peachtree Rd NE, Atlanta","address":"GA 30326>404-495-2800"},{"latitude":"33.879395","longitude":"-84.469833","name":"Macy's - Atlanta ( Cumberland Mall) - 1300 Cumberland Mall SE, Atlanta","address":"GA 30339>770-434-2611"},{"latitude":"33.849735","longitude":"-84.2552819","name":"Macy's - Atlanta (Northlake) - 4800 Briarcliff Rd NE, Atlanta","address":"GA 30345>770-491-2985"},{"latitude":"33.9186654","longitude":"-84.3386132","name":"Macy's - Atlanta (Perimeter Furniture) - 4300 Ashford Dunwoody Rd, Atlanta","address":"GA 30346>770-392-4601"},{"latitude":"33.9186654","longitude":"-84.3386132","name":"Macy's - Atlanta (Perimeter Mall) - 4300 Ashford Dunwoody Rd, Atlanta","address":"GA 30346>770-396-2800"},{"latitude":"33.9217462","longitude":"-84.3409321","name":"Bloomingdale's - Atlanta (Perimeter Mall) - 4400 Ashford Dunwoody Rd, Atlanta","address":"GA 30346>770-901-5200"},{"latitude":"34.064225","longitude":"-83.984145","name":"Macy's - Buford (Mall of Georgia) - 3333 Buford Dr, Buford","address":"GA 30519>678-546-4300"},{"latitude":"33.941017","longitude":"-83.466728","name":"Macy's - Athens (Georgia Square Mall) - 3700 Atlanta Hwy, Athens","address":"GA 30606>706-353-4847"},{"latitude":"33.463313","longitude":"-82.0806379","name":"Macy's - Augusta (Augusta Mall) - 3450 Wrightsboro Rd, Augusta","address":"GA 30909>706-731-5020"},{"latitude":"33.463313","longitude":"-82.0806379","name":"Macy's - Augusta (Furniture Gallery) - 3450 Wrightsboro Rd, Augusta","address":"GA 30909>706-731-5020"},{"latitude":"32.8159114","longitude":"-83.6965033","name":"Macy's - Macon  - 3661 Eisenhower Pkwy, Macon","address":"GA 31206>478-471-3985"},{"latitude":"32.001945","longitude":"-81.116935","name":"Macy's - Savannah (Oglethorpe Mall) - 7804 Abercorn St, Savannah","address":"GA 31406>912-353-3611"},{"latitude":"32.5061426","longitude":"-84.9469501","name":"Macy's - Columbus (Peachtree Mall) - 3091 Manchester Expy, Columbus","address":"GA 31909>706-478-2300"},{"latitude":"21.385097","longitude":"-157.942682","name":"Macy's - Aiea (Pearlridge Center) - 98-205 Kaonohi St, Aiea","address":"HI 96701>808-486-6701"},{"latitude":"19.6983327","longitude":"-155.0617773","name":"Macy's - Hilo (Prince Kuhio Plaza) - 111 E Puainako St, Hilo","address":"HI 96720>808-959-3561"},{"latitude":"20.885967","longitude":"-156.474988","name":"Macy's - Kahului (Kaahumanu) - 275 Kaahumanu Ave, Kahului","address":"HI 96732>808-877-3361"},{"latitude":"21.39332","longitude":"-157.74114","name":"Macy's - Kailua (Kailua) - 573 Kailua Rd, Kailua","address":"HI 96734>808-262-5395"},{"latitude":"19.916449","longitude":"-155.882129","name":"Macy's - Waikoloa (Kings Shops Kona) - 250 Waikoloa Beach Dr, Waikoloa","address":"HI 96738>808-885-5385"},{"latitude":"19.650011","longitude":"-155.997665","name":"Macy's - Kailua Kona (Kona Makalapua Center) - 74-5475 Kamakaeha Ave, Kailua Kona","address":"HI 96740>808-329-6300"},{"latitude":"20.237372","longitude":"-155.867791","name":"Macy's - Kohala Coast (Mauna Lani Kona) - 1 Mauna Lani Dr, Kohala Coast","address":"HI 96743>808-885-7494"},{"latitude":"21.431137","longitude":"-157.808487","name":"Macy's - Kaneohe (Windward) - 46-0456 Kamehameha Hwy, Kaneohe","address":"HI 96744>808-235-6612"},{"latitude":"20.916115","longitude":"-156.694626","name":"Macy's - Kaanapali (Hyatt Regency Maui) - 200 Nohea Kai Dr, Kaanapali","address":"HI 96761>808-667-7785"},{"latitude":"21.971493","longitude":"-159.378769","name":"Macy's - Lihue (Kukui Grove) - 3-2600 Kaumualiii Lihue, Kauai","address":"HI 96766>808-245-7751"},{"latitude":"21.309561","longitude":"-157.861588","name":"Macy's - Honolulu (Downtown) - 1032 Fort St, Honolulu","address":"HI 96813>808-521-5147"},{"latitude":"21.291719","longitude":"-157.845522","name":"Bloomingdale's - Honolulu (Ala Moana Center) - 1450 Ala Moana Blvd, Honolulu","address":"HI 96814>808-664-7511"},{"latitude":"21.289564","longitude":"-157.842758","name":"Macy's - Honolulu (Jewel Gallery Oahu) - 1450 Ala Moana Boulevard, Honolulu","address":"HI 96814>808-941-2345"},{"latitude":"21.278036","longitude":"-157.827515","name":"Macy's - Honolulu (Waikki) - 2314 Kalakaua Ave, Honolulu","address":"HI 96815>808-926-5217"},{"latitude":"21.278481","longitude":"-157.787537","name":"Macy's - Honolulu (Kahala) - 4211 Waialae Ave, Honolulu","address":"HI 96816>808-737-5429"},{"latitude":"42.5934506","longitude":"-114.7064477","name":"Macy's - Twin Falls (Magic Valley Mall) - 1379 Poleline Rd E, Twin Falls","address":"ID 83301>208-736-6800"},{"latitude":"43.4821757","longitude":"-111.9886531","name":"Macy's - Idaho Falls (Grand Teton Mall) - 2240 E 17th St, Idaho Falls","address":"ID 83404>208-535-6000"},{"latitude":"46.4009471","longitude":"-117.0062688","name":"Macy's - Lewiston (Downtown Lewiston) - 1806 19th Ave, Lewiston","address":"ID 83501>208-798-6000"},{"latitude":"43.600821","longitude":"-116.599782","name":"Macy's - Nampa (Karcher Mall) - 1509 Caldwell Blvd, Nampa","address":"ID 83651>208-463-6800"},{"latitude":"43.608586","longitude":"-116.280921","name":"Macy's - Boise (Boise Town Square) - 370 N Milwaukee St, Boise","address":"ID 83704>208-373-6000"},{"latitude":"47.73176","longitude":"-116.789759","name":"Macy's - Coeur D Alene (Coeur d'Alene Mall) - 200 W Hanley Ave, Coeur D Alene","address":"ID 83815>208-772-8700"},{"latitude":"41.97416","longitude":"-87.865985","name":"Bloomingdale's - Rosemont (Fashion Outlets of Chicago) - 5220 Fashion Outlets Way, Rosemont","address":"IL 60018>847-447-1160"},{"latitude":"42.386437","longitude":"-87.956649","name":"Macy's - Gurnee (Gurnee Mills) - 6124 W Grand Ave, Gurnee","address":"IL 60031>224-399-4800"},{"latitude":"42.25267","longitude":"-87.841461","name":"Macy's - Lake Forest  - 682 N Bank Ln, Lake Forest","address":"IL 60045>847-735-2100"},{"latitude":"42.245514","longitude":"-87.947029","name":"Macy's - Vernon Hills (Hawthorn Center) - 1 Hawthorn Centre, Vernon Hills","address":"IL 60061>847-918-2700"},{"latitude":"42.151981","longitude":"-87.817284","name":"Macy's - Northbrook  - 1555 Northbrook Ct, Northbrook","address":"IL 60062>874-509-5100"},{"latitude":"42.055401","longitude":"-87.749214","name":"Macy's - Skokie (Old Orchard Center) - 1 Old Orchard Shopping Ctr, Skokie","address":"IL 60077>847-329-2700"},{"latitude":"42.063641","longitude":"-87.743469","name":"Bloomingdale's - Skokie (Old Orchard Center) - 376 Old Orchard Center, Skokie","address":"IL 60077>847-675-5200"},{"latitude":"41.949963","longitude":"-88.112328","name":"Macy's - Bloomingdale (Stratford Square) - 1 Stratford Square Mall, Bloomingdale","address":"IL 60108>630-924-4700"},{"latitude":"42.098881","longitude":"-88.289711","name":"Macy's - West Dundee (Spring Hill Mall) - 1000 Spring Hill Mall, West Dundee","address":"IL 60118>847-551-4800"},{"latitude":"42.052639","longitude":"-88.042699","name":"Bloomingdale's - Schaumburg (Village Green Outlet) - 1450 East Golf Rd, Schaumburg","address":"IL 60173>847-598-3990"},{"latitude":"42.049286","longitude":"-88.037796","name":"Macy's - Schaumburg (Woodfield Mall) - 1 Woodfield Mall, Schaumburg","address":"IL 60173>847-706-6000"},{"latitude":"42.050453","longitude":"-88.045357","name":"Macy's - Schaumburg (Furniture Gallery) - 1200 N Meacham Rd, Schaumburg","address":"IL 60173>847-781-6200"},{"latitude":"41.599976","longitude":"-87.553551","name":"Macy's - Calumet City (River Oaks Center) - 1 River Oaks Center Dr, Calumet City","address":"IL 60409>708-418-4000"},{"latitude":"41.577517","longitude":"-88.16495","name":"Macy's - Joliet (Louis Joliet Mall) - 3340 Mall Loop Dr, Joliet","address":"IL 60435>815-254-5200"},{"latitude":"41.720344","longitude":"-88.044167","name":"Macy's - Bolingbrook  - 645 E Boughton Rd, Bolingbrook","address":"IL 60440>630-343-4200 "},{"latitude":"41.622383","longitude":"-87.846115","name":"Macy's - Orland Park (Orland Square) - 1 Orland Square Dr, Orland Park","address":"IL 60462>708-873-4100"},{"latitude":"41.7589","longitude":"-88.207733","name":"Macy's - Aurora (Fox Valley) - 1 Fox Valley Ctr, Aurora","address":"IL 60504>630-978-5400"},{"latitude":"41.846397","longitude":"-87.961296","name":"Macy's - Oak Brook (Furniture Gallery) - 1717 W 22nd St, Oak Brook","address":"IL 60523>630-645-4980"},{"latitude":"41.849815","longitude":"-87.956787","name":"Macy's - Oak Brook (Oak Brook Mall) - 1 Oakbrook Ctr, Oak Brook","address":"IL 60523>630-684-2400"},{"latitude":"41.883572","longitude":"-87.627686","name":"Macy's - Chicago  - 111 N State St, Chicago","address":"IL 60602>312-781-1000"},{"latitude":"41.89262","longitude":"-87.626877","name":"Bloomingdale's - Chicago (Medinah Home Store) - 600 N Wabash Ave, Chicago","address":"IL 60611>312-324-7500"},{"latitude":"41.897888","longitude":"-87.623901","name":"Macy's - Chicago (Water Tower Place) - 835 N Michigan Ave, Chicago","address":"IL 60611>312-335-7700"},{"latitude":"41.88755","longitude":"-87.624527","name":"Bloomingdale's - Chicago  - 900 N Michigan Ave, Chicago","address":"IL 60611>312-440-4460"},{"latitude":"42.241314","longitude":"-88.975349","name":"Macy's - Rockford (Cherryvale) - 7200 Harrison Ave, Rockford","address":"IL 61112>815-332-2424"},{"latitude":"40.488007","longitude":"-88.956345","name":"Macy's - Bloomington (Eastland Mall) - 1615 E Empire St, Bloomington","address":"IL 61701>309-665-0622"},{"latitude":"40.140171","longitude":"-88.244911","name":"Macy's - Champaign (Market Place) - 2000 N Neil St, Champaign","address":"IL 61820>217-363-5600"},{"latitude":"38.922794","longitude":"-90.177704","name":"Macy's - Alton (Alton Square) - 100 Alton Square, Alton","address":"IL 62002>618-464-4100"},{"latitude":"38.597858","longitude":"-89.978348","name":"Macy's - Fairview Heights (St Clair Square) - 200 Saint Clair Sq, Fairview Heights","address":"IL 62208>618-624-2000"},{"latitude":"39.765015","longitude":"-89.702431","name":"Macy's - Springfield (White Oaks Mall) - 101 White Oaks Mall, Springfield","address":"IL 62704>217-787-9900"},{"latitude":"37.730923","longitude":"-89.191895","name":"Macy's - Carbondale (University Mall) - 1237 E Main St, Carbondale","address":"IL 62901>618-529-4400"},{"latitude":"39.632847","longitude":"-86.124588","name":"Macy's - Greenwood (Greenwood Park) - 1251 US Hwy 31 N, Greenwood","address":"IN 46142>317-882-6247"},{"latitude":"39.866682","longitude":"-86.119684","name":"Macy's - Indianapolis (Glendale Center) - 6101 N Keystone Ave, Indianapolis","address":"IN 46220>317-255-6611"},{"latitude":"39.905483","longitude":"-86.064072","name":"Macy's - Indianapolis (Castleton Square) - 6020 E 82nd St, Indianapolis","address":"IN 46250>317-579-4500"},{"latitude":"41.470199","longitude":"-87.321491","name":"Macy's - Merrillville (SouthLake Mall) - 2210 Southlake Mall, Merrillville","address":"IN 46410>219-769-9100"},{"latitude":"41.7176931","longitude":"-86.1876233","name":"Macy's - Mishawaka (University Park Mall) - 6501 N Grape Rd, Mishawaka","address":"IN 46545>574-277-2950"},{"latitude":"41.113922","longitude":"-85.135315","name":"Macy's - Fort Wayne (Glenbrook Center) - 4201 Coldwater Rd, Fort Wayne","address":"IN 46805>260-484-1561"},{"latitude":"40.4743","longitude":"-86.110703","name":"Macy's - Kokomo (Markland Mall) - 1156 S 17th St, Kokomo","address":"IN 46902>765-454-6221"},{"latitude":"40.2203971","longitude":"-85.3733019","name":"Macy's - Muncie (Muncie Mall) - 3501 N Granville Ave, Muncie","address":"IN 47303>765-286-0011"},{"latitude":"39.164085","longitude":"-86.493378","name":"Macy's - Bloomington (College Mall) - 3068 E 3rd St, Bloomington","address":"IN 47401>812-333-8781"},{"latitude":"37.984215","longitude":"-87.492844","name":"Macy's - Evansville (Evansville Mall) - 800 N Green River Rd, Evansville","address":"IN 47715>812-473-9205"},{"latitude":"39.4245527","longitude":"-87.4162748","name":"Macy's - Terre Haute (Honey Creek Square) - 3401 S US Hwy 41, Terre Haute","address":"IN 47802>812-234-1546"},{"latitude":"40.392494","longitude":"-86.853806","name":"Macy's - Lafayette (Tippecanoe Mall) - 2415 Sagamore Pkwy S, Lafayette","address":"IN 47905>765-447-2141"},{"latitude":"39.0005543","longitude":"-94.6309486","name":"Macy's - Prairie Village (Prairie Village Center) - 4000 W 71st St, Prairie Village","address":"KS 66208>913-262-1355"},{"latitude":"38.914673","longitude":"-94.6436219","name":"Macy's - Leawood (Leawood Town Center) - 5000 W 119th St, Leawood","address":"KS 66209>913-563-3996"},{"latitude":"38.955691","longitude":"-94.6651849","name":"Macy's - Overland Park (Metcalf South Center) - 9501 Metcalf Ave, Overland Park","address":"KS 66212>913-383-9696"},{"latitude":"38.9564137","longitude":"-94.7175341","name":"Macy's - Overland Park (Oak Park Furniture Gallery) - 11201 W 95th St, Overland Park","address":"KS 66214>913-888-4910"},{"latitude":"38.138073","longitude":"-85.671722","name":"Macy's - Louisville (Jefferson Mall) - 4809 Outerloop Rd, Louisville","address":"KY 40219>502-966-1901"},{"latitude":"38.2488209","longitude":"-85.6065668","name":"Macy's - Louisville (Oxmoor Center) - 7900 Shelbyville Rd, Louisville","address":"KY 40222>502-423-3000"},{"latitude":"37.991112","longitude":"-84.5237412","name":"Macy's - Lexington (Fayette Mall) - 3301 Nicholasville Rd, Lexington","address":"KY 40503>859-271-7200"},{"latitude":"38.986902","longitude":"-84.6338871","name":"Macy's - Florance (Florence Mall) - 5000 Mall Rd, Florance","address":"KY 41042>859-525-5600"},{"latitude":"36.9503148","longitude":"-86.4251127","name":"Macy's - Bowling Green (Greenwood Mall) - 2625 Scottsville Rd, Bowling Green","address":"KY 42104>270-783-8850"},{"latitude":"37.7205593","longitude":"-87.1246894","name":"Macy's - Owensboro (Towne Square Mall) - 5000 Frederica St, Owensboro","address":"KY 42301>270-685-4411"},{"latitude":"30.003673","longitude":"-90.156531","name":"Macy's - Metarie (Lakeside) - 3301 Veterans Memorial Blvd, Metarie","address":"LA 70002>504-484-4600"},{"latitude":"30.01853","longitude":"-90.24894","name":"Macy's - Kenner (Esplanade) - 1401 W Esplanade, Kenner","address":"LA 70065>504-461-4800"},{"latitude":"30.1740235","longitude":"-92.0784694","name":"Macy's - Lafayette (Acadiana) - 5733 Johnston Place, Lafayette","address":"LA 70503>337-988-7373"},{"latitude":"30.3916685","longitude":"-91.09086","name":"Macy's - Baton Rouge (Mall of Louisiana) - 6301 Bluebonnet Blvd, Baton Rouge","address":"LA 70836>225-757-7591"},{"latitude":"42.167877","longitude":"-72.645309","name":"Macy's - Holyoke  - 400 Whitney Ave, Holyoke","address":"MA 01040>413-538-7360"},{"latitude":"42.139542","longitude":"-72.500557","name":"Macy's - Springfield  - 1685 Boston Rd, Springfield","address":"MA 01129>413-543-4700"},{"latitude":"42.526443","longitude":"-71.738167","name":"Macy's - Leominster  - 106 Commerical Rd, Leominster","address":"MA 01453>978-537-1264"},{"latitude":"42.189067","longitude":"-71.8911846","name":"Macy's - Auburn  - 385 S Bridge St, Auburn","address":"MA 01501>508-721-0011"},{"latitude":"42.2989438","longitude":"-71.3940031","name":"Macy's - Framingham (Furniture Gallery) - 1 Worcester Rd, Framingham","address":"MA 01701>508-650-6000"},{"latitude":"42.354038","longitude":"-71.613136","name":"Macy's - Marlborough  - 601 Donald Lynch Blvd, Marlborough","address":"MA 01752>508-303-3800"},{"latitude":"42.299393","longitude":"-71.384987","name":"Macy's - Natick (Natick Mall) - 1245 Worcester Rd, Natick","address":"MA 01760>508-653-3800"},{"latitude":"42.472354","longitude":"-71.21096","name":"Macy's - Burlington (Burlington Mall) - 1300 Middlesex Tpke, Burlington","address":"MA 01803>781-221-3706"},{"latitude":"42.464138","longitude":"-71.024811","name":"Macy's - Saugus  - 1277 Broadway Rte, Saugus","address":"MA 01906>781-231-8400"},{"latitude":"42.54324","longitude":"-70.942314","name":"Macy's - Peabody (North Shore Mall) - 210 Andover St, Peabody","address":"MA 01960>978-531-3800"},{"latitude":"42.038598","longitude":"-71.352203","name":"Bloomingdale's - Wrentham - 1 Premium Outlets Blvd, Wrentham","address":"MA 02093>774-847-3300"},{"latitude":"42.3551911","longitude":"-71.0608171","name":"Macy's - Boston - 450 Washington St, Boston","address":"MA 02111>617-357-3063"},{"latitude":"42.367917","longitude":"-71.075712","name":"Macy's - Cambridge  - 100 Cambridge Side Place, Cambridge","address":"MA 02141>617-621-3800"},{"latitude":"42.2210531","longitude":"-71.0255696","name":"Macy's - Braintree  - 250 Granite St, Braintree","address":"MA 02184>781-848-3800"},{"latitude":"42.096397","longitude":"-71.052256","name":"Macy's - Brockton  - 200 Westate Dr, Brockton","address":"MA 02301>508-941-5057"},{"latitude":"42.147083","longitude":"-70.845177","name":"Macy's - Hanover  - 1775 Washington St, Hanover","address":"MA 02339>781-829-2200"},{"latitude":"41.969051","longitude":"-70.713814","name":"Macy's - Kingston (Independence Mall) - 101 Independence Mall Way, Kingston","address":"MA 02364>781-585-1400"},{"latitude":"42.321757","longitude":"-71.1707557","name":"Macy's - Newton (Chestnut Hill) - 55 Boylston St, Newton","address":"MA 02467>617-243-4600"},{"latitude":"42.3208274","longitude":"-71.173977","name":"Bloomingdale's - Newton (Chestnut Hill) - 175 Boylston St, Newton","address":"MA 02467>617-630-6000"},{"latitude":"41.665722","longitude":"-70.288506","name":"Macy's - Hyannis (Cape Cod Mall) - Cape Cod Mall Rte 132, Hyannis","address":"MA 02601>508-790-5091"},{"latitude":"41.64056","longitude":"-70.991425","name":"Macy's - North Dartmouth  - 200 N Dartmouth Mall, North Dartmouth","address":"MA 02747>508-994-0300"},{"latitude":"41.945087","longitude":"-71.347649","name":"Macy's - North Attleboro  - 1029 S Washington St, North Attleboro","address":"MA 02760>508-699-0220"},{"latitude":"41.749519","longitude":"-71.213852","name":"Macy's - Swansea (Swansea Mall) - Rte 118, Swansea","address":"MA 02777>508-677-6017"},{"latitude":"41.867062","longitude":"-71.050255","name":"Macy's - Taunton (Galleria Mall) - 2 Galleria Mall Dr, Taunton","address":"MA 02780>508-880-0030"},{"latitude":"38.6187069","longitude":"-76.9219002","name":"Macy's - Waldorf (St. Charles) - 11200 Mall Cir, Waldorf","address":"MD 20603>301-870-5800"},{"latitude":"38.943745","longitude":"-76.737022","name":"Macy's - Bowie  - 15300 Emerald Way, Bowie","address":"MD 20716>301-860-1675"},{"latitude":"38.833706","longitude":"-76.9448","name":"Macy's - Marlow Heights  - 4101 Branch Ave, Marlow Heights","address":"MD 20748>301-423-3300"},{"latitude":"39.402387","longitude":"-76.601825","name":"Macy's - Towson (Towson Town Center) - 813 Dulaney Valley Rd, Towson","address":"MD 20748>410-337-3600"},{"latitude":"38.967106","longitude":"-76.959373","name":"Macy's - Hyattsville  - 3500 East-West Hwy, Hyattsville","address":"MD 20782>301-559-8800"},{"latitude":"38.96029","longitude":"-77.087496","name":"Bloomingdale's - Chevy Chase (Wisconsin Place) - 5300 Western Ave, Chevy Chase","address":"MD 20815>240-744-3700"},{"latitude":"39.022266","longitude":"-77.147141","name":"Macy's - Bethesda  - 7125 Democracy Blvd, Bethesda","address":"MD 20817>301-469-6800"},{"latitude":"39.151157","longitude":"-77.206001","name":"Macy's - Gaithersburg (Lake Forest) - 701 Russell Ave, Gaithersburg","address":"MD 20877>301-948-3360"},{"latitude":"39.0365863","longitude":"-77.0553102","name":"Macy's - Wheaton  - 11160 Veirs Mill Rd, Wheaton","address":"MD 20902>240-880-4200"},{"latitude":"39.52648","longitude":"-76.356654","name":"Macy's - Bel Air  - 696 Bel Air Rd, Bel Air","address":"MD 21014>410-879-9801"},{"latitude":"39.216694","longitude":"-76.858025","name":"Macy's - Columbia  - 10300 Little Patuxent Pkwy, Columbia","address":"MD 21044>410-997-3000"},{"latitude":"39.140438","longitude":"-76.603035","name":"Macy's - Glen Burnie (Marley Station) - 7900 Ritchie Hwy, Glen Burnie","address":"MD 21061>410-766-2055"},{"latitude":"39.375481","longitude":"-76.472282","name":"Macy's - Baltimore (White Marsh Mall) - 8200 Perry Hall Blvd, Baltimore","address":"MD 21236>410-931-2000"},{"latitude":"39.312733","longitude":"-76.750343","name":"Macy's - Baltimore (Security Square) - 6901 Security Blvd, Baltimore","address":"MD 21244>410-944-8040"},{"latitude":"38.989098","longitude":"-76.548164","name":"Macy's - Annapolis (Annapolis Mall) - 1295 Annapolis Mall, Annapolis","address":"MD 21401>410-266-0800"},{"latitude":"39.384789","longitude":"-77.409386","name":"Macy's - Frederick  - 5500 Buckeystown Pike, Frederick","address":"MD 21703>301-698-0076"},{"latitude":"39.621128","longitude":"-77.77108","name":"Macy's - Hagerstown (Valley Mall) - 17301 Valley Mall Rd, Hagerstown","address":"MD 21740>301-582-0517"},{"latitude":"38.398085","longitude":"-75.567387","name":"Macy's - Salisbury  - 2304 N Salisbury Blvd, Salisbury","address":"MD 21801>410-860-0660"},{"latitude":"43.6423049","longitude":"-70.3331722","name":"Macy's - South Portland (Maine Mall) - 100 Maine Mall Rd, South Portland","address":"ME 04106>207-761-7305"},{"latitude":"44.9234721","longitude":"-68.6718425","name":"Macy's - Bangor  - 651 Stillwater Ave, Bangor","address":"ME 04468>207-945-3200"},{"latitude":"43.037941","longitude":"-82.456352","name":"Macy's - Fort Gratiot (Port Huron (Birchwood) - 4440 24th Ave, Fort Gratiot","address":"MI 48059>810-385-2400"},{"latitude":"42.556122","longitude":"-83.117607","name":"Macy's - Troy (Oakland) - 500 W 14 Mile Rd, Troy","address":"MI 48083>248-597-2200"},{"latitude":"42.561584","longitude":"-83.183395","name":"Macy's - Troy (Somerset) - 2750 W Big Beaver Rd, Troy","address":"MI 48084>248-816-4000"},{"latitude":"42.2428183","longitude":"-83.7461745","name":"Macy's - Ann Arbor (Briarwood Mall) - 700 Briarwood Cir, Ann Arbor","address":"MI 48108>734-998-5000"},{"latitude":"42.32209","longitude":"-83.176239","name":"Macy's - Dearborn (Fairlane) - 18900 Mighican Ave, Dearborn","address":"MI 48126>313-436-7600"},{"latitude":"42.197937","longitude":"-83.257439","name":"Macy's - Taylor (Southland) - 23000 Eureka Rd, Taylor","address":"MI 48180>734-374-5030"},{"latitude":"42.912418","longitude":"-85.589401","name":"Macy's - Kentwood (Grand Rapids (Woodland) - 3162 28th St SE, Kentwood","address":"MI 48185>616-940-2100"},{"latitude":"42.339073","longitude":"-83.385132","name":"Macy's - Westland  - 35000 W Warren Ave, Westland","address":"MI 48185>734-458-5400"},{"latitude":"42.449718","longitude":"-82.933708","name":"Macy's - Harper Woods (Eastland) - 18000 Vernier Rd, Harper Woods","address":"MI 48225>313-245-2200"},{"latitude":"42.625332","longitude":"-82.985054","name":"Macy's - Sterling Heights (Lakeside) - 14200 Lakeside Cir, Sterling Heights","address":"MI 48313>586-566-2800"},{"latitude":"42.644382","longitude":"-83.326302","name":"Macy's - Waterford (Summit Place) - 269 N Telegraph Rd, Waterford","address":"MI 48328>734-374-5030"},{"latitude":"42.489685","longitude":"-83.475777","name":"Macy's - Novi (Twelve Oaks) - 27550 Novi Rd, Novi","address":"MI 48377>248-344-6848"},{"latitude":"42.976398","longitude":"-83.771042","name":"Macy's - Flint (Genesee Valley Ctr) - 4600 Miller Rd, Flint","address":"MI 48507>810-230-5700"},{"latitude":"43.47718","longitude":"-83.970139","name":"Macy's - Saginaw (Fashion Square Mall) - 4750 Fashion Square Mall, Saginaw","address":"MI 48604>989-797-6300"},{"latitude":"42.721142","longitude":"-84.421745","name":"Macy's - Okemos (East Lansing) - 1982 W Grand River Ave, Okemos","address":"MI 48864>517-347-4400"},{"latitude":"42.741184","longitude":"-84.630707","name":"Macy's - Lansing (Lansing Mall) - 5700 W Saginaw Hwy, Lansing","address":"MI 48917>517-886-4400"},{"latitude":"42.261057","longitude":"-85.1840068","name":"Macy's - Battle Creek (Lakeview Square) - 5725 Beckley Rd, Battle Creek","address":"MI 49015>269-979-5800"},{"latitude":"42.219814","longitude":"-85.5896","name":"Macy's - Portage (Kalamazoo Cross Roads) - 6666 S Westnedge Ave, Portage","address":"MI 49024>616-324-4400"},{"latitude":"42.882153","longitude":"-85.75856","name":"Macy's - Grandville (Rivertown Crossing) - 3850 Rivertown Pkwy SW, Grandville","address":"MI 49418>616-257-4900"},{"latitude":"44.722904","longitude":"-85.643394","name":"Macy's - Traverse City (Grand) - 3400 S Airport Rd W, Traverse City","address":"MI 49684>231-929-6800"},{"latitude":"45.031666","longitude":"-93.018303","name":"Macy's - Maplewood  - 3001 White Bear Ave, Maplewood","address":"MN 55109>651-773-6600"},{"latitude":"45.009132","longitude":"-93.157539","name":"Macy's - Roseville (Furniture Gallery)  - 1375 Commerce St, Roseville","address":"MN 55113>651-639-2040"},{"latitude":"45.014633","longitude":"-93.173485","name":"Macy's - Roseville  - 900 Rosedale Ctr, Roseville","address":"MN 55113>651-639-6600"},{"latitude":"44.970356","longitude":"-93.43824","name":"Macy's - Minnetonka (Ridgedale Mall) - 12411 Wayzata Blvd, Minnetonka","address":"MN 55305>952-591-6600"},{"latitude":"44.743782","longitude":"-93.293686","name":"Macy's - Burnsville  - 14251 Burnhaven Dr, Burnsville","address":"MN 55306>952-435-8811"},{"latitude":"44.975922","longitude":"-93.272186","name":"Macy's - Minneapolis (Nicollet Mall) - 700 On The Mall, Minneapolis","address":"MN 55402>612-375-2200"},{"latitude":"44.917053","longitude":"-93.329086","name":"Macy's - Edina (Furniture Gallery) - 7235 France Ave S, Edina","address":"MN 55410>952-896-2160"},{"latitude":"44.999092","longitude":"-93.211267","name":"Macy's - Minneapolis(Outlet)  - 701 Industrial Blvd NE, Minneapolis","address":"MN 55413>612-623-7111 "},{"latitude":"44.853531","longitude":"-93.24379","name":"Macy's - Bloomington (Mall of America) - 4000 S West Court, Bloomington","address":"MN 55425>612-888-3333"},{"latitude":"44.853691","longitude":"-93.240135","name":"Bloomingdale's - Bloomington (Mall of America) - 3000 Southeast Ct, Bloomington","address":"MN 55425>952-883-2500"},{"latitude":"44.878605","longitude":"-93.324768","name":"Macy's - Edina (Southdale Mall) - 100 Southdale Court, Edina","address":"MN 55435>952-924-6600"},{"latitude":"44.001747","longitude":"-92.481232","name":"Macy's - Rochester (Apache Mall) - 901 Apache Mall, Rochester","address":"MN 55902>507-280-5400"},{"latitude":"45.553604","longitude":"-94.210396","name":"Macy's - St Cloud (Cross Roads Ctr) - 4201 W Division St, St Cloud","address":"MN 56301>320-654-4300"},{"latitude":"38.650864","longitude":"-90.565529","name":"Macy's - Chesterfield (Chesterfield Mall) - 49 Chesterfield Mall, Chesterfield","address":"MO 63017>636-532-3800"},{"latitude":"38.634949","longitude":"-90.347191","name":"Macy's - St Louis (St. Louis Galleria) - 1550 Saint Louis Galleria, St Louis","address":"MO 63117>314-726-1810"},{"latitude":"38.505898","longitude":"-90.334859","name":"Macy's - St Louis (South County Center) - 10 S County Center Way, St Louis","address":"MO 63129>314-892-0110"},{"latitude":"38.602429","longitude":"-90.445785","name":"Macy's - St Louis (West County Center) - 2 W County Ctr, St Louis","address":"MO 63131>314-966-0017"},{"latitude":"38.797123","longitude":"-90.620659","name":"Macy's - St Peters (Mid Rivers Mall) - 1 Mid Rivers Mall, St Peters","address":"MO 63376>636-278-6660"},{"latitude":"37.299137","longitude":"-89.573784","name":"Macy's - Cape Girardeau  - 100 W Park Mall, Cape Girardeau","address":"MO 63703>573-335-8595"},{"latitude":"39.047775","longitude":"-94.355583","name":"Macy's - Independence (Independence Center) - 18809 E 39th St S, Independence","address":"MO 64057>816-795-1688"},{"latitude":"38.930821","longitude":"-94.403726","name":"Macy's  - Lee's Summit (Summit Fair) - 900 NW Blue Pkwy, Lee's Summit","address":"MO 64086>816-600-3500 "},{"latitude":"39.246563","longitude":"-94.585159","name":"Macy's - Kansas City (Metro North Mall) - 400 NW Barry Rd, Kansas City","address":"MO 64155>816-468-4646"},{"latitude":"37.087906","longitude":"-94.470421","name":"Macy's - Joplin (North Park Mall) - 359 S Northpark Ln, Joplin","address":"MO 64801>417-782-6500"},{"latitude":"37.163399","longitude":"-93.262932","name":"Macy's - Springfield (Battlefield Mall) - 2825 S Glenstone Ave, Springfield","address":"MO 65804>417-882-1500"},{"latitude":"46.622729","longitude":"-112.019179","name":"Macy's - Helena  - 3405 N Montana Ave, Helena","address":"MT 59602>406-324-6000"},{"latitude":"45.6724979","longitude":"-111.0746008","name":"Macy's - Bozeman (Main Mall Shopping Center) - 2825 W Main St, Bozeman","address":"MT 59718>406-585-6800"},{"latitude":"36.0739216","longitude":"-80.2988032","name":"Macy's - Winston Salem (Hanes Mall) - 3320 Silas Creek Pkwy, Winston Salem","address":"NC 27103>336-768-6330"},{"latitude":"36.0851609","longitude":"-79.8304381","name":"Macy's - Greensboro (Friendly Center) - 700 Friendly Center Rd, Greensboro","address":"NC 27408>336-855-7711"},{"latitude":"35.77377","longitude":"-78.760255","name":"Macy's - Cary (Cary Town Center) - 1105 Walnut St, Cary","address":"NC 27511>919-460-9001"},{"latitude":"35.83932","longitude":"-78.679022","name":"Macy's - Raleigh (Crabtree Valley Mall) - 4325 Glenwood Ave, Raleigh","address":"NC 27612>919-510-8700"},{"latitude":"35.83455","longitude":"-78.57424","name":"Macy's - Raleigh (Triangle Town Center) - 3801 Summer Blvd, Raleigh","address":"NC 27616>919-760-1869"},{"latitude":"36.019132","longitude":"-78.907928","name":"Macy's - Durham (Northgate Mall) - 1058 W Club Blvd, Durham","address":"NC 27701>919-286-9770"},{"latitude":"35.904129","longitude":"-78.941762","name":"Macy's - South Durham (The Streets at Southpoint) - 6910 Fayetteville Rd, South Durham","address":"NC 27713>919-361-7039"},{"latitude":"35.082804","longitude":"-80.878109","name":"Macy's - Pineville (Carolina Place) - 11001 Carolina Place Pkwy, Pineville","address":"NC 28134>704-542-7800"},{"latitude":"35.15174","longitude":"-80.830117","name":"Macy's - Charlotte (Southpark Mall) - 4400 Sharon Rd, Charlotte","address":"NC 28211>704-365-1000"},{"latitude":"35.351179","longitude":"-80.850348","name":"Macy's - Charlotte (Northlake Mall) - 6845 Northlake Mall Dr, Charlotte","address":"NC 28216>704-599-8137"},{"latitude":"35.072285","longitude":"-78.960733","name":"Macy's - Fayetteville (Cross Creek Mall) - 100 Cross Creek Mall, Fayetteville","address":"NC 28303>910-864-1550"},{"latitude":"46.859647","longitude":"-96.843706","name":"Macy's - Fargo (West Acres) - 1 West Acres Center, Fargo","address":"ND 58103>701-281-6300"},{"latitude":"47.8921135","longitude":"-97.066865","name":"Macy's - Grand Forks (Columbia Mall) - 2800 S Columbia Rd, Grand Forks","address":"ND 58201>701-780-2100"},{"latitude":"42.825911","longitude":"-71.501591","name":"Bloomingdale's - Merrimack (Premium Outlets) - 80 Premium Outlets Blvd, Merrimack","address":"NH 03054>603-420-9080"},{"latitude":"42.7025173","longitude":"-71.4407934","name":"Macy's - Nashua  - 310 Daniel Webster Hwy, Nashua","address":"NH 03060>603-891-3800"},{"latitude":"42.766659","longitude":"-71.226997","name":"Macy's - Salem (Rockingham Park Mall) - 85 Rockingham Park Blvd, Salem","address":"NH 03079>603-890-3800"},{"latitude":"42.954145","longitude":"-71.435981","name":"Macy's - Manchester (Mall of New Hampshire) - 1500 S Willow St, Manchester","address":"NH 03103>603-669-3800"},{"latitude":"41.672485","longitude":"-72.722641","name":"Macy's - Newington (Fox Run Mall) - 50 Fox Run Rd, Newington","address":"NH 03801>603-431-0900"},{"latitude":"40.77103","longitude":"-74.351784","name":"Macy's - Livingston (Livingston Mall) - 112 Eisenhower Pkwy, Livingston","address":"NJ 07039>973-994-2000"},{"latitude":"40.791359","longitude":"-74.262993","name":"Macy's - Paramus (Garden State Plaza) 500 Garden State Plaza, Paramus","address":"NJ 07052>201-291-3211"},{"latitude":"40.7746141","longitude":"-74.2609767","name":"Macy's - West Orange  - 495 Prospect Ave, West Orange","address":"NJ 07052>973-736-9323"},{"latitude":"40.738159","longitude":"-74.365387","name":"Macy's - Short Hills (Short Hills Mall) - 1220 Morris Tpke, Short Hills","address":"NJ 07078>973-467-0800"},{"latitude":"40.738148","longitude":"-74.365341","name":"Bloomingdale's - Short Hills (Short Hills Mall) - 1200 Morris Tpke, Short Hills","address":"NJ 07078>973-548-2200"},{"latitude":"40.3962076","longitude":"-79.4317829","name":"Macy's - Springfield (Furniture Gallery) - 114 US Hwy 22 West, Springfield","address":"NJ 07081>973-376-8699"},{"latitude":"40.5533737","longitude":"-74.2991328","name":"Macy's - Woodbridge (Woodbridge Center) - 237 Woodbridge Center Dr, Woodbridge","address":"NJ 07095>732-636-2450"},{"latitude":"40.725697","longitude":"-74.03743","name":"Macy's - Jersey City  - 20 Mall Dr E, Jersey City","address":"NJ 07310>201-255-5200"},{"latitude":"40.895521","longitude":"-74.245586","name":"Bloomingdale's - Wayne (Furniture Rug Mattress Outlet) - 469 US 46, Wayne","address":"NJ 07470>973-339-5300"},{"latitude":"40.8904289","longitude":"-74.2606377","name":"Bloomingdale's - Wayne (Willowbrook Mall) - 1400 Willowbrook Mall, Wayne","address":"NJ 07470>973-582-2400"},{"latitude":"40.930105","longitude":"-74.2280784","name":"Macy's - Wayne (Preakness Center) - 48 Preakness Shopping Ctr, Wayne","address":"NJ 07470>973-696-9410"},{"latitude":"40.8926436","longitude":"-74.2629249","name":"Macy's - Wayne Furniture Gallery- 200 US Hwy 46, Wayne","address":"NJ 07470>973-785-0407"},{"latitude":"40.8925868","longitude":"-74.2638957","name":"Macy's - Wayne (Willowbrook Mall) - 100 Rte 46, Wayne","address":"NJ 07470>973-785-9525"},{"latitude":"40.909397","longitude":"-74.032791","name":"Bloomingdale's - Hackensack (Shops at Riverside) - 400 Hackensack Ave, Hackensack","address":"NJ 07601>201-457-2000"},{"latitude":"40.915158","longitude":"-74.057549","name":"Bloomingdale's - Paramus (Bergen Town Center Outlet) - 260 Bergen Town Center, Paramus","address":"NJ 07652>201-490-6840"},{"latitude":"40.95409","longitude":"-74.068352","name":"Macy's - Paramus (Paramus Park) - 100 Paramus Park Mall, Paramus","address":"NJ 07652>201-967-1400"},{"latitude":"40.922863","longitude":"-74.080093","name":"Macy's - Paramus (Furniture Gallery)  - 275 Rte 4 W, Paramus","address":"NJ 07652>201-968-2700"},{"latitude":"40.287575","longitude":"-74.051476","name":"Macy's - Eatontown (Monmouth Mall) - 180 Rte 35, Eatontown","address":"NJ 07724>732-542-1212"},{"latitude":"40.292599","longitude":"-74.073418","name":"Macy's - Eatontown (Furniture Gallery)  - 231 Rte 35, Eatontown","address":"NJ 07724>732-542-5024"},{"latitude":"40.2159777","longitude":"-74.2619513","name":"Macy's - Freehold (Raceway Mall) - 3710 US Hwy 9 S, Freehold","address":"NJ 07728>732-683-1345"},{"latitude":"40.904625","longitude":"-74.546623","name":"Macy's - Rockaway (Townsquare Mall) - 303 Mount Hope Ave, Rockaway","address":"NJ 07866>973-442-2511"},{"latitude":"39.939011","longitude":"-75.025131","name":"Macy's - Cherry Hill  - 2000 Rte 38, Cherry Hill","address":"NJ 08002>856-665-5500"},{"latitude":"39.802147","longitude":"-75.074066","name":"Macy's - Voorhees (Echelon Mall) - 6003 Echelon Mall, Voorhees","address":"NJ 08043>856-772-1800"},{"latitude":"39.935688","longitude":"-75.052269","name":"Macy's - Maple Shade (Furniture Gallery) - 493 Rte 38 W, Maple Shade","address":"NJ 08052>856-667-6495"},{"latitude":"39.946476","longitude":"-74.962456","name":"Macy's - Moorestown  - 400 W Rte 38, Moorestown","address":"NJ 08057>856-642-6442"},{"latitude":"39.816975","longitude":"-75.099159","name":"Macy's - Deptford  - 1750 Almonesson Rd, Deptford","address":"NJ 08096>856-848-3300"},{"latitude":"39.449715","longitude":"-74.63887","name":"Macy's - Mays Landing (Hamilton Mall) - 4401 Black Horse Pike, Mays Landing","address":"NJ 08330>609-484-5207"},{"latitude":"40.25053","longitude":"-74.735701","name":"Macy's - Lawrenceville (Quaker Bridge Mall) - US Rte 1 & Hwy 533, Lawrenceville","address":"NJ 08648>609-897-1511"},{"latitude":"39.980137","longitude":"-74.182037","name":"Macy's - Toms River (Ocean County Mall) - 1201 Hooper Ave, Toms River","address":"NJ 08753>732-914-4011"},{"latitude":"40.588737","longitude":"-74.619568","name":"Macy's - Bridgewater (Bridgewater Commons) - 400 Commons Way, Bridgewater","address":"NJ 08807>908-429-3211"},{"latitude":"40.588577","longitude":"-74.619049","name":"Bloomingdale's - Bridgewater (Bridgewater Commons) - 410 Commons Way, Bridgewater","address":"NJ 08807>908-762-2400"},{"latitude":"40.425781","longitude":"-74.381058","name":"Macy's - East Brunswick  - 755 SR 18, East Brunswick","address":"NJ 08816>732-238-1400"},{"latitude":"40.555496","longitude":"-74.343994","name":"Macy's - Edison (Menlo Park) - 275 Parsonage Rd, Edison","address":"NJ 08837>732-549-4400"},{"latitude":"40.460407","longitude":"-74.464081","name":"Macy's - North Brunswick (Furniture Gallery) - 979 US Hwy 1, North Brunswick","address":"NJ 08902>732-843-5360"},{"latitude":"35.10864","longitude":"-106.577039","name":"Macy's - Albuquerque  - 6600 Menaul Blvd NE, Albuquerque","address":"NM 87110>505-889-2100"},{"latitude":"35.2051377","longitude":"-106.6594114","name":"Macy's - Albuquerque (Cottonwood) - 10129 Coors Bypass NW, Albuquerque","address":"NM 87114>505-897-3600"},{"latitude":"36.066398","longitude":"-115.040156","name":"Macy's - Henderson (Galleria Mall) - 1304 W Sunset Rd, Henderson","address":"NV 89014>702-458-7300"},{"latitude":"36.127477","longitude":"-115.200528","name":"Macy's - Las Vegas (Home)  - 4450 Spring Mountain Rd, Las Vegas","address":"NV 89102>702-731-5111"},{"latitude":"36.173997","longitude":"-115.196098","name":"Macy's - Las Vegas  - 4100 Meadows Ln, Las Vegas","address":"NV 89107>702-258-2100"},{"latitude":"36.111568","longitude":"-115.172832","name":"Macy's - Las Vegas (Fashion Show) - 3200 Las Vegas Blvd S, Las Vegas","address":"NV 89109>702-731-5111"},{"latitude":"36.148882","longitude":"-115.33488","name":"Macy's - Las Vegas (Summerlin) - 2075 Festival Plaza Dr, Las Vegas","address":"NV 89135>702-341-0463"},{"latitude":"36.123254","longitude":"-115.135647","name":"Macy's - Las Vegas (Las Vegas Boulevard) - 3634 S Maryland Pkwy, Las Vegas","address":"NV 89169>702-791-2100"},{"latitude":"39.4729","longitude":"-119.786232","name":"Macy's - Reno  - 5100 Meadowood Mall Cir, Reno","address":"NV 89502>775-826-8333"},{"latitude":"39.471004","longitude":"-119.786369","name":"Macy's - Reno  - 6011 S Virginia St, Reno","address":"NV 89502>775-826-8333"},{"latitude":"40.750599","longitude":"-73.989243","name":"Macy's - New York (Herald Square) - 151 W 34th St, New York","address":"NY 10001>212-695-4400"},{"latitude":"40.7618639","longitude":"-73.9663438","name":"Bloomingdale's - New York (59th St & Lexington Ave) - 1000 Third Ave, New York","address":"NY 10001>212-705-2000"},{"latitude":"40.72226","longitude":"-73.999245","name":"Bloomingdale's - New York (SoHo) - 504 Broadway, New York","address":"NY 10001>212-729-5900"},{"latitude":"40.778252","longitude":"-73.981804","name":"Bloomingdale's - New York (Upper West Side Outlet) - 2085 Broadway, New York","address":"NY 10023>212-634-3190"},{"latitude":"40.587341","longitude":"-74.165031","name":"Macy's Furniture - Staten Island  - 98 Richmond Hill Rd, Staten Island","address":"NY 10314>718-494-4094"},{"latitude":"40.586834","longitude":"-74.164169","name":"Macy's - Staten Island (Furniture Gallery)  - 112 Richmond Hill Rd, Staten Island","address":"NY 10314>718-761-3000"},{"latitude":"40.8364626","longitude":"-73.8611139","name":"Macy's - Bronx (Parkchester) - 1441 Metropolitan Ave, Bronx","address":"NY 10462>718-828-7000"},{"latitude":"40.862924","longitude":"-73.827965","name":"Macy's - Bronx (Bay Plaza) - 250 Baychester Ave, Bronx","address":"NY 10475>929-237-7200"},{"latitude":"40.861221","longitude":"-73.891148","name":"Macy's - Bronx (Backstage Fordham Place) - 400 E Fordham Rd, Bronx","address":"NY 10475>929-285-3150"},{"latitude":"41.327404","longitude":"-73.808846","name":"Macy's - Yorktown Heights  - 700 Lee Blvd & Rte 6, Yorktown Heights","address":"NY 10598>914-243-3301"},{"latitude":"41.032004","longitude":"-73.7704522","name":"Macy's - White Plains  - 100 Main St, White Plains","address":"NY 10601>914-421-4211"},{"latitude":"41.0229969","longitude":"-73.756595","name":"Bloomingdale's - White Plains  - 175 Bloomingdale Rd, White Plains","address":"NY 10601>914-684-6300"},{"latitude":"40.9302055","longitude":"-73.8566421","name":"Macy's - Yonkers (Cross County) - 800 Central Park Ave, Yonkers","address":"NY 10701>914-964-6680"},{"latitude":"41.453419","longitude":"-74.365059","name":"Macy's - Middletown  - 1 Galleria Dr, Middletown","address":"NY 10941>845-695-1001"},{"latitude":"41.097401","longitude":"-74.014656","name":"Macy's - Nanuet (Nanuet Mall) - 200 Nanuet Mall Rte 59, Nanuet","address":"NY 10954>845-623-4100"},{"latitude":"41.0991417","longitude":"-73.9554168","name":"Macy's - West Nyack (Palisades Center) - 1920 Palisades Center Dr, West Nyack","address":"NY 10994>845-358-7990"},{"latitude":"40.789772","longitude":"-73.703964","name":"Macy's - Manhasset  - 1100 Northern Blvd, Manhasset","address":"NY 11030>516-869-8500"},{"latitude":"40.753452","longitude":"-73.691577","name":"Macy's - New Hyde Park (Backstage Lake Success SC) - 1526 Union Tpke, New Hyde Park","address":"NY 11040>516-502-1970 "},{"latitude":"40.690315","longitude":"-73.986234","name":"Macy's - (Brooklyn Downtown) - 422 Fulton St, Brooklyn","address":"NY 11201>718-875-7200"},{"latitude":"40.611315","longitude":"-73.920291","name":"Macy's - Brooklyn (Kings Plaza) - 5400 Ave U, Brooklyn","address":"NY 11234>718-253-3100"},{"latitude":"40.583941","longitude":"-73.946727","name":"Macy's - Brooklyn (Backstage Sheepshead Bay) - 2027 Emmons Ave, Brooklyn","address":"NY 11235>929-275-3490 "},{"latitude":"40.75986","longitude":"-73.8282483","name":"Macy's - Flushing  - 13650 Roosevelt Ave, Flushing","address":"NY 11354>718-358-9000"},{"latitude":"40.734405","longitude":"-73.871375","name":"Macy's - Elmhurst (Rego Park) - 90-01 Queens Blvd, Elmhurst","address":"NY 11373>718-271-7200"},{"latitude":"40.7435287","longitude":"-73.6118439","name":"Bloomingdale's - Garden City (Furniture Gallery) - 630 Old Country Rd, Garden City","address":"NY 11373>516-620-6400"},{"latitude":"40.7435287","longitude":"-73.6118439","name":"Bloomingdale's - Garden City (Roosevelt Field Mall) - 630 Old Country Rd, Garden City","address":"NY 11373>516-873-2700"},{"latitude":"40.756578","longitude":"-73.730469","name":"Macy's - Douglaston  - 242-02 61st Ave, Douglaston","address":"NY 11373>718-225-7300"},{"latitude":"40.735303","longitude":"-73.874777","name":"Macy's - Elmhurst (Queens Center) - 88-01 Queens Blvd, Elmhurst","address":"NY 11373>718-271-7200"},{"latitude":"40.735303","longitude":"-73.874777","name":"Macy's - Elmhurst (Furniture Gallery) - 88-01 Queens Blvd, Elmhurst","address":"NY 11373>718-760-7101"},{"latitude":"40.7454904","longitude":"-73.6169832","name":"Macy's - Carle Place (Furniture Gallery)  - 155 Glen Cove Rd, Carle Place","address":"NY 11514>516-742-8500"},{"latitude":"40.739636","longitude":"-73.613497","name":"Bloomingdale's - Garden City (Westbury Plaza Outlet) - 1050 Old Country Rd, Garden City","address":"NY 11530>516-743-4301"},{"latitude":"40.7435287","longitude":"-73.6118439","name":"Macy's - Garden City (Roosevelt Field Mall) - 630 Old Country Rd, Garden City","address":"NY 11530>516-746-8200"},{"latitude":"40.662872","longitude":"-73.721889","name":"Macy's - Valley Stream (Green Acres ) - 1000 Green Acres Rd S, Valley Stream","address":"NY 11581>516-561-6100"},{"latitude":"40.662935","longitude":"-73.719645","name":"Macy's - Valley Stream (Furniture Gallery) - 1095 Green Acres Mall, Valley Stream","address":"NY 11581>516-561-6100"},{"latitude":"40.736656","longitude":"-73.245064","name":"Macy's - Bay Shore (South Shore Mall) - 1701 Sunrise Hwy, Bay Shore","address":"NY 11706>631-665-8400"},{"latitude":"40.8341972","longitude":"-73.2650409","name":"Macy's - Commack  - 2 Veterans Hwy, Commack","address":"NY 11725>631-499-8900"},{"latitude":"40.8249703","longitude":"-73.4122304","name":"Bloomingdale's - Huntington Station (Walt Whitman Center) - 270 Walt Whitman Rd, Huntington Station","address":"NY 11746>631-425-6700"},{"latitude":"40.82209","longitude":"-73.412056","name":"Macy's - Huntington Station (Walt Whitman Center) - 180 Walt Whitman Center, Huntington Station","address":"NY 11746>631-427-7200"},{"latitude":"40.864632","longitude":"-73.128708","name":"Macy's Lake Grove - Lake Grove (Furniture Gallery) - 313 Smith Haven Mall, Lake Grove","address":"NY 11755>631-240-2100"},{"latitude":"40.864853","longitude":"-73.127205","name":"Macy's - Lake Grove (Smith Haven Mall) - 2 Smith Haven Mall, Lake Grove","address":"NY 11755>631-724-4900"},{"latitude":"40.680889","longitude":"-73.433052","name":"Macy's - Massapequa  - 400 Sunrise Mall, Massapequa","address":"NY 11758>516-795-2000"},{"latitude":"40.7730531","longitude":"-73.5294697","name":"Macy's - Hicksville  - 100 Broadway Mall, Hicksville","address":"NY 11801>516-938-6800"},{"latitude":"40.876092","longitude":"-72.537831","name":"Macy's - Hampton Bays  - 190 W Montauk Hwy, Hampton Bays","address":"NY 11946>631-728-5500"},{"latitude":"42.698372","longitude":"-73.850937","name":"Macy's - Albany  - 120 Washington Ave Exit, Albany","address":"NY 12203>518-452-0010"},{"latitude":"42.712006","longitude":"-73.814217","name":"Macy's - Albany (Colonie Center) - 200 Colonie Ctr, Albany","address":"NY 12205>518-459-1950"},{"latitude":"41.627167","longitude":"-73.917114","name":"Macy's - Poughkeepsie  - 2001 South Rd, Poughkeepsie","address":"NY 12601>845-297-2222"},{"latitude":"43.071496","longitude":"-76.172391","name":"Macy's - Syracuse (Destiny USA) - 9509 Destiny USA Dr, Syracuse","address":"NY 13204>315-466-3333 "},{"latitude":"43.08007","longitude":"-75.314186","name":"Macy's - New Hartford (Sangertown Square) - 1 Sangertown Sq, New Hartford","address":"NY 13413>315-734-0585"},{"latitude":"42.124706","longitude":"-75.973419","name":"Macy's - Johnson City (Oakdales) - 601 Harry L Dr, Johnson City","address":"NY 13790>607-797-4990"},{"latitude":"42.91322","longitude":"-78.763175","name":"Macy's - Cheektowanga (Walden Galleria) - 4 Walden Galleria, Cheektowanga","address":"NY 14225>716-684-6267"},{"latitude":"40.7364734","longitude":"-73.9565932","name":"Macy's - Clay  - 4081 SR 31, Clay","address":"NY 14225>315-622-4655"},{"latitude":"42.988659","longitude":"-78.822365","name":"Macy's - Amherst (Boulevard) - 730 Alberta Dr, Amherst","address":"NY 14226>716-837-9400"},{"latitude":"43.0317779","longitude":"-77.4413366","name":"Macy's - Victor (Eastview) - 7979 Victor - Pittsford Rd, Victor","address":"NY 14564>585-223-9181"},{"latitude":"43.084911","longitude":"-77.637856","name":"Macy's - Rochester (Marketplace) - 20 Miracle Mile Dr, Rochester","address":"NY 14623>585-424-6224"},{"latitude":"43.206173","longitude":"-77.694672","name":"Macy's - Rochester (Greece Ridge Center) - 397 Greece Ridge Center Dr, Rochester","address":"NY 14626>585-723-8890"},{"latitude":"40.070496","longitude":"-83.137085","name":"Macy's - Dublin ( Furniture) - 5700 Britton Pkwy, Dublin","address":"OH 43016>614-718-1100"},{"latitude":"40.076344","longitude":"-83.129486","name":"Macy's - Dublin (Tuttle at Hayden Run) - 5033 Tuttle Crossing Blvd, Dublin","address":"OH 43016>614-726-3690"},{"latitude":"40.052204","longitude":"-82.912003","name":"Macy's - Columbus (Easton Town Center) - 4141 Easton Loop E, Columbus","address":"OH 43219>614-342-2300"},{"latitude":"39.915741","longitude":"-82.884987","name":"Macy's - Columbus (Furniture Gallery)  - 4141 Refugee Rd, Columbus","address":"OH 43232>614-860-1621"},{"latitude":"39.919952","longitude":"-82.880371","name":"Macy's - Columbus (Eastland Mall) - 2727 S Hamilton Rd, Columbus","address":"OH 43232>614-863-6907"},{"latitude":"40.141823","longitude":"-82.976242","name":"Macy's - Columbus (Furniture Gallery) - 1550 Polaris Pkwy, Columbus","address":"OH 43240>614-547-0100"},{"latitude":"40.141663","longitude":"-82.983932","name":"Macy's - Columbus (Polaris Fashion Place) - 1300 Polaris Pkwy, Columbus","address":"OH 43240>614-880-6300"},{"latitude":"40.072666","longitude":"-83.13264","name":"Macy's - Columbus (Tuttle Crossing) - 5123  Tuttle Crossing Blvd, Columbus","address":"OH 43016>614-760-1200 "},{"latitude":"41.698112","longitude":"-83.642052","name":"Macy's - Toledo (Franklin Park) - 5001 Monroe St, Toledo","address":"OH 43623>419-479-2300"},{"latitude":"40.367512","longitude":"-80.674515","name":"Macy's - Steubenville (Ohio Valley Mall) - 100 Mall Dr, Steubenville","address":"OH 43952>740-695-5900"},{"latitude":"40.069279","longitude":"-80.86757","name":"Macy's - St. Clairsville (Ohio Valley Mall) - 67800 Mall Ring Rd, St. Clairsville","address":"OH 43950>740-695-5900 "},{"latitude":"41.661209","longitude":"-81.359718","name":"Macy's - Mentor (Great Lakes Mall) - 7850 Mentor Ave, Mentor","address":"OH 44060>440-255-4411"},{"latitude":"41.418716","longitude":"-81.909348","name":"Macy's - North Olmsted (Great Northern) - 25801 Brookpark Rd, North Olmsted","address":"OH 44070>440-777-7000"},{"latitude":"41.499752","longitude":"-81.536087","name":"Macy's - University Heights (University Heights Square) - 2201 Warrensville Center Rd, University Heights","address":"OH 44118>216-382-6000"},{"latitude":"41.312836","longitude":"-81.82225","name":"Macy's - Strongsville (Southpark Center) - 17447 Royalton Rd, Strongsville","address":"OH 44136>440-846-7000"},{"latitude":"41.157085","longitude":"-81.407486","name":"Macy's - Stow (Stow-Kent Plaza) - 4301 Kent Rd, Stow","address":"OH 44224>330-688-8281"},{"latitude":"41.132767","longitude":"-81.61908","name":"Macy's - Akron (Summit Mall) - 3265 W Market St, Akron","address":"OH 44322>330-867-8888"},{"latitude":"41.211414","longitude":"-80.753616","name":"Macy's - Niles (Eastwood Mall) - 5403 Youngstown Warren Rd, Niles","address":"OH 44446>440-324-6663"},{"latitude":"41.022701","longitude":"-80.662521","name":"Macy's - Youngstown (Southern Park Mall) - 7401 Market St, Youngstown","address":"OH 44512>330-758-8661"},{"latitude":"40.796417","longitude":"-81.424591","name":"Macy's - Canton (Canton Centre) - 4250 W Tuscarawas Rd, Canton","address":"OH 44718>330-477-9511"},{"latitude":"40.855282","longitude":"-81.428635","name":"Macy's - Canton (Belden Village Mall) - 4300 Belden Village Ave, Canton","address":"OH 44718>330-494-8200"},{"latitude":"41.416447","longitude":"-82.672096","name":"Macy's - Sandusky (Sandusky Mall) - 4314 Milan Rd, Sandusky","address":"OH 44870>419-627-1000"},{"latitude":"40.768887","longitude":"-82.591438","name":"Macy's - Mansfield (Richland Mall) - 655 Richland Mall, Mansfield","address":"OH 44906>419-529-2411"},{"latitude":"39.101475","longitude":"-84.513199","name":"Macy's - Cincinnati (Fountain Place) - 505 Vine St, Cincinnati","address":"OH 45202>513-361-4200"},{"latitude":"39.200069","longitude":"-84.377678","name":"Macy's - Cincinnati (Kenwood) - 7875 Montgomery Rd, Cincinnati","address":"OH 45236>513-745-5380"},{"latitude":"39.198868","longitude":"-84.380234","name":"Macy's - Cincinnati (Furniture Gallery) - 7800 Montgomery Rd, Cincinnati","address":"OH 45236>513-745-8980"},{"latitude":"39.290302","longitude":"-84.466507","name":"Macy's - Cincinnati (Tri-County Mall) - 11700 Princeton Rd, Cincinnati","address":"OH 45246>513-782-2395"},{"latitude":"39.244576","longitude":"-84.595428","name":"Macy's - Cincinnati (Northgate Mall) - 9531 Colerain Ave, Cincinnati","address":"OH 45251>513-245-5200"},{"latitude":"39.072952","longitude":"-84.350197","name":"Macy's - Cincinnati (Anderson Towne Center) - 7440 Beechmont Ave, Cincinnati","address":"OH 45255>513-624-4280"},{"latitude":"39.767887","longitude":"-84.053513","name":"Macy's - Beavercreek (Fairfield Commons) - 2727 Fairfield Commons BL, Beavercreek","address":"OH 45431>937-320-2312"},{"latitude":"39.636631","longitude":"-84.219055","name":"Macy's - Dayton (Dayton Mall) - 2700 Miamisburg Centerville Rd, Dayton","address":"OH 45459>937-439-2152"},{"latitude":"39.947403","longitude":"-83.852272","name":"Macy's - Springfield (Upper Valley Mall) - 1475 Upper Valley Pike, Springfield","address":"OH 45504>937-328-5900"},{"latitude":"40.764973","longitude":"-84.153435","name":"Macy's - Lima (Lima Mall) - 2600 Elida Rd, Lima","address":"OH 45805>419-331-0321"},{"latitude":"35.523205","longitude":"-97.546211","name":"Macy's - Oklahoma City (Penn Square Mall) - 1901 NW Expressway St, Oklahoma City","address":"OK 73118>405-541-2724"},{"latitude":"36.0628839","longitude":"-95.878628","name":"Macy's - Tulsa (Woodland Hills) - 8707 E 71st St, Tulsa","address":"OK 74133>918-250-2924"},{"latitude":"36.0628839","longitude":"-95.878628","name":"Macy's - Tulsa (Furniture Gallery) - 8707 E 71st St, Tulsa","address":"OK 74133>918-250-2924"},{"latitude":"36.101578","longitude":"-95.919941","name":"Macy's - Tulsa (Promenade) - 4143 S Yale Ave, Tulsa","address":"OK 74135>918-610-7500"},{"latitude":"45.5361369","longitude":"-122.879882","name":"Macy's - Hillsboro (Tanasbourne) - 2055 NW Allie Ave, Hillsboro","address":"OR 97124>503-617-6999"},{"latitude":"45.5193559","longitude":"-122.6773133","name":"Macy's - Portland (Downtown Portland) - 621 SW 5th Ave, Portland","address":"OR 97204>503-223-0512"},{"latitude":"45.434685","longitude":"-122.573295","name":"Macy's - Portland (Clackamas Town Center) - 12100 SE 82nd Ave, Portland","address":"OR 97222>503-653-8811"},{"latitude":"45.453688","longitude":"-122.778466","name":"Macy's - Tigard (Furniture Gallery) - 9009 SW Hall Blvd, Tigard","address":"OR 97223>503-207-7800 "},{"latitude":"45.453184","longitude":"-122.7829518","name":"Macy's - Tigard (Washington Square) - 9300 SW Washington Square Rd, Tigard","address":"OR 97223>503-620-3311"},{"latitude":"45.531807","longitude":"-122.654588","name":"Macy's - Portland (Lloyd Center) - 1100 Lloyd Ctr, Portland","address":"OR 97232>503-281-4797"},{"latitude":"44.941296","longitude":"-122.9831668","name":"Macy's - Salem (Lancaster Mall) - 831 Lancaster Dr NE, Salem","address":"OR 97301>503-361-6800"},{"latitude":"44.943255","longitude":"-123.034393","name":"Macy's - Salem (Downtown Salem) - 400 High St NE, Salem","address":"OR 97301>503-363-2211"},{"latitude":"44.0684087","longitude":"-123.1064736","name":"Macy's - Eugene (Valley River Center) - 100 Valley River Ctr, Eugene","address":"OR 97401>541-984-6000"},{"latitude":"42.343998","longitude":"-122.8795829","name":"Macy's - Medford (Rogue Valley Mall) - 1800 N Riverside Dr, Medford","address":"OR 97501>541-772-3700"},{"latitude":"44.08284","longitude":"-121.305328","name":"Macy's - Bend (Bend River Mall) - 3188 N Hwy 97, Bend","address":"OR 97701>541-317-6000"},{"latitude":"40.6697937","longitude":"-80.3161955","name":"Macy's - Monaca (Beaver Valley Mall) - 100 Beaver Valley Mall Blvd, Monaca","address":"PA 15061>724-774-1200"},{"latitude":"40.572455","longitude":"-79.801549","name":"Macy's - Tarentum (Pittsburgh Mills Galleria) - 100 Pittsburgh Mills Cir, Tarentum","address":"PA 15084>724-274-1000"},{"latitude":"40.408321","longitude":"-79.914346","name":"Macy's - Homestead (Waterfront) - 162 E Bridge St, Homestead","address":"PA 15120>412-685-5100"},{"latitude":"40.340002","longitude":"-79.938583","name":"Macy's - West Mifflin (Century III Mall) - 3075 Clairton Rd, West Mifflin","address":"PA 15123>412-655-1200"},{"latitude":"40.4266386","longitude":"-79.7935493","name":"Macy's - Monroeville (Monroeville Mall) - 400 Monroeville Mall, Monroeville","address":"PA 15146>412-858-3700"},{"latitude":"40.4564932","longitude":"-80.1587951","name":"Macy's - Pittsburgh (Robinson Town Centre) - 3000 Robinson Center Dr, Pittsburgh","address":"PA 15205>412-787-9777"},{"latitude":"40.541925","longitude":"-80.01279","name":"Macy's - Pittsburgh (Ross Park Mall) - 1004 Ross Park Mall Dr, Pittsburgh","address":"PA 15237>412-366-1400"},{"latitude":"40.541925","longitude":"-80.01279","name":"Macy's - Pittsburgh (Furniture Gallery) - 1014 Ross Park Mall Dr, Pittsburgh","address":"PA 15237>412-630-4000"},{"latitude":"40.34168","longitude":"-80.05826","name":"Macy's - Pittsburgh (Furniture Gallery) - 100 S Hills Village, Pittsburgh","address":"PA 15241>412-854-6800"},{"latitude":"40.346264","longitude":"-80.053397","name":"Macy's - Pittsburgh (South Hills Village Mall) - 100 S Hills Village, Pittsburgh","address":"PA 15241>412-854-6800"},{"latitude":"40.160574","longitude":"-80.2754909","name":"Macy's - Washington (Washington Crown Centre) - 1500 W Chestnut St, Washington","address":"PA 15301>724-222-7100"},{"latitude":"40.3019458","longitude":"-79.5189069","name":"Macy's - Greensburg (Westmoreland Mall) - 994 E Pittsburgh St, Greensburg","address":"PA 15601>724-836-6000"},{"latitude":"41.2335164","longitude":"-80.445562","name":"Macy's - Hermitage (Shenango Mall) - 3515 E State St, Hermitage","address":"PA 16148>724-981-7410"},{"latitude":"42.069859","longitude":"-80.096677","name":"Macy's - Erie (Millcreek Mall) - 850 Millcreek Mall, Erie","address":"PA 16565>814-868-5211"},{"latitude":"40.4678951","longitude":"-78.4071824","name":"Macy's - Altoona (Logan Valley Mall) - Rt 220 & Goods Lane, Altoona","address":"PA 16602>814-941-7774"},{"latitude":"42.069517","longitude":"-80.09753","name":"Macy's - Erie (Millcreek Mall) - 850 Mill Creek Mall, Erie","address":"PA 16509>814-868-5211"},{"latitude":"40.8314794","longitude":"-77.8006113","name":"Macy's - State College (Nittany Mall) - 2900 E College Ave, State College","address":"PA 16801>814-235-5200"},{"latitude":"40.2244071","longitude":"-76.9300001","name":"Macy's - Camp Hill (Capital City) - 3550 Capital Mall Dr, Camp Hill","address":"PA 17011>717-975-3373"},{"latitude":"40.2540241","longitude":"-76.8311281","name":"Macy's - Harrisburg (Harrisburg East) - 3401 Paxton St, Harrisburg","address":"PA 17111>717-561-8770"},{"latitude":"40.663159","longitude":"-75.509045","name":"Macy's - Whitehall (Lehigh Valley Mall) - 300 Lehigh Valley Mall, Whitehall","address":"PA 18052>610-264-8711"},{"latitude":"41.3173919","longitude":"-95.0765383","name":"Macy's - Scranton (Viewmont Mall) - Rte 6 Scranton-Carbondale Hwy, Scranton","address":"PA 18508>570-343-6860"},{"latitude":"41.2499142","longitude":"-75.8425622","name":"Macy's - Wilkes Barre (Wyoming Valley Mall) - 59 Wyoming Valley Mall, Wilkes Barre","address":"PA 18702>570-823-4444"},{"latitude":"40.0984324","longitude":"-74.8744053","name":"Macy's - Bensalem (Neshaminy) - US Rt 1 & Bristol Rd, Bensalem","address":"PA 19020>215-355-4000"},{"latitude":"40.1835399","longitude":"-74.8809366","name":"Macy's - Langhorne (Oxford Valley) - 2300 E Lincoln Hwy, Langhorne","address":"PA 19047>215-752-1340"},{"latitude":"39.9135576","longitude":"-75.3495351","name":"Macy's - Springfield (Springfield Mall) - Baltimore Pike & Sproul Rd, Springfield","address":"PA 19064>610-328-1234"},{"latitude":"40.1439395","longitude":"-75.1215224","name":"Macy's - Willow Grove  - 2600 W Moreland Rd, Willow Grove","address":"PA 19090>215-658-4700"},{"latitude":"40.1433718","longitude":"-75.120586","name":"Bloomingdale's - Willow Grove  - 2500 W Moreland Rd, Willow Grove","address":"PA 19090>215-706-3300"},{"latitude":"39.95186","longitude":"-75.167896","name":"Bloomingdale's - Philadelphia (Liberty Place) - 1625 Chestnut St, Philadelphia","address":"PA 19103>267-858-3200"},{"latitude":"39.951402","longitude":"-75.162148","name":"Macy's - Philadelphia (Center City) - 1300 Market St, Philadelphia","address":"PA 19107>215-241-9000"},{"latitude":"41.2432773","longitude":"-76.8282229","name":"Macy's - Pennsdale (Lycoming Mall) - 300 Lycoming Mall Circle, Pennsdale","address":"PA 19107>570-546-6998"},{"latitude":"40.0477034","longitude":"-75.05989","name":"Macy's - Philadelphia (Northeast) - 2399 Cottman Ave, Philadelphia","address":"PA 19149>215-331-5500"},{"latitude":"40.0329625","longitude":"-75.6260591","name":"Macy's - Exton (Exton Square) - 245 Exton Square Pkwy, Exton","address":"PA 19341>610-363-2110"},{"latitude":"40.089173","longitude":"-75.385906","name":"Bloomingdale's - King of Prussia  - 660 W DeKalb Pike, King of Prussia","address":"PA 19406>610-337-6300"},{"latitude":"40.088527","longitude":"-75.387554","name":"Macy's - King of Prussia  - 680 W DeKalb Pike, King of Prussia","address":"PA 19406>610-337-9350"},{"latitude":"40.2346933","longitude":"-75.2477674","name":"Macy's - North Wales (Montgomery Mall) - 700 Montgomery Mall, North Wales","address":"PA 19454>215-393-6211"},{"latitude":"40.1159993","longitude":"-75.282231","name":"Macy's - Plymouth Meeting (Plymouth Meeting Mall) - 4444 Plymouth Meeting Mall, Plymouth Meeting","address":"PA 19462>610-825-1700"},{"latitude":"41.764926","longitude":"-71.4044595","name":"Macy's - Warwick  - 400 Warwick Ave, Warwick","address":"RI 02888>401-737-3800"},{"latitude":"41.8275627","longitude":"-71.4176714","name":"Macy's - Providence  - 7 Providence Pl, Providence","address":"RI 02903>401-351-9900"},{"latitude":"34.063015","longitude":"-80.961819","name":"Macy's - Columbia (Columbia Mall) - 7201 Two Notch Rd, Columbia","address":"SC 29223>803-699-2100"},{"latitude":"34.8499367","longitude":"-82.3335814","name":"Macy's - Greenville (Haywood Mall) - 700 Haywood Rd, Greenville","address":"SC 29607>864-297-2020"},{"latitude":"43.5148091","longitude":"-96.7744587","name":"Macy's - Sioux Falls (Empire Mall) - 4001 W 41st St, Sioux Falls","address":"SD 57106>605-361-4500"},{"latitude":"35.9606409","longitude":"-86.8121582","name":"Macy's - Franklin (Cool Springs) - 1790 Galleria Blvd, Franklin","address":"TN 37067>615-771-2100"},{"latitude":"36.304948","longitude":"-86.697022","name":"Macy's - Goodlettsville (Rivergate) - 1000 Rivergate Pkwy, Goodlettsville","address":"TN 37072>615-859-5251"},{"latitude":"36.100747","longitude":"-86.819394","name":"Macy's - Nashville (Green Hills) - 3813 Hillsboro Pike, Nashville","address":"TN 37215>615-383-3300"},{"latitude":"35.0227862","longitude":"-89.7162122","name":"Macy's - Collierville (Avenues at Carriage Crossing) - 4660 Merchants Park Cir, Collierville","address":"TN 38017>901-861-5520"},{"latitude":"35.1168229","longitude":"-89.911204","name":"Macy's - Memphis (Oak Court) - 4545 Poplar Ave, Memphis","address":"TN 38117>901-766-4199"},{"latitude":"35.202899","longitude":"-89.788639","name":"Macy's - Bartlett (Wolfchase) - 2840 N Germantown Pkwy, Bartlett","address":"TN 38133>901-937-2600"},{"latitude":"35.6567907","longitude":"-88.8278709","name":"Macy's - Jackson (Old Hickory Mall) - 2021 N Highland Ave, Jackson","address":"TN 38305>731-668-6291"},{"latitude":"33.1000279","longitude":"-96.805858","name":"Macy's - Frisco (Stonebriar Centre) - 2603 Preston Rd, Frisco","address":"TX 75034>972-731-3600"},{"latitude":"32.9534084","longitude":"-96.6148938","name":"Macy's - Garland (Firewheel Town Center) - 701 Horseshoe Dr, Garland","address":"TX 75040>972-244-2500"},{"latitude":"32.67973","longitude":"-97.055021","name":"Bloomingdale's - Grand Prairie (Grand Prairie) - 2950 W I-20, Grand Prairie","address":"TX 75052>214-516-6900"},{"latitude":"32.8410993","longitude":"-96.9944828","name":"Macy's - Irving (Irving Mall) - 3801 Irving Mall, Irving","address":"TX 75062>972-257-4800"},{"latitude":"33.003298","longitude":"-96.968603","name":"Macy's - Lewisville (Vista Ridge Mall) - 2401 S Stemmons Fwy, Lewisville","address":"TX 75067>972-315-5524"},{"latitude":"33.13116","longitude":"-96.651047","name":"Macy's - Fairview (Village at Fairview) - 201 Stacy Rd,  Fairview","address":"TX 75069>972-649-5800 "},{"latitude":"33.011243","longitude":"-96.71192","name":"Macy's - Plano (Collin Creek Mall) - 801 N Central Expy, Plano","address":"TX 75075>972-422-8700"},{"latitude":"33.029839","longitude":"-96.834276","name":"Macy's - Plano (Shops at Willow Bend) - 6209 W Park Blvd, Plano","address":"TX 75093>469-366-3676"},{"latitude":"32.8065723","longitude":"-96.6261566","name":"Macy's - Mesquite (Town East Mall) - 4000 Town East Mall, Mesquite","address":"TX 75150>972-681-6700"},{"latitude":"32.871604","longitude":"-96.773254","name":"Macy's - Dallas (NorthPark Center) - 8687 N Central Expressway, Dallas","address":"TX 75225>469-232-3600"},{"latitude":"32.868757","longitude":"-96.768377","name":"Bloomingdale's - Dallas (Park Lane Outlet) - 8180 Park La, Dallas","address":"TX 75231>972-707-6850"},{"latitude":"32.662175","longitude":"-96.8767809","name":"Macy's - Dallas (Redbird Southwest Ctr) - 3550 W Camp Wisdom Rd, Dallas","address":"TX 75237>972-780-6700"},{"latitude":"32.9299068","longitude":"-96.8181232","name":"Macy's - Dallas (Dallas Galleria) - 13375 Noel Rd, Dallas","address":"TX 75240>214-295-1300"},{"latitude":"32.298276","longitude":"-95.299576","name":"Macy's - Tyler  - 4700 S Broadway Ave, Tyler","address":"TX 75703>903-534-6990"},{"latitude":"30.401356","longitude":"-97.752535","name":"Macy's - Austin (Barton Creek Square Mall) - 2901 Capitol of Texas Hwy, Austin","address":"TX 76011>512-329-2300"},{"latitude":"32.682077","longitude":"-97.129049","name":"Macy's - Arlington (Parks at Arlington) - 3841 S Cooper St, Arlington","address":"TX 76015>817-472-4500"},{"latitude":"32.828845","longitude":"-97.19965","name":"Macy's - Hurst (North East Mall) - 1101 Melbourne Rd, Hurst","address":"TX 76053>817-317-5300"},{"latitude":"32.7371762","longitude":"-97.4372293","name":"Macy's - 2060 Green Oaks Rd, Fort Worth","address":"TX 76116>817-570-2400"},{"latitude":"32.679784","longitude":"-97.396846","name":"Macy's - Fort Worth (Hulen Mall) - 4650 S Hulen St, Fort Worth","address":"TX 76132>817-294-6990"},{"latitude":"33.17003","longitude":"-97.089014","name":"Macy's - Denton (Golden Triangle) - 2201 I35E S, Denton","address":"TX 76205>940-783-4000"},{"latitude":"31.070235","longitude":"-97.366818","name":"Macy's - Temple (Temple Mall) - 3111 S 31st St, Temple","address":"TX 76502>254-770-7300"},{"latitude":"29.73226","longitude":"-95.337247","name":"Macy's - Houston (Outlet)  - 2103 Ernestine St, Houston","address":"TX 77023>832-667-4200"},{"latitude":"29.7817606","longitude":"-95.536003","name":"Macy's - Houston (Memorial City) - 900 Memorial City Way, Houston","address":"TX 77024>713-461-0400"},{"latitude":"29.7051103","longitude":"-95.5166884","name":"Macy's - Houston (Sharpstown Mall) - 100 Sharpstown Ctr, Houston","address":"TX 77036>713-776-7300"},{"latitude":"29.737432","longitude":"-95.463447","name":"Macy's - Houston (Houston Galleria) - 5135 W Alabama St, Houston","address":"TX 77056>832-667-4200"},{"latitude":"29.946488","longitude":"-95.410233","name":"Macy's - Houston (Greenspoint Mall) - 500 Greenspoint Mall, Houston","address":"TX 77060>281-875-7300"},{"latitude":"29.983569","longitude":"-95.57223","name":"Macy's - Houston (Willowbrook Mall) - 4000 Willowbrook Mall, Houston","address":"TX 77070>281-955-4300"},{"latitude":"29.62342","longitude":"-95.227337","name":"Macy's - Houston (Almeda Mall) - 100 Almeda Mall, Houston","address":"TX 77075>713-943-4300"},{"latitude":"29.7320134","longitude":"-95.6488552","name":"Macy's - Houston (West Oaks Mall) - 800 W Oaks Mall, Houston","address":"TX 77082>281-531-3700"},{"latitude":"39.0559279","longitude":"-77.7427343","name":"Macy's - Humble (Deerbrook Mall) - 20131 Hwy 59 N, Humble","address":"TX 77338>281-540-9250"},{"latitude":"30.167429","longitude":"-95.453792","name":"Macy's - The Woodlands (The Woodlands Mall) - 1201 Lake Woodlands Dr, The Woodlands","address":"TX 77380>281-362-6100"},{"latitude":"29.593669","longitude":"-95.625249","name":"Macy's - Sugarland (First Colony Tn Ctr) - 16511 SW Freeway, Sugarland","address":"TX 77478>281-243-7600"},{"latitude":"29.690889","longitude":"-95.1988177","name":"Macy's - Pasadena (Pasadena Town Square) - 1101 E Southmore Ave, Pasadena","address":"TX 77502>713-475-3250"},{"latitude":"29.797582","longitude":"-94.986187","name":"Macy's - Baytown (San Jacinto Mall) - 5000 San Jacinto Mall, Baytown","address":"TX 77521>281-421-4300"},{"latitude":"29.541537","longitude":"-95.15031","name":"Macy's - Friendswood (BayBrook Mall) - 200 Baybrook Mall, Friendswood","address":"TX 77546>281-226-5300"},{"latitude":"29.555146","longitude":"-95.393091","name":"Macy's - Pearland (Town Center ) - 11200 Broadway, Pearland","address":"TX 77584>713-280-2500"},{"latitude":"30.1277242","longitude":"-94.1602348","name":"Macy's - Beaumont (Parkdale Mall) - 6175 Eastex Fwy, Beaumont","address":"TX 77706>409-924-6700"},{"latitude":"30.6276664","longitude":"-96.3046266","name":"Macy's - College Station (Post Oak Mall) - 1508 Harvey Rd, College Station","address":"TX 77840>979-764-3258"},{"latitude":"27.551125","longitude":"-99.501392","name":"Macy's - Laredo (Mall del Norte) - 5300 San Dario Ave, Laredo","address":"TX 78041>959-724-3020"},{"latitude":"29.423553","longitude":"-98.483819","name":"Macy's - San Antonio (Rivercenter) - 151 Bowie St, San Antonio","address":"TX 78205>210-554-6850"},{"latitude":"29.518209","longitude":"-98.497891","name":"Macy's - San Antonio (North Star Mall) - 7400 San Pedro Ave, San Antonio","address":"TX 78216>210-340-4200"},{"latitude":"29.355975","longitude":"-98.531088","name":"Macy's - San Antonio (South Park) - 2310 Southwest Military Dr, San Antonio","address":"TX 78224>210-334-2000"},{"latitude":"29.469557","longitude":"-98.620878","name":"Macy's - San Antonio (Furniture Gallery) - 6301 Northwest Loop 410, San Antonio","address":"TX 78238>210-647-2400"},{"latitude":"29.469557","longitude":"-98.620878","name":"Macy's - San Antonio (Ingram Park Mall) - 6301 Northwest Loop 410, San Antonio","address":"TX 78238>210-647-2400"},{"latitude":"29.597689","longitude":"-98.350765","name":"Macy's - San Antonio (Rolling Oaks Center) - 6909 N Loop 1604 E, San Antonio","address":"TX 78247>210-651-8800"},{"latitude":"29.592901","longitude":"-98.618066","name":"Macy's - San Antonio (La Cantera) - 15900 La Cantera Pkwy, San Antonio","address":"TX 78256>210-332-4800"},{"latitude":"27.712793","longitude":"-97.3745299","name":"Macy's - Corpus Christi (La Palmera Mall) - 5488 S Padre Island Dr, Corpus Christi","address":"TX 78411>361-994-2238"},{"latitude":"26.1852969","longitude":"-98.2335049","name":"Macy's - McAllen (La Plaza Mall) - 2100 S 10th St, McAllen","address":"TX 78503>956-631-7700"},{"latitude":"30.4703051","longitude":"-97.8082268","name":"Macy's - Austin (Lakeline Mall) - 11250 Lake Stop Blvd, Austin","address":"TX 78613>512-918-7300"},{"latitude":"30.399658","longitude":"-97.727023","name":"Macy's - Austin (The Domain) - 11701 N MoPac Expwy, Austin","address":"TX 78758>512-490-3300"},{"latitude":"31.81324","longitude":"-106.544611","name":"Macy's - El Paso (Sunland Park) - 750 Sunland Park Dr, El Paso","address":"TX 79925>915-225-4006"},{"latitude":"31.776365","longitude":"-106.379239","name":"Macy's - El Paso (Cielo Vista) - 8401 Gateway Blvd W, El Paso","address":"TX 79925>915-225-6200"},{"latitude":"41.077664","longitude":"-111.976675","name":"Macy's - Layton (Layton Hills Mall) - 1000 Layton Hills Mall, Layton","address":"UT 84041>801-546-5000"},{"latitude":"40.576889","longitude":"-111.89518","name":"Macy's - Sandy (South Towne) - 10600 S 110 W, Sandy","address":"UT 84070>801-576-0081"},{"latitude":"40.694164","longitude":"-111.9575674","name":"Macy's - West Valley City (Valley Fair Mall) - 3601 S 2700 W, West Valley City","address":"UT 84070>801-963-0191"},{"latitude":"40.768745","longitude":"-111.890711","name":"Macy's - Salt Lake City (Downtown) - 21 S Main St, Salt Lake City","address":"UT 84111>801-579-7320"},{"latitude":"40.6642843","longitude":"-111.8389852","name":"Macy's - Salt Lake City (Cottonwood Mall) - 4835 Highland Dr, Salt Lake City","address":"UT 84117>801-278-0052"},{"latitude":"40.2733679","longitude":"-111.6823693","name":"Macy's - Orem (University Mall) - 534 E University Pkwy, Orem","address":"UT 84405>801-227-3000"},{"latitude":"38.775467","longitude":"-77.503845","name":"Macy's - Manassas  - 8270 Sudley Rd, Manassas","address":"VA 20109>703-368-7131"},{"latitude":"39.030509","longitude":"-77.420612","name":"Macy's - Dulles (Dulles) - 21060 Dulles Town Circle, Dulles","address":"VA 20166>703-421-4814"},{"latitude":"38.856461","longitude":"-77.33342","name":"Macy's - Fairfax (Fair Oaks Mall) - 11901 L Lee Jackson Memorial Hwy, Fairfax","address":"VA 22030>571-432-2200"},{"latitude":"38.8617245","longitude":"-77.3545982","name":"Macy's - Fairfax  (Furniture)- 11700 Fair Oaks, Fairfax","address":"VA 22033>703-591-3900"},{"latitude":"38.925797","longitude":"-77.22998","name":"Macy's - McLean (Tysons Galleria) - 1651 International Dr, McLean","address":"VA 22102>703-556-0000"},{"latitude":"38.916428","longitude":"-77.223579","name":"Bloomingdale's - McLean (Tysons Corner Center) - 8100 Tysons Corner Center, McLean","address":"VA 22102>703-556-4600"},{"latitude":"38.916222","longitude":"-77.224442","name":"Macy's - McLean (Tysons Corner) - 8000 Tysons Corner Center, McLean","address":"VA 22102>703-893-4900"},{"latitude":"38.771843","longitude":"-77.174972","name":"Macy's - Springfield  - 6400 Springfield Mall, Springfield","address":"VA 22150>703-719-6100"},{"latitude":"38.643772","longitude":"-77.295428","name":"Bloomingdale's - Woodbridge (Potomac Mills Outlet) - 2700 Potomac Mills Circle, Woodbridge","address":"VA 22192>703-843-2160"},{"latitude":"38.8653685","longitude":"-77.0587135","name":"Macy's - Arlington (Pentagon City) - 1000 S Hayes St, Arlington","address":"VA 22202>703-418-4488"},{"latitude":"38.8791873","longitude":"-77.1124837","name":"Macy's - Arlington (Ballston) - 701 N Glebe Rd, Arlington","address":"VA 22203>703-524-5100"},{"latitude":"38.816135","longitude":"-77.129797","name":"Macy's - Alexandria (Landmark) - 5701 Duke St, Alexandria","address":"VA 22304>703-354-1900"},{"latitude":"38.294781","longitude":"-77.516296","name":"Macy's - Fredericksburg  (Spotsylvania Mall) - 3102 Plank Rd, Fredericksburg","address":"VA 22407>540-786-5525"},{"latitude":"37.599953","longitude":"-77.564133","name":"Macy's  - Richmond (Furniture Gallery) - 1406 N Parham Rd, Richmond","address":"VA 23229>804-740-6700"},{"latitude":"37.599953","longitude":"-77.564133","name":"Macy's - Richmond (Regency Square) - 1406 N Parham Rd, Richmond","address":"VA 23229>804-740-6700"},{"latitude":"37.656477","longitude":"-77.619783","name":"Macy's - Richmond (Short Pump) - 11872 W Broad St, Richmond","address":"VA 23233>804-364-8209"},{"latitude":"37.505665","longitude":"-77.609192","name":"Macy's - Richmond (Chesterfield Town Center) - 11504 Midlothian Tpke, Richmond","address":"VA 23235>804-794-5800"},{"latitude":"36.7797192","longitude":"-76.2277345","name":"Macy's - Chesapeake (Greenbriar) - 1401 Greenbrier Pkwy, Chesapeake","address":"VA 23320>757-424-6260"},{"latitude":"36.819984","longitude":"-76.067146","name":"Macy's - Virginia Beach (Lynnhaven Mall) - 701 Lynnhaven Pkwy, Virginia Beach","address":"VA 23452>757-306-0666"},{"latitude":"37.112522","longitude":"-76.49926","name":"Macy's - Newport News (Patrick Henry) - 12300 Jefferson Ave, Newport News","address":"VA 23602>757-249-1656"},{"latitude":"37.2523567","longitude":"-77.3950028","name":"Macy's - Colonial Heights (South Park Mall) - 170 South Park Cir, Colonial Heights","address":"VA 23834>804-526-4400"},{"latitude":"37.304569","longitude":"-79.960381","name":"Macy's - Roanoke (Valley View Mall) - 4841 Valley View Blvd NW, Roanoke","address":"VA 24012>540-362-0900"},{"latitude":"37.366783","longitude":"-79.174339","name":"Macy's - Lynchburg (River Ridge Mall) - 3419 Candlers Mountain Rd, Lynchburg","address":"VA 24502>434-239-5611"},{"latitude":"44.47905","longitude":"-73.215996","name":"Macy's - Burlington  - 67 Cherry St, Burlington","address":"VT 05401>802-865-3000"},{"latitude":"47.3203","longitude":"-122.311726","name":"Macy's - Federal Way (SeaTac Mall) - 1901 S SeaTac Mall, Federal Way","address":"WA 98003>253-529-6000"},{"latitude":"47.615635","longitude":"-122.204355","name":"Macy's - Bellevue (Bellevue Square Mall) - 400 Bellevue sq, Bellevue","address":"WA 98004>425-688-6000"},{"latitude":"47.826067","longitude":"-122.272809","name":"Macy's - Lynnwood  (Furniture Gallery) - 2909 Alderwood Mall Blvd, Lynnwood","address":"WA 98036>425-712-6850"},{"latitude":"47.8287795","longitude":"-122.2685415","name":"Macy's - Lynnwood (Alderwood Mall) - 18700 Alderwood Mall Pkwy, Lynnwood","address":"WA 98037>425-712-6000"},{"latitude":"47.6700326","longitude":"-122.1188358","name":"Macy's - Redmond (Redmond Town Center) - 7400 166th Ave NE, Redmond","address":"WA 98052>425-498-6000"},{"latitude":"47.632016","longitude":"-122.134981","name":"Macy's - Redmond (Furniture Gallery) - 15340 NE 24th St, Redmond","address":"WA 98052>425-688-6850"},{"latitude":"47.7035173","longitude":"-122.3266876","name":"Macy's - Seattle (Northgate Mall) - 401 NE Northgate Way, Seattle","address":"WA 98125>206-440-6000"},{"latitude":"47.6107792","longitude":"-122.3387621","name":"Macy's - Seattle (Downtown Seattle) - 1601 3rd Ave, Seattle","address":"WA 98181>206-506-6000"},{"latitude":"47.442771","longitude":"-122.2614","name":"Macy's - Tukwila (Furniture Gallery) - 17855 Southcenter Pkwy, Tukwila","address":"WA 98188>206-575-2164"},{"latitude":"47.459807","longitude":"-122.259188","name":"Macy's - Tukwila  - 500 Southcenter Mall, Tukwila","address":"WA 98188>425-656-6000"},{"latitude":"47.4463199","longitude":"-122.2620445","name":"Macy's - Tukwila (Parkway Plaza Home) - 17750 Southcenter Pkwy, Tukwila","address":"WA 98188>425-656-6850"},{"latitude":"47.911682","longitude":"-122.211757","name":"Macy's - Everett (Everett Mall) - 1502 SE Everett Mall Way, Everett","address":"WA 98208>425-710-6000"},{"latitude":"48.786871","longitude":"-122.487849","name":"Macy's - Bellingham (Bellis Fair Mall) - 50 Bellis Fair Pkwy, Bellingham","address":"WA 98226>360-715-6000"},{"latitude":"48.797001","longitude":"-122.486122","name":"Macy's - Bellingham (Furniture Gallery) - 4295 Meridian St, Bellingham","address":"WA 98226>360-715-6850"},{"latitude":"48.462004","longitude":"-122.340169","name":"Macy's - Burlington (Cascade Mall) - 700 Cascade Mall Dr, Burlington","address":"WA 98233>360-707-6000"},{"latitude":"47.1643339","longitude":"-122.293198","name":"Macy's - Puyallup (South Hill Mall) - 3500 S Meridian, Puyallup","address":"WA 98373>253-840-7000"},{"latitude":"47.659529","longitude":"-122.690639","name":"Macy's - Silverdale (Kitsap Mall) - 10315 Silverdale Way NW, Silverdale","address":"WA 98383>360-613-6000"},{"latitude":"47.661793","longitude":"-122.688645","name":"Macy's - Silverdale (Furniture Gallery) - 3102 NW Randall Way, Silverdale","address":"WA 98383>360-613-6850"},{"latitude":"47.214457","longitude":"-122.460385","name":"Macy's - Tacoma (Furniture Gallery) - 1767 S 48th St, Tacoma","address":"WA 98408>253-471-5400"},{"latitude":"47.217507","longitude":"-122.468498","name":"Macy's - Tacoma (Tacoma Mall) - 4502 S Steele St, Tacoma","address":"WA 98409>253-471-6800"},{"latitude":"47.040726","longitude":"-122.935455","name":"Macy's - Olympia  - 625 Black Lake Blvd, Olympia","address":"WA 98501>360-534-7000"},{"latitude":"47.0470041","longitude":"-122.9377397","name":"Macy's - Olympia (Furniture Gallery) - 2905 Harrison Ave NW, Olympia","address":"WA 98502>360-534-7850"},{"latitude":"46.1415355","longitude":"-122.9014342","name":"Macy's - Kelso (Three Rivers Mall) - 331 Three Rivers Dr, Kelso","address":"WA 98626>360-414-6000"},{"latitude":"45.657727","longitude":"-122.586775","name":"Macy's - Vancouver (Vancouver Mall) - 8208 NE Vancouver Mall Dr, Vancouver","address":"WA 98662>360-256-4411"},{"latitude":"47.410693","longitude":"-120.288646","name":"Macy's - Wenatchee (Wenatchee Valley) - 445 Valley Mall Pkwy, Wenatchee","address":"WA 98802>509-881-6000"},{"latitude":"46.566629","longitude":"-120.480382","name":"Macy's - Union Gap (Valley Mall) - 2525 Main St, Union Gap","address":"WA 98903>509-577-6000"},{"latitude":"47.6595599","longitude":"-117.4220631","name":"Macy's - Spokane (Downtown Spokane) - 214 N Wall St, Spokane","address":"WA 99201>509-626-6000"},{"latitude":"47.701397","longitude":"-117.4110873","name":"Macy's - Spokane (Northtown Mall) - 4770 N Division St, Spokane","address":"WA 99207>509-482-6800"},{"latitude":"47.672327","longitude":"-117.204774","name":"Macy's - Spokane (Spokane Valley Mall) - 14740 E Indiana Ave, Spokane","address":"WA 99216>509-893-6000"},{"latitude":"46.213081","longitude":"-119.2250667","name":"Macy's - Kennewick (Columbia Center Mall) - 400 N Columbia Center Blvd, Kennewick","address":"WA 99336>509-734-6000"},{"latitude":"46.2326532","longitude":"-119.2332196","name":"Macy's - Richland (Furniture Gallery) - 1310 Tapteal Dr, Richland","address":"WA 99352>509-737-6850"},{"latitude":"46.067572","longitude":"-118.337076","name":"Macy's - Walla Walla (Downtown Walla Walla) - 54 E Main St, Walla Walla","address":"WA 99362>509-527-6000"},{"latitude":"43.063635","longitude":"-88.047701","name":"Macy's - Wauwatosa (Mayfair) - 1 Mayfair Mall North, Wauwatosa","address":"WI 53226>414-471-3700"},{"latitude":"43.07287","longitude":"-89.453028","name":"Macy's - Madison (Hilldale) - 702 N Midvale Blvd, Madison","address":"WI 53705>608-232-2400"},{"latitude":"43.7911021","longitude":"-91.2081535","name":"Macy's - La Crosse (Valley View Mall) - 3900 SR 16, La Crosse","address":"WI 54601>608-781-7800"},{"latitude":"44.7716161","longitude":"-91.4461296","name":"Macy's - Eau Claire (Oakwood Mall) - 4606 Golf Rd, Eau Claire","address":"WI 54701>715-833-5000"},{"latitude":"44.2730022","longitude":"-88.4695054","name":"Macy's - Appleton (Fox River) - 4301 W Wisconsin Ave, Appleton","address":"WI 54913>920-730-6500"},{"latitude":"38.3558479","longitude":"-81.6386293","name":"Macy's - Charleston (Charleston Town Center) - 201 Lee St E, Charleston","address":"WV 25301>304-345-9450"},{"latitude":"38.4188371","longitude":"-82.2633176","name":"Macy's - Barboursville (Huntington Mall) - 300 Huntington Mall, Barboursville","address":"WV 25504>304-733-0244"},{"latitude":"42.8455245","longitude":"-106.2684047","name":"Macy's - Casper (Eastridge Mall) - 501 SE Wyoming Blvd, Casper","address":"WY 82609>307-268-6000"}]