[{"latitude":" 35.85612","longitude":"-78.70207","name":" Marshalls","address":" USA-Raleigh"},{"latitude":" 32.91288","longitude":"-117.14533","name":" Marshalls","address":" USA-Mira Mesa"},{"latitude":" 34.14155","longitude":"-118.37531","name":" Marshalls","address":" USA-Los Angeles"},{"latitude":" 33.83128","longitude":"-118.34750","name":" Marshalls","address":" USA-Torrance"},{"latitude":" 33.90067","longitude":"-118.36144","name":" Marshalls","address":" USA-Manhattan Beach"},{"latitude":" 34.01217","longitude":"-84.56353","name":" Marshalls","address":" USA-Marietta"},{"latitude":" 33.68272","longitude":"-117.81626","name":" Marshalls","address":" USA-Irvine"},{"latitude":" 29.51615","longitude":"-98.52607","name":" Marshalls","address":" USA-San Antonio"},{"latitude":" 33.10681","longitude":"-96.80598","name":" Marshalls","address":" USA-Frisco"},{"latitude":" 35.75903","longitude":"-78.73431","name":" Marshalls","address":" USA-Raleigh"},{"latitude":" 33.79008","longitude":"-118.13903","name":" Marshalls","address":" USA-Long Beach"},{"latitude":" 30.31877","longitude":"-81.55462","name":" Marshalls","address":" USA-Jacksonville"},{"latitude":" 25.64357","longitude":"-80.33402","name":" Marshalls","address":" USA-Kendall"},{"latitude":" 26.44055","longitude":"-80.07096","name":" Marshalls","address":" USA-Delray Beach"},{"latitude":" 32.90938","longitude":"-96.85854","name":" Marshalls","address":" USA-Dallas"},{"latitude":" 30.17529","longitude":"-81.62798","name":" Marshalls","address":" USA-Jacksonville"},{"latitude":" 33.94534","longitude":"-118.33103","name":" Marshalls","address":" USA-Inglewood"},{"latitude":" 33.88726","longitude":"-84.74251","name":" Marshalls","address":" USA-Hiram"},{"latitude":" 25.86639","longitude":"-80.31782","name":" Marshalls","address":" USA-Hialeah"},{"latitude":" 25.62118","longitude":"-80.34439","name":" Marshalls","address":" USA-Palmetto Bay"},{"latitude":" 33.92566","longitude":"-118.13114","name":" Marshalls","address":" USA-Los Angeles"},{"latitude":" 26.14499","longitude":"-80.32390","name":" Marshalls","address":" USA-Fort Lauderdale"},{"latitude":" 32.81944","longitude":"-83.71394","name":" Marshalls","address":" USA-Macon"},{"latitude":" 32.89016","longitude":"-97.25928","name":" Marshalls","address":" USA-Fort Worth"},{"latitude":" 30.16763","longitude":"-95.45315","name":" Marshalls","address":" USA-The Woodlands"},{"latitude":" 33.70983","longitude":"-84.34664","name":" Marshalls","address":" USA-Atlanta"},{"latitude":" 33.70454","longitude":"-112.27271","name":" Marshalls","address":" USA-Sun City"},{"latitude":" 34.15041","longitude":"-118.06904","name":" Marshalls","address":" USA-Pasadena"},{"latitude":" 29.55578","longitude":"-95.38242","name":" Marshalls","address":" USA-Houston"},{"latitude":" 32.54649","longitude":"-84.94393","name":" Marshalls","address":" USA-Columbus"},{"latitude":" 33.99722","longitude":"-117.71775","name":" Marshalls","address":" USA-Chino"},{"latitude":" 33.95770","longitude":"-84.13726","name":" Marshalls","address":" USA-Duluth"},{"latitude":" 29.47645","longitude":"-95.14534","name":" Marshalls Inc.","address":" USA-League City"},{"latitude":" 29.92279","longitude":"-90.04131","name":" Marshalls","address":" USA-New Orleans"},{"latitude":" 32.81525","longitude":"-97.41757","name":" Marshalls","address":" USA-Lake Worth"},{"latitude":" 25.98101","longitude":"-80.35954","name":" Marshalls","address":" USA-Miramar"},{"latitude":" 35.12639","longitude":"-120.59658","name":" Marshalls","address":" USA-Arroyo Grande"},{"latitude":" 33.72522","longitude":"-116.40073","name":" Marshalls","address":" USA-Palm Desert"},{"latitude":" 28.54995","longitude":"-82.53059","name":" Marshalls","address":" USA-High Point"},{"latitude":" 28.55301","longitude":"-81.34941","name":" Marshalls","address":" USA-Orlando"},{"latitude":" 27.70882","longitude":"-97.37336","name":" Marshalls","address":" USA-Corpus Christi"},{"latitude":" 26.59826","longitude":"-81.87149","name":" Marshalls","address":" USA-Fort Myers"},{"latitude":" 25.77437","longitude":"-80.18957","name":" Marshalls","address":" USA-Miami"},{"latitude":" 26.36771","longitude":"-80.17306","name":" Marshalls","address":" USA-Boca Raton"},{"latitude":" 26.68117","longitude":"-80.22616","name":" Marshalls","address":" USA-West Palm Beach"},{"latitude":" 32.99394","longitude":"-117.25916","name":" Marshalls","address":" USA-Solana Beach"},{"latitude":" 36.77684","longitude":"-76.23069","name":" Marshalls","address":" USA-Chesepeake"},{"latitude":" 32.81102","longitude":"-96.61814","name":" Marshalls","address":" USA-Mesquite"},{"latitude":" 33.76000","longitude":"-117.82884","name":" Marshalls","address":" USA-Santa Ana"},{"latitude":" 30.17479","longitude":"-92.07032","name":" Marshalls","address":" USA-Lafayette"},{"latitude":" 29.27590","longitude":"-94.82741","name":" Marshalls","address":" USA-Galveston"},{"latitude":" 29.68541","longitude":"-95.46281","name":" Marshalls","address":" USA-Houston"},{"latitude":" 26.51227","longitude":"-80.09042","name":" Marshalls","address":" USA-Boynton Beach"},{"latitude":" 32.91281","longitude":"-117.14779","name":" Marshalls","address":" USA-Mira Mesa"},{"latitude":" 30.17572","longitude":"-81.62758","name":" Marshalls","address":" USA-Jacksonville"},{"latitude":" 32.97849","longitude":"-96.77007","name":" Marshalls","address":" USA-Addison"},{"latitude":" 29.73644","longitude":"-95.60215","name":" Marshalls","address":" USA-Houston"},{"latitude":" 33.14205","longitude":"-117.19192","name":" Marshalls","address":" USA-San Marcos"},{"latitude":" 32.83715","longitude":"-97.18617","name":" Marshalls","address":" USA-Fort Worth"},{"latitude":" 33.53828","longitude":"-111.88779","name":" Marshalls","address":" USA-Scottsdale"},{"latitude":" 32.39611","longitude":"-90.14329","name":" Marshalls","address":" USA-Jackson"},{"latitude":" 36.87193","longitude":"-76.13388","name":" Marshalls","address":" USA-Lynnwood"},{"latitude":" 34.97033","longitude":"-81.88761","name":" Marshalls","address":" USA-Zion Hill"},{"latitude":" 33.99060","longitude":"-117.92755","name":" Marshalls","address":" USA-Rowland Heights"},{"latitude":" 34.69236","longitude":"-118.17205","name":" Marshalls","address":" USA-Lancaster"},{"latitude":" 35.95391","longitude":"-78.99587","name":" Marshalls","address":" USA-Durham"},{"latitude":" 32.80675","longitude":"-116.97317","name":" Marshalls","address":" USA-El Cajon"},{"latitude":" 34.78446","longitude":"-77.39921","name":" Marshalls","address":" USA-Jacksonville"},{"latitude":" 30.43354","longitude":"-91.08227","name":" Marshalls","address":" USA-Baton Rouge"},{"latitude":" 32.00861","longitude":"-81.11485","name":" Marshalls","address":" USA-Savannah"},{"latitude":" 29.96235","longitude":"-90.18484","name":" Marshalls","address":" USA-New Orleans"},{"latitude":" 34.07298","longitude":"-117.88658","name":" Marshalls","address":" USA-Covina"},{"latitude":" 32.44355","longitude":"-93.71520","name":" Marshalls","address":" USA-Shreveport"},{"latitude":" 35.12746","longitude":"-80.69836","name":" Marshalls","address":" USA-Matthews"},{"latitude":" 33.78878","longitude":"-117.96039","name":" Marshalls","address":" USA-Stanton"},{"latitude":" 33.85237","longitude":"-118.35350","name":" Marshalls","address":" USA-Torrance"},{"latitude":" 32.31656","longitude":"-106.74040","name":" Marshalls","address":" USA-Las Cruces"},{"latitude":" 34.07253","longitude":"-81.15860","name":" Marshalls","address":" USA-Irmo"},{"latitude":" 28.45058","longitude":"-81.38837","name":" Marshalls","address":" USA-Sky Lake"},{"latitude":" 29.54495","longitude":"-98.50801","name":" Marshalls","address":" USA-San Antonio"},{"latitude":" 27.96637","longitude":"-82.72948","name":" Marshalls","address":" USA-Clearwater"},{"latitude":" 33.47970","longitude":"-84.44298","name":" Marshalls","address":" USA-Fayetteville"},{"latitude":" 34.06614","longitude":"-80.95723","name":" Marshalls","address":" USA-Columbia"},{"latitude":" 29.80270","longitude":"-94.98675","name":" Marshalls","address":" USA-McNair"},{"latitude":" 26.61896","longitude":"-80.14539","name":" Marshalls","address":" USA-Greenacres"},{"latitude":" 33.60963","longitude":"-117.70217","name":" Marshalls","address":" USA-Lagua Woods"},{"latitude":" 36.82027","longitude":"-76.07483","name":" Marshalls","address":" USA-Virginia Beach"},{"latitude":" 35.13040","longitude":"-106.53694","name":" Marshalls","address":" USA-Albuquerque"},{"latitude":" 35.10799","longitude":"-80.88143","name":" Marshalls","address":" USA-Pineville"},{"latitude":" 32.23990","longitude":"-80.81469","name":" Marshalls","address":" USA-Bluffton"},{"latitude":" 33.78450","longitude":"-78.77015","name":" Marshalls","address":" USA-Briarcliffe Acres"},{"latitude":" 29.65012","longitude":"-95.56706","name":" Marshalls","address":" USA-Missouri City"},{"latitude":" 34.07589","longitude":"-118.37594","name":" Marshalls","address":" USA-Beverly Hills"},{"latitude":" 34.06177","longitude":"-83.99490","name":" Marshalls","address":" USA-Buford"},{"latitude":" 33.86305","longitude":"-84.30651","name":" Marshalls","address":" USA-Brookhaven"},{"latitude":" 34.03836","longitude":"-118.44066","name":" Marshalls","address":" USA-Santa Monica"},{"latitude":" 33.98379","longitude":"-118.09851","name":" Marshalls","address":" USA-Pico Rivera"},{"latitude":" 28.07861","longitude":"-80.64631","name":" Marshalls","address":" USA-Melbourne"},{"latitude":" 33.00743","longitude":"-96.97426","name":" Marshalls","address":" USA-Carollton"},{"latitude":" 29.53871","longitude":"-95.14533","name":" Marshalls","address":" USA-League City"},{"latitude":" 33.48079","longitude":"-117.09905","name":" Marshalls","address":" USA-Temecula"},{"latitude":" 34.38683","longitude":"-118.57222","name":" Marshalls","address":" USA-Burbank"},{"latitude":" 28.55218","longitude":"-81.48101","name":" Marshalls","address":" USA-Pine Hills"},{"latitude":" 33.96993","longitude":"-84.01899","name":" Marshalls","address":" USA-Lawrenceville"},{"latitude":" 33.88863","longitude":"-84.47468","name":" Marshalls","address":" USA-Smyrna"},{"latitude":" 33.52604","longitude":"-82.12064","name":" Marshalls","address":" USA-Evans"},{"latitude":" 36.85490","longitude":"-76.20390","name":" Marshalls","address":" USA-Norfolk"},{"latitude":" 36.07173","longitude":"-80.29523","name":" Marshalls","address":" USA-Winston-Salem"},{"latitude":" 31.78198","longitude":"-106.41123","name":" Marshalls","address":" USA-El Paso"},{"latitude":" 32.86409","longitude":"-96.80673","name":" Marshalls","address":" USA-Dallas"},{"latitude":" 30.48145","longitude":"-97.68055","name":" Marshalls","address":" USA-Round Rock"},{"latitude":" 33.92760","longitude":"-84.37896","name":" Marshalls","address":" USA-Sandy Springs"},{"latitude":" 29.75334","longitude":"-95.39941","name":" Marshalls","address":" USA-Houston"},{"latitude":" 33.94170","longitude":"-117.28359","name":" Marshalls","address":" USA-Moreno Valley"},{"latitude":" 30.22851","longitude":"-97.73959","name":" Marshalls","address":" USA-Austin"},{"latitude":" 34.74502","longitude":"-86.68138","name":" Marshalls","address":" USA-Huntsville"},{"latitude":" 30.12385","longitude":"-94.15603","name":" Marshalls","address":" USA-Beaumont"},{"latitude":" 35.33965","longitude":"-119.03617","name":" Marshalls","address":" USA-Bakersfield"},{"latitude":" 26.23559","longitude":"-80.20014","name":" Marshalls","address":" USA-Margate"},{"latitude":" 32.28817","longitude":"-95.30346","name":" Marshalls","address":" USA-Tyler"},{"latitude":" 26.84448","longitude":"-80.07379","name":" Marshalls","address":" USA-Palm Beach Gardens"},{"latitude":" 26.17211","longitude":"-81.79995","name":" Marshalls","address":" USA-Naples"},{"latitude":" 25.77000","longitude":"-80.32383","name":" Marshalls","address":" USA-Hialeah"},{"latitude":" 35.17594","longitude":"-80.79876","name":" Marshalls","address":" USA-Charlotte"},{"latitude":" 25.93206","longitude":"-80.12206","name":" Marshalls","address":" USA-North Miami Beach"},{"latitude":" 25.74642","longitude":"-80.38793","name":" Marshalls","address":" USA-Tamiami"},{"latitude":" 31.07586","longitude":"-97.37722","name":" Marshalls","address":" USA-Temple"},{"latitude":" 33.87542","longitude":"-84.01362","name":" Marshalls","address":" USA-Shellville"},{"latitude":" 29.59535","longitude":"-95.62017","name":" Marshalls","address":" USA-Sugar Land"},{"latitude":" 34.19398","longitude":"-118.56307","name":" Marshalls","address":" USA-Hidden Hills"},{"latitude":" 34.07015","longitude":"-117.21072","name":" Marshalls","address":" USA-San Bernardino"},{"latitude":" 35.85541","longitude":"-86.43016","name":" Marshalls","address":" USA-Murfreesboro"},{"latitude":" 32.64119","longitude":"-117.05208","name":" Marshalls","address":" USA-Chula Vista"},{"latitude":" 27.78906","longitude":"-82.72864","name":" Marshalls","address":" USA-St Petersburg"},{"latitude":" 30.19760","longitude":"-93.24769","name":" Marshalls","address":" USA-Lake Charles"},{"latitude":" 35.10366","longitude":"-80.98488","name":" Marshalls","address":" USA-Charlotte"},{"latitude":" 34.20486","longitude":"-118.22245","name":" Marshalls","address":" USA-La Canada Fintridge"},{"latitude":" 29.78362","longitude":"-95.52513","name":" Marshalls","address":" USA-Hedwig Village"},{"latitude":" 35.20782","longitude":"-89.89475","name":" Marshalls","address":" USA-Memphis"},{"latitude":" 27.83778","longitude":"-82.68300","name":" Marshalls","address":" USA-Pinellas Park"},{"latitude":" 33.96759","longitude":"-118.16306","name":" Marshalls","address":" USA-Bell Gardens"},{"latitude":" 32.75565","longitude":"-97.35447","name":" Marshalls","address":" USA-Fort Worth"},{"latitude":" 33.92041","longitude":"-84.34407","name":" Marshalls","address":" USA-Sandy Springs"},{"latitude":" 33.46483","longitude":"-112.27755","name":" Marshalls","address":" USA-Tolleson"},{"latitude":" 29.70762","longitude":"-95.50871","name":" Marshalls","address":" USA-Houston"},{"latitude":" 33.63980","longitude":"-86.62688","name":" Marshalls","address":" USA-Grayson Valley"},{"latitude":" 28.02561","longitude":"-82.50182","name":" Marshalls","address":" USA-Tampa"},{"latitude":" 33.85356","longitude":"-84.38160","name":" Marshalls","address":" USA-Atlanta"},{"latitude":" 33.85565","longitude":"-84.60185","name":" Marshalls","address":" USA-Marietta"},{"latitude":" 34.67752","longitude":"-86.54767","name":" Marshalls","address":" USA-Huntsville"},{"latitude":" 32.94462","longitude":"-80.04068","name":" Marshalls","address":" USA-Goose Creek"},{"latitude":" 31.81835","longitude":"-106.54533","name":" Marshalls","address":" USA-Sunland Park"},{"latitude":" 32.96817","longitude":"-97.03690","name":" Marshalls","address":" USA-Coppell"},{"latitude":" 32.60347","longitude":"-96.94922","name":" Marshalls","address":" USA-Duncanville"},{"latitude":" 33.82693","longitude":"-84.36693","name":" Marshalls","address":" USA-Atlanta"},{"latitude":" 33.72131","longitude":"-84.18147","name":" Marshalls Distribution Center","address":" USA-Redan"},{"latitude":" 27.93926","longitude":"-82.32282","name":" Marshalls","address":" USA-Brandon"},{"latitude":" 26.27108","longitude":"-98.21835","name":" Marshalls","address":" USA-Edinburg"},{"latitude":" 25.68535","longitude":"-80.42263","name":" Marshalls","address":" USA-Kendale Lakes"},{"latitude":" 30.39308","longitude":"-97.73257","name":" Marshalls","address":" USA-Austin"},{"latitude":" 29.85094","longitude":"-95.50446","name":" Marshalls","address":" USA-Houston"},{"latitude":" 29.61083","longitude":"-90.75284","name":" Marshalls","address":" USA-Bayou Cane"},{"latitude":" 35.44747","longitude":"-82.53615","name":" Marshalls","address":" USA-Asheville"},{"latitude":" 26.70406","longitude":"-80.11140","name":" Marshalls","address":" USA-West Palm Beach"},{"latitude":" 32.81363","longitude":"-96.95578","name":" Marshalls","address":" USA-Irving"},{"latitude":" 33.17699","longitude":"-117.33935","name":" Marshalls","address":" USA-Carlsbad"},{"latitude":" 28.17352","longitude":"-82.35393","name":" Marshalls","address":" USA-Tampa"},{"latitude":" 33.57199","longitude":"-84.35424","name":" Marshalls","address":" USA-Morrow"},{"latitude":" 33.50908","longitude":"-112.04274","name":" Marshalls","address":" USA-Phoenix"},{"latitude":" 29.19297","longitude":"-81.06753","name":" Marshalls","address":" USA-Daytona Beach"},{"latitude":" 36.01056","longitude":"-115.11840","name":" Marshalls","address":" USA-Paradise"},{"latitude":" 29.86821","longitude":"-81.32330","name":" Marshalls","address":" USA-St Augustine"},{"latitude":" 31.07613","longitude":"-97.37823","name":" Marshalls","address":" USA-Temple"},{"latitude":" 32.84991","longitude":"-96.68270","name":" Marshalls","address":" USA-Dallas"},{"latitude":" 26.31761","longitude":"-80.15773","name":" Marshalls","address":" USA-Boca Raton"},{"latitude":" 28.20160","longitude":"-82.66623","name":" Marshalls","address":" USA-Seven Springs"},{"latitude":" 34.04635","longitude":"-84.29094","name":" Marshalls","address":" USA-Alpharetta"},{"latitude":" 29.69641","longitude":"-95.29754","name":" Marshalls","address":" USA-Houston"},{"latitude":" 35.65088","longitude":"-80.45825","name":" Marshalls","address":" USA-Salisbury"},{"latitude":" 34.14012","longitude":"-118.01087","name":" Marshalls","address":" USA-Monrovia"},{"latitude":" 34.14831","longitude":"-117.47650","name":" Marshalls","address":" USA-Fontana"},{"latitude":" 33.38085","longitude":"-86.80528","name":" Marshalls","address":" USA-Hoover"},{"latitude":" 33.93836","longitude":"-118.04671","name":" Marshalls","address":" USA-La Miranda"},{"latitude":" 34.01984","longitude":"-84.32010","name":" Marshalls","address":" USA-Rosswell"},{"latitude":" 33.91716","longitude":"-117.99114","name":" Marshalls","address":" USA-Fzllerton"},{"latitude":" 36.07010","longitude":"-79.86660","name":" Marshalls","address":" USA-Greensboro"},{"latitude":" 30.03635","longitude":"-89.97928","name":" Marshalls","address":" USA-New Orleans"},{"latitude":" 33.83192","longitude":"-118.03045","name":" Marshalls","address":" USA-Cypress"},{"latitude":" 26.21300","longitude":"-80.10672","name":" Marshalls","address":" USA-Pompano Beach"},{"latitude":" 34.29798","longitude":"-83.85664","name":" Marshalls","address":" USA-Gainesville"},{"latitude":" 30.39095","longitude":"-86.42776","name":" Marshalls","address":" USA-Destin"},{"latitude":" 34.22406","longitude":"-119.15224","name":" Marshalls","address":" USA-Oxnard"},{"latitude":" 32.83930","longitude":"-96.99383","name":" Marshalls","address":" USA-Irving"},{"latitude":" 30.30387","longitude":"-89.82594","name":" Marshalls","address":" USA-Slidell"},{"latitude":" 29.48917","longitude":"-98.53510","name":" Marshalls","address":" USA-San Antonio"},{"latitude":" 35.39181","longitude":"-97.54396","name":" Marshalls","address":" USA-Oklahoma City"},{"latitude":" 29.96412","longitude":"-95.54310","name":" Marshalls","address":" USA-Kohrville"},{"latitude":" 35.17162","longitude":"-89.79330","name":" Marshalls","address":" USA-Memphis"},{"latitude":" 25.48059","longitude":"-80.46336","name":" Marshalls","address":" USA-Homestead"},{"latitude":" 35.15440","longitude":"-85.24861","name":" Marshalls","address":" USA-Falling Water"},{"latitude":" 33.91796","longitude":"-117.88658","name":" Marshalls","address":" USA-Brea"},{"latitude":" 33.85641","longitude":"-118.11689","name":" Marshalls","address":" USA-Lakewood"},{"latitude":" 33.65899","longitude":"-84.50337","name":" Marshalls","address":" USA-Atlanta"},{"latitude":" 28.33013","longitude":"-81.47290","name":" Marshalls","address":" USA-Kissimmee"},{"latitude":" 25.92557","longitude":"-80.17591","name":" Marshalls","address":" USA-North Miami"},{"latitude":" 33.70720","longitude":"-116.27950","name":" Marshalls","address":" USA-Indio"},{"latitude":" 27.57048","longitude":"-99.50207","name":" Marshalls","address":" USA-Laredo"},{"latitude":" 33.82292","longitude":"-84.11294","name":" Marshalls","address":" USA-Rockbridge"},{"latitude":" 36.08175","longitude":"-86.72680","name":" Marshalls","address":" USA-Nashville"},{"latitude":" 27.89440","longitude":"-82.78440","name":" Marshalls","address":" USA-Clearwater"},{"latitude":" 35.29407","longitude":"-80.74762","name":" Marshalls","address":" USA-Charlotte"},{"latitude":" 33.69010","longitude":"-117.89367","name":" Marshalls","address":" USA-Santa Ana"},{"latitude":" 34.81982","longitude":"-82.33925","name":" Marshalls","address":" USA-Greenville"},{"latitude":" 29.87346","longitude":"-95.64544","name":" Marshalls","address":" USA-Jersey Village"},{"latitude":" 35.03293","longitude":"-85.16512","name":" Marshalls","address":" USA-Chattanooga"},{"latitude":" 27.99804","longitude":"-81.95725","name":" Marshalls","address":" USA-Lakeland"},{"latitude":" 27.01488","longitude":"-82.14105","name":" Marshalls","address":" USA-Port Charlotte"},{"latitude":" 34.10253","longitude":"-117.29938","name":" Marshalls","address":" USA-San Bernardino"},{"latitude":" 27.90852","longitude":"-82.50591","name":" Marshalls","address":" USA-Tampa"},{"latitude":" 34.24846","longitude":"-77.88158","name":" Marshalls","address":" USA-Wilmington"},{"latitude":" 32.32959","longitude":"-86.23255","name":" Marshalls","address":" USA-Montgomery"},{"latitude":" 32.34978","longitude":"-110.97505","name":" Marshalls","address":" USA-Casas Adobes"},{"latitude":" 37.04750","longitude":"-76.38931","name":" Marshalls","address":" USA-Hampton"},{"latitude":" 32.80055","longitude":"-80.01964","name":" Marshalls","address":" USA-Charleston"},{"latitude":" 33.00986","longitude":"-96.70862","name":" Marshalls","address":" USA-Plano"},{"latitude":" 33.38472","longitude":"-111.96689","name":" Marshalls","address":" USA-Tempe"},{"latitude":" 26.01469","longitude":"-80.24857","name":" Marshalls","address":" USA-Pembroke Pines"},{"latitude":" 29.77955","longitude":"-95.81138","name":" Marshalls","address":" USA-Katy"},{"latitude":" 31.54568","longitude":"-97.06507","name":" Marshalls","address":" USA-Waco"},{"latitude":" 30.44355","longitude":"-90.14296","name":" Marshalls","address":" USA-Covington"},{"latitude":" 33.02179","longitude":"-96.79542","name":" Marshalls","address":" USA-Plano"},{"latitude":" 34.01759","longitude":"-118.10723","name":" Marshalls","address":" USA-Montebello"},{"latitude":" 27.46798","longitude":"-82.56279","name":" Marshalls","address":" USA-Bradenton"},{"latitude":" 33.67718","longitude":"-111.97718","name":" Marshalls","address":" USA-Desert Ridge"},{"latitude":" 35.47161","longitude":"-97.40908","name":" Marshalls","address":" USA-Oklahoma City"},{"latitude":" 33.39026","longitude":"-111.85716","name":" Marshalls","address":" USA-Mesa"},{"latitude":" 32.54557","longitude":"-117.03951","name":" Marshalls","address":" USA-Chula Vista"},{"latitude":" 32.76585","longitude":"-117.15460","name":" Marshalls","address":" USA-San Diego"},{"latitude":" 32.70315","longitude":"-114.60465","name":" Marshalls","address":" USA-Yuma"},{"latitude":" 33.72031","longitude":"-117.98889","name":" Marshalls","address":" USA-Huntington Beach"},{"latitude":" 27.25876","longitude":"-82.52081","name":" Marshalls","address":" USA-Siesta Key"},{"latitude":" 31.55872","longitude":"-110.25717","name":" Marshalls","address":" USA-Sierra Vista"},{"latitude":" 34.19121","longitude":"-118.32838","name":" Marshalls","address":" USA-Burbank"},{"latitude":" 33.82403","longitude":"-117.51909","name":" Marshalls","address":" USA-Corona"},{"latitude":" 32.52685","longitude":"-94.35373","name":" Marshalls","address":" USA-Marshall"},{"latitude":" 25.95901","longitude":"-97.50568","name":" Marshalls","address":" USA-Brownsville"},{"latitude":" 34.23371","longitude":"-118.55341","name":" Marshalls","address":" USA-Deer Lake Highlands"},{"latitude":" 33.49848","longitude":"-117.66048","name":" Marshalls","address":" USA-San Juan Capistrano"},{"latitude":" 35.43540","longitude":"-97.39602","name":" Marshalls","address":" USA-Midwest City"},{"latitude":" 33.98324","longitude":"-118.39122","name":" Marshalls","address":" USA-Ladera Heights"},{"latitude":" 35.74261","longitude":"-77.96274","name":" Marshalls","address":" USA-Wilson"},{"latitude":" 29.73766","longitude":"-95.62384","name":" Marshalls","address":" USA-Clodine"},{"latitude":" 35.66867","longitude":"-88.84921","name":" Marshalls","address":" USA-Jackson"},{"latitude":" 36.00453","longitude":"-84.02054","name":" Marshalls","address":" USA-Knoxville"},{"latitude":" 26.48413","longitude":"-81.78941","name":" Marshalls","address":" USA-San Carlos Park"},{"latitude":" 33.74722","longitude":"-117.00173","name":" Marshalls","address":" USA-Hemet"},{"latitude":" 35.05472","longitude":"-78.97255","name":" Marshalls","address":" USA-Fayetteville"},{"latitude":" 32.16306","longitude":"-110.99021","name":" Marshalls","address":" USA-Tucson"},{"latitude":" 26.27211","longitude":"-81.80020","name":" Marshalls","address":" USA-North Naples"},{"latitude":" 32.90992","longitude":"-96.87102","name":" Marshalls","address":" USA-Dallas"},{"latitude":" 33.97008","longitude":"-84.48872","name":" Marshalls","address":" USA-Marietta"},{"latitude":" 28.49574","longitude":"-81.42895","name":" Marshalls","address":" USA-Orlando"},{"latitude":" 34.96256","longitude":"-89.99228","name":" Marshalls","address":" USA-Southaven"},{"latitude":" 29.64953","longitude":"-95.15814","name":" Marshalls","address":" USA-Pasadena"},{"latitude":" 26.17337","longitude":"-97.70137","name":" Marshalls","address":" USA-Harlingen"},{"latitude":" 26.18793","longitude":"-98.21418","name":" Marshalls","address":" USA-Pharr"},{"latitude":" 34.13101","longitude":"-118.06787","name":" Marshalls","address":" USA-Pasadena"},{"latitude":" 35.73460","longitude":"-81.72960","name":" Marshalls","address":" USA-Morganton"},{"latitude":" 25.96524","longitude":"-80.14618","name":" Marshalls","address":" USA-Aventura"},{"latitude":" 25.68783","longitude":"-80.38684","name":" Marshalls","address":" USA-Kendale Lakes"},{"latitude":" 33.69366","longitude":"-84.09391","name":" Marshalls","address":" USA-Lithonia"},{"latitude":" 26.11001","longitude":"-80.25051","name":" Marshalls","address":" USA-Plantation"},{"latitude":" 34.15602","longitude":"-118.48026","name":" Marshalls","address":" USA-Los Angeles"},{"latitude":" 32.81615","longitude":"-79.84611","name":" Marshalls","address":" USA-Mt Pleasant"},{"latitude":" 29.55981","longitude":"-98.58928","name":" Marshalls","address":" USA-San Antonio"},{"latitude":" 25.99325","longitude":"-80.20682","name":" Marshalls","address":" USA-Hollywood"},{"latitude":" 31.26473","longitude":"-92.45265","name":" Marshalls","address":" USA-Alexandria"},{"latitude":" 32.81982","longitude":"-117.18190","name":" Marshalls","address":" USA-San Diego"},{"latitude":" 26.16824","longitude":"-80.11738","name":" Marshalls","address":" USA-Fort Lauderdale"},{"latitude":" 33.85786","longitude":"-117.92407","name":" Marshalls","address":" USA-Anaheim"},{"latitude":" 29.60789","longitude":"-98.46551","name":" Marshalls","address":" USA-SanAntonio"},{"latitude":" 35.70252","longitude":"-81.30871","name":" Marshalls","address":" USA-Hickory"},{"latitude":" 27.24271","longitude":"-80.27099","name":" Marshalls","address":" USA-Port St Lucie"},{"latitude":" 30.43930","longitude":"-84.25410","name":" Marshalls","address":" USA-Tallahassee"},{"latitude":" 34.10677","longitude":"-117.65379","name":" Marshalls","address":" USA-Ontario"},{"latitude":" 32.86567","longitude":"-117.23348","name":" Marshalls","address":" USA-Torrey Pines"},{"latitude":" 34.07572","longitude":"-117.55648","name":" Marshalls","address":" USA-Rancho Cucamonga"},{"latitude":" 26.04324","longitude":"-80.16135","name":" Marshalls","address":" USA-Dania Beach"},{"latitude":" 35.83366","longitude":"-78.58368","name":" Marshalls","address":" USA-Raleigh"},{"latitude":" 32.98032","longitude":"-117.07862","name":" Marshalls","address":" USA-Poway"},{"latitude":" 30.67576","longitude":"-88.13659","name":" Marshalls","address":" USA-Mobile"},{"latitude":" 25.78289","longitude":"-80.37585","name":" Marshalls","address":" USA-Doral"},{"latitude":" 33.72698","longitude":"-84.73629","name":" Marshalls","address":" USA-Douglasville"},{"latitude":" 30.01176","longitude":"-95.26427","name":" Marshalls","address":" USA-Humble"},{"latitude":" 29.74092","longitude":"-95.46115","name":" Marshalls","address":" USA-Houston"},{"latitude":" 29.68996","longitude":"-95.53418","name":" Marshalls","address":" USA-Houston"},{"latitude":" 34.11209","longitude":"-117.76070","name":" Marshalls","address":" USA-La Verne"},{"latitude":" 28.55338","longitude":"-80.84180","name":" Marshalls","address":" USA-Titusville"},{"latitude":" 35.07276","longitude":"-89.90915","name":" Marshalls","address":" USA-Oakville"},{"latitude":" 35.91077","longitude":"-84.09235","name":" Marshalls","address":" USA-Woodland Acres"},{"latitude":" 35.06752","longitude":"-89.75831","name":" Marshalls","address":" USA-Germantown"},{"latitude":" 33.46456","longitude":"-84.21930","name":" Marshalls","address":" USA-Flippen"},{"latitude":" 28.80027","longitude":"-81.33467","name":" Marshalls","address":" USA-Lake Mary"},{"latitude":" 35.95104","longitude":"-86.81809","name":" Marshalls","address":" USA-Franklin"}]