[{"latitude":"39.968319","longitude":"-86.156797","name":"Max & Erma's - Carmel","address":"12195 North Meridian Street, Carmel, IN 46032, United States"},{"latitude":"39.312515","longitude":"-85.963292","name":"Max & Erma's - Edinburgh","address":"12105 North Executive Dr., Edinburgh, IN 46124"},{"latitude":"37.972738","longitude":"-87.579946","name":"Max & Erma's - Evansville","address":"421 Northwest Riverside Dr., Evansville, IN 47708"},{"latitude":"42.627650","longitude":"-82.948966","name":"Max & Erma's - Clinton Township • Partridge Creek","address":"17330 Hall Road, Clinton Township, MI 48038, United States"},{"latitude":"42.221546","longitude":"-83.348584","name":"Max & Erma's - Detroit Metro Airport","address":"Detroit Metro Airport, Detroit, MI 48242"},{"latitude":"38.781644","longitude":"-90.788745","name":"Max & Erma's - Lake St. Louis","address":"10 Meadows Circle Drive, Lake St. Louis, MO 63367"},{"latitude":"38.797934","longitude":"-90.614864","name":"Max & Erma's - St. Peters","address":"2024 Mid Rivers Mall, St Peters, MO 63376, United States"},{"latitude":"33.399661","longitude":"-91.037703","name":"Max & Erma's - Greenville","address":"Trop Casino Greenville, Greenville, MS 38701"},{"latitude":"39.345863","longitude":"-82.973201","name":"Max & Erma's - Chillicothe","address":"10 River Trace Drive, Chillicothe, OH 45601"},{"latitude":"39.998058","longitude":"-82.883811","name":"Max & Erma's - Columbus Airport","address":"4600 International Gateway, Columbus, OH 43219"},{"latitude":"39.968665","longitude":"-83.000301","name":"Max & Erma's - Columbus • On The Boulevard","address":"55 E Nationwide Blvd, Columbus, OH 43215, United States"},{"latitude":"39.947228","longitude":"-82.995277","name":"Max & Erma's - Columbus • German Village","address":"739 South 3rd Street, Columbus, OH 43206, United States"},{"latitude":"39.847560","longitude":"-84.190618","name":"Max & Erma's - Dayton • Miller Lane","address":"6930 Miller Lane, Dayton, OH 45414, United States"},{"latitude":"40.094853","longitude":"-83.126428","name":"Max & Erma's - Dublin • Metro Place","address":"411 Metro Place North, Dublin, OH 43017, United States"},{"latitude":"40.118985","longitude":"-83.089712","name":"Max & Erma's - Dublin • Sawmill","address":"7480 Sawmill Rd, Dublin, OH 43016, United States"},{"latitude":"39.389612","longitude":"-84.501324","name":"Max & Erma's - Fairfield Township • Bridgewater Falls","address":"3411 Princeton Road, Hamilton, Fairfield Township, OH 45011, United States"},{"latitude":"41.058010","longitude":"-83.670916","name":"Max & Erma's - Findlay","address":"1107 West Trenton Avenue, Findlay, OH 45840, United States"},{"latitude":"40.054079","longitude":"-82.864474","name":"Max & Erma's - Gahanna","address":"1317 North Hamilton Rd, Gahanna, OH 43230"},{"latitude":"40.032074","longitude":"-83.130494","name":"Max & Erma's - Hilliard","address":"4279 Cemetery Rd, Hilliard, OH 43026, United States"},{"latitude":"39.742243","longitude":"-82.642313","name":"Max & Erma's - Lancaster","address":"2703 North Memorial Drive, Lancaster, OH 43130, United States"},{"latitude":"41.580315","longitude":"-83.686447","name":"Max & Erma's - Maumee","address":"1391 Arrowhead Dr., Maumee, OH 43537"},{"latitude":"41.660283","longitude":"-81.358582","name":"Max & Erma's - Mentor","address":"7890 Mentor Ave, Mentor, OH 44060, United States"},{"latitude":"41.374167","longitude":"-81.824079","name":"Max & Erma's - Middleburg Heights","address":"7085 Engle Rd, Middleburg Heights, OH 44130, United States"},{"latitude":"41.526959","longitude":"-83.637648","name":"Max & Erma's - Perrysburg","address":"1210 Levis Commons Blvd, Perrysburg, OH 43551, United States"},{"latitude":"39.915180","longitude":"-82.781049","name":"Max & Erma's - Pickerington","address":"1281 Hill Road North, Pickerington, OH 43147, United States"},{"latitude":"39.986401","longitude":"-82.787378","name":"Max & Erma's - Reynoldsburg • East Broad","address":"8050 East Broad St., Reynoldsburg, OH 43068"},{"latitude":"39.902524","longitude":"-84.221772","name":"Max & Erma's - Vandalia • Dayton Airport","address":"Dayton International Airport, Vandalia, OH 45377"},{"latitude":"40.146418","longitude":"-82.923601","name":"Max & Erma's - Westerville","address":"790 N. State Street, Westerville, OH 43081"},{"latitude":"39.523282","longitude":"-83.843934","name":"Max & Erma's - Wilmington","address":"123 Gano Rd, Wilmington, OH 45177, United States"},{"latitude":"42.065991","longitude":"-80.103867","name":"Max & Erma's - Erie","address":"2078 Interchange Rd, Erie, PA 16509, United States"},{"latitude":"40.672545","longitude":"-80.097402","name":"Max & Erma's - Mars • Cranberry","address":"936 Sheraton Dr., Mars, PA 16046"},{"latitude":"40.265189","longitude":"-80.129077","name":"Max & Erma's - McMurray • Peters Township","address":"4093 Washington Rd, McMurray, PA 15317, United States"},{"latitude":"40.436796","longitude":"-79.757371","name":"Max & Erma's - Monroeville","address":"2740 Mosside Blvd, Monroeville, PA 15146, United States"},{"latitude":"40.451744","longitude":"-80.175819","name":"Max & Erma's - Pittsburgh • Parkway West","address":"130 Andrew Drive, Pittsburgh, PA 15275-1200"},{"latitude":"40.188665","longitude":"-80.218735","name":"Max & Erma's - Washington","address":"373 Washington Road, Washington, PA 15301, United States"},{"latitude":"45.473189","longitude":"-98.502410","name":"Max & Erma's - Aberdeen","address":"715 N 10th St, Aberdeen, SD 57401, United States"},{"latitude":"36.875844","longitude":"-76.209388","name":"Max & Erma's - Norfolk","address":"1500 N Military Hwy, Norfolk, VA 23502, United States"},{"latitude":"36.844981","longitude":"-75.992120","name":"Max & Erma's - Virginia Beach • Doubletree Hotel","address":"1900 Pavilion Drive, Virginia Beach, VA 23451, United States"},{"latitude":"38.423048","longitude":"-82.443637","name":"Max & Erma's - Huntington","address":"16 Pullman Square, Huntington, WV 25701"},{"latitude":"39.053275","longitude":"-84.663017","name":"Max & Erma's - Hebron • Cincinnati Airport","address":"Northern Kentucky International Airport, 2939 Terminal Dr, Hebron, KY 41048"}]