[{"latitude":"33.388081","longitude":"-86.99504","name":"Water Mark Place","address":"4665 Visionland Parkway, Space 670, Bessemer AL  35020 (205) 424-4582"},{"latitude":"34.198196","longitude":"-86.156786","name":"Tanger Outlet Center","address":"214 South McClesky, Suite 847,  Boaz AL   US 35957 (256) 593-2072"},{"latitude":"30.379362","longitude":"-87.68294","name":"Riviera Centre Factory Stores","address":"2601 South McKenzie Street, Suite A-1, Foley, AL 36535 (251) 943-4951"},{"latitude":"32.83554","longitude":"-111.68936","name":"Tanger Outlet Center","address":"300 East Tanger Drive, Building A, Suite 118, Casa Grande, AZ 85222 (520) 421-1232"},{"latitude":"33.871337","longitude":"-112.151559","name":"Outlets at Anthem","address":"4250 West Anthem Way, Suite 645, Phoenix AZ 85086 (623) 465-9591"},{"latitude":"33.384741","longitude":"-111.966865","name":"Arizona Mills","address":"5000 Arizona Mills Circle, Suite 314, Tempe AZ 85282 (480) 456-2083"},{"latitude":"32.840837","longitude":"-116.706859","name":"Viejas Outlet Center","address":"5001 Willows Road, Suite 111, Alpine CA 91901 (619) 659-5055"},{"latitude":"33.927539","longitude":"-116.814552","name":"Desert Hills Premium Outlets","address":"48650 Seminole Road, Suite E-184, Cabazon CA 92230 (909) 849-3883"},{"latitude":"34.217873","longitude":"-119.060576","name":"Camarillo Factory Outlet Center","address":"740 Ventura Boulevard, Suite 436, Camarillo, CA   US 93010 (805) 445-1116"},{"latitude":"33.126991","longitude":"-117.322983","name":"Carlsbad Company Store","address":"5600 Paseo Del Norte, Suite 107, Carlsbad, CA 92008 (760) 804-1637"},{"latitude":"34.004992","longitude":"-118.152976","name":"Citadel Outlets","address":"100 Citadel Drive, Suite 422, Commerce, CA 90040 (323) 727-6780"},{"latitude":"38.644324","longitude":"-121.190652","name":"Folsom Premium Outlets","address":"13000 Folsom Boulevard, Suite 1530, Folsom CA 95630 (916) 985-4406"},{"latitude":"37.023103","longitude":"-121.562615","name":"Gilroy Premium Outlets","address":"8300 Arroyo Circle, Suite A400, Gilroy, CA 95020 (408) 842-3280"},{"latitude":"33.701711","longitude":"-117.354266","name":"Lake Elsinore Outlet Center","address":"17600 Collier Avenue, Suite #H-185, Lake Elsinore, CA 92530 (951) 245-9900"},{"latitude":"37.412386","longitude":"-121.896753","name":"Great Mall of the Bay Area","address":"292 Great Mall Drive, Milpitas, CA 95035 (408) 719-8957"},{"latitude":"34.072037","longitude":"-117.556233","name":"Ontario Mills","address":"1 Mills Circle, Space 708, Ontario, CA 91764 (909) 987-5966"},{"latitude":"38.255394","longitude":"-122.651499","name":"Petaluma Village Premium Outlets","address":"2200 N. Petaluma Boulevard, Suite 700, Petaluma, CA 94952 (707) 766-8113"},{"latitude":"35.136708","longitude":"-120.629006","name":"Prime Outlets at Pismo Beach","address":"333 Five Cities Drive, Suite 130, Pismo Beach CA 93449 (805) 773-6064"},{"latitude":"32.545537","longitude":"-117.039485","name":"San Diego Factory Outlet Center","address":"4460 Camino De La Plaza, San Ysidro, CA 92173 (619) 690-2255"},{"latitude":"37.7615","longitude":"-121.414341","name":"Prime Outlets of Tracy","address":"1005 Pescadero Avenue, Suite 157, Tracy, CA 95304 (209) 833-7460"},{"latitude":"36.2021","longitude":"-119.347","name":"Preferred Outlets at Tulare","address":"1517 Horizon Drive, Space C-30, Tulare, CA 93274 (559) 687-0987"},{"latitude":"38.348","longitude":"-121.9538","name":"Factory Stores at Vacaville","address":"101-A Nut Tree Road, Vacaville CA 95687 (707) 446-9275"},{"latitude":"39.413831","longitude":"-104.874976","name":"The Outlets at Castle Rock","address":"5050 Factory Shops Boulevard, Store #900, Castle Rock, CO 80104 (303) 660-3378"},{"latitude":"40.411136","longitude":"-104.994437","name":"The Outlets at Loveland","address":"5753 McWhinney Boulevard, Suite A-360, Loveland, CO 80538 (970) 635-9963"},{"latitude":"39.7277","longitude":"-106.1576","name":"Outlets at Silverthorne","address":"309 L Rainbow Drive, P.O. Box 2600, Silverthorne, CO 80498 (970) 468-4804"},{"latitude":"41.289998","longitude":"-72.441987","name":"Westbrook Factory Stores","address":"314 Flat Rock Place, Suite C100, Westbrook, CT 06498 (860) 399-0215"},{"latitude":"41.248002","longitude":"-73.024955","name":"Milford Marketplace","address":"1672 Boston Post Road, Milford, CT 06460 (203) 783-9014 "},{"latitude":"38.7192","longitude":"-75.11566","name":"Rehoboth Outlets","address":"36470 Seaside Outlet Drive, Suite 1640, Rehoboth Beach, DE 19971 (302) 227-4787"},{"latitude":"30.377991","longitude":"-86.350869","name":"Silver Sands Factory Stores","address":"10676 West Emerald Coast Pkwy., #130, Destin, FL 32550 (850) 654-8860"},{"latitude":"27.534","longitude":"-82.5032","name":"Prim Outlets at Ellenton","address":"5455 Factory Shops Boulevard, Ellenton, FL US 34222 (941) 723-1511"},{"latitude":"26.435376","longitude":"-81.772208","name":"Miromar Outlets","address":"10801 Corkscrew Road, Suite 101, Estero, FL 33928 (239) 992-6131"},{"latitude":"25.448136","longitude":"-80.47275","name":"Prime Outlets at Florida City","address":"250 East Palm Drive, Suite 200, Florida City, FL 33034 (305) 248-7100"},{"latitude":"26.493837","longitude":"-81.971604","name":"Tanger Factory Outlet - Sanibel","address":"20350 Summerlin Road, Suite 2130, Fort Myers, FL 33908 (239) 432-9589"},{"latitude":"25.7829","longitude":"-80.376825","name":"Dolphin Mall","address":"11401 NW 12th Street, Space #436, Miami, FL 33172 (786) 336-8738"},{"latitude":"28.474299","longitude":"-81.449528","name":"Prime Outlets at Orlando","address":"4967 International Drive, 3A.25, Orlando, FL 32819 (407) 352-6414 "},{"latitude":"28.385939","longitude":"-81.495953","name":"Orlando Premium Outlets","address":"8200 Vineland Avenue, Suite 820, Orlando, FL 32821 (407) 239-4666"},{"latitude":"28.347949","longitude":"-81.488139","name":"Lake Buena Vista Factory Outlets","address":"15795 S. Apopka Vineland Road, Orlando, FL 32821 (407) 239-6252"},{"latitude":"29.957","longitude":"-81.5147","name":"St Augustine Premium Outlets","address":"2700 SR16, Suite 505, St. Augustine, FL 32092 (904) 829-8923"},{"latitude":"26.144737","longitude":"-80.322152","name":"Sawgrass Mills","address":"12801 West Sunrise Boulevard, Suite 875, Sunrise, FL 33323 (954) 846-7953"},{"latitude":"27.635557","longitude":"-80.5205","name":"Prime Outlets at Vero Beach","address":"1665 94th Drive, Vero Beach, FL 32966 (772) 794-2280"},{"latitude":"34.458651","longitude":"-84.916406","name":"Prime Outlets Calhoun","address":"455 Belwood Road, Suite 47, Calhoun, GA 30701 706-624-3608"},{"latitude":"32.546808","longitude":"-84.94249","name":"Columbus Park Crossing","address":"5555 Whittlesey Boulevard, Suite 2001, Columbus, GA 31909 (706) 494-8909"},{"latitude":"34.257472","longitude":"-83.465884","name":"Tanger Outlet Center-Commerce","address":"800 Steven B. Tanger Blvd, Suite 505, Commerce, GA 30529 (706) 336-8474"},{"latitude":"34.758987","longitude":"-84.999557","name":"Market Street Shops of Dalton","address":"1001 Market Street, Suite 1, Dalton, GA 30720 706-226-2717"},{"latitude":"34.359031","longitude":"-84.04373","name":"North Georgia Premium Outlets","address":"800 Hwy. 400 South, Suite 100, Dawsonville, GA 30534 (706) 216-2294"},{"latitude":"33.984978","longitude":"-84.078715","name":"Discover Mills","address":"5900 Sugarloaf Parkway, Space 578, Lawrenceville, GA 30043 (678) 847-5450"},{"latitude":"33.351838","longitude":"-84.121462","name":"Tanger Outlet Center-Locust Grove","address":"1000 Tanger Drive, Suite 314, Locust Grove, GA 30248 (770) 914-7423"},{"latitude":"32.0009","longitude":"-81.28346","name":"Savannah Festival Factory Stores","address":"11 Gateway Boulevard South, Suite 50, Savannah, GA 31419 (912) 927-1801"},{"latitude":"21.400878","longitude":"-158.008243","name":"Waikele Premium Outlets","address":"94-792 Lumiaina Street, Suite 210, Waipahu, HI 96797 (808) 678-2773"},{"latitude":"41.6765","longitude":"-92.0076","name":"Tanger Outlet Center-Williamsburg","address":"130 Tanger Drive, Suite 130, Williamsburg, IA 52361 (319) 668-8092"},{"latitude":"43.541054","longitude":"-116.164515","name":"Boise Factory Outlets","address":"6890 Eisenman Road, Boise, ID 83716 208-336-9888"},{"latitude":"41.799923","longitude":"-88.276981","name":"Chicago Premium Outlets","address":"1650 Premium Outlets Blvd, Suite 115, Aurora, IL 60504 630-236-0000"},{"latitude":"42.383596","longitude":"-87.955671","name":"Gurnee Mills","address":"6170 W. Grand Avenue, Space 573, Gurnee, IL 60031 (847) 856-8172"},{"latitude":"42.0668","longitude":"-88.1928","name":"Poplar Creek Crossing","address":"2660 North Sutton Road, Hoffman Estates, IL 60192 (847) 645-0593"},{"latitude":"42.122932","longitude":"-88.426697","name":"Huntley Factory Shops","address":"11800 Factory Shops Blvd., Space 570, Huntley, IL 60142 847-669-8091"},{"latitude":"39.7964","longitude":"-88.2876","name":"Tanger Outlet Center-Tuscola","address":"D1300 Tuscola Boulevard, P.O. Box 4056, Tuscola, IL 61953 (217) 253-3349"},{"latitude":"39.3338","longitude":"-85.9623","name":"Edinburgh Premium Outlets","address":"3080 Outlet Drive, Suite F90, Edinburgh, IN 46124 (812) 526-9505"},{"latitude":"41.733639","longitude":"-85.002384","name":"Prime Outlets at Fremont","address":"6245 North Old 27, Suite B-60, Fremont, IN 46737 (260) 833-3627"},{"latitude":"41.7123","longitude":"-86.9053","name":"Lighthouse Place Premium Outlets","address":"1710 Lighthouse Place, Michigan City, IN 46360 (219) 878-0942"},{"latitude":"39.086","longitude":"-94.7905","name":"The Legends at Village West","address":"1813 Village West Parkway, #Q118, Kansas City, KS 66111 913-299-9047"},{"latitude":"32.5209","longitude":"-93.7357","name":"Louisiana Boardwalk","address":"435 Boardwalk Blvd, Bldg K, Bossier City, LA 71111 (318) 549-9287"},{"latitude":"30.214843","longitude":"-90.951449","name":"Tanger Outlet Gonzales","address":"2400 Tanger Boulevard, Suite 151, Gonzales, LA 70737 (225) 647-2926"},{"latitude":"42.297125","longitude":"-73.234515","name":"Prime Outlets at Lee","address":"50 Water Street, Space E220, Lee, MA 01238 (413) 243-4761"},{"latitude":"41.77","longitude":"-70.5288","name":"Cape Cod Outlet Mall","address":"1 Factory Outlet Road, Suite 106, P.O. Box 447, Sagamore, MA 02561 (508) 833-2242"},{"latitude":"42.036104","longitude":"-71.347222","name":"Wrentham Village Premium Outlets","address":"1 Premium Outlets Boulevard, Suite 520, Wrentham, MA 02093 (508) 384-0271"},{"latitude":"39.608101","longitude":"-77.732302","name":"Prime Outlets at Hagerstown","address":"225 Prime Outlets Boulevard, Hagerstown, MD 21740 (301) 766-7008"},{"latitude":"39.162263","longitude":"-76.72562","name":"Arundell Mills","address":"7000 Arundel Mills Circle, Space 250, Hanover, MD 21076 (443) 755-1701"},{"latitude":"38.336986","longitude":"-75.107577","name":"Ocean City Factory Outlets","address":"12741 Ocean Gateway, Suite 940, Ocean City, MD 21842 (410) 213-7655"},{"latitude":"39.588443","longitude":"-76.068229","name":"Perryville Outlet Center","address":"68 Heather Lane, Suite 31, Perryville, MD 21903 (410) 642-9274"},{"latitude":"43.844955","longitude":"-70.116488","name":"Freeport Crossing","address":"200 Lower Main Street, Freeport, ME 04032 (207) 865-4881"},{"latitude":"43.0982","longitude":"-70.7405","name":"Tanger Outlet Center -Kittery","address":"283 U.S. Route 1, Suite 12, Kittery, ME 03904 (207) 439-9279"},{"latitude":"42.700923","longitude":"-83.304612","name":"Great Lakes Crossing","address":"4198 Baldwin Road, Space 318, Auburn Hills, MI 48326 (248) 454-7934"},{"latitude":"43.246215","longitude":"-83.774845","name":"Prime Outlets at Birch Run","address":"12150 S. Beyer Road, Space F-200, Birch Run, MI 48415 (989) 624-4600"},{"latitude":"42.621457","longitude":"-83.993677","name":"Kensington Valley Factory Shops","address":"1475 N. Burkhart, Suite C160, Howell, MI 48855 (517) 552-1744"},{"latitude":"45.2367","longitude":"-93.6591","name":"Albertville Premium Outlets","address":"6415 Labeaux Avenue, NE, Site B280, Albertville, MN 55301 (763) 497-6037"},{"latitude":"44.170012","longitude":"-93.259609","name":"Preferred Outlets at Medford","address":"6750 West Frontage Road, Suite 339, Medford, MN 55049 (507) 446-0560"},{"latitude":"45.507505","longitude":"-92.994193","name":"Tanger Outlet Center-North Branch","address":"38500 Tanger Drive, Suite 110, North Branch, MN 55056 (651) 674-8378"},{"latitude":"36.643537","longitude":"-93.264228","name":"Tanger Outlet Center-Branson","address":"300 Tanger Boulevard, Suite 307B, Branson, MO 65616 (417) 334-7213"},{"latitude":"38.146652","longitude":"-92.622515","name":"Osage Beach Premium Outlets","address":"4540 Hwy 54, Suite E-1, Osage Beach, MO 65065 (573) 348-4270"},{"latitude":"30.427462","longitude":"-89.098384","name":"Prime Outlets at Gulfport","address":"10605 Factory Shops Boulevard, Gulfport, MS 39503 (228) 868-0301"},{"latitude":"34.840572","longitude":"-90.298634","name":"Casino Factory Shops","address":"13118 U.S. Highway 61 North, Suite 210A, Robinsonville, MS 38664 (662) 357-9070"},{"latitude":"32.340293","longitude":"-90.842208","name":"Vicksburg Factory Outlets","address":"4000 South Frontage Road, Suite 123, Vicksburg, MS 39180 (601) 661-0037"},{"latitude":"41.098012","longitude":"-96.253117","name":"Nebraska Crossings Factory Stores","address":"14333 South Hwy 31, Suite F-100, Gretna, NE 68028 (402) 332-5559"},{"latitude":"36.164347","longitude":"-115.156427","name":"Las Vegas Premium Outlets","address":"805 S. Grand Central Parkway, Suite 1973, Las Vegas, NV 89106 (702) 221-1400"},{"latitude":"36.055095","longitude":"-115.172177","name":"Las Vegas Outlet Center","address":"7400 South Las Vegas Boulevard, Suite #75, Las Vegas, NV 89123 (702) 897-1727"},{"latitude":"35.162485","longitude":"-114.574599","name":"Preferred Outlets at Laughlin","address":"1955 S. Casino Drive, Suite 253, Laughlin, NV 89029 (702) 298-3684"},{"latitude":"39.5315411","longitude":"-119.7200828","name":"The Legends at Sparks Marina","address":"1350 Scheels Drive, Sparks, NV 89434 (775) 358-5851"},{"latitude":"44.0345","longitude":"-71.1262","name":"Settlers' Green Outlet Village","address":"Route 16, Space I-30, North Conway, NH 03860 (603) 356-8937"},{"latitude":"43.459082","longitude":"-71.558693","name":"Tanger Outlet Center-Tilton","address":"120 Laconia Road, Suite 311, Tilton, NH 03276 (603) 286-9488"},{"latitude":"39.35938","longitude":"-74.435982","name":"The Walk","address":"18 N. Michigan Avenue, Atlantic City, NJ 08401 (609) 344-6940"},{"latitude":"40.6626381","longitude":"-74.1746783","name":"Jersey Gardens","address":"651 Kapkowski Road, Space #1128, Elizabeth, NJ 07201 (908) 532-4847"},{"latitude":"40.495591","longitude":"-74.857775","name":"Liberty Village Premium Outlets","address":"72 Liberty Village, Flemington, NJ 08822 (908) 782-7474"},{"latitude":"40.162893","longitude":"-74.419945","name":"Jackson Premium Outlets","address":"537 Monmouth Road, Space 101, Jackson, NJ 08527 (732) 833-0242"},{"latitude":"40.132557","longitude":"-74.06667","name":"Circle Factory Outlet Center","address":"1407 West Atlantic Avenue, Manasquan, NJ 08736 (732) 223-8122"},{"latitude":"40.91506","longitude":"-74.056064","name":"Bergen Town Center","address":"2701 Bergen Town Center, Suite 25, Paramus, NJ 07652 (201) 843-0593"},{"latitude":"40.640394","longitude":"-74.417518","name":"Watchung Square Mall","address":"1515 US Highway 22, Suite 41, Watchung, NJ 07069 908-757-2869"},{"latitude":"40.791035","longitude":"-72.948808","name":"The Outlets at Bellport","address":"10 Farber Drive, Suite 12\/13, Bellport, NY 11713 (631) 286-0549"},{"latitude":"41.314196","longitude":"-74.126686","name":"Woodbury Commons Premium Outlets","address":"601 Bluebird Court, Central Valley, NY 10917 (845) 928-4449"},{"latitude":"40.7622141","longitude":"-73.317812","name":"Deer Park","address":"762 The Archers Circle, Deer Park, NY 11729 (631) 254-0507"},{"latitude":"43.425","longitude":"-73.7017","name":"French Mountain Commons Outlet Center","address":"Route 9, Box 3095-8, Lake George, NY 12845 (518) 745-7910"},{"latitude":"43.098332","longitude":"-78.976263","name":"Fashion Outlets at Niagara Falls USA","address":"1960 Military Road, Niagara Falls, NY 14304-1737 (716) 297-0277"},{"latitude":"40.91885","longitude":"-72.7151","name":"Tanger Outlet Center-Riverhead","address":"211 Tanger Drive, Riverhead, NY 11901 (631) 727-7657"},{"latitude":"42.91","longitude":"-76.8757","name":"Waterloo Premium Outlets","address":"655 Route 318, Store 10, Waterloo, NY 13165 (315) 539-4900"},{"latitude":"40.746434","longitude":"-73.595755","name":"The Mall At The Source","address":"1504 Old Country Rd. Space F12, Westbury, NY 11590 (516) 794-1579"},{"latitude":"36.142171","longitude":"-81.671844","name":"Tanger Outlet Center","address":"310 Shoppes on the Pkwy Rd #28, Blowing Rock, NC 28605 828-295-7471"},{"latitude":"35.371366","longitude":"-80.718688","name":"Concord Mills","address":"8111 Concord Mills Boulevard, Space 654, Concord, NC 28027 (704) 979-6631"},{"latitude":"36.0863299","longitude":"-79.8278424","name":"Friendly Center","address":"3002 Northline Avenue, Greensboro, NC 27048 (336) 292-0613"},{"latitude":"35.510547","longitude":"-78.309291","name":"Carolina Premium Outlets","address":"1205 Industrial Park Drive, Space 1090, Smithfield, NC 27577 (919) 938-1199"},{"latitude":"41.306963","longitude":"-81.345416","name":"Aurora Farms Premium Outlets","address":"549 South Chillicothe Road, Aurora, OH 44202 (330) 562-8018"},{"latitude":"41.002549","longitude":"-81.996069","name":"Prime Outlets at Lodi","address":"9911 Avon Lake Road, Suite 210, Burbank, OH 44214 (330) 948-9515"},{"latitude":"39.620631","longitude":"-83.600828","name":"Prime Outlets at Jeffersonville","address":"8640 Factory Shops Blvd, Jeffersonville OH 43128 (740) 948-2100"},{"latitude":"39.4486879","longitude":"-84.3699767","name":"Cincinnati Premium Outlets","address":"113 Premium Outlet Drive, Monroe, OH 45050 (513) 539-3401"},{"latitude":"44.959234","longitude":"-124.012341","name":"Tanger Outlet Center-Lincoln City","address":"1500 SE Devils Lake Road, Suite 217, Lincoln City, OR 97367 (541) 996-5081"},{"latitude":"46.001023","longitude":"-123.917129","name":"Seaside Factory Outlet Center","address":"1111 N. Roosevelt Drive, Suite 344, Seaside, OR 97138 (503) 717-8343"},{"latitude":"45.542963","longitude":"-122.389601","name":"Columbia Gorge Premium Outlets","address":"450 NW 257th Avenue, Suite 416, Troutdale, OR 97060 (503) 491-0148"},{"latitude":"45.154408","longitude":"-122.878201","name":"Woodburn Company Stores","address":"1001 Arney Road, Suite 304, Woodburn, OR 97071 (503) 982-5779"},{"latitude":"39.795836","longitude":"-77.199672","name":"Gettysburg Village Factory Stores","address":"1863 Gettysburg Village Drive, Suite 540, Gettysburg, PA 17325 (717) 338-1923"},{"latitude":"40.235345","longitude":"-75.574372","name":"Philadelphia Premium Outlets","address":"18 Lightcap Road, Suite #1165, Pottstown, PA 19464 (610) 237-1354"},{"latitude":"40.294171","longitude":"-76.647239","name":"The Outlets at Hershey","address":"75 Outlet Square, Space A-2, Hershey, PA 17033 (717) 520-0553"},{"latitude":"40.3474","longitude":"-75.0322","name":"Penn's Purchase Factory Outlet Stores","address":"5861 York Road, Building H, Shop 1, Lahaska, PA 18931 (215) 794-7801"},{"latitude":"40.0237","longitude":"-76.2228","name":"Tanger Outlet Center-Lancaster","address":"221 Outlet Drive, Lancaster, PA 17602-1467 (717) 293-8620"},{"latitude":"41.143295","longitude":"-80.158231","name":"Prime Outlets at Grove City","address":"Intersection I-79, Route 208, Suite 640, Grove City PA 16127 (724) 748-4552"},{"latitude":"40.08988","longitude":"-74.95882","name":"Franklin Mills","address":"1442 Franklin Mills Circle, Philadelphia, PA 19154 (215) 281-0898"},{"latitude":"41.047774","longitude":"-75.310939","name":"The Crossings Premium Outlets","address":"1000 Route 611, Suite D5, Tannersville, PA 18372 (570) 620-2042"},{"latitude":"40.2160508","longitude":"-80.2110379","name":"Oshkosh B'Gosh","address":"2200 Tanger Blvd. Suite #222, Washington, PA 15301 "},{"latitude":"40.337218","longitude":"-75.953838","name":"VF Outlet Village","address":"801 Hill Avenue, Box A-4, Wyomissing, PA 19610 (610) 478-8371"},{"latitude":"18.4520562","longitude":"-66.5581092","name":"Prime Outlets Puerto Rico","address":"One Prime Outlets Boulevard, Suite 720, Barceloneta, PR 00617 (787) 846-3365"},{"latitude":"18.377991","longitude":"-65.905487","name":"Belz Factory Outlet World","address":"KM. 18.4, State Road #3, Suite #235, Barrio Pueblo, Canovanas, PR 729 (787) 256-1134"},{"latitude":"32.240865","longitude":"-80.819401","name":"Tanger Outlet Center-Hilton Head","address":"1414 Fording Island Road, Suite B100, Bluffton, SC 29910 (843) 837-6656"},{"latitude":"35.082213","longitude":"-81.709794","name":"Prime Outlets at Gafney","address":"300 Factory Shops Boulevard, Gaffney, SC 29341 (864) 902-9600"},{"latitude":"33.7438","longitude":"-78.9361","name":"Myrtle Beach Factory Stores\/ Tanger Outlet Center","address":"4638 Factory Stores Boulevard, EE230, Myrtle Beach, SC 29579 (843) 236-2445"},{"latitude":"33.78526","longitude":"-78.770777","name":"Tanger Outlet Hywy 17 Myrtle Beach","address":"10843 Kings Road, Suite 695, Myrtle Beach, SC 29572 (843) 449-6060"},{"latitude":"32.8804","longitude":"-80.0413","name":"Tanger Outlet Center","address":"4840 Tanger Outlet Blvd., North Charleston, SC 29418 843-308-0361"},{"latitude":"35.860545","longitude":"-86.443052","name":"Avenue Murfreesboro","address":"2615 Medical Center Parkway, Suite 1535, Murfreesboro, TN 37129 (615) 907-9649"},{"latitude":"36.203213","longitude":"-86.694579","name":"Opry Mills","address":"301 Opry Mills Drive, Space 301, Nashville, TN 37214 (615) 514-1888"},{"latitude":"35.805616","longitude":"-83.574673","name":"Tanger Outlet Center-Pigeon Forge","address":"157 Wears Valley Road, East, Pigeon Forge, TN 37863 (865) 429-1506"},{"latitude":"35.833037","longitude":"-83.572696","name":"Tanger Five Oaks","address":"1645 Parkway, Suite 1180, Sevierville, TN 37862 (865) 774-4148"},{"latitude":"33.130037","longitude":"-96.66162","name":"Allen Premium Outlets","address":"820 W. Stacy Road, Suite 428, Allen TX 75013 (972) 678-0558"},{"latitude":"30.161146","longitude":"-97.789647","name":"Southpark Meadows","address":"9600 S IH-35, Space 500, Austin, TX 78748 (512) 280-7100"},{"latitude":"31.910866","longitude":"-106.583501","name":"Outlet Shoppes at El Paso","address":"7051 South Desert Boulevard, Suite E530, Canutillo, TX 79835 (915) 877-7386"},{"latitude":"30.365305","longitude":"-95.479157","name":"Conroe Outlet Center","address":"1111 League Line Road, Suite 172, Conroe, TX 77303 (936) 760-4466"},{"latitude":"29.994655","longitude":"-95.756423","name":"Houston Premium Outlets","address":"29300 Hempstead Road, Suite 854, Cypress, TX 77433 (281) 256-6197"},{"latitude":"33.565537","longitude":"-97.165515","name":"Gainesville Factory Shops","address":"4321 IH-35 North, Suite 100, Gainesville, TX 76240 (940) 665-8995"},{"latitude":"32.968233","longitude":"-97.036927","name":"Grapevine Mills","address":"3000 Grapevine Mills Parkway, Suite 252, Grapevine, TX 76051 (972) 724-2558"},{"latitude":"32.0247","longitude":"-97.1096","name":"Prime Outlets at Hillsboro","address":"104 Interstate Hwy. 35 NE, Suite 166, Hillsboro, TX 76645 (254) 582-7522"},{"latitude":"29.779397","longitude":"-95.806984","name":"Katy Mills","address":"5000 Katy Mills Circle, Katy, TX 77494 (281) 644-4674"},{"latitude":"26.158663","longitude":"-97.888703","name":"Rio Grande Valley Premium Outlets","address":"5001 E. Expressway 83, Suite 419, Mercedes, TX 78570 (956) 514-2416"},{"latitude":"30.563013","longitude":"-97.69201","name":"Round Rock Premium Outlets","address":"4401 N IH-35, Suite 715, Round Rock, TX 78664 512-864-0131"},{"latitude":"29.828618","longitude":"-97.983936","name":"Prime Outlets at San Marcos","address":"3939 IH-35 South, Suite 735, San Marcos, TX 78666 (512) 754-8822"},{"latitude":"29.638178","longitude":"-95.585507","name":"Fountains on the Lake","address":"12574 Fountain Lake Circle, Suite 42, Stafford, TX 77477 (281) 265-1557"},{"latitude":"32.702007","longitude":"-96.278618","name":"Tanger Outlet Center-Terrell","address":"301 Tanger Drive, Suite 103, Terrell, TX 75160 (972) 551-3007"},{"latitude":"40.530824","longitude":"-111.890747","name":"Factory Stores of America","address":"12101 S. Factory Outlet Drive, Suite 143, Draper, UT 84020 (801) 523-2126"},{"latitude":"40.729743","longitude":"-111.549661","name":"Tanger Outlet Center-Park City","address":"6699 N. Landmark Drive, Suite H135, Park City, UT 84098 (435) 649-3667"},{"latitude":"37.113709","longitude":"-113.554175","name":"Zion Factory Stores","address":"250 North Red Cliffs Drive, Unit 28, St. George, UT 84790 (435) 674-4564"},{"latitude":"39.109583","longitude":"-77.536586","name":"Leesburg Corner Premium Outlets","address":"241 Fort Evans Road, NE, Suite 689, Leesburg, VA 20176 (703) 443-8960"},{"latitude":"37.320728","longitude":"-76.736113","name":"Prime Outlets at Williamsburg","address":"5715 Richmond Road, Space 68, Williamsburg, VA 23188 (757) 564-0240"},{"latitude":"38.645179","longitude":"-77.299372","name":"Potomac Mills","address":"2700 Potomac Mills Circle, Space 55, Suite 801, Woodbridge, VA 22192 (703) 491-4826"},{"latitude":"44.507573","longitude":"-73.079284","name":"Essex Outlet Mall","address":"31 Essex Way #221, Essex Junction, VT 05452 (802) 288-9258"},{"latitude":"47.5594","longitude":"-122.1505","name":"Factoria Mall","address":"4092 Factoria Mall Boulevard, S.E., Bellevue, WA 98006 (425) 957-7217"},{"latitude":"47.491328","longitude":"-121.792955","name":"Factory Stores at North Bend","address":"561 South Fork Avenue, S.W., Suite 3B, North Bend WA 98045 (425) 831-5688"},{"latitude":"48.09064","longitude":"-122.185901","name":"Seattle Premium Outlets","address":"10600 Quil Ceda Blvd, Suite 713, Tulalip, WA 98271 (360) 654-3891"},{"latitude":"47.756578","longitude":"-122.15571","name":"Downtown Woodinville Retail Development","address":"17953 Garden Way NE, Woodinville, WA 98072 (425) 483-1997"},{"latitude":"47.296563","longitude":"-122.245617","name":"The Super Mall of the Great Northwest","address":"1101 Supermall Way, Suite 1226, Auburn WA 98001 (253) 833-1547"},{"latitude":"43.575563","longitude":"-89.783644","name":"Tanger Outlet Center","address":"210 Gasser Road, Suite #1060, Baraboo, WI 53913 608-253-1759"},{"latitude":"43.089595","longitude":"-88.762715","name":"Johnson Creek Premium Outlets","address":"575 West Linmar Lane, Suite A-125, Johnson Creek, WI 53038 (920) 699-4904"},{"latitude":"43.988006","longitude":"-88.586388","name":"Prime Outlets at Oshkosh","address":"3001 S. Washburn, Oshkosh, WI 54904 (920) 426-5817"},{"latitude":"42.5765","longitude":"-87.9395","name":"Prime Outlets at Pleasant Prairie","address":"11601 108th Street, Pleasant Prairie, WI 53158 (262) 857-3975"},{"latitude":"44.8838","longitude":"-89.6197","name":"Cedar Creek Mall","address":"10101 Market Street, C-30, Rothschild, WI 54474 (715) 359-7943"}]