[{"longitude":-87.68016829999999,"latitude":30.3756767,"name":"OshKosh B'Gosh","address":"Tanger Outlet Center Foley\n2601 South McKenzie Street\nSpace 212\nFoley AL 36535\n(251) 943-3727"},{"longitude":-86.68202199999999,"latitude":34.742957,"name":"OshKosh B'Gosh","address":"Westside Centre\n6275 University Drive NW\nSpace 34\nHuntsville AL 35806\n(256) 922-5589"},{"longitude":-86.5961282,"latitude":33.5488005,"name":"OshKosh B'Gosh","address":"The Outlet Shops of Grand River\n6200 Grand River Boulevard East\nSuites 334 & 338\nLeeds AL 35094\n(205) 699-1161"},{"longitude":-88.11648629999999,"latitude":30.6494121,"name":"OshKosh B'Gosh","address":"McGowin Park\n1310 Tingle Circle East\nSuite A112\nMobile AL 36606"},{"longitude":-92.40794849999999,"latitude":34.6609511,"name":"OshKosh B'Gosh","address":"Outlets of Little Rock\n11201 Bass Pro Parkway\nM-133\nLittle Rock AR 72209\n(501) 407-0745"},{"longitude":-112.2667164,"latitude":33.5334711,"name":"OshKosh B'Gosh","address":"Tanger Outlet Center Westgate\n6800 North 95th Avenue\nSuite #310\nGlendale AZ 85305\n(623) 877-8084"},{"longitude":-111.9644722,"latitude":33.3830454,"name":"OshKosh B'Gosh","address":"Arizona Mills\n5000 S Arizona Mills Circle\nSuite 314\nTempe AZ 85282\n(480) 456-2083"},{"longitude":-111.1023277,"latitude":32.3784798,"name":"OshKosh B'Gosh","address":"Tucson Premium Outlets\n6401 West Marana Center Boulevard\nSuite 412\nTucson AZ 85742\n(520) 918-5513"},{"longitude":-117.2489894,"latitude":34.4692352,"name":"OshKosh B'Gosh","address":"Jess Ranch Marketplace\n19157 Bear Valley Road\nSuite #1\nApple Valley CA 92308\n(760) 240-1539"},{"longitude":-118.9417171,"latitude":34.9850429,"name":"OshKosh B'Gosh","address":"Outlets at Tejon\n5701 Outlets at Tejon Parkway\nSpace #825\nArvin CA 93243\n(661) 858-2789"},{"longitude":-116.8154907,"latitude":33.9287776,"name":"OshKosh B'Gosh","address":"Desert Hills Premium Outlets\n48400 Seminole Rd.\nSuite 610\nCabazon CA 92230\n(951) 849-3883"},{"longitude":-115.5087837,"latitude":32.6650235,"name":"OshKosh B'Gosh","address":"Gran Plaza Outlets\n888 West 2nd Street,\nSuite E170\nCalexico CA 92231\n(760) 357-0744"},{"longitude":-119.0603778,"latitude":34.21665,"name":"OshKosh B'Gosh","address":"Camarillo Premium Outlets\n740 Ventura Blvd.\nSuite 436\nCamarillo CA 93010\n(805) 445-1116"},{"longitude":-117.3210992,"latitude":33.1264551,"name":"OshKosh B'Gosh","address":"Carlsbad Premium Outlets\n5600 Paseo Del Norte\nSuite 107\nCarlsbad CA 92008\n(760) 804-1637"},{"longitude":-118.1539586,"latitude":34.0066625,"name":"OshKosh B'Gosh","address":"Citadel Outlets\n100 Citadel Dr.\nSuite 422\nCommerce CA 90040\n(323) 727-6780"},{"longitude":-118.129828,"latitude":33.9217578,"name":"OshKosh B'Gosh","address":"The Promenade at Downey\n8960 Apollo Way\n#A11 A & B\nDowney CA 90242"},{"longitude":-121.187932,"latitude":38.643781,"name":"OshKosh B'Gosh","address":"Folsom Premium Outlets\n13000 Folsom Blvd.\nSuite 1530\nFolsom CA 95630\n(916) 985-4406"},{"longitude":-121.969177,"latitude":37.501275,"name":"OshKosh B'Gosh","address":"Pacific Commons\n43960 Pacific Commons Boulevard\nSpace #J1-A\nFremont CA 94538\n(510) 249-9501"},{"longitude":-121.5644706,"latitude":37.025183,"name":"OshKosh B'Gosh","address":"Gilroy Premium Outlets\n8300 Arroyo Circle\nSuite B400\nGilroy CA 95020\n(408) 842-3280"},{"longitude":-118.2329341,"latitude":33.9741145,"name":"OshKosh B'Gosh","address":"La Alameda\n7430 South Alameda Street\nHuntington Park CA 90255\n(323) 587-1458"},{"longitude":-117.9639907,"latitude":33.9187265,"name":"OshKosh B'Gosh","address":"La Habra Marketplace\n1651 West Imperial Highway\nSuite A\nLa Habra CA 90631\n(562) 266-1066"},{"longitude":-117.7019254,"latitude":33.6180731,"name":"OshKosh B'Gosh","address":"The Orchard\n23622 El Toro Road\nSuite A\nLake Forest CA 92630\n(949) 457-1630"},{"longitude":-121.8451423,"latitude":37.6986774,"name":"OshKosh B'Gosh","address":"San Francisco Premium Outlets\n3230 Paragon Outlets Drive\nLivermore CA 94588\n(925) 243-9380"},{"longitude":-118.0866229,"latitude":33.8290361,"name":"OshKosh B'Gosh","address":"Long Beach Towne Center\n7378 Carson Boulevard\nLong Beach CA 90808\n(562) 429-5952"},{"longitude":-118.3365151,"latitude":34.0103542,"name":"OshKosh B'Gosh","address":"Baldwin Hills\n3650 West Martin Luther King Boulevard\nSuite 226\nLos Angeles CA 90008\n(323) 293-3691"},{"longitude":-121.897412,"latitude":37.415738,"name":"OshKosh B'Gosh","address":"Great Mall of the Bay Area\n292 Great Mall Dr.\nMilpitas CA 95035\n(408) 719-8957"},{"longitude":-117.5506018,"latitude":34.0725964,"name":"OshKosh B'Gosh","address":"Ontario Mills\n1 Mills Circle\nSpace 708\nOntario CA 91764\n(909) 987-5966"},{"longitude":-118.152456,"latitude":34.604844,"name":"OshKosh B'Gosh","address":"Antelope Valley Mall\n1301 Rancho Vista Boulevard\nSuite L\nPalmdale CA 93551\n(661) 575-9925"},{"longitude":-118.4502317,"latitude":34.2231832,"name":"OshKosh B'Gosh","address":"Panorama Mall\n8401 Van Nuys Boulevard\nPanorama City CA 91402\n(818) 221-3666"},{"longitude":-122.6498974,"latitude":38.256944,"name":"OshKosh B'Gosh","address":"Petaluma Village Premium Outlets\n2200 Petaluma Blvd. North\nSuite 700\nPetaluma CA 94952\n(707) 766-8113"},{"longitude":-120.6278332,"latitude":35.1354352,"name":"OshKosh B'Gosh","address":"Pismo Beach Premium Outlets\n333 Five Cities Dr.\nSuite 130\nPismo Beach CA 93449\n(805) 773-6064"},{"longitude":-117.9266525,"latitude":33.99016280000001,"name":"OshKosh B'Gosh","address":"Puente Hills Town Center\n17406 Colima Road\nW-16A\nRowland Heights CA 91748\n(626) 964-5137"},{"longitude":-121.658187,"latitude":36.7169,"name":"OshKosh B'Gosh","address":"Northridge Mall\n880 Northridge Mall\nSpace T01A\nSalinas CA 93906\n(831) 449-2186"},{"longitude":-117.628282,"latitude":33.438464,"name":"OshKosh B'Gosh","address":"Outlets at San Clemente\n101 West Avenida Hermosa\nUnit #544\nSan Clemente CA 92672\n(949) 361-6947"},{"longitude":-121.9881879,"latitude":37.2925802,"name":"OshKosh B'Gosh","address":"Westgate Mall\n1600 Saratoga Avenue\nSuite #229\nSan Jose CA 95129\n(408) 866-5247"},{"longitude":-117.0402388,"latitude":32.5468212,"name":"OshKosh B'Gosh","address":"San Ysidro Village\n4460 Camino de la Plaza\nSan Ysidro CA 92173\n(619) 690-2255"},{"longitude":-121.9456446,"latitude":37.3255266,"name":"OshKosh B'Gosh","address":"Westfield Valley Fair\n2855 Stevens Creek Boulevard\nSuite #1265\nSanta Clara CA 95050\n(408) 423-8640"},{"longitude":-121.4579987,"latitude":37.7595957,"name":"OshKosh B'Gosh","address":"West Valley Mall\n3200 North Naglee Road\nSpace #248\nTracy CA 95304\n(209) 835-6240"},{"longitude":-121.956992,"latitude":38.3657188,"name":"OshKosh B'Gosh","address":"Vacaville Premium Outlets\n101-A Nut Tree Rd.\nVacaville CA 95687\n(707) 446-9275"},{"longitude":-117.8854737,"latitude":34.0743177,"name":"OshKosh B'Gosh","address":"Eastland Center\n2620 E. Workman Avenue #4\nWest Covina CA 91791\n(626) 331-1595"},{"longitude":-104.8747962,"latitude":39.4161671,"name":"OshKosh B'Gosh","address":"Outlets at Castle Rock\n5050 Factory Shops Blvd.\nStore 900\nCastle Rock CO 80104\n(303) 660-3378"},{"longitude":-105.1586744,"latitude":39.7325357,"name":"OshKosh B'Gosh","address":"Colorado Mills\n14500 West Colfax Avenue\nRoom #506\nLakewood CO 80401\n(303) 271-1366"},{"longitude":-104.876604,"latitude":39.562641,"name":"OshKosh B'Gosh","address":"Park Meadows\n8505 Park Meadows Center Drive\nSuite 2533\nLone Tree CO 80124\n(303) 858-0211"},{"longitude":-104.99504,"latitude":40.41215580000001,"name":"OshKosh B'Gosh","address":"Outlets at Loveland\n5753 McWhinney Blvd.\nSuite A-360\nLoveland CO 80538\n(970) 635-9963"},{"longitude":-106.0704771,"latitude":39.63098249999999,"name":"OshKosh B'Gosh","address":"Silverthorne Factory Stores\n246 Rainbow Dr.\nSuite R\nSilverthorne CO 80498\n(970) 468-4804"},{"longitude":-73.38523719999999,"latitude":41.1281244,"name":"OshKosh B'Gosh","address":"Westport Avenue Shopping Center\n542 Westport Avenue\nNorwalk CT 06851\n(203) 845-0037"},{"longitude":-72.4294333,"latitude":41.2892087,"name":"OshKosh B'Gosh","address":"Tanger Outlet Center Westbrook\n314 Flat Rock Place\nSuite C100\nWestbrook CT 6498\n(860) 399-0215"},{"longitude":-75.1124579,"latitude":38.7192896,"name":"OshKosh B'Gosh","address":"Tanger Outlet Center Rehoboth Beach\n36470 Seaside Outlet Dr.\nSuite 1640-S\nRehoboth Beach DE 19971\n(302) 227-4787"},{"longitude":-75.5471718,"latitude":39.8129892,"name":"OshKosh B'Gosh","address":"Concord Square Shopping Center\n4433 Concord Pike\nWilmington DE 19803\n(302) 478-1764"},{"longitude":-81.09901479999999,"latitude":29.2139765,"name":"OshKosh B'Gosh","address":"Tanger Outlets Daytona\n1100 Cornerstone Boulevard\nSuite 1045\nDaytona Beach FL 32117\n(386) 274-1991"},{"longitude":-86.350436,"latitude":30.378132,"name":"OshKosh B'Gosh","address":"Silver Sands Premium Outlets\n10406 West Emerald Coast Parkway\nSuite 48\nDestin FL 32550\n(850) 654-8860"},{"longitude":-82.50760559999999,"latitude":27.5342752,"name":"OshKosh B'Gosh","address":"Ellenton Premium Outlets\n5455 Factory Shops Blvd.\nEllenton FL 34222\n(941) 723-1511"},{"longitude":-81.7747808,"latitude":26.4362622,"name":"OshKosh B'Gosh","address":"Miromar Outlets\n10801 Corkscrew Rd.\nSuite 130\nEstero FL 33928\n(239) 947-1098"},{"longitude":-80.47309469999999,"latitude":25.4525539,"name":"OshKosh B'Gosh","address":"Florida Keys Outlet Marketplace\n250 East Palm Dr.\nSuite 200\nFlorida City FL 33034\n(305) 248-7100"},{"longitude":-80.1157656,"latitude":26.1689073,"name":"OshKosh B'Gosh","address":"Coral Ridge Mall\n3200 North Federal Highway\nSpace 603\nFort Lauderdale FL 33306\n(954) 565-2188"},{"longitude":-81.9735109,"latitude":26.494744,"name":"OshKosh B'Gosh","address":"Sanibel Outlets\n20350 Summerlin Rd.\nSuite 2130\nFort Myers FL 33908\n(239) 432-9589"},{"longitude":-80.296686,"latitude":25.8663095,"name":"OshKosh B'Gosh","address":"Palm Springs Mile\n407 West 49th Street\nSuite #4\nHialeah FL 33012\n(305) 825-7066"},{"longitude":-81.40942230000002,"latitude":28.3404336,"name":"OshKosh B'Gosh","address":"The Crosslands\n616 Centerview Boulevard\nKissimmee FL 34741\n(407) 846-2018"},{"longitude":-82.3905997,"latitude":28.1903542,"name":"OshKosh B'Gosh","address":"Tampa Premium Outlets\n2300 Grand Cypress Drive\nSuite 120\nLutz FL 33559\n(813) 949-9173"},{"longitude":-80.194315,"latitude":25.807479,"name":"OshKosh B'Gosh","address":"Shops at Midtown Miami\n3401 North Miami Avenue\nSuite #138\nMiami FL 33127\n(305) 438-3764"},{"longitude":-80.3808011,"latitude":25.7870262,"name":"OshKosh B'Gosh","address":"Dolphin Mall\n11401 NW 12th St.\nSpace #181\nMiami FL 33172\n(305) 513-4557"},{"longitude":-81.48578359999999,"latitude":28.3496209,"name":"OshKosh B'Gosh","address":"Lake Buena Vista Factory Stores\n15795 State Road 535\nOrlando FL 32821\n(407) 239-6252"},{"longitude":-81.4923639,"latitude":28.3871744,"name":"OshKosh B'Gosh","address":"Orlando Vineland Premium Outlets\n8200 Vineland Ave.\nSuite 820\nOrlando FL 32821\n(407) 239-4666"},{"longitude":-81.4513577,"latitude":28.4746886,"name":"OshKosh B'Gosh","address":"Orlando International Premium Outlets\n4967 International Dr. 3A.25\nOrlando FL 32819\n(407) 352-6414"},{"longitude":-80.3367607,"latitude":26.0043472,"name":"OshKosh B'Gosh","address":"Shops at Pembroke Gardens\n524 SW 145th Terrace\nSpace 10040\nPembroke Pines FL 33027\n(954) 431-8258"},{"longitude":-81.41706769999999,"latitude":29.9240166,"name":"OshKosh B'Gosh","address":"St. Augustine Premium Outlets\n2700 State Rd. 16\nSuite 505\nSt. Augustine FL 32092\n(904) 829-8923"},{"longitude":-80.320787,"latitude":26.151701,"name":"OshKosh B'Gosh","address":"Sawgrass Mills\n12801 West Sunrise Blvd.\nSuite 875\nSunrise FL 33323\n(954) 846-7953"},{"longitude":-80.085002,"latitude":26.723731,"name":"OshKosh B'Gosh","address":"Palm Beach Outlets\n1741 Palm Beach Lakes Blvd\nSpace #E209\nWest Palm Beach FL 33401\n(561) 689-7239"},{"longitude":-81.583373,"latitude":28.523497,"name":"OshKosh B'Gosh","address":"Winter Garden Village\n3049 Daniels Road\nUnit #220B\nWinter Garden FL 34787\n(407) 654-7842"},{"longitude":-84.3356469,"latitude":33.9333148,"name":"OshKosh B'Gosh","address":"Perimeter Village\n4737A Ashford Dunwoody Road,\nUnit BOH\nAtlanta GA 30338\n(770) 668-9487"},{"longitude":-84.3867508,"latitude":33.8295151,"name":"OshKosh B'Gosh","address":"Peachtree Battle\n2345 B Peachtree Road NW\nAtlanta GA 30305\n(404) 869-3373"},{"longitude":-82.0398623,"latitude":33.5121626,"name":"OshKosh B'Gosh","address":"Washington Crossing\n2907 Washington Road\nSuite #208\nAugusta GA 30909\n(706) 481-5007"},{"longitude":-83.9822512,"latitude":34.0656681,"name":"OshKosh B'Gosh","address":"Mall of Georgia\n3333 Buford Drive\nSuite 1062\nBuford GA 30519\n(770) 904-6548"},{"longitude":-84.91858719999999,"latitude":34.4602511,"name":"OshKosh B'Gosh","address":"Calhoun Outlet Marketplace\n455 Belwood Rd.\nSuite 47\nCalhoun GA 30701\n(706) 624-3608"},{"longitude":-84.9465189,"latitude":32.546175,"name":"OshKosh B'Gosh","address":"Columbus Park Crossing\n5555 Whittlesey Blvd.\nSuite 2001\nColumbus GA 31909\n(706) 494-8909"},{"longitude":-83.47064200000001,"latitude":34.25181,"name":"OshKosh B'Gosh","address":"Tanger Outlet Center Commerce\n800 Steven B. Tanger Blvd.\nSuite 505\nCommerce GA 30529\n(706) 336-8474"},{"longitude":-84.048047,"latitude":34.358497,"name":"OshKosh B'Gosh","address":"North Georgia Premium Outlets\n800 Highway 400 South\nSuite 100\nDawsonville GA 30534\n(706) 216-2294"},{"longitude":-84.1230327,"latitude":33.347566,"name":"OshKosh B'Gosh","address":"Tanger Outlet Center Locust Grove\n1000 Tanger Dr.\nSuite 314\nLocust Grove GA 30248\n(770) 914-7423"},{"longitude":-84.42813699999999,"latitude":33.980178,"name":"OshKosh B'Gosh","address":"Merchant's Walk\n1311 Johnson Ferry Road\nSuite 544\nMarietta GA 30068"},{"longitude":-84.74504089999999,"latitude":33.3946692,"name":"OshKosh B'Gosh","address":"Newnan Crossing\n595 Bullsboro Drive\nNewnan GA 30265\n(770) 252-5982"},{"longitude":-81.2433679,"latitude":32.1343987,"name":"OshKosh B'Gosh","address":"Tanger Outlet Center Savannah\n200 Tanger Outlet Boulevard\nSuite #677 (Building #6)\nPooler GA 31322\n(912) 450-0720"},{"longitude":-84.5262444,"latitude":34.1201198,"name":"OshKosh B'Gosh","address":"Outlet Shoppes at Atlanta\n915 Ridgewalk Parkway\nSpace D430\nWoodstock GA 30188\n(770) 928-2836"},{"longitude":-158.0066404,"latitude":21.4007982,"name":"OshKosh B'Gosh","address":"Waikele Premium Outlets\n94-792 Lumiaina St.\nSuite 210\nWaipahu HI 96797\n(808) 678-2773"},{"longitude":-91.6264741,"latitude":42.0256515,"name":"OshKosh B'Gosh","address":"Lindale Mall\n4444 First Avenue NE\nCedar Rapids IA 52402\n(319) 409-1265"},{"longitude":-93.79455089999999,"latitude":41.5620346,"name":"OshKosh B'Gosh","address":"Galleria at Jordan Creek\n6305 Mills Civic Parkway\nSuite 2117\nWest Des Moines IA 50266\n(515) 224-5977"},{"longitude":-92.0051818,"latitude":41.6898499,"name":"OshKosh B'Gosh","address":"Tanger Outlet Center Williamsburg\n130 Tanger Dr.\nSuite 130\nWilliamsburg IA 52361\n(319) 668-8092"},{"longitude":-111.9844778,"latitude":43.47894760000001,"name":"OshKosh B'Gosh","address":"Ammon Town Center\n2037 South 25th Street\nAmmon ID 83406\n(208) 522-9940"},{"longitude":-88.2739699,"latitude":41.800478,"name":"OshKosh B'Gosh","address":"Chicago Premium Outlets\n1650 Premium Outlets Blvd.\nSuite 115\nAurora IL 60504\n(630) 236-0000"},{"longitude":-88.9579937,"latitude":40.4907031,"name":"OshKosh B'Gosh","address":"Empire Plaza\n1608-D East Empire Street\nBloomington IL 61701\n(309) 661-2207"},{"longitude":-87.725382,"latitude":41.8172609,"name":"OshKosh B'Gosh","address":"Pulaski Promenade\n4144 South Pulaski Road\nChicago IL 60632\n(773) 650-0525"},{"longitude":-87.70166189999999,"latitude":41.9458278,"name":"OshKosh B'Gosh","address":"Addison Mall\n2905 West Addison Street\nChicago IL 60618"},{"longitude":-89.954473,"latitude":38.7889614,"name":"OshKosh B'Gosh","address":"Edwardsville Crossing\n6622 Edwardsville Crossing Drive\nEdwardsville IL 62025\n(618) 659-0512"},{"longitude":-87.95716399999999,"latitude":42.38904,"name":"OshKosh B'Gosh","address":"Gurnee Mills\n6170 West Grand Ave.\nSpace 573\nGurnee IL 60031\n(847) 856-8172"},{"longitude":-87.85551679999999,"latitude":41.603188,"name":"OshKosh B'Gosh","address":"Lake View Plaza\n15782 South LaGrange Rd.\nOrland Park IL 60462\n(708) 403-5904"},{"longitude":-87.86711810000001,"latitude":41.9749898,"name":"OshKosh B'Gosh","address":"Fashion Outlets of Chicago\n5220 Fashion Outlets Way\nSpace #1060\nRosemont IL 60018\n(847) 678-7681"},{"longitude":-88.2691997,"latitude":39.78910219999999,"name":"OshKosh B'Gosh","address":"Outlets at Tuscola\nD1300 Tuscola Blvd.\nP.O. Box 4056\nTuscola IL 61953\n(217) 253-3349"},{"longitude":-86.12410059999999,"latitude":40.00541279999999,"name":"OshKosh B'Gosh","address":"Village Park Plaza\n1950-9 East Greyhound Pass\nCarmel IN 46033\n(317) 569-0258"},{"longitude":-85.966657,"latitude":39.35448299999999,"name":"OshKosh B'Gosh","address":"Edinburgh Premium Outlets\n3080 Outlet Dr.\nSuite F90\nEdinburgh IN 46124\n(812) 526-9505"},{"longitude":-85.00279019999999,"latitude":41.7346333,"name":"OshKosh B'Gosh","address":"Outlet Shoppes at Fremont\n6245 North Old 27\nSuite B-60\nFremont IN 46737\n(260) 833-3627"},{"longitude":-86.1047147,"latitude":39.91359990000001,"name":"OshKosh B'Gosh","address":"The Shops at River Crossing\n8661 River Crossing Blvd.\nIndianapolis IN 46240\n(317) 581-1328"},{"longitude":-86.12396989999999,"latitude":39.6379678,"name":"OshKosh B'Gosh","address":"Shoppes at County Line\n8811 Hardegan Street\nSpace 240A\nIndianapolis IN 46227"},{"longitude":-86.9067324,"latitude":41.7145907,"name":"OshKosh B'Gosh","address":"Lighthouse Place Premium Outlets\n1730 Lighthouse Place\nMichigan City IN 46360\n(219) 878-0942"},{"longitude":-86.1854372,"latitude":41.7112153,"name":"OshKosh B'Gosh","address":"Wilshire Plaza\n5534 Grape Road\nSpace 250\nMishawaka IN 46545\n(574) 404-3040"},{"longitude":-87.46939909999999,"latitude":41.5215798,"name":"OshKosh B'Gosh","address":"Shops on Main\n59 U.S. Highway 41\nSuite #440\nSchererville IN 46375\n(219) 322-3231"},{"longitude":-94.82351,"latitude":39.12662,"name":"OshKosh B'Gosh","address":"Legends Outlets Kansas City\n1813 Village West Parkway\nSuite Q-118\nKansas City KS 66111\n(913) 299-9047"},{"longitude":-94.7583889,"latitude":38.90976000000001,"name":"OshKosh B'Gosh","address":"Olathe Pointe\n14677 West 119th Street\nOlathe KS 66062\n(913) 397-0521"},{"longitude":-97.24111839999999,"latitude":37.6784289,"name":"OshKosh B'Gosh","address":"Eastgate Plaza\n8131 East Kellogg Drive\nWichita KS 67207\n(316) 683-6905"},{"longitude":-84.5785473,"latitude":39.025231,"name":"OshKosh B'Gosh","address":"Crestview Hills Town Center\n2863 Town Center Boulevard\nSuite 3030\nCrestview Hills KY 41017\n(859) 331-1785"},{"longitude":-85.6291097,"latitude":38.2494924,"name":"OshKosh B'Gosh","address":"Shelbyville Road Plaza\n4600 Shelbyville Road\nSuite 230\nLouisville KY 40207\n(502) 721-2102"},{"longitude":-85.3515396,"latitude":38.2059821,"name":"OshKosh B'Gosh","address":"Outlet Shoppes of the Bluegrass\n1155 Buck Creek Road\nSpace #F-606\nSimpsonville KY 40067\n(502) 722-8046"},{"longitude":-93.7411479,"latitude":32.5202552,"name":"OshKosh B'Gosh","address":"Louisiana Boardwalk\n435 Boardwalk Blvd.\nBossier City LA 71111\n(318) 549-9287"},{"longitude":-90.91830329999999,"latitude":30.46924869999999,"name":"OshKosh B'Gosh","address":"Juban Crossing\n27853 Juban Road\nDenham Springs LA 70726\n(225) 667-3519"},{"longitude":-90.9505124,"latitude":30.2121217,"name":"OshKosh B'Gosh","address":"Tanger Outlet Center Gonzales\n2400 Tanger Blvd.\nSuite 151\nGonzales LA 70737\n(225) 647-2926"},{"longitude":-90.0385702,"latitude":29.9218551,"name":"OshKosh B'Gosh","address":"Oakwood Center\n197 West Bank Expressway\nSuite 1380\nGretna LA 70053\n(504) 227-7363"},{"longitude":-92.0528516,"latitude":30.161812,"name":"OshKosh B'Gosh","address":"Ambassador Crossing\n4243 Ambassador Caffery Parkway\nSuite 109\nLafayette LA 70508\n(337) 989-8521"},{"longitude":-93.2272229,"latitude":30.2003359,"name":"OshKosh B'Gosh","address":"Prien Lake\n1776 W Prien Lake Rd\nSuite D\nLake Charles LA 70601\n(337) 475-8985"},{"longitude":-71.0237679,"latitude":42.22199519999999,"name":"OshKosh B'Gosh","address":"South Shore Plaza\n250 Granite Street\nSuite 2370\nBraintree MA 02184\n(781) 348-4976"},{"longitude":-71.19349439999999,"latitude":42.4854115,"name":"OshKosh B'Gosh","address":"Wayside Commons\n6H Wayside Road\nBurlington MA 01803\n(781) 272-3241"},{"longitude":-71.1789242,"latitude":42.2402647,"name":"OshKosh B'Gosh","address":"Dedham Plaza\n757 Providence Highway\nDedham MA 02026\n(781) 326-4064"},{"longitude":-73.2341766,"latitude":42.2944639,"name":"OshKosh B'Gosh","address":"Lee Premium Outlets\n220 Premium Outlets Blvd\nLee MA 01238\n(413) 243-4761"},{"longitude":-71.0200353,"latitude":42.4889157,"name":"OshKosh B'Gosh","address":"Saugus Plaza\n331 Broadway\nSuite 3\nSaugus MA 01906\n(781) 941-1402"},{"longitude":-71.07861319999999,"latitude":42.3954187,"name":"OshKosh B'Gosh","address":"Assembly Row\n478 Artisan Way\nSomerville MA 02145\n(617) 666-1079"},{"longitude":-71.35263909999999,"latitude":42.0381377,"name":"OshKosh B'Gosh","address":"Wrentham Village Premium Outlets\n1 Premium Outlets Blvd.\nSuite 520\nWrentham MA 02093\n(508) 384-0271"},{"longitude":-76.326033,"latitude":39.495352,"name":"OshKosh B'Gosh","address":"Festival at Bel Air\n5 Bel Air South Parkway\nSuite M05A\nBel Air MD 21015\n(410) 569-0864"},{"longitude":-77.28651889999999,"latitude":39.2271349,"name":"OshKosh B'Gosh","address":"Clarksburg Premium Outlets\n22705 Clarksburg Road\nSuite 731\nClarksburg MD 20871\n(301) 916-2761"},{"longitude":-77.7331293,"latitude":39.6080927,"name":"OshKosh B'Gosh","address":"Hagerstown Premium Outlets\n225 Premium Outlets Blvd\nHagerstown MD 21740\n(301) 766-7008"},{"longitude":-76.72470679999999,"latitude":39.1578188,"name":"OshKosh B'Gosh","address":"Arundel Mills\n7000 Arundel Mills Circle\nSpace 252\nHanover MD 21076\n(443) 755-8950"},{"longitude":-76.8649331,"latitude":39.0802994,"name":"OshKosh B'Gosh","address":"Town Centre at Laurel\n14708 Baltimore Avenue\nSuite #103\nLaurel MD 20707\n(301) 604-3124"},{"longitude":-77.0008077,"latitude":38.7952682,"name":"OshKosh B'Gosh","address":"Tanger Outlet Center National Harbor\n6800 Oxon Hill Road\nSuite #765\nOxon Hill MD 20745\n(301) 567-9259"},{"longitude":-70.1187514,"latitude":43.8444793,"name":"OshKosh B'Gosh","address":"Freeport Crossing\n200 Lower Main St.\nFreeport ME 04032\n(207) 865-4881"},{"longitude":-83.7814003,"latitude":42.2840913,"name":"OshKosh B'Gosh","address":"le Village Shopping Cener\n343 North Maple Road\nAnn Arbor MI 48103\n(734) 769-1280"},{"longitude":-83.2994742,"latitude":42.7025943,"name":"OshKosh B'Gosh","address":"Great Lakes Crossing\n4198 Baldwin Rd.\nSpace 318\nAuburn Hills MI 48326\n(248) 454-7934"},{"longitude":-83.777537,"latitude":43.246775,"name":"OshKosh B'Gosh","address":"Birch Run Premium Outlets\n12150 South Beyer Rd.\nSpace F-200\nBirch Run MI 48415\n(989) 624-4600"},{"longitude":-85.67271079999999,"latitude":42.8113456,"name":"OshKosh B'Gosh","address":"Tanger Outlet Center Grand Rapids\n350 84th Street S.W\nSuite #200\nByron Center MI 49315\n(616) 583-0026"},{"longitude":-83.4815667,"latitude":42.3237046,"name":"OshKosh B'Gosh","address":"New Towne Plaza\n44700 Ford Road\nCanton MI 48187\n(734) 254-9756"},{"longitude":-85.7417126,"latitude":42.8820489,"name":"OshKosh B'Gosh","address":"Bucktown\n3170 44th Street\nGrandville MI 49418\n(616) 530-7463"},{"longitude":-83.997058,"latitude":42.622007,"name":"OshKosh B'Gosh","address":"Tanger Outlet Center Howell\n1475 North Burkhart Rd.\nSuite C160\nHowell MI 48855\n(517) 552-1744"},{"longitude":-84.50714359999999,"latitude":42.7378069,"name":"OshKosh B'Gosh","address":"Frandor Mall\n434 Frandor Avenue\nLansing MI 48912\n(517) 333-0310"},{"longitude":-83.0258006,"latitude":42.5079946,"name":"OshKosh B'Gosh","address":"Tech Plaza\n8347 East 12 Mile Road\nWarren MI 48093\n(586) 751-3879"},{"longitude":-93.6675131,"latitude":45.2466426,"name":"OshKosh B'Gosh","address":"Albertville Premium Outlets\n6415 Labeaux Ave.\nNE, Space B280\nAlbertville MN 55301\n(763) 497-6037"},{"longitude":-93.21460599999999,"latitude":44.81562940000001,"name":"OshKosh B'Gosh","address":"Twin Cities Premium Outlets\n3905 Eagan Outlets Parkway\nSuite #245\nEagan MN 55122\n(952) 686-7475"},{"longitude":-93.44774950000001,"latitude":45.0301355,"name":"OshKosh B'Gosh","address":"Rockford Road Plaza\n4190 Vinewood Lane North\nSpaces 124 & 125\nPlymouth MN 55442\n(763) 559-9009"},{"longitude":-92.9374958,"latitude":44.9414187,"name":"OshKosh B'Gosh","address":"Tamarack Village\n8390 Tamarack Village\nWoodbury MN 55125\n(651) 735-9434"},{"longitude":-93.2649443,"latitude":36.6440444,"name":"OshKosh B'Gosh","address":"Tanger Outlet Center Branson\n300 Tanger Blvd.\nSuite 307B\nBranson MO 65616\n(417) 334-7213"},{"longitude":-90.6614633,"latitude":38.6774199,"name":"OshKosh B'Gosh","address":"St. Louis Premium Outlets\n18521 Outlet Boulevard\nSuite 751\nChesterfield MO 63005\n(636) 778-2266"},{"longitude":-94.3554853,"latitude":39.0496722,"name":"OshKosh B'Gosh","address":"Independence Commons\n18810 B & C East 39th Street\nIndependence MO 64057\n(816) 373-0425"},{"longitude":-94.4570518,"latitude":39.2456441,"name":"OshKosh B'Gosh","address":"Wilshire Plaza\n8452 North Church Road\nKansas City MO 64157\n(816) 781-8435"},{"longitude":-92.62727989999999,"latitude":38.1438834,"name":"OshKosh B'Gosh","address":"Osage Beach Premium Outlets\n4540 Osage Beach Parkway\nSuite E-1\nOsage Beach MO 65065\n(573) 348-4270"},{"longitude":-89.0992574,"latitude":30.4290731,"name":"OshKosh B'Gosh","address":"Gulfport Premium Outlets\n10415 Factory Shops Blvd.\nGulfport MS 39503\n(228) 868-0301"},{"longitude":-90.1534123,"latitude":32.2739008,"name":"OshKosh B'Gosh","address":"Outlets of Mississippi\n200 Bass Pro Drive\n#310\nPearl MS 39208\n(601) 664-1607"},{"longitude":-89.99154240000001,"latitude":34.9362137,"name":"OshKosh B'Gosh","address":"Tanger Outlet Center Southaven\n5205 Airways Boulevard\n#1075\nSouthaven MS 38671\n(662) 349-8490"},{"longitude":-82.6033576,"latitude":35.52930060000001,"name":"OshKosh B'Gosh","address":"Asheville Outlets\n800 Brevard Road\nSpace #N102\nAsheville NC 28806\n(828) 665-9545"},{"longitude":-81.67201279999999,"latitude":36.1417188,"name":"OshKosh B'Gosh","address":"Tanger Outlet Center Blowing Rock\n310 Shoppes on the Parkway Rd.\nNo. 28\nBlowing Rock NC 28605\n(828) 295-7471"},{"longitude":-78.7377921,"latitude":35.7615138,"name":"OshKosh B'Gosh","address":"Crossroads Plaza\n241 Crossroads Boulevard\nCary NC 27518\n(919) 233-0131"},{"longitude":-80.9700376,"latitude":35.1694291,"name":"OshKosh B'Gosh","address":"Charlotte Premium Outlets\n5512 New Fashion Way\nSuite #1024\nCharlotte NC 28278\n(704) 504-0362"},{"longitude":-80.72197059999999,"latitude":35.3690086,"name":"OshKosh B'Gosh","address":"Concord Mills\n8111 Concord Mills Blvd.\nSpace 654\nConcord NC 28027\n(704) 979-6631"},{"longitude":-79.8309651,"latitude":36.0869764,"name":"OshKosh B'Gosh","address":"Friendly Center\n3002 Northline Ave.\nGreensboro NC 27408\n(336) 292-0613"},{"longitude":-78.31611319999999,"latitude":35.5103829,"name":"OshKosh B'Gosh","address":"Carolina Premium Outlets\n1245 Industrial Park Dr.\nSpace 1090\nSmithfield NC 27577\n(919) 938-1199"},{"longitude":-96.8568871,"latitude":46.8598458,"name":"OshKosh B'Gosh","address":"TJ Maxx Plaza\n4340 13th Avenue Southwest, Suites R & Y\nFargo ND 58103\n(701) 277-3083"},{"longitude":-101.3124807,"latitude":48.206467,"name":"OshKosh B'Gosh","address":"Dakota Square Mall\n2400 10th Street\nSpace 705\nMinot ND 58701\n(701) 852-1062"},{"longitude":-96.25015649999999,"latitude":41.0987262,"name":"OshKosh B'Gosh","address":"Nebraska Crossing Outlets\n21355 Nebraska Crossing Drive\nSuite F-139\nGretna NE 68025\n(402) 332-5594"},{"longitude":-71.49976099999999,"latitude":42.8259282,"name":"OshKosh B'Gosh","address":"Merrimack Premium Outlets\n80 Premium Outlets Boulevard\nSuite 465\nMerrimack NH 03054\n(603) 424-6973"},{"longitude":-71.1147639,"latitude":44.024722,"name":"OshKosh B'Gosh","address":"Settlers Green Outlet Village\n2 Common Court\nSpace I-30\nNorth Conway NH 03860\n(603) 356-8937"},{"longitude":-71.55973,"latitude":43.45947899999999,"name":"OshKosh B'Gosh","address":"Tanger Outlet Center Tilton\n120 Laconia Road\nSpace #118\nTilton NH 03276\n(603) 286-3098"},{"longitude":-75.0521882,"latitude":39.7858525,"name":"OshKosh B'Gosh","address":"Gloucester Premium Outlets\n100 Premium Outlets Drive\nSuite #435\nBlackwood NJ 08012\n(856) 302-4582"},{"longitude":-74.3042243,"latitude":40.6312771,"name":"OshKosh B'Gosh","address":"Clark Commons\n1255 Raritan Road\nUnit #170\nClark NJ 07066\n(732) 388-4348"},{"longitude":-74.36160149999999,"latitude":40.8031059,"name":"OshKosh B'Gosh","address":"Castle Ridge Plaza\n374 State Route 10\nEast Hanover NJ 07936\n(973) 887-2405"},{"longitude":-74.1715816,"latitude":40.6601139,"name":"OshKosh B'Gosh","address":"The Mills at Jersey Gardens\n651 Kapkowski Rd.\nSpace 2004\nElizabeth NJ 07201\n(908) 352-4859"},{"longitude":-74.86151400000001,"latitude":40.503529,"name":"OshKosh B'Gosh","address":"Liberty Village Premium Outlets\n1 Church Street\nSuite #72\nFlemington NJ 08822\n(908) 782-7474"},{"longitude":-74.41735229999999,"latitude":40.1616896,"name":"OshKosh B'Gosh","address":"Jackson Premium Outlets\n537 Monmouth Rd.\nSpace 101\nJackson NJ 08527\n(732) 833-0242"},{"longitude":-74.9632756,"latitude":39.94018020000001,"name":"OshKosh B'Gosh","address":"East Gate Square\n1520 Nixon Drive\nMoorestown NJ 08057\n(856) 866-2950"},{"longitude":-74.0347439,"latitude":40.7758679,"name":"OshKosh B'Gosh","address":"Columbia Park Shopping Center\n3103 Kennedy Boulevard\nSuite #105\nNorth Bergen NJ 07047\n(201) 223-7847"},{"longitude":-74.0610322,"latitude":40.9163595,"name":"OshKosh B'Gosh","address":"Bergen Town Center\n2701 Bergen Town Center\nSuite 25\nParamus NJ 07652\n(201) 843-0593"},{"longitude":-74.094329,"latitude":40.224152,"name":"OshKosh B'Gosh","address":"Jersey Shore Premium Outlets\n1 Premium Blvd\nSuite #729\nTinton Falls NJ 07753\n(732) 493-3607"},{"longitude":-74.2994775,"latitude":40.6888997,"name":"OshKosh B'Gosh","address":"Union 22 Plaza\n910 Springfield Road\nUnion NJ 07083\n(908) 688-1908"},{"longitude":-74.2713498,"latitude":40.9391984,"name":"OshKosh B'Gosh","address":"Brentwood Plaza Shopping Center\n1653 State Route 23\nSpace 34\nWayne NJ 07470\n(973) 696-1710"},{"longitude":-115.0472617,"latitude":36.0586316,"name":"OshKosh B'Gosh","address":"Stephanie Street Power Center\n523 North Stephanie Street\nHenderson NV 89014\n(702) 435-1181"},{"longitude":-115.1689283,"latitude":36.0539333,"name":"OshKosh B'Gosh","address":"Las Vegas South Premium Outlets\n7400 South Las Vegas Blvd.\nSuite 75\nLas Vegas NV 89123\n(702) 897-1727"},{"longitude":-115.0640617,"latitude":36.159426,"name":"OshKosh B'Gosh","address":"Charleston Commons\n147 North Nellis Boulevard\nLas Vegas NV 89110\n(702) 453-0001"},{"longitude":-115.1577492,"latitude":36.1636508,"name":"OshKosh B'Gosh","address":"Las Vegas North Premium Outlets\n805 South Grand Central Parkway\nSuite 1973\nLas Vegas NV 89106\n(702) 221-1400"},{"longitude":-119.7207185,"latitude":39.5317981,"name":"OshKosh B'Gosh","address":"Legends at Sparks Marina\n1350 Scheels Dr.\nSuite 114\nSparks NV 89434\n(775) 358-5851"},{"longitude":-73.85697619999999,"latitude":40.8238186,"name":"OshKosh B'Gosh","address":"The Shops at Bruckner Boulevard\n845 White Plains Road\nBronx NY 10473\n(718) 822-2976"},{"longitude":-73.9051305,"latitude":40.877951,"name":"OshKosh B'Gosh","address":"5550 Broadway\n5550 Broadway\nBronx NY 10463\n(718) 732-1005"},{"longitude":-73.9166614,"latitude":40.625999,"name":"OshKosh B'Gosh","address":"Georgetown Shopping Center\n2099 Ralph Avenue\nBrooklyn NY 11234\n(718) 531-6062"},{"longitude":-73.99544350000001,"latitude":40.6032655,"name":"OshKosh B'Gosh","address":"Bensonhurst - 86th Street\n2111 86th Street\nBrooklyn NY 11214\n(718) 372-4327"},{"longitude":-73.9891331,"latitude":40.6381172,"name":"OshKosh B'Gosh","address":"Borough Park - 13th Avenue\n4316 Thirteenth Avenue\nBrooklyn NY 11219\n(718) 438-1024"},{"longitude":-73.6199184,"latitude":40.7465601,"name":"OshKosh B'Gosh","address":"Voice Road Plaza\n240 Voice Road\nCarle Place NY 11514\n(516) 248-2540"},{"longitude":-74.12576899999999,"latitude":41.31628,"name":"OshKosh B'Gosh","address":"Woodbury Common Premium Outlets\n601 Race Track Lane\nCentral Valley NY 10917\n(845) 928-4449"},{"longitude":-73.3033493,"latitude":40.76507429999999,"name":"OshKosh B'Gosh","address":"Tanger Outlet Center Deer Park\n762 The Arches Circle\nDeer Park NY 11729\n(631) 586-0487"},{"longitude":-73.8351872,"latitude":40.7572591,"name":"OshKosh B'Gosh","address":"The Shops at Sky View Center\n40-24 College Point Boulevard\nSpace #B-04a2\nFlushing NY 11354\n(718) 460-2624"},{"longitude":-73.5314125,"latitude":40.7730993,"name":"OshKosh B'Gosh","address":"Broadway Mall\n358 Broadway Mall\nSuite #522\nHicksville NY 11801\n(516) 932-5057"},{"longitude":-73.700721,"latitude":43.365763,"name":"OshKosh B'Gosh","address":"French Mountain Commons\n1439 Route 9\nBox 3095-8\nLake George NY 12845\n(518) 745-7910"},{"longitude":-73.94896709999999,"latitude":40.809726,"name":"OshKosh B'Gosh","address":"Harlem - W. 125th Street\n215 West 125th Street\nManhattan NY 10027\n(212) 865-1846"},{"longitude":-73.6945381,"latitude":40.7531367,"name":"OshKosh B'Gosh","address":"Lake Success\n1440 Union Turnpike\nNew Hyde Park NY 11040\n(516) 437-2050"},{"longitude":-78.9781667,"latitude":43.0989798,"name":"OshKosh B'Gosh","address":"Fashion Outlets of Niagara Falls USA\n1960 Military Rd.\nNiagara Falls NY 14304\n(716) 297-0277"},{"longitude":-78.7821587,"latitude":42.7920164,"name":"OshKosh B'Gosh","address":"Quaker Crossing\n3424 Amelia Drive\nOrchard Park NY 14127\n(716) 825-1304"},{"longitude":-73.9021479,"latitude":40.7006579,"name":"OshKosh B'Gosh","address":"Ridgewood - Myrtle Avenue\n57-33 Myrtle Avenue\nRidgewood NY 11385\n(718) 497-1941"},{"longitude":-72.71700469999999,"latitude":40.9195219,"name":"OshKosh B'Gosh","address":"Tanger Outlet Center Riverhead\n211 Tanger Dr.\nRiverhead NY 11901\n(631) 727-7657"},{"longitude":-77.62813799999999,"latitude":43.080673,"name":"OshKosh B'Gosh","address":"Jay Scutti Plaza\n300 Hylan Drive\nRochester NY 14623\n(585) 272-0489"},{"longitude":-74.027416,"latitude":41.10577500000001,"name":"OshKosh B'Gosh","address":"Spring Valley Marketplace\n17 Spring Valley Marketplace\nSpring Valley NY 10977\n(845) 426-6074"},{"longitude":-76.9213771,"latitude":42.9561869,"name":"OshKosh B'Gosh","address":"Waterloo Premium Outlets\n655 Route 318\nStore 10\nWaterloo NY 13165\n(315) 539-4900"},{"longitude":-73.8267844,"latitude":40.9838932,"name":"OshKosh B'Gosh","address":"Central Plaza\n2590 Central Park Avenue\nYonkers NY 10710\n(914) 961-1798"},{"longitude":-81.3435401,"latitude":41.3020292,"name":"OshKosh B'Gosh","address":"Aurora Farms Premium Outlets\n549 South Chillicothe Rd.\nAurora OH 44202\n(330) 562-8018"},{"longitude":-82.01767559999999,"latitude":41.4609135,"name":"OshKosh B'Gosh","address":"Avon Commons\n35894 Detroit Road\nAvon OH 44011\n(440) 937-0273"},{"longitude":-84.3771404,"latitude":39.2022336,"name":"OshKosh B'Gosh","address":"Kenwood Towne Centre\n7875 Montgomery Road\nSpace 87\nCincinnati OH 45236\n(513) 745-9436"},{"longitude":-82.980564,"latitude":40.139889,"name":"OshKosh B'Gosh","address":"Polaris Towne Center\n1311 Polaris Parkway\nColumbus OH 43240\n(614) 781-1746"},{"longitude":-83.087273,"latitude":40.09718900000001,"name":"OshKosh B'Gosh","address":"Sun Center\n3614 W Dublin Granville Road\nSpace #2C\nColumbus OH 43235\n(614) 793-8624"},{"longitude":-81.849687,"latitude":41.460802,"name":"OshKosh B'Gosh","address":"Westgate Shopping Center\n3165 Westgate\nSuite B204\nFairview Park OH 44126\n(440) 331-3732"},{"longitude":-83.60142139999999,"latitude":39.6204891,"name":"OshKosh B'Gosh","address":"Tanger Outlets at Jeffersonville\n8250 Factory Shops Boulevard\nSuite 240\nJeffersonville OH 43128\n(740) 948-2087"},{"longitude":-81.2965534,"latitude":41.6833372,"name":"OshKosh B'Gosh","address":"Creekside Commons\n9597 Mentor Avenue\nSuite 16\nMentor OH 44060\n(440) 350-1404"},{"longitude":-84.33713499999999,"latitude":39.433908,"name":"OshKosh B'Gosh","address":"Cincinnati Premium Outlets\n113 Premium Outlet Dr\nMonroe OH 45050\n(513) 539-7502"},{"longitude":-82.9244935,"latitude":40.2600052,"name":"OshKosh B'Gosh","address":"Tanger Outlets - Columbus\n400 South Wilson Road\nSuite 925\nSunbury OH 43074"},{"longitude":-83.6407345,"latitude":41.6945403,"name":"OshKosh B'Gosh","address":"Franklin Place\n5237 Monroe Street\nToledo OH 43623\n(419) 841-2855"},{"longitude":-97.64858509999999,"latitude":35.4622449,"name":"OshKosh B'Gosh","address":"Outlet Shoppes at Oklahoma City\n7638 West Reno Avenue, #E560\nOklahoma City OK 73127\n(405) 789-6691"},{"longitude":-97.551253,"latitude":35.566526,"name":"OshKosh B'Gosh","address":"Memorial Square\n13722 North Pennsylvania Avenue\nOklahoma City OK 73134\n(405) 753-9402"},{"longitude":-124.0105628,"latitude":44.9587207,"name":"OshKosh B'Gosh","address":"Lincoln City Outlets on the Coast\n1500 SE Devil's Lake Rd.\nSuite 303\nLincoln City OR 97367\n(541) 996-5081"},{"longitude":-122.8816973,"latitude":42.3437035,"name":"OshKosh B'Gosh","address":"Northgate Marketplace II\n279 Rossanely Drive\nSuite K-2\nMedford OR 97501\n(541) 608-5023"},{"longitude":-123.9164206,"latitude":46.0013095,"name":"OshKosh B'Gosh","address":"Seaside Factory Outlet Center\n1111 North Roosevelt Dr.\nSuite 344\nSeaside OR 97138\n(503) 717-8343"},{"longitude":-122.3889042,"latitude":45.5429279,"name":"OshKosh B'Gosh","address":"Columbia Gorge Outlets\n450 N.W. 257th Ave.\nSuite 416\nTroutdale OR 97060\n(503) 491-0148"},{"longitude":-122.8785493,"latitude":45.1561488,"name":"OshKosh B'Gosh","address":"Woodburn Premium Outlets\n1001 Arney Rd.\nSuite 304\nWoodburn OR 97071\n(503) 982-5779"},{"longitude":-75.41089199999999,"latitude":40.56009,"name":"OshKosh B'Gosh","address":"The Promenade Shops at Saucon Valley\n3060 Center Valley Parkway\nSpace 810\nCenter Valley PA 18034\n(610) 798-8257"},{"longitude":-77.201107,"latitude":39.7940175,"name":"OshKosh B'Gosh","address":"Outlet Shoppes at Gettysburg\n1863 Gettysburg Village Drive\nSpace #660\nGettysburg PA 17325"},{"longitude":-79.5814145,"latitude":40.3074272,"name":"OshKosh B'Gosh","address":"Greengate Center\n2030 Greengate Centre Circle\nGreensburg PA 15601\n(724) 834-1427"},{"longitude":-76.6480504,"latitude":40.2947553,"name":"OshKosh B'Gosh","address":"Tanger Outlets at Hershey\n75 Outlet Square\nSpace A-2\nHershey PA 17033\n(717) 520-0553"},{"longitude":-76.19806299999999,"latitude":40.020956,"name":"OshKosh B'Gosh","address":"Rockvale Square Outlets\n35 South Willowdale Dr.\nSuite 1825\nLancaster PA 17602\n(717) 299-5685"},{"longitude":-76.2216711,"latitude":40.0251993,"name":"OshKosh B'Gosh","address":"Tanger Outlet Center Lancaster\n221 Outlet Dr.\nLancaster PA 17602\n(717) 293-8620"},{"longitude":-75.678871,"latitude":41.36342,"name":"OshKosh B'Gosh","address":"Shoppes at Montage\n2161 Shoppes Boulevard\nMoosic PA 18507\n(570) 961-0717"},{"longitude":-75.14469919999999,"latitude":39.92259240000001,"name":"OshKosh B'Gosh","address":"Snyder Plaza\n21 Snyder Ave\nSpace SNE-2\nPhiladelphia PA 19148\n(215) 271-0264"},{"longitude":-74.96162269999999,"latitude":40.0874923,"name":"OshKosh B'Gosh","address":"Philadelphia Mills\n1442 Franklin Mills Circle\nPhiladelphia PA 19154\n(215) 281-0898"},{"longitude":-75.29174909999999,"latitude":40.1032126,"name":"OshKosh B'Gosh","address":"Metroplex\n2520 Chemical Road\n#S 12C\nPlymouth Meeting PA 19462\n(610) 828-5385"},{"longitude":-75.5705634,"latitude":40.236614,"name":"OshKosh B'Gosh","address":"Philadelphia Premium Outlets\n18 Lightcap Rd.\nSuite 1165\nPottstown PA 19464\n(610) 327-1354"},{"longitude":-75.3120734,"latitude":41.0471875,"name":"OshKosh B'Gosh","address":"The Crossings Premium Outlets\n1000 Premium Outlets Drive\nSuite #G-7\nTannersville PA 18372\n(570) 620-2042"},{"longitude":-80.212648,"latitude":40.2166,"name":"OshKosh B'Gosh","address":"Tanger Outlet Center Pittsburgh\n2200 Tanger Blvd.\nSuite #222\nWashington PA 15301\n(724) 222-1938"},{"longitude":-75.84117959999999,"latitude":41.2428015,"name":"OshKosh B'Gosh","address":"Arena Hub Plaza\n451 Arena Hub Plaza\nSuite #1\nWilkes Barre PA 18702\n(570) 821-7358"},{"longitude":-66.5408782,"latitude":18.4386764,"name":"OshKosh B'Gosh","address":"Puerto Rico Premium Outlets\nOne Prime Outlets Blvd\nSpace 720\nBarceloneta PR 00617\n(787) 846-3365"},{"longitude":-80.81991459999999,"latitude":32.239334,"name":"OshKosh B'Gosh","address":"Tanger Outlet Center Hilton Head\n1414 Fording Island Rd.\nSuite B100\nBluffton SC 29910\n(843) 837-6656"},{"longitude":-81.7121772,"latitude":35.0819733,"name":"OshKosh B'Gosh","address":"Gaffney Premium Outlets\n300 Factory Shops Blvd.\nGaffney SC 29341\n(864) 902-9600"},{"longitude":-78.7725481,"latitude":33.7843552,"name":"OshKosh B'Gosh","address":"Tanger Outlet Center Myrtle Beach Hwy 17\n10843 Kings Rd.\nSuite 695\nMyrtle Beach SC 29572\n(843) 449-6060"},{"longitude":-78.9580884,"latitude":33.7509763,"name":"OshKosh B'Gosh","address":"Tanger Outlet Center Myrtle Beach Hwy 501\n4638 Factory Stores Blvd.\nEE230\nMyrtle Beach SC 29579\n(843) 236-2445"},{"longitude":-80.0174001,"latitude":32.8720192,"name":"OshKosh B'Gosh","address":"Tanger Outlet Center N. Charleston\n4840 Tanger Outlet Blvd.\nSuite 751\nNorth Charleston SC 29418\n(843) 308-0361"},{"longitude":-103.186332,"latitude":44.0988959,"name":"OshKosh B'Gosh","address":"Rushmore Crossing\n1725 Eglin Street\nSuite #400\nRapid City SD 57703\n(605) 342-1648"},{"longitude":-82.264293,"latitude":36.59098609999999,"name":"OshKosh B'Gosh","address":"Tower Shops at The Pinnacle\n562 Pinnacle Parkway\nUnit 526\nBristol TN 37620\n(423) 764-4155"},{"longitude":-88.8584681,"latitude":35.6652104,"name":"OshKosh B'Gosh","address":"1150 Vann Drive Shopping Center\n1150 Vann Drive\nJackson TN 38305\n(731) 668-3833"},{"longitude":-84.1495049,"latitude":35.9012227,"name":"OshKosh B'Gosh","address":"Pavilion of Turkey Creek I\n11030 Parkside Drive\nSuite #19A\nKnoxville TN 37922\n(865) 966-9604"},{"longitude":-86.4452318,"latitude":35.8594895,"name":"OshKosh B'Gosh","address":"Avenue Murfreesboro\n2615 Medical Center Parkway\nSuite 1535\nMurfreesboro TN 37129\n(615) 907-9649"},{"longitude":-86.6929439,"latitude":36.2047112,"name":"OshKosh B'Gosh","address":"Opry Mills\n396 Opry Mills Drive\nNashville TN 37214\n(615) 823-3192"},{"longitude":-83.5686142,"latitude":35.796893,"name":"OshKosh B'Gosh","address":"Pigeon Forge Factory Outlet Mall\n2850 Parkway\n#6\nPigeon Forge TN 37863\n(865) 429-1506"},{"longitude":-83.5708664,"latitude":35.8333435,"name":"OshKosh B'Gosh","address":"Tanger Outlet Center Sevierville\n1645 Parkway\nSuite 1180\nSevierville TN 37862\n(865) 774-4149"},{"longitude":-96.6607514,"latitude":33.1327179,"name":"OshKosh B'Gosh","address":"Allen Premium Outlets\n820 West Stacy Rd.\nSuite 428\nAllen TX 75013\n(972) 678-0558"},{"longitude":-94.1549555,"latitude":30.1264648,"name":"OshKosh B'Gosh","address":"North Park Plaza\n5880 Eastex Freeway\nBeaumont TX 77708\n(409) 347-0926"},{"longitude":-96.9424152,"latitude":32.6017674,"name":"OshKosh B'Gosh","address":"Hillside Village\n305 W FM 1382, 541 & 542\nCedar Hill TX 75104\n(972) 293-9643"},{"longitude":-96.3174485,"latitude":30.6393904,"name":"OshKosh B'Gosh","address":"Gateway Station\n1505 University Drive East\nCollege Station TX 77840\n(979) 260-0159"},{"longitude":-97.37167009999999,"latitude":27.7100371,"name":"OshKosh B'Gosh","address":"La Palmera\n5488 South Padre Island Drive\nCorpus Christi TX 78411\n(361) 993-0213"},{"longitude":-95.7565733,"latitude":29.9970415,"name":"OshKosh B'Gosh","address":"Houston Premium Outlets\n29300 Hempstead Rd.\nSuite #854\nCypress TX 77433\n(281) 256-6197"},{"longitude":-98.1665888,"latitude":26.2632995,"name":"OshKosh B'Gosh","address":"The Shoppes at Rio Grande Valley\n329 East Trenton Road\nEdinburg TX 78539\n(956) 316-2384"},{"longitude":-106.3718191,"latitude":31.7705454,"name":"OshKosh B'Gosh","address":"The Fountains at Farah\n8889 Gateway Boulevard West\nSpace BU180\nEl Paso TX 79925\n(915) 599-9145"},{"longitude":-106.3058756,"latitude":31.7262845,"name":"OshKosh B'Gosh","address":"Las Palmas Marketplace\n1331 George Dieter Drive\nSpace #6\nEl Paso TX 79936\n(915) 594-4970"},{"longitude":-106.586125,"latitude":31.9127566,"name":"OshKosh B'Gosh","address":"Outlet Shoppes at El Paso\n7051 South Desert Blvd.\nSuite E530\nEl Paso TX 79835\n(915) 877-7368"},{"longitude":-97.3144277,"latitude":32.9124463,"name":"OshKosh B'Gosh","address":"Alliance Town Center\n3050 Texas Sage Trail\nSpace 410\nFort Worth TX 76177\n(817) 741-6844"},{"longitude":-97.05364,"latitude":32.6793746,"name":"OshKosh B'Gosh","address":"Grand Prairie Premium Outlets\n2950 West Interstate 20\nSuite #630\nGrand Prairie TX 75052\n(972) 602-4331"},{"longitude":-97.04276039999999,"latitude":32.965993,"name":"OshKosh B'Gosh","address":"Grapevine Mills\n3000 Grapevine Mills Parkway\nSuite 252\nGrapevine TX 76051\n(972) 724-2558"},{"longitude":-95.202559,"latitude":29.928117,"name":"OshKosh B'Gosh","address":"Westlake Marketplace\n14251 East Sam Houston Parkway North\nBuilding A, Suite 200\nHouston TX 77044\n(281) 459-4253"},{"longitude":-95.463274,"latitude":29.736449,"name":"OshKosh B'Gosh","address":"The Galleria\n5135 West Alabama\nSuite #5285\nHouston TX 77056\n(713) 623-0433"},{"longitude":-95.80937,"latitude":29.775746,"name":"OshKosh B'Gosh","address":"Katy Mills\n5000 Katy Mills Circle\nKaty TX 77494\n(281) 644-4674"},{"longitude":-99.512563,"latitude":27.502148,"name":"OshKosh B'Gosh","address":"Outlet Shoppes at Laredo\n1600 Water Street\nSuite A470\nLaredo TX 78040\n(956) 717-4906"},{"longitude":-99.47514679999999,"latitude":27.6082969,"name":"OshKosh B'Gosh","address":"Independence Plaza\n2450 Monarch Drive\nSuite #3C\nLaredo TX 78045\n(956) 712-8231"},{"longitude":-101.9211299,"latitude":33.5368032,"name":"OshKosh B'Gosh","address":"Central Plaza\n6227 Slide Road\nSuite 6223\nLubbock TX 79414\n(806) 793-1483"},{"longitude":-98.2126289,"latitude":26.187045,"name":"OshKosh B'Gosh","address":"Las Tiendas Plaza\n920 East Expressway 83\nMcAllen TX 78503\n(956) 928-1504"},{"longitude":-97.88779699999999,"latitude":26.162872,"name":"OshKosh B'Gosh","address":"Rio Grande Valley Premium Outlets\n5001 East Expressway 83\nSuite 419\nMercedes TX 78570\n(956) 514-2416"},{"longitude":-98.2842586,"latitude":26.1971765,"name":"OshKosh B'Gosh","address":"Sharyland Towne Crossing\n2515 East Expressway 83\nSuite 250 Space #2117\nMission TX 78572\n(956) 664-9444"},{"longitude":-95.38554260000001,"latitude":29.5576767,"name":"OshKosh B'Gosh","address":"<br \/>The Crossing at 288\n2730 Smith Ranch Rd.\nSuite 106\nPearland TX 77584\n(713) 436-7665"},{"longitude":-95.2630099,"latitude":29.5595099,"name":"OshKosh B'Gosh","address":"The Center at Pearland Parkway\n2550 Pearland Parkway\nSuite 140\nPearland TX 77581\n(281) 997-7938"},{"longitude":-97.6897003,"latitude":30.5664089,"name":"OshKosh B'Gosh","address":"Round Rock Premium Outlets\n4401 North IH-35\nSuite 715\nRound Rock TX 78664\n(512) 864-0131"},{"longitude":-98.64865929999999,"latitude":29.4373758,"name":"OshKosh B'Gosh","address":"Westover Marketplace\n8203 State Highway 151\nSuite 114\nSan Antonio TX 78245\n(210) 680-0517"},{"longitude":-97.98179239999999,"latitude":29.8287308,"name":"OshKosh B'Gosh","address":"San Marcos Premium Outlets\n3939 IH-35 South\nSuite 735\nSan Marcos TX 78666\n(512) 754-8822"},{"longitude":-95.5191845,"latitude":30.0886389,"name":"OshKosh B'Gosh","address":"Grand Parkway Marketplace\n6600 Spring Stuebner Road\nSuite 144\nSpring TX 77389\n(832) 717-0309"},{"longitude":-95.5861304,"latitude":29.6396785,"name":"OshKosh B'Gosh","address":"Fountains on the Lake\n12574 Fountains Lake Circle\nSuite 402\nStafford TX 77477\n(281) 265-1557"},{"longitude":-96.283827,"latitude":32.7025502,"name":"OshKosh B'Gosh","address":"Tanger Outlet Center Terrell\n301 Tanger Dr.\nSuite 103\nTerrell TX 75160\n(972) 551-3007"},{"longitude":-95.30529779999999,"latitude":32.2500713,"name":"OshKosh B'Gosh","address":"The Village at Cumberland Park\n8946 South Broadway\nSuite #104\nTyler TX 75703\n(903) 561-8297"},{"longitude":-95.14272869999999,"latitude":29.5380844,"name":"OshKosh B'Gosh","address":"Baybrook Square\n1259 West Bay Area Boulevard\nWebster TX 77598"},{"longitude":-111.8840763,"latitude":40.4351916,"name":"OshKosh B'Gosh","address":"Outlets at Traverse Mountain\n3700 North Cabelas Boulevard\nSuite #412\nLehi UT 84043\n(801) 901-1243"},{"longitude":-111.6801014,"latitude":40.2751349,"name":"OshKosh B'Gosh","address":"University Place\n575 East University Parkway\nSpace E-74\nOrem UT 84097\n(801) 225-0716"},{"longitude":-111.5518159,"latitude":40.7291402,"name":"OshKosh B'Gosh","address":"Tanger Outlet Center Park City\n6699 North Landmark Dr.\nSuite H135\nPark City UT 84098\n(435) 649-3763"},{"longitude":-111.9551575,"latitude":40.69367,"name":"OshKosh B'Gosh","address":"Valley Fair Mall\n3601 South 2700 West\nSpace TC-1\nWest Valley City UT 84119\n(801) 963-8267"},{"longitude":-77.1306019,"latitude":38.8524236,"name":"OshKosh B'Gosh","address":"Crossroads Center\n5841-A Crossroads Center Way\nFalls Church VA 22041\n(703) 575-8412"},{"longitude":-77.622282,"latitude":37.652644,"name":"OshKosh B'Gosh","address":"Corner at Short Pump\n11813 West Broad Street\n5B\nHenrico VA 23233\n(804) 360-4313"},{"longitude":-77.53845319999999,"latitude":39.1067666,"name":"OshKosh B'Gosh","address":"Leesburg Corner Premium Outlets\n241 Fort Evans Rd.\nSuite 689\nLeesburg VA 20176\n(703) 443-8960"},{"longitude":-76.49144559999999,"latitude":37.1036207,"name":"OshKosh B'Gosh","address":"Marketplace at Tech Center\n12080 Jefferson Avenue\nSuite #300\nNewport News VA 23602\n(757) 881-9689"},{"longitude":-76.1930517,"latitude":36.8780575,"name":"OshKosh B'Gosh","address":"Simon Premium Outlets\n1600 Premium Outlets Boulevard\nSuite 409\nNorfolk VA 23502\n(757) 614-2007"},{"longitude":-77.4982881,"latitude":37.581966,"name":"OshKosh B'Gosh","address":"The Shops At Willow Lawn\n1601 Willow Lawn Drive\nRichmond VA 23230\n(804) 288-0324"},{"longitude":-76.73818500000002,"latitude":37.31941,"name":"OshKosh B'Gosh","address":"Prime Outlets at Williamsburg\n5715 Richmond Rd.\nSpace 68\nWilliamsburg VA 23188\n(757) 564-0240"},{"longitude":-77.295063,"latitude":38.6433389,"name":"OshKosh B'Gosh","address":"Potomac Mills\n2700 Potomac Mills Circle\nSpace 55, Suite 801\nWoodbridge VA 22192\n(703) 491-4826"},{"longitude":-73.0807325,"latitude":44.5062766,"name":"OshKosh B'Gosh","address":"Essex Outlets\n21 Essex Way\nSuite 221\nEssex Junction VT 05452\n(802) 288-9258"},{"longitude":-122.2458133,"latitude":47.2989231,"name":"OshKosh B'Gosh","address":"The Outlet Collection Seattle\n1101 Outlet Collection Way\nSuite 1226\nAuburn WA 98001\n(253) 804-3155"},{"longitude":-122.3384169,"latitude":48.456168,"name":"OshKosh B'Gosh","address":"The Outlet Shoppes at Burlington\n456 Fashion Way\nBurlington WA 98233\n(360) 707-0345"},{"longitude":-121.795576,"latitude":47.490978,"name":"OshKosh B'Gosh","address":"North Bend Premium Outlets\n561 South Fork Ave.\nS.W., Suite 3B\nNorth Bend WA 98045\n(425) 831-5688"},{"longitude":-119.3132813,"latitude":46.2580093,"name":"OshKosh B'Gosh","address":"Vintner Square\n2947 Queensgate Drive\nRichland WA 99352"},{"longitude":-122.4793565,"latitude":47.2372963,"name":"OshKosh B'Gosh","address":"Tacoma Central\n3304 South 23rd Street\nSuite C2\nTacoma WA 98405\n(253) 272-0675"},{"longitude":-122.188311,"latitude":48.093531,"name":"OshKosh B'Gosh","address":"Seattle Premium Outlets\n10600 Quil Ceda Blvd.\nSuite 713\nTulalip WA 98271\n(360) 716-3891"},{"longitude":-122.1570453,"latitude":47.7571164,"name":"OshKosh B'Gosh","address":"Downtown Woodinville Retail Development\n17953 Garden Way NE\nWoodinville WA 98072\n(425) 483-1997"},{"longitude":-89.786099,"latitude":43.57298,"name":"OshKosh B'Gosh","address":"Outlets at the Dells\n210 Gasser Rd.\nSuite 1060\nBaraboo WI 53913\n(608) 253-1759"},{"longitude":-88.7629947,"latitude":43.0901443,"name":"OshKosh B'Gosh","address":"Johnson Creek Premium Outlets\n575 West Linmar Lane\nSuite A-125\nJohnson Creek WI 53038\n(920) 699-4904"},{"longitude":-88.58594699999999,"latitude":43.9834059,"name":"OshKosh B'Gosh","address":"The Outlet Shoppes at Oshkosh\n3001 South Washburn\nSuite A60\nOshKosh WI 54904\n(920) 426-5817"},{"longitude":-87.9484349,"latitude":42.5166633,"name":"OshKosh B'Gosh","address":"Pleasant Prairie Premium Outlets\n11601 108th St.\nPleasant Prairie WI 53158\n(262) 857-3975"},{"longitude":-88.056428,"latitude":43.077814,"name":"OshKosh B'Gosh","address":"Mayfair Collection\n11500 West Burleigh Street\nSuite 166\nWauwatosa WI 53222\n(414) 258-3080"},{"longitude":-82.26642210000001,"latitude":38.4223468,"name":"OshKosh B'Gosh","address":"Huntington Mall\n825 Mall Road\nSpace 830\nBarboursville WV 25504\n(304) 733-7071"}]