[{"latitude":" 39.86623","longitude":"-105.05302","name":" Outback Steakhouse","address":" USA-Westminster"},{"latitude":" 40.60958","longitude":"-111.85306","name":" Outback Steakhouse","address":" USA-Sandy"},{"latitude":" 34.97775","longitude":"-80.99007","name":" Outback Steakhouse","address":" USA-Rock Hill"},{"latitude":" 27.80922","longitude":"-82.75371","name":" Outback Steakhouse","address":" USA-St. Petersburg"},{"latitude":" 32.33736","longitude":"-111.01606","name":" Outback Steakhouse","address":" USA-Tucson"},{"latitude":" 36.04720","longitude":"-86.64806","name":" Outback Steakhouse","address":" USA-Antioch"},{"latitude":" 37.38586","longitude":"-79.16473","name":" Outback Steakhouse","address":" USA-Lynchburg"},{"latitude":" 43.01933","longitude":"-88.10694","name":" Outback Steakhouse","address":" USA-Brookfield"},{"latitude":" 36.29075","longitude":"-86.70357","name":" Outback Steakhouse","address":" USA-United States"},{"latitude":" 36.18311","longitude":"-86.32405","name":" Outback Steakhouse","address":" USA-Lebanon"},{"latitude":" 38.93389","longitude":"-104.81511","name":" Outback Steakhouse","address":" USA-Colorado Springs"},{"latitude":" 34.06994","longitude":"-117.54825","name":" Outback Steakhouse","address":" USA-Ontario"},{"latitude":" 34.61656","longitude":"-118.14910","name":" Outback Steakhouse","address":" USA-Palmdale"},{"latitude":" 34.17915","longitude":"-118.87448","name":" Outback Steakhouse","address":" USA-Thousand Oaks"},{"latitude":" 38.36886","longitude":"-122.71493","name":" Outback Steakhouse","address":" USA-Rohnert Park"},{"latitude":" 33.41828","longitude":"-86.68512","name":" Outback Steakhouse","address":" USA-Birmingham"},{"latitude":" 41.75483","longitude":"-88.20123","name":" Outback Steakhouse","address":" USA-Naperville"},{"latitude":" 42.01737","longitude":"-91.63410","name":" Outback Steakhouse","address":" USA-Cedar Rapids"},{"latitude":" 33.40178","longitude":"-86.80729","name":" Outback Steakhouse","address":" USA-Hoover"},{"latitude":" 21.28509","longitude":"-157.71550","name":" Outback Steakhouse","address":" USA-Honolulu"},{"latitude":" 42.37832","longitude":"-87.94258","name":" Outback Steakhouse","address":" USA-Gurnee"},{"latitude":" 42.74113","longitude":"-84.64744","name":" Outback Steakhouse","address":" USA-Lansing"},{"latitude":" 45.65655","longitude":"-122.58209","name":" Outback Steakhouse","address":" USA-United States"},{"latitude":" 40.60604","longitude":"-74.47093","name":" Outback Steakhouse","address":" USA-Brook"},{"latitude":" 39.03807","longitude":"-94.34526","name":" Outback Steakhouse","address":" USA-Independence"},{"latitude":" 37.40510","longitude":"-77.66129","name":" Outback Steakhouse","address":" USA-Midlothian"},{"latitude":" 30.29797","longitude":"-95.46553","name":" Outback Steakhouse","address":" USA-United States"},{"latitude":" 39.95472","longitude":"-82.83727","name":" Outback Steakhouse","address":" USA-Columbus"},{"latitude":" 39.72730","longitude":"-121.80212","name":" Outback Steakhouse","address":" USA-Chico"},{"latitude":" 41.31351","longitude":"-81.51401","name":" Outback Steakhouse","address":" USA-United States"},{"latitude":" 42.22593","longitude":"-88.28953","name":" Outback Steakhouse","address":" USA-Crystal Lake"},{"latitude":" 34.79569","longitude":"-92.22029","name":" Outback Steakhouse","address":" USA-North Little Rock"},{"latitude":" 33.74869","longitude":"-118.01049","name":" Outback Steakhouse","address":" USA-Westminster"},{"latitude":" 45.38067","longitude":"-122.76682","name":" Outback Steakhouse","address":" USA-United States"},{"latitude":" 29.54570","longitude":"-95.13265","name":" Outback Steakhouse","address":" USA-Webster"},{"latitude":" 38.13047","longitude":"-85.57725","name":" Outback Steakhouse","address":" USA-Louisville"},{"latitude":" 38.33748","longitude":"-75.10923","name":" Outback Steakhouse","address":" USA-Ocean City"},{"latitude":" 40.73460","longitude":"-73.87474","name":" Outback Steakhouse","address":" USA-Elmhurst"},{"latitude":" 34.10635","longitude":"-117.90758","name":" Outback Steakhouse","address":" USA-United States"},{"latitude":" 30.19432","longitude":"-92.01609","name":" Outback Steakhouse","address":" USA-United States"},{"latitude":" 38.47597","longitude":"-77.41954","name":" Outback Steakhouse","address":" USA-Stafford"},{"latitude":" 39.76375","longitude":"-86.32430","name":" Outback Steakhouse","address":" USA-Indianapolis"},{"latitude":" 40.61446","longitude":"-73.64488","name":" Outback Steakhouse","address":" USA-Island Park"},{"latitude":" 32.79930","longitude":"-80.02130","name":" Outback Steakhouse","address":" USA-Charleston"},{"latitude":" 38.96619","longitude":"-77.36846","name":" Outback Steakhouse","address":" USA-United States"},{"latitude":" 41.08260","longitude":"-111.98405","name":" Outback Steakhouse","address":" USA-United States"},{"latitude":" 32.60560","longitude":"-96.82351","name":" Outback Steakhouse","address":" USA-DeSoto"},{"latitude":" 38.30634","longitude":"-85.57603","name":" Outback Steakhouse","address":" USA-Louisville"},{"latitude":" 39.64383","longitude":"-84.15437","name":" Outback Steakhouse","address":" USA-Centerville"},{"latitude":" 36.13789","longitude":"-85.51131","name":" Outback Steakhouse","address":" USA-Cookeville"},{"latitude":" 40.46054","longitude":"-78.41213","name":" Outback Steakhouse","address":" USA-Altoona"},{"latitude":" 40.09884","longitude":"-75.12576","name":" Outback Steakhouse","address":" USA-Jenkintown"},{"latitude":" 40.11658","longitude":"-74.95878","name":" Outback Steakhouse","address":" USA-Bensalem"},{"latitude":" 32.25055","longitude":"-110.88904","name":" Outback Steakhouse","address":" USA-Tucson"},{"latitude":" 40.86366","longitude":"-74.39324","name":" Outback Steakhouse","address":" USA-Parsippany"},{"latitude":" 32.78142","longitude":"-117.03167","name":" Outback Steakhouse","address":" USA-La Mesa"},{"latitude":" 28.34119","longitude":"-81.59817","name":" Outback Steakhouse","address":" USA-Hwy. Kissimmee"},{"latitude":" 36.23949","longitude":"-115.17763","name":" Outback Steakhouse","address":" USA-Las Vegas"},{"latitude":" 34.77250","longitude":"-87.66995","name":" Outback Steakhouse","address":" USA-Sheffield"},{"latitude":" 32.41882","longitude":"-93.73644","name":" Outback Steakhouse","address":" USA-Shreveport"},{"latitude":" 36.14362","longitude":"-86.81897","name":" Outback Steakhouse","address":" USA-Nashville"},{"latitude":" 37.98035","longitude":"-84.52843","name":" Outback Steakhouse","address":" USA-Lexington"},{"latitude":" 43.12750","longitude":"-89.30712","name":" Outback Steakhouse","address":" USA-Madison"},{"latitude":" 40.50420","longitude":"-80.19341","name":" Outback Steakhouse","address":" USA-Moon Township"},{"latitude":" 39.62990","longitude":"-77.76942","name":" Outback Steakhouse","address":" USA-Hagerstown"},{"latitude":" 26.34440","longitude":"-81.80590","name":" Outback Steakhouse","address":" USA-Bonita Springs"},{"latitude":" 33.45702","longitude":"-94.08379","name":" Outback Steakhouse","address":" USA-Texarkana"},{"latitude":" 32.56351","longitude":"-97.31784","name":" Outback Steakhouse","address":" USA-Burleson"},{"latitude":" 25.68776","longitude":"-80.38418","name":" Outback Steakhouse","address":" USA-Kendall"},{"latitude":" 33.45171","longitude":"-111.79038","name":" Outback Steakhouse","address":" USA-Mesa"},{"latitude":" 32.65762","longitude":"-117.06941","name":" Outback Steakhouse","address":" USA-National City"},{"latitude":" 29.97887","longitude":"-95.51464","name":" Outback Steakhouse","address":" USA-Houston"},{"latitude":" 40.05627","longitude":"-74.13523","name":" Outback Steakhouse","address":" USA-Brick"},{"latitude":" 41.83277","longitude":"-88.10163","name":" Outback Steakhouse","address":" USA-Wheaton"},{"latitude":" 37.28933","longitude":"-121.93167","name":" Outback Steakhouse","address":" USA-Campbell"},{"latitude":" 30.38888","longitude":"-87.68335","name":" Outback Steakhouse","address":" USA-United States"},{"latitude":" 45.45426","longitude":"-122.57910","name":" Outback Steakhouse","address":" USA-Portland"},{"latitude":" 37.41224","longitude":"-121.89638","name":" Outback Steakhouse","address":" USA-Milpitas"},{"latitude":" 40.07323","longitude":"-75.43027","name":" Outback Steakhouse","address":" USA-Wayne"},{"latitude":" 46.88723","longitude":"-114.03929","name":" Outback Steakhouse","address":" USA-Missoula"},{"latitude":" 36.11440","longitude":"-115.10088","name":" Outback Steakhouse","address":" USA-Las Vegas"},{"latitude":" 40.27812","longitude":"-76.82861","name":" Outback Steakhouse","address":" USA-Harrisburg"},{"latitude":" 27.38871","longitude":"-82.50551","name":" Outback Steakhouse","address":" USA-Road Sarasota"},{"latitude":" 37.30223","longitude":"-89.58081","name":" Outback Steakhouse","address":" USA-Cape Girardeau"},{"latitude":" 20.76508","longitude":"-156.42498","name":" Outback Steakhouse","address":" USA-Kihei Maui"},{"latitude":" 45.13189","longitude":"-93.27079","name":" Outback Steakhouse","address":" USA-Coon Rapids"},{"latitude":" 28.49185","longitude":"-81.45919","name":" Outback Steakhouse","address":" USA-Orlando"},{"latitude":" 35.33921","longitude":"-82.44122","name":" Outback Steakhouse","address":" USA-Hendersonville"},{"latitude":" 28.05426","longitude":"-82.50406","name":" Outback Steakhouse","address":" USA-Tampa"},{"latitude":" 37.52512","longitude":"-121.98553","name":" Outback Steakhouse","address":" USA-Fremont"},{"latitude":" 39.93894","longitude":"-75.00319","name":" Outback Steakhouse","address":" USA-Cherry Hill"},{"latitude":" 36.11546","longitude":"-115.18895","name":" Outback Steakhouse","address":" USA-Las Vegas"},{"latitude":" 38.86738","longitude":"-77.11688","name":" Outback Steakhouse","address":" USA-Arlington"},{"latitude":" 45.55613","longitude":"-94.21659","name":" Outback Steakhouse","address":" USA-Waite Park"},{"latitude":" 29.56367","longitude":"-98.33064","name":" Outback Steakhouse","address":" USA-Selma"},{"latitude":" 28.00399","longitude":"-81.72602","name":" Outback Steakhouse","address":" USA-Haven"},{"latitude":" 34.05686","longitude":"-84.37920","name":" Outback Steakhouse","address":" USA-Roswell"},{"latitude":" 33.85263","longitude":"-84.60899","name":" Outback Steakhouse","address":" USA-Austell"},{"latitude":" 35.35428","longitude":"-119.05730","name":" Outback Steakhouse","address":" USA-Bakersfield"},{"latitude":" 41.39842","longitude":"-81.64997","name":" Outback Steakhouse","address":" USA-Independence"},{"latitude":" 38.78777","longitude":"-90.34925","name":" Outback Steakhouse","address":" USA-Hazelwood"},{"latitude":" 34.44118","longitude":"-119.82264","name":" Outback Steakhouse","address":" USA-Goleta"},{"latitude":" 34.46431","longitude":"-93.05846","name":" Outback Steakhouse","address":" USA-Hot Springs"},{"latitude":" 32.52310","longitude":"-93.70205","name":" Outback Steakhouse","address":" USA-Bossier"},{"latitude":" 42.50927","longitude":"-82.92902","name":" Outback Steakhouse","address":" USA-Roseville"},{"latitude":" 35.76201","longitude":"-78.78338","name":" Outback Steakhouse","address":" USA-Cary"},{"latitude":" 39.64909","longitude":"-79.89994","name":" Outback Steakhouse","address":" USA-Morgantown"},{"latitude":" 38.59280","longitude":"-90.56282","name":" Outback Steakhouse","address":" USA-Ellisville"},{"latitude":" 26.14847","longitude":"-80.26756","name":" Outback Steakhouse","address":" USA-Pine Island"},{"latitude":" 35.13378","longitude":"-89.98640","name":" Outback Steakhouse","address":" USA-Memphis"},{"latitude":" 42.19889","longitude":"-83.21626","name":" Outback Steakhouse","address":" USA-Southgate"},{"latitude":" 33.96591","longitude":"-84.25443","name":" Outback Steakhouse","address":" USA-Norcross"},{"latitude":" 32.92387","longitude":"-97.08903","name":" Outback Steakhouse","address":" USA-Grapevine"},{"latitude":" 33.69421","longitude":"-117.79810","name":" Outback Steakhouse","address":" USA-Irvine"},{"latitude":" 40.96469","longitude":"-74.24340","name":" Outback Steakhouse","address":" USA-Wayne"},{"latitude":" 34.06588","longitude":"-117.27140","name":" Outback Steakhouse","address":" USA-San Bernardino"},{"latitude":" 30.50026","longitude":"-84.24614","name":" Outback Steakhouse","address":" USA-United States"},{"latitude":" 39.91249","longitude":"-86.06941","name":" Outback Steakhouse","address":" USA-Indianapolis"},{"latitude":" 36.58372","longitude":"-87.29616","name":" Outback Steakhouse","address":" USA-Clarksville"},{"latitude":" 29.19643","longitude":"-81.05819","name":" Outback Steakhouse","address":" USA-Daytona Beach"},{"latitude":" 33.88424","longitude":"-117.51615","name":" Outback Steakhouse","address":" USA-Corona"},{"latitude":" 42.99712","longitude":"-78.82235","name":" Outback Steakhouse","address":" USA-United States"},{"latitude":" 29.62314","longitude":"-82.37663","name":" Outback Steakhouse","address":" USA-Gainesville"},{"latitude":" 37.25115","longitude":"-77.39358","name":" Outback Steakhouse","address":" USA-Colonial Heights"},{"latitude":" 37.68565","longitude":"-97.42604","name":" Outback Steakhouse","address":" USA-Wichita"},{"latitude":" 29.48280","longitude":"-98.60035","name":" Outback Steakhouse","address":" USA-San Antonio"},{"latitude":" 26.20589","longitude":"-81.80023","name":" Outback Steakhouse","address":" USA-Naples"},{"latitude":" 29.73711","longitude":"-95.54835","name":" Outback Steakhouse","address":" USA-Houston"},{"latitude":" 38.77041","longitude":"-77.08157","name":" Outback Steakhouse","address":" USA-Alexandria"},{"latitude":" 30.23592","longitude":"-97.79280","name":" Outback Steakhouse","address":" USA-Austin"},{"latitude":" 42.78481","longitude":"-78.81119","name":" Outback Steakhouse","address":" USA-Blasdell"},{"latitude":" 28.03735","longitude":"-80.62176","name":" Outback Steakhouse","address":" USA-Palm Bay"},{"latitude":" 40.57622","longitude":"-80.02578","name":" Outback Steakhouse","address":" USA-Pittsburgh"},{"latitude":" 38.52622","longitude":"-90.36612","name":" Outback Steakhouse","address":" USA-Louis"},{"latitude":" 35.84605","longitude":"-86.42787","name":" Outback Steakhouse","address":" USA-Murfreesboro"},{"latitude":" 36.00521","longitude":"-84.25118","name":" Outback Steakhouse","address":" USA-Oak Ridge"},{"latitude":" 41.68677","longitude":"-91.60336","name":" Outback Steakhouse","address":" USA-Coralville"},{"latitude":" 39.42501","longitude":"-76.77789","name":" Outback Steakhouse","address":" USA-Owings Mills"},{"latitude":" 38.52959","longitude":"-76.98267","name":" Outback Steakhouse","address":" USA-La Plata"},{"latitude":" 37.11253","longitude":"-76.49960","name":" Outback Steakhouse","address":" USA-Newport"},{"latitude":" 33.91341","longitude":"-118.07263","name":" Outback Steakhouse","address":" USA-Norwalk"},{"latitude":" 44.03683","longitude":"-121.30453","name":" Outback Steakhouse","address":" USA-Bend"},{"latitude":" 27.97043","longitude":"-81.96279","name":" Outback Steakhouse","address":" USA-Lakeland"},{"latitude":" 33.63636","longitude":"-117.92182","name":" Outback Steakhouse","address":" USA-Costa Mesa"},{"latitude":" 36.07081","longitude":"-115.07707","name":" Outback Steakhouse","address":" USA-Henderson"},{"latitude":" 31.08748","longitude":"-97.71187","name":" Outback Steakhouse","address":" USA-Killeen"},{"latitude":" 33.63876","longitude":"-112.18003","name":" Outback Steakhouse","address":" USA-Glendale"},{"latitude":" 39.63316","longitude":"-106.51847","name":" Outback Steakhouse","address":" USA-Avon"},{"latitude":" 41.70205","longitude":"-86.18746","name":" Outback Steakhouse","address":" USA-Mishawaka"},{"latitude":" 38.29721","longitude":"-77.51153","name":" Outback Steakhouse","address":" USA-Fredericksburg"},{"latitude":" 47.70904","longitude":"-117.41136","name":" Outback Steakhouse","address":" USA-Spokane"},{"latitude":" 40.07602","longitude":"-80.87126","name":" Outback Steakhouse","address":" USA-Clairsville"},{"latitude":" 41.03046","longitude":"-73.76248","name":" Outback Steakhouse","address":" USA-White Plains"},{"latitude":" 38.90527","longitude":"-77.26056","name":" Outback Steakhouse","address":" USA-Vienna"},{"latitude":" 41.55652","longitude":"-90.55679","name":" Outback Steakhouse","address":" USA-Davenport"},{"latitude":" 38.30940","longitude":"-76.53110","name":" Outback Steakhouse","address":" USA-California"},{"latitude":" 24.89977","longitude":"-80.65633","name":" Outback Steakhouse","address":" USA-Islamorada"},{"latitude":" 33.85372","longitude":"-118.13379","name":" Outback Steakhouse","address":" USA-Lakewood"},{"latitude":" 40.75907","longitude":"-73.96837","name":" Outback Steakhouse","address":" USA-New York"},{"latitude":" 33.51117","longitude":"-81.71302","name":" Outback Steakhouse","address":" USA-United States"},{"latitude":" 38.15860","longitude":"-92.60513","name":" Outback Steakhouse","address":" USA-Osage Beach"},{"latitude":" 41.60747","longitude":"-87.79416","name":" Outback Steakhouse","address":" USA-Orland Park"},{"latitude":" 25.91406","longitude":"-80.32748","name":" Outback Steakhouse","address":" USA-Lakes"},{"latitude":" 29.80561","longitude":"-94.97826","name":" Outback Steakhouse","address":" USA-Baytown"},{"latitude":" 41.70127","longitude":"-83.65100","name":" Outback Steakhouse","address":" USA-Toledo"},{"latitude":" 28.30441","longitude":"-81.43404","name":" Outback Steakhouse","address":" USA-Kissimmee"},{"latitude":" 28.68368","longitude":"-81.41878","name":" Outback Steakhouse","address":" USA-Springs"},{"latitude":" 38.79173","longitude":"-104.79736","name":" Outback Steakhouse","address":" USA-Colorado Springs"},{"latitude":" 42.40791","longitude":"-71.08339","name":" Outback Steakhouse","address":" USA-Medford"},{"latitude":" 39.25167","longitude":"-84.59819","name":" Outback Steakhouse","address":" USA-Cincinnati"},{"latitude":" 37.73984","longitude":"-84.26669","name":" Outback Steakhouse","address":" USA-Richmond"},{"latitude":" 39.55979","longitude":"-104.98728","name":" Outback Steakhouse","address":" USA-Ranch"},{"latitude":" 43.60499","longitude":"-116.60327","name":" Outback Steakhouse","address":" USA-Nampa"},{"latitude":" 27.46253","longitude":"-82.60506","name":" Outback Steakhouse","address":" USA-Bradenton"},{"latitude":" 26.58964","longitude":"-80.14409","name":" Outback Steakhouse","address":" USA-Lake Worth"},{"latitude":" 30.42349","longitude":"-91.15124","name":" Outback Steakhouse","address":" USA-Baton Rouge"},{"latitude":" 42.69629","longitude":"-71.43822","name":" Outback Steakhouse","address":" USA-Tyngsboro"},{"latitude":" 26.71495","longitude":"-80.10036","name":" Outback Steakhouse","address":" USA-West Palm Beach"},{"latitude":" 35.43938","longitude":"-80.87077","name":" Outback Steakhouse","address":" USA-Huntersville"},{"latitude":" 30.41637","longitude":"-97.74593","name":" Outback Steakhouse","address":" USA-Austin"},{"latitude":" 38.42962","longitude":"-78.84996","name":" Outback Steakhouse","address":" USA-Harrisonburg"},{"latitude":" 42.11221","longitude":"-71.47291","name":" Outback Steakhouse","address":" USA-Bellingham"},{"latitude":" 30.44218","longitude":"-88.89348","name":" Outback Steakhouse","address":" USA-D'Iberville"},{"latitude":" 32.67845","longitude":"-97.09040","name":" Outback Steakhouse","address":" USA-Arlington"},{"latitude":" 42.71307","longitude":"-83.41011","name":" Outback Steakhouse","address":" USA-Clarkston"},{"latitude":" 42.36687","longitude":"-122.85596","name":" Outback Steakhouse","address":" USA-Medford"},{"latitude":" 27.54936","longitude":"-99.50426","name":" Outback Steakhouse","address":" USA-Laredo"},{"latitude":" 34.75518","longitude":"-86.73462","name":" Outback Steakhouse","address":" USA-Madison"},{"latitude":" 38.01885","longitude":"-84.41433","name":" Outback Steakhouse","address":" USA-Lexington"},{"latitude":" 39.96138","longitude":"-105.16420","name":" Outback Steakhouse","address":" USA-Louisville"},{"latitude":" 40.90850","longitude":"-73.06633","name":" Outback Steakhouse","address":" USA-E. Setauket"},{"latitude":" 29.15864","longitude":"-82.17683","name":" Outback Steakhouse","address":" USA-Ocala"},{"latitude":" 41.60096","longitude":"-87.57437","name":" Outback Steakhouse","address":" USA-Calumet City"},{"latitude":" 43.20791","longitude":"-77.67954","name":" Outback Steakhouse","address":" USA-Rochester"},{"latitude":" 37.30546","longitude":"-76.72893","name":" Outback Steakhouse","address":" USA-Williamsburg"},{"latitude":" 40.24929","longitude":"-75.24191","name":" Outback Steakhouse","address":" USA-Montgomeryville"},{"latitude":" 36.09438","longitude":"-95.92227","name":" Outback Steakhouse","address":" USA-Tulsa"},{"latitude":" 43.17364","longitude":"-87.91247","name":" Outback Steakhouse","address":" USA-United States"},{"latitude":" 40.16221","longitude":"-105.19999","name":" Outback Steakhouse","address":" USA-Longmont"},{"latitude":" 43.02654","longitude":"-85.68947","name":" Outback Steakhouse","address":" USA-Grand Rapids"},{"latitude":" 41.44646","longitude":"-74.36483","name":" Outback Steakhouse","address":" USA-Walkill"},{"latitude":" 40.39082","longitude":"-74.11161","name":" Outback Steakhouse","address":" USA-United States"},{"latitude":" 33.82840","longitude":"-118.35200","name":" Outback Steakhouse","address":" USA-Torrance"},{"latitude":" 33.57813","longitude":"-79.02342","name":" Outback Steakhouse","address":" USA-Murrells Inlet"},{"latitude":" 42.61295","longitude":"-71.32198","name":" Outback Steakhouse","address":" USA-Lowell"},{"latitude":" 43.50314","longitude":"-112.05150","name":" Outback Steakhouse","address":" USA-Idaho Falls"},{"latitude":" 38.94301","longitude":"-94.37823","name":" Outback Steakhouse","address":" USA-Summit"},{"latitude":" 37.05062","longitude":"-94.47827","name":" Outback Steakhouse","address":" USA-Joplin"},{"latitude":" 37.66576","longitude":"-122.46878","name":" Outback Steakhouse","address":" USA-Daly City"},{"latitude":" 29.68676","longitude":"-95.45852","name":" Outback Steakhouse","address":" USA-Houston"},{"latitude":" 32.76773","longitude":"-117.14637","name":" Outback Steakhouse","address":" USA-United States"},{"latitude":" 39.42251","longitude":"-87.41606","name":" Outback Steakhouse","address":" USA-Terre Haute"},{"latitude":" 35.15558","longitude":"-89.79547","name":" Outback Steakhouse","address":" USA-Cordova"},{"latitude":" 38.96447","longitude":"-92.35443","name":" Outback Steakhouse","address":" USA-Columbia"},{"latitude":" 42.01194","longitude":"-87.76632","name":" Outback Steakhouse","address":" USA-Skokie"},{"latitude":" 34.37663","longitude":"-118.56519","name":" Outback Steakhouse","address":" USA-Newhall"},{"latitude":" 30.05643","longitude":"-94.13920","name":" Outback Steakhouse","address":" USA-Beaumont"},{"latitude":" 40.16297","longitude":"-85.37398","name":" Outback Steakhouse","address":" USA-Muncie"},{"latitude":" 43.63539","longitude":"-70.32043","name":" Outback Steakhouse","address":" USA-South Portland"},{"latitude":" 30.67312","longitude":"-88.13476","name":" Outback Steakhouse","address":" USA-Mobile"},{"latitude":" 35.10746","longitude":"-92.43585","name":" Outback Steakhouse","address":" USA-Conway"},{"latitude":" 35.20112","longitude":"-80.84354","name":" Outback Steakhouse","address":" USA-Charlotte"},{"latitude":" 41.03264","longitude":"-85.25962","name":" Outback Steakhouse","address":" USA-Ft. Wayne"},{"latitude":" 42.26685","longitude":"-88.99941","name":" Outback Steakhouse","address":" USA-Rockford"},{"latitude":" 29.56036","longitude":"-98.59073","name":" Outback Steakhouse","address":" USA-San Antonio"},{"latitude":" 30.44039","longitude":"-90.08059","name":" Outback Steakhouse","address":" USA-Covington"},{"latitude":" 39.49027","longitude":"-119.79577","name":" Outback Steakhouse","address":" USA-Reno"},{"latitude":" 42.18268","longitude":"-71.86632","name":" Outback Steakhouse","address":" USA-Auburn"},{"latitude":" 31.16062","longitude":"-81.38817","name":" Outback Steakhouse","address":" USA-Simons Island"},{"latitude":" 35.81180","longitude":"-90.71653","name":" Outback Steakhouse","address":" USA-Jonesboro"},{"latitude":" 41.47422","longitude":"-81.89644","name":" Outback Steakhouse","address":" USA-Westlake"},{"latitude":" 34.77810","longitude":"-77.39362","name":" Outback Steakhouse","address":" USA-Jacksonville"},{"latitude":" 28.38572","longitude":"-81.49636","name":" Outback Steakhouse","address":" USA-Orlando"},{"latitude":" 25.76974","longitude":"-80.32934","name":" Outback Steakhouse","address":" USA-United States"},{"latitude":" 42.54733","longitude":"-83.36094","name":" Outback Steakhouse","address":" USA-West Bloomfield"},{"latitude":" 28.05082","longitude":"-82.39354","name":" Outback Steakhouse","address":" USA-Temple Terrace"},{"latitude":" 42.65368","longitude":"-83.13265","name":" Outback Steakhouse","address":" USA-Rochester"},{"latitude":" 25.64791","longitude":"-80.34001","name":" Outback Steakhouse","address":" USA-Miami"},{"latitude":" 32.03834","longitude":"-102.10916","name":" Outback Steakhouse","address":" USA-Midland"},{"latitude":" 40.03370","longitude":"-75.58018","name":" Outback Steakhouse","address":" USA-Frazer"},{"latitude":" 39.28197","longitude":"-76.58260","name":" Outback Steakhouse","address":" USA-Baltimore"},{"latitude":" 31.52277","longitude":"-97.16901","name":" Outback Steakhouse","address":" USA-Waco"},{"latitude":" 32.63814","longitude":"-85.41062","name":" Outback Steakhouse","address":" USA-Opelika"},{"latitude":" 42.55103","longitude":"-83.79328","name":" Outback Steakhouse","address":" USA-Brighton"},{"latitude":" 33.78874","longitude":"-117.91484","name":" Outback Steakhouse","address":" USA-Garden Grove"},{"latitude":" 32.61431","longitude":"-83.71437","name":" Outback Steakhouse","address":" USA-Warner Robins"},{"latitude":" 35.13611","longitude":"-80.71447","name":" Outback Steakhouse","address":" USA-Matthews"},{"latitude":" 39.20584","longitude":"-84.36689","name":" Outback Steakhouse","address":" USA-Cincinnati"},{"latitude":" 37.70075","longitude":"-121.93255","name":" Outback Steakhouse","address":" USA-Dublin"},{"latitude":" 27.25125","longitude":"-82.51410","name":" Outback Steakhouse","address":" USA-Sarasota"},{"latitude":" 42.49153","longitude":"-83.52255","name":" Outback Steakhouse","address":" USA-Novi"},{"latitude":" 35.19433","longitude":"-111.62009","name":" Outback Steakhouse","address":" USA-Flagstaff"},{"latitude":" 44.86433","longitude":"-93.43595","name":" Outback Steakhouse","address":" USA-Eden Prairie"},{"latitude":" 32.40178","longitude":"-99.76462","name":" Outback Steakhouse","address":" USA-Abilene"},{"latitude":" 42.91251","longitude":"-85.57685","name":" Outback Steakhouse","address":" USA-Kentwood"},{"latitude":" 35.08754","longitude":"-80.85882","name":" Outback Steakhouse","address":" USA-Charlotte"},{"latitude":" 40.34339","longitude":"-75.97111","name":" Outback Steakhouse","address":" USA-Wyomissing"},{"latitude":" 30.19386","longitude":"-93.17972","name":" Outback Steakhouse","address":" USA-Lake Charles"},{"latitude":" 38.76923","longitude":"-90.52126","name":" Outback Steakhouse","address":" USA-Charles"},{"latitude":" 36.80134","longitude":"-76.17484","name":" Outback Steakhouse","address":" USA-Virginia Beach"},{"latitude":" 42.46270","longitude":"-83.20123","name":" Outback Steakhouse","address":" USA-Southfield"},{"latitude":" 43.09791","longitude":"-70.79921","name":" Outback Steakhouse","address":" USA-Newington"},{"latitude":" 30.02076","longitude":"-95.42991","name":" Outback Steakhouse","address":" USA-Houston"},{"latitude":" 30.49554","longitude":"-97.67853","name":" Outback Steakhouse","address":" USA-Round Rock"},{"latitude":" 28.24662","longitude":"-82.35268","name":" Outback Steakhouse","address":" USA-Wesley Chapel"},{"latitude":" 39.09637","longitude":"-76.89815","name":" Outback Steakhouse","address":" USA-Laurel"},{"latitude":" 21.41364","longitude":"-158.00156","name":" Outback Steakhouse","address":" USA-Waipahu"},{"latitude":" 33.93967","longitude":"-117.26486","name":" Outback Steakhouse","address":" USA-Moreno Valley"},{"latitude":" 30.31915","longitude":"-81.55432","name":" Outback Steakhouse","address":" USA-Jacksonville"},{"latitude":" 41.12346","longitude":"-85.12599","name":" Outback Steakhouse","address":" USA-Ft. Wayne"},{"latitude":" 43.22478","longitude":"-71.49025","name":" Outback Steakhouse","address":" USA-Concord"},{"latitude":" 42.24748","longitude":"-85.58984","name":" Outback Steakhouse","address":" USA-Kalamazoo"},{"latitude":" 28.60045","longitude":"-81.32732","name":" Outback Steakhouse","address":" USA-Winter Park"},{"latitude":" 34.29561","longitude":"-83.84869","name":" Outback Steakhouse","address":" USA-Gainesville"},{"latitude":" 25.79744","longitude":"-80.12834","name":" Outback Steakhouse","address":" USA-Miami Beach"},{"latitude":" 29.84851","longitude":"-95.50406","name":" Outback Steakhouse","address":" USA-Houston"},{"latitude":" 29.60848","longitude":"-90.74783","name":" Outback Steakhouse","address":" USA-United States"},{"latitude":" 36.63084","longitude":"-82.12266","name":" Outback Steakhouse","address":" USA-Bristol"},{"latitude":" 36.12177","longitude":"-115.17186","name":" Outback Steakhouse","address":" USA-Las Vegas"},{"latitude":" 42.24526","longitude":"-71.00288","name":" Outback Steakhouse","address":" USA-United States"},{"latitude":" 41.40221","longitude":"-82.65795","name":" Outback Steakhouse","address":" USA-Perkins Township"},{"latitude":" 30.40626","longitude":"-91.01624","name":" Outback Steakhouse","address":" USA-Baton Rouge"},{"latitude":" 33.51165","longitude":"-82.04011","name":" Outback Steakhouse","address":" USA-Augusta"},{"latitude":" 27.78963","longitude":"-82.63864","name":" Outback Steakhouse","address":" USA-Petersburg"},{"latitude":" 28.54674","longitude":"-81.72414","name":" Outback Steakhouse","address":" USA-United States"},{"latitude":" 34.25084","longitude":"-83.46125","name":" Outback Steakhouse","address":" USA-Commerce"},{"latitude":" 34.85684","longitude":"-82.33345","name":" Outback Steakhouse","address":" USA-Greenville"},{"latitude":" 27.85721","longitude":"-82.20472","name":" Outback Steakhouse","address":" USA-Lithia"},{"latitude":" 39.69714","longitude":"-75.72036","name":" Outback Steakhouse","address":" USA-Newark"},{"latitude":" 39.07750","longitude":"-108.53694","name":" Outback Steakhouse","address":" USA-Grand Junction"},{"latitude":" 41.41199","longitude":"-73.41186","name":" Outback Steakhouse","address":" USA-Danbury"},{"latitude":" 41.99663","longitude":"-72.58311","name":" Outback Steakhouse","address":" USA-Enfield"},{"latitude":" 32.83537","longitude":"-96.99510","name":" Outback Steakhouse","address":" USA-Irving"},{"latitude":" 35.07545","longitude":"-78.95386","name":" Outback Steakhouse","address":" USA-Fayetteville"},{"latitude":" 29.88175","longitude":"-95.64488","name":" Outback Steakhouse","address":" USA-Houston"},{"latitude":" 21.28528","longitude":"-157.83858","name":" Outback Steakhouse","address":" USA-United States"},{"latitude":" 28.50193","longitude":"-82.58967","name":" Outback Steakhouse","address":" USA-Spring Hill"},{"latitude":" 34.24864","longitude":"-84.47659","name":" Outback Steakhouse","address":" USA-Canton"},{"latitude":" 40.81470","longitude":"-77.89791","name":" Outback Steakhouse","address":" USA-State College"},{"latitude":" 41.23643","longitude":"-96.11956","name":" Outback Steakhouse","address":" USA-Omaha"},{"latitude":" 35.58324","longitude":"-82.52566","name":" Outback Steakhouse","address":" USA-Asheville"},{"latitude":" 35.53768","longitude":"-97.59249","name":" Outback Steakhouse","address":" USA-Oklahoma City"},{"latitude":" 30.21736","longitude":"-81.51665","name":" Outback Steakhouse","address":" USA-United States"},{"latitude":" 26.93386","longitude":"-80.08074","name":" Outback Steakhouse","address":" USA-Jupiter"},{"latitude":" 36.76120","longitude":"-76.00551","name":" Outback Steakhouse","address":" USA-Virginia Beach"},{"latitude":" 37.07902","longitude":"-88.67872","name":" Outback Steakhouse","address":" USA-Paducah"},{"latitude":" 33.93912","longitude":"-83.45933","name":" Outback Steakhouse","address":" USA-Athens"},{"latitude":" 41.15825","longitude":"-95.93545","name":" Outback Steakhouse","address":" USA-Bellevue"},{"latitude":" 38.96695","longitude":"-76.95952","name":" Outback Steakhouse","address":" USA-Hyattsville"},{"latitude":" 32.36544","longitude":"-88.67353","name":" Outback Steakhouse","address":" USA-Meridian"},{"latitude":" 33.47970","longitude":"-112.22064","name":" Outback Steakhouse","address":" USA-Phoenix"},{"latitude":" 32.58927","longitude":"-94.75031","name":" Outback Steakhouse","address":" USA-Longview"},{"latitude":" 31.97992","longitude":"-81.14352","name":" Outback Steakhouse","address":" USA-Savannah"},{"latitude":" 32.83931","longitude":"-97.18360","name":" Outback Steakhouse","address":" USA-Hurst"},{"latitude":" 40.06488","longitude":"-83.09060","name":" Outback Steakhouse","address":" USA-Columbus"},{"latitude":" 30.18392","longitude":"-95.45283","name":" Outback Steakhouse","address":" USA-Conroe"},{"latitude":" 39.24691","longitude":"-94.66147","name":" Outback Steakhouse","address":" USA-Kansas City"},{"latitude":" 39.02699","longitude":"-77.39839","name":" Outback Steakhouse","address":" USA-Sterling"},{"latitude":" 35.17075","longitude":"-79.42184","name":" Outback Steakhouse","address":" USA-Southern Pines"},{"latitude":" 41.36590","longitude":"-72.10623","name":" Outback Steakhouse","address":" USA-New London"},{"latitude":" 35.95136","longitude":"-78.99450","name":" Outback Steakhouse","address":" USA-Durham"},{"latitude":" 43.47996","longitude":"-83.96489","name":" Outback Steakhouse","address":" USA-Saginaw"},{"latitude":" 42.17111","longitude":"-71.19604","name":" Outback Steakhouse","address":" USA-Norwood"},{"latitude":" 32.80834","longitude":"-79.87732","name":" Outback Steakhouse","address":" USA-Mt. Pleasant"},{"latitude":" 40.27340","longitude":"-111.70338","name":" Outback Steakhouse","address":" USA-Orem"},{"latitude":" 42.16364","longitude":"-76.87251","name":" Outback Steakhouse","address":" USA-Horseheads"},{"latitude":" 36.85043","longitude":"-76.02495","name":" Outback Steakhouse","address":" USA-Virginia Beach"},{"latitude":" 40.81353","longitude":"-73.98475","name":" Outback Steakhouse","address":" USA-Edgewater"},{"latitude":" 61.18948","longitude":"-149.88312","name":" Outback Steakhouse","address":" USA-Anchorage"},{"latitude":" 37.22170","longitude":"-79.96779","name":" Outback Steakhouse","address":" USA-Roanoke"},{"latitude":" 42.62889","longitude":"-82.99335","name":" Outback Steakhouse","address":" USA-Shelby Township"},{"latitude":" 39.91174","longitude":"-86.22041","name":" Outback Steakhouse","address":" USA-Indianapolis"},{"latitude":" 28.44884","longitude":"-81.39389","name":" Outback Steakhouse","address":" USA-Orlando"},{"latitude":" 36.02541","longitude":"-95.95045","name":" Outback Steakhouse","address":" USA-Tulsa"},{"latitude":" 40.75440","longitude":"-73.56015","name":" Outback Steakhouse","address":" USA-Westbury"},{"latitude":" 40.52354","longitude":"-105.06348","name":" Outback Steakhouse","address":" USA-Fort Collins"},{"latitude":" 42.44060","longitude":"-96.35009","name":" Outback Steakhouse","address":" USA-Sioux City"},{"latitude":" 38.47441","longitude":"-82.65321","name":" Outback Steakhouse","address":" USA-Ashland"},{"latitude":" 36.84508","longitude":"-76.29147","name":" Outback Steakhouse","address":" USA-Norfolk"},{"latitude":" 37.98956","longitude":"-121.31998","name":" Outback Steakhouse","address":" USA-Stockton"},{"latitude":" 28.02548","longitude":"-82.14980","name":" Outback Steakhouse","address":" USA-Plant City"},{"latitude":" 37.98774","longitude":"-122.31161","name":" Outback Steakhouse","address":" USA-Pinole"},{"latitude":" 33.65445","longitude":"-84.00521","name":" Outback Steakhouse","address":" USA-Conyers"},{"latitude":" 39.67968","longitude":"-104.82823","name":" Outback Steakhouse","address":" USA-Aurora"},{"latitude":" 26.20403","longitude":"-80.10870","name":" Outback Steakhouse","address":" USA-Ft. Lauderdale"},{"latitude":" 44.94500","longitude":"-92.90114","name":" Outback Steakhouse","address":" USA-Woodbury"},{"latitude":" 42.86941","longitude":"-106.23102","name":" Outback Steakhouse","address":" USA-Evansville"},{"latitude":" 33.93579","longitude":"-84.33915","name":" Outback Steakhouse","address":" USA-Atlanta"},{"latitude":" 39.74385","longitude":"-75.04480","name":" Outback Steakhouse","address":" USA-Turnersville"},{"latitude":" 26.09899","longitude":"-80.13277","name":" Outback Steakhouse","address":" USA-Lauderdale"},{"latitude":" 47.69826","longitude":"-116.80516","name":" Outback Steakhouse","address":" USA-Coeur d' Alene"},{"latitude":" 34.20391","longitude":"-79.83196","name":" Outback Steakhouse","address":" USA-Florence"},{"latitude":" 38.63531","longitude":"-77.29816","name":" Outback Steakhouse","address":" USA-United States"},{"latitude":" 28.81506","longitude":"-81.33307","name":" Outback Steakhouse","address":" USA-Sanford"},{"latitude":" 33.57128","longitude":"-84.34611","name":" Outback Steakhouse","address":" USA-Morrow "},{"latitude":" 30.33050","longitude":"-97.70703","name":" Outback Steakhouse","address":" USA-Austin"},{"latitude":" 39.61447","longitude":"-105.09324","name":" Outback Steakhouse","address":" USA-United States"},{"latitude":" 33.38546","longitude":"-111.67852","name":" Outback Steakhouse","address":" USA-Mesa"},{"latitude":" 42.48414","longitude":"-71.18923","name":" Outback Steakhouse","address":" USA-Burlington"},{"latitude":" 39.02221","longitude":"-94.66508","name":" Outback Steakhouse","address":" USA-Mission"},{"latitude":" 36.14044","longitude":"-94.14415","name":" Outback Steakhouse","address":" USA-Springdale"},{"latitude":" 40.44764","longitude":"-80.00411","name":" Outback Steakhouse","address":" USA-Pittsburgh"},{"latitude":" 33.09908","longitude":"-96.80121","name":" Outback Steakhouse","address":" USA-Frisco"},{"latitude":" 38.77410","longitude":"-77.18387","name":" Outback Steakhouse","address":" USA-Springfield"},{"latitude":" 41.06432","longitude":"-83.66690","name":" Outback Steakhouse","address":" USA-Findlay"},{"latitude":" 44.95650","longitude":"-122.98363","name":" Outback Steakhouse","address":" USA-Salem"},{"latitude":" 38.90540","longitude":"-104.70098","name":" Outback Steakhouse","address":" USA-Colorado Springs"},{"latitude":" 42.06517","longitude":"-80.10282","name":" Outback Steakhouse","address":" USA-Creek Pavilion"},{"latitude":" 33.95916","longitude":"-80.39667","name":" Outback Steakhouse","address":" USA-Sumter"},{"latitude":" 30.28522","longitude":"-89.74814","name":" Outback Steakhouse","address":" USA-United States"},{"latitude":" 39.04991","longitude":"-84.57636","name":" Outback Steakhouse","address":" USA-Crescent Springs"},{"latitude":" 39.14350","longitude":"-84.62111","name":" Outback Steakhouse","address":" USA-Cincinnati"},{"latitude":" 41.47033","longitude":"-87.32818","name":" Outback Steakhouse","address":" USA-Merrillville"},{"latitude":" 39.29170","longitude":"-84.48554","name":" Outback Steakhouse","address":" USA-Cincinnati"},{"latitude":" 33.84609","longitude":"-78.65800","name":" Outback Steakhouse","address":" USA-Myrtle Beach"},{"latitude":" 39.52490","longitude":"-76.35580","name":" Outback Steakhouse","address":" USA-Bel Air"},{"latitude":" 35.68419","longitude":"-88.85604","name":" Outback Steakhouse","address":" USA-Jackson"},{"latitude":" 40.66591","longitude":"-75.29566","name":" Outback Steakhouse","address":" USA-Bethlehem"},{"latitude":" 31.26585","longitude":"-92.45382","name":" Outback Steakhouse","address":" USA-Alexandria"},{"latitude":" 41.16240","longitude":"-73.41901","name":" Outback Steakhouse","address":" USA-Wilton"},{"latitude":" 37.62370","longitude":"-77.52846","name":" Outback Steakhouse","address":" USA-Richmond"},{"latitude":" 38.15635","longitude":"-85.71462","name":" Outback Steakhouse","address":" USA-Louisville"},{"latitude":" 42.88165","longitude":"-85.74479","name":" Outback Steakhouse","address":" USA-Grandville"},{"latitude":" 37.61216","longitude":"-77.35442","name":" Outback Steakhouse","address":" USA-Mechanicsville"},{"latitude":" 32.83129","longitude":"-117.20147","name":" Outback Steakhouse","address":" USA-San Diego"},{"latitude":" 38.83400","longitude":"-77.41145","name":" Outback Steakhouse","address":" USA-Clifton"},{"latitude":" 40.95707","longitude":"-73.84169","name":" Outback Steakhouse","address":" USA-United States"},{"latitude":" 27.62830","longitude":"-80.38925","name":" Outback Steakhouse","address":" USA-Beach"},{"latitude":" 28.06292","longitude":"-82.73900","name":" Outback Steakhouse","address":" USA-Palm Harbor"},{"latitude":" 33.99560","longitude":"-117.93120","name":" Outback Steakhouse","address":" USA-City of Industry"},{"latitude":" 40.09488","longitude":"-75.29089","name":" Outback Steakhouse","address":" USA-Conshohocken"},{"latitude":" 43.06564","longitude":"-89.52527","name":" Outback Steakhouse","address":" USA-Madison"},{"latitude":" 33.68153","longitude":"-117.66567","name":" Outback Steakhouse","address":" USA-Foothill Ranch"},{"latitude":" 40.50482","longitude":"-74.39750","name":" Outback Steakhouse","address":" USA-Edison"},{"latitude":" 41.59202","longitude":"-73.90871","name":" Outback Steakhouse","address":" USA-Wappingers Falls"},{"latitude":" 27.93988","longitude":"-82.49962","name":" Outback Steakhouse","address":" USA-Tampa"},{"latitude":" 29.60628","longitude":"-95.20977","name":" Outback Steakhouse","address":" USA-Houston"},{"latitude":" 29.29065","longitude":"-81.04321","name":" Outback Steakhouse","address":" USA-Ormond Beach"},{"latitude":" 40.87909","longitude":"-74.64585","name":" Outback Steakhouse","address":" USA-Ledgewood"},{"latitude":" 36.80817","longitude":"-119.84340","name":" Outback Steakhouse","address":" USA-Fresno"},{"latitude":" 29.86756","longitude":"-81.32139","name":" Outback Steakhouse","address":" USA-St. Augustine"},{"latitude":" 34.02683","longitude":"-84.04905","name":" Outback Steakhouse","address":" USA-Suwanee"},{"latitude":" 30.32039","longitude":"-81.45909","name":" Outback Steakhouse","address":" USA-Jacksonville"},{"latitude":" 38.35323","longitude":"-121.98629","name":" Outback Steakhouse","address":" USA-Vacaville"},{"latitude":" 32.95562","longitude":"-96.82985","name":" Outback Steakhouse","address":" USA-Addison"},{"latitude":" 34.22658","longitude":"-88.71991","name":" Outback Steakhouse","address":" USA-Tupelo"},{"latitude":" 45.00652","longitude":"-93.16614","name":" Outback Steakhouse","address":" USA-Roseville"},{"latitude":" 35.65919","longitude":"-80.46104","name":" Outback Steakhouse","address":" USA-Salisbury"},{"latitude":" 33.16622","longitude":"-87.55175","name":" Outback Steakhouse","address":" USA-Tuscaloosa"},{"latitude":" 32.50823","longitude":"-92.16543","name":" Outback Steakhouse","address":" USA-West Monroe"},{"latitude":" 31.21954","longitude":"-85.43200","name":" Outback Steakhouse","address":" USA-Dothan"},{"latitude":" 35.97215","longitude":"-77.84534","name":" Outback Steakhouse","address":" USA-Rocky Mount"},{"latitude":" 41.02800","longitude":"-80.63178","name":" Outback Steakhouse","address":" USA-Boardman"},{"latitude":" 35.18643","longitude":"-101.91709","name":" Outback Steakhouse","address":" USA-Amarillo"},{"latitude":" 39.12586","longitude":"-94.82948","name":" Outback Steakhouse","address":" USA-Kansas City"},{"latitude":" 35.71121","longitude":"-81.31127","name":" Outback Steakhouse","address":" USA-Hickory"},{"latitude":" 34.69420","longitude":"-86.56823","name":" Outback Steakhouse","address":" USA-Huntsville"},{"latitude":" 28.64788","longitude":"-81.26156","name":" Outback Steakhouse","address":" USA-Road Winter Springs"},{"latitude":" 28.05766","longitude":"-82.58253","name":" Outback Steakhouse","address":" USA-Tampa"},{"latitude":" 27.98152","longitude":"-82.82701","name":" Outback Steakhouse","address":" USA-Clearwater"},{"latitude":" 39.16440","longitude":"-86.57689","name":" Outback Steakhouse","address":" USA-Bloomington"},{"latitude":" 45.02792","longitude":"-93.02473","name":" Outback Steakhouse","address":" USA-Maplewood"},{"latitude":" 30.00499","longitude":"-95.27571","name":" Outback Steakhouse","address":" USA-Bypass"},{"latitude":" 39.02913","longitude":"-95.75727","name":" Outback Steakhouse","address":" USA-Topeka"},{"latitude":" 31.72576","longitude":"-106.30925","name":" Outback Steakhouse","address":" USA-Paso"},{"latitude":" 40.07023","longitude":"-76.30129","name":" Outback Steakhouse","address":" USA-Lancaster"},{"latitude":" 33.67500","longitude":"-116.40298","name":" Outback Steakhouse","address":" USA-Palm Desert"},{"latitude":" 26.84034","longitude":"-80.10503","name":" Outback Steakhouse","address":" USA-Palm Beach Gardens"},{"latitude":" 43.18497","longitude":"-76.24215","name":" Outback Steakhouse","address":" USA-Liverpool"},{"latitude":" 32.45894","longitude":"-86.40582","name":" Outback Steakhouse","address":" USA-Prattville"},{"latitude":" 39.91416","longitude":"-104.98150","name":" Outback Steakhouse","address":" USA-Thornton"},{"latitude":" 33.45748","longitude":"-86.80286","name":" Outback Steakhouse","address":" USA-Birmingham"},{"latitude":" 42.95610","longitude":"-71.47846","name":" Outback Steakhouse","address":" USA-Bedford"},{"latitude":" 32.96119","longitude":"-96.63509","name":" Outback Steakhouse","address":" USA-Bush Hwy Garland"},{"latitude":" 32.39043","longitude":"-90.14524","name":" Outback Steakhouse","address":" USA-Jackson"},{"latitude":" 40.85930","longitude":"-73.41839","name":" Outback Steakhouse","address":" USA-United States"},{"latitude":" 42.14732","longitude":"-70.84543","name":" Outback Steakhouse","address":" USA-Hanover"},{"latitude":" 36.93953","longitude":"-86.42056","name":" Outback Steakhouse","address":" USA-Bowling Green"},{"latitude":" 40.74236","longitude":"-73.99155","name":" Outback Steakhouse","address":" USA-New York"},{"latitude":" 29.88474","longitude":"-90.09895","name":" Outback Steakhouse","address":" USA-Marrero "},{"latitude":" 35.50969","longitude":"-78.31082","name":" Outback Steakhouse","address":" USA-Smithfield"},{"latitude":" 35.38958","longitude":"-77.94491","name":" Outback Steakhouse","address":" USA-Goldsboro"},{"latitude":" 36.35776","longitude":"-82.39405","name":" Outback Steakhouse","address":" USA-Johnson City"},{"latitude":" 34.75410","longitude":"-92.40389","name":" Outback Steakhouse","address":" USA-Little Rock"},{"latitude":" 36.01841","longitude":"-83.75292","name":" Outback Steakhouse","address":" USA-Knoxville"},{"latitude":" 32.90527","longitude":"-83.68706","name":" Outback Steakhouse","address":" USA-Macon"},{"latitude":" 34.67022","longitude":"-79.00284","name":" Outback Steakhouse","address":" USA-Lumberton"},{"latitude":" 26.33192","longitude":"-80.13717","name":" Outback Steakhouse","address":" USA-Boca Raton"},{"latitude":" 41.63923","longitude":"-70.98633","name":" Outback Steakhouse","address":" USA-Dartmouth"},{"latitude":" 35.04710","longitude":"-89.79578","name":" Outback Steakhouse","address":" USA-Memphis"},{"latitude":" 33.63671","longitude":"-85.68481","name":" Outback Steakhouse","address":" USA-Oxford"},{"latitude":" 42.15242","longitude":"-87.97597","name":" Outback Steakhouse","address":" USA-Road Buffalo Grove"},{"latitude":" 33.81629","longitude":"-84.31646","name":" Outback Steakhouse","address":" USA-Atlanta"},{"latitude":" 39.48500","longitude":"-76.66103","name":" Outback Steakhouse","address":" USA-Hunt Valley"},{"latitude":" 41.98550","longitude":"-87.83037","name":" Outback Steakhouse","address":" USA-United States"},{"latitude":" 40.33047","longitude":"-80.06858","name":" Outback Steakhouse","address":" USA-Pittsburgh"},{"latitude":" 43.08724","longitude":"-77.60194","name":" Outback Steakhouse","address":" USA-Henrietta"},{"latitude":" 26.06265","longitude":"-80.34867","name":" Outback Steakhouse","address":" USA-Davie"},{"latitude":" 26.55404","longitude":"-81.87167","name":" Outback Steakhouse","address":" USA-Ft. Myers"},{"latitude":" 33.74251","longitude":"-78.82404","name":" Outback Steakhouse","address":" USA-Myrtle Beach"},{"latitude":" 32.78716","longitude":"-116.92795","name":" Outback Steakhouse","address":" USA-El Cajon"},{"latitude":" 37.14788","longitude":"-93.25841","name":" Outback Steakhouse","address":" USA-Springfield"},{"latitude":" 32.68209","longitude":"-97.41397","name":" Outback Steakhouse","address":" USA-Fort Worth"},{"latitude":" 41.66289","longitude":"-71.49303","name":" Outback Steakhouse","address":" USA-Greenwich"},{"latitude":" 42.39814","longitude":"-83.33508","name":" Outback Steakhouse","address":" USA-Livonia"},{"latitude":" 44.73161","longitude":"-85.64617","name":" Outback Steakhouse","address":" USA-Traverse City"},{"latitude":" 41.40657","longitude":"-72.84543","name":" Outback Steakhouse","address":" USA-North Haven"},{"latitude":" 36.09575","longitude":"-79.81712","name":" Outback Steakhouse","address":" USA-Greensboro"},{"latitude":" 39.45806","longitude":"-77.98764","name":" Outback Steakhouse","address":" USA-Martinsburg"},{"latitude":" 41.81111","longitude":"-72.53067","name":" Outback Steakhouse","address":" USA-Manchester"},{"latitude":" 38.32141","longitude":"-85.75606","name":" Outback Steakhouse","address":" USA-Clarksville"},{"latitude":" 36.82239","longitude":"-76.41875","name":" Outback Steakhouse","address":" USA-Chesapeake"},{"latitude":" 43.09002","longitude":"-75.31465","name":" Outback Steakhouse","address":" USA-New Hartford"},{"latitude":" 36.76698","longitude":"-108.14835","name":" Outback Steakhouse","address":" USA-Farmington"},{"latitude":" 39.07983","longitude":"-77.07378","name":" Outback Steakhouse","address":" USA-Silver Spring"},{"latitude":" 32.21262","longitude":"-80.72320","name":" Outback Steakhouse","address":" USA-Hilton Head"},{"latitude":" 35.03382","longitude":"-85.16425","name":" Outback Steakhouse","address":" USA-Chattanooga"},{"latitude":" 35.57403","longitude":"-77.39393","name":" Outback Steakhouse","address":" USA-Greenville"},{"latitude":" 27.48999","longitude":"-81.48348","name":" Outback Steakhouse","address":" USA-Sebring"},{"latitude":" 33.65196","longitude":"-112.36715","name":" Outback Steakhouse","address":" USA-Surprise"},{"latitude":" 42.04962","longitude":"-88.07365","name":" Outback Steakhouse","address":" USA-Schaumburg"},{"latitude":" 34.54894","longitude":"-112.44442","name":" Outback Steakhouse","address":" USA-Prescott"},{"latitude":" 47.67573","longitude":"-117.20533","name":" Outback Steakhouse","address":" USA-Spokane"},{"latitude":" 33.89539","longitude":"-84.14033","name":" Outback Steakhouse","address":" USA-Lilburn"},{"latitude":" 28.83975","longitude":"-82.35913","name":" Outback Steakhouse","address":" USA-Inverness"},{"latitude":" 27.49853","longitude":"-82.50582","name":" Outback Steakhouse","address":" USA-Bradenton"},{"latitude":" 35.98585","longitude":"-80.01855","name":" Outback Steakhouse","address":" USA-High Point"},{"latitude":" 32.91558","longitude":"-96.74548","name":" Outback Steakhouse","address":" USA-Dallas"},{"latitude":" 35.46387","longitude":"-97.60101","name":" Outback Steakhouse","address":" USA-Oklahoma City"},{"latitude":" 35.63131","longitude":"-106.02383","name":" Outback Steakhouse","address":" USA-Santa Fe"},{"latitude":" 37.87335","longitude":"-122.51186","name":" Outback Steakhouse","address":" USA-Sausalito"},{"latitude":" 34.57774","longitude":"-82.71278","name":" Outback Steakhouse","address":" USA-Anderson"},{"latitude":" 30.84214","longitude":"-83.32641","name":" Outback Steakhouse","address":" USA-Valdosta"},{"latitude":" 36.05547","longitude":"-115.17234","name":" Outback Steakhouse","address":" USA-Las Vegas"},{"latitude":" 39.15477","longitude":"-76.61546","name":" Outback Steakhouse","address":" USA-Glen Burnie"},{"latitude":" 25.92708","longitude":"-80.13855","name":" Outback Steakhouse","address":" USA-North Miami Beach"},{"latitude":" 37.11569","longitude":"-113.55167","name":" Outback Steakhouse","address":" USA-United States"},{"latitude":" 34.78582","longitude":"-82.55358","name":" Outback Steakhouse","address":" USA-Easley"},{"latitude":" 33.57545","longitude":"-112.11664","name":" Outback Steakhouse","address":" USA-United States"},{"latitude":" 39.73584","longitude":"-105.15815","name":" Outback Steakhouse","address":" USA-Golden"},{"latitude":" 41.24233","longitude":"-75.84083","name":" Outback Steakhouse","address":" USA-Wilkes-Barre"},{"latitude":" 35.35589","longitude":"-94.35826","name":" Outback Steakhouse","address":" USA-Ft. Smith"},{"latitude":" 45.75497","longitude":"-108.56666","name":" Outback Steakhouse","address":" USA-Billings"},{"latitude":" 37.66906","longitude":"-121.03126","name":" Outback Steakhouse","address":" USA-Modesto"},{"latitude":" 40.78154","longitude":"-73.77591","name":" Outback Steakhouse","address":" USA-Bayside"},{"latitude":" 26.66832","longitude":"-81.94050","name":" Outback Steakhouse","address":" USA-Coral"},{"latitude":" 32.94176","longitude":"-80.04035","name":" Outback Steakhouse","address":" USA-Charleston"},{"latitude":" 30.41744","longitude":"-87.20428","name":" Outback Steakhouse","address":" USA-Pensacola"},{"latitude":" 29.02894","longitude":"-80.90085","name":" Outback Steakhouse","address":" USA-New Smyrna Beach"},{"latitude":" 33.43997","longitude":"-84.58453","name":" Outback Steakhouse","address":" USA-United States"},{"latitude":" 34.73407","longitude":"-76.79008","name":" Outback Steakhouse","address":" USA-Morehead City"},{"latitude":" 37.04169","longitude":"-76.38929","name":" Outback Steakhouse","address":" USA-United States"},{"latitude":" 40.58615","longitude":"-122.35628","name":" Outback Steakhouse","address":" USA-Redding"},{"latitude":" 40.69982","longitude":"-73.38329","name":" Outback Steakhouse","address":" USA-Lindenhurst"},{"latitude":" 36.71033","longitude":"-121.66417","name":" Outback Steakhouse","address":" USA-Salinas"},{"latitude":" 44.00551","longitude":"-92.46320","name":" Outback Steakhouse","address":" USA-Rochester"},{"latitude":" 33.73031","longitude":"-84.73843","name":" Outback Steakhouse","address":" USA-Douglasville"},{"latitude":" 26.43945","longitude":"-80.08721","name":" Outback Steakhouse","address":" USA-Delray Beach"},{"latitude":" 39.41604","longitude":"-77.43686","name":" Outback Steakhouse","address":" USA-Frederick"},{"latitude":" 37.97775","longitude":"-87.46523","name":" Outback Steakhouse","address":" USA-Evansville"},{"latitude":" 41.86049","longitude":"-87.97553","name":" Outback Steakhouse","address":" USA-Villa Park"},{"latitude":" 33.92396","longitude":"-84.46874","name":" Outback Steakhouse","address":" USA-Marietta"},{"latitude":" 32.33239","longitude":"-106.75815","name":" Outback Steakhouse","address":" USA-Las Cruces"},{"latitude":" 46.87160","longitude":"-96.84212","name":" Outback Steakhouse","address":" USA-Fargo"},{"latitude":" 44.46530","longitude":"-73.18087","name":" Outback Steakhouse","address":" USA-Burlington"},{"latitude":" 41.52003","longitude":"-81.47422","name":" Outback Steakhouse","address":" USA-Lyndhurst"},{"latitude":" 42.22950","longitude":"-83.75343","name":" Outback Steakhouse","address":" USA-Ann Arbor"},{"latitude":" 36.00911","longitude":"-83.97459","name":" Outback Steakhouse","address":" USA-Knoxville"},{"latitude":" 33.60833","longitude":"-86.80783","name":" Outback Steakhouse","address":" USA-Birmingham"},{"latitude":" 35.91450","longitude":"-84.09312","name":" Outback Steakhouse","address":" USA-Knoxville"},{"latitude":" 33.65527","longitude":"-111.92969","name":" Outback Steakhouse","address":" USA-Phoenix"},{"latitude":" 40.44379","longitude":"-86.12427","name":" Outback Steakhouse","address":" USA-Kokomo"},{"latitude":" 42.16348","longitude":"-71.05971","name":" Outback Steakhouse","address":" USA-Randolph"},{"latitude":" 40.04162","longitude":"-84.15310","name":" Outback Steakhouse","address":" USA-United States"},{"latitude":" 38.71829","longitude":"-75.11425","name":" Outback Steakhouse","address":" USA-Rehoboth Beach"},{"latitude":" 19.62999","longitude":"-155.98827","name":" Outback Steakhouse","address":" USA-Kailua-Kona"},{"latitude":" 41.69011","longitude":"-81.33250","name":" Outback Steakhouse","address":" USA-Mentor"},{"latitude":" 39.06167","longitude":"-84.35174","name":" Outback Steakhouse","address":" USA-Cincinnati"},{"latitude":" 45.49638","longitude":"-122.40808","name":" Outback Steakhouse","address":" USA-Gresham"},{"latitude":" 27.31340","longitude":"-80.40972","name":" Outback Steakhouse","address":" USA-Lucie"},{"latitude":" 38.80588","longitude":"-76.97357","name":" Outback Steakhouse","address":" USA-Oxon Hill"},{"latitude":" 44.10693","longitude":"-103.20553","name":" Outback Steakhouse","address":" USA-Rapid City"},{"latitude":" 39.35623","longitude":"-84.26111","name":" Outback Steakhouse","address":" USA-Mason"},{"latitude":" 29.82532","longitude":"-97.98776","name":" Outback Steakhouse","address":" USA-San Marcos"},{"latitude":" 34.93412","longitude":"-82.01491","name":" Outback Steakhouse","address":" USA-United States"},{"latitude":" 29.60606","longitude":"-95.61319","name":" Outback Steakhouse","address":" USA-Sugar Land"},{"latitude":" 39.53361","longitude":"-119.71513","name":" Outback Steakhouse","address":" USA-United States"},{"latitude":" 40.44034","longitude":"-74.29975","name":" Outback Steakhouse","address":" USA-United States"},{"latitude":" 39.40122","longitude":"-74.56175","name":" Outback Steakhouse","address":" USA-Egg Harbor"},{"latitude":" 32.97980","longitude":"-117.06243","name":" Outback Steakhouse","address":" USA-Poway"},{"latitude":" 41.66113","longitude":"-72.72239","name":" Outback Steakhouse","address":" USA-Newington"},{"latitude":" 41.60048","longitude":"-93.76765","name":" Outback Steakhouse","address":" USA-Clive"},{"latitude":" 34.00592","longitude":"-84.57431","name":" Outback Steakhouse","address":" USA-United States"},{"latitude":" 39.91375","longitude":"-75.34711","name":" Outback Steakhouse","address":" USA-Springfield"},{"latitude":" 42.98002","longitude":"-83.76143","name":" Outback Steakhouse","address":" USA-Flint"},{"latitude":" 27.01064","longitude":"-82.14150","name":" Outback Steakhouse","address":" USA-Port Charlotte"},{"latitude":" 38.74970","longitude":"-90.74771","name":" Outback Steakhouse","address":" USA-O'Fallon"},{"latitude":" 27.71956","longitude":"-97.39364","name":" Outback Steakhouse","address":" USA-Corpus Christi"},{"latitude":" 34.76038","longitude":"-84.99926","name":" Outback Steakhouse","address":" USA-Dalton"},{"latitude":" 40.23847","longitude":"-76.98018","name":" Outback Steakhouse","address":" USA-Mechanicsburg"},{"latitude":" 30.18973","longitude":"-85.67061","name":" Outback Steakhouse","address":" USA-United States"},{"latitude":" 42.86361","longitude":"-73.78314","name":" Outback Steakhouse","address":" USA-Clifton Park"},{"latitude":" 38.91171","longitude":"-76.84043","name":" Outback Steakhouse","address":" USA-Largo"},{"latitude":" 34.14011","longitude":"-118.02604","name":" Outback Steakhouse","address":" USA-United States"},{"latitude":" 39.16959","longitude":"-77.26131","name":" Outback Steakhouse","address":" USA-Germantown"},{"latitude":" 40.84509","longitude":"-81.42379","name":" Outback Steakhouse","address":" USA-Canton"},{"latitude":" 34.25208","longitude":"-85.16334","name":" Outback Steakhouse","address":" USA-Rome"},{"latitude":" 34.10011","longitude":"-117.67006","name":" Outback Steakhouse","address":" USA-Upland"},{"latitude":" 28.82737","longitude":"-81.80070","name":" Outback Steakhouse","address":" USA-Leesburg"},{"latitude":" 35.82169","longitude":"-78.59041","name":" Outback Steakhouse","address":" USA-Raleigh"},{"latitude":" 34.62343","longitude":"-98.48031","name":" Outback Steakhouse","address":" USA-Lawton"},{"latitude":" 41.70685","longitude":"-93.57358","name":" Outback Steakhouse","address":" USA-Ankeny"},{"latitude":" 37.33233","longitude":"-122.03502","name":" Outback Steakhouse","address":" USA-Cupertino"},{"latitude":" 44.08359","longitude":"-123.03953","name":" Outback Steakhouse","address":" USA-Springfield"},{"latitude":" 32.38389","longitude":"-86.14440","name":" Outback Steakhouse","address":" USA-Montgomery"},{"latitude":" 33.82403","longitude":"-84.11247","name":" Outback Steakhouse","address":" USA-Mountain"},{"latitude":" 33.02015","longitude":"-96.70994","name":" Outback Steakhouse","address":" USA-United States"},{"latitude":" 24.56962","longitude":"-81.76660","name":" Outback Steakhouse","address":" USA-Key West"},{"latitude":" 31.43563","longitude":"-100.49777","name":" Outback Steakhouse","address":" USA-San Angelo"},{"latitude":" 44.74653","longitude":"-93.30508","name":" Outback Steakhouse","address":" USA-Burnsville"},{"latitude":" 44.86624","longitude":"-93.05741","name":" Outback Steakhouse","address":" USA-Inver Grove Heights"},{"latitude":" 42.32248","longitude":"-83.46340","name":" Outback Steakhouse","address":" USA-Canton"},{"latitude":" 34.19172","longitude":"-118.32888","name":" Outback Steakhouse","address":" USA-United States"},{"latitude":" 21.32992","longitude":"-158.08969","name":" Outback Steakhouse","address":" USA-Kapolei"},{"latitude":" 35.19573","longitude":"-106.65317","name":" Outback Steakhouse","address":" USA-Albuquerque"},{"latitude":" 39.59316","longitude":"-104.86754","name":" Outback Steakhouse","address":" USA-Centennial"},{"latitude":" 36.06235","longitude":"-80.30130","name":" Outback Steakhouse","address":" USA-Winston-Salem"},{"latitude":" 32.69852","longitude":"-114.61753","name":" Outback Steakhouse","address":" USA-Yuma"},{"latitude":" 45.51498","longitude":"-122.78919","name":" Outback Steakhouse","address":" USA-Portland"},{"latitude":" 32.08029","longitude":"-81.09045","name":" Outback Steakhouse","address":" USA-Savannah"},{"latitude":" 42.95681","longitude":"-88.00622","name":" Outback Steakhouse","address":" USA-Greenfield"},{"latitude":" 27.16688","longitude":"-80.22779","name":" Outback Steakhouse","address":" USA-Stuart"},{"latitude":" 41.58196","longitude":"-83.67453","name":" Outback Steakhouse","address":" USA-Maumee"},{"latitude":" 28.30469","longitude":"-82.70254","name":" Outback Steakhouse","address":" USA-Port Richey"},{"latitude":" 42.67453","longitude":"-82.82779","name":" Outback Steakhouse","address":" USA-Chesterfield Township"},{"latitude":" 42.14560","longitude":"-72.62917","name":" Outback Steakhouse","address":" USA-Springfield"},{"latitude":" 27.04962","longitude":"-82.39332","name":" Outback Steakhouse","address":" USA-Venice"},{"latitude":" 42.54987","longitude":"-70.95439","name":" Outback Steakhouse","address":" USA-Peabody"},{"latitude":" 36.19433","longitude":"-115.24225","name":" Outback Steakhouse","address":" USA-Las Vegas"},{"latitude":" 38.98418","longitude":"-76.72948","name":" Outback Steakhouse","address":" USA-Bowie"},{"latitude":" 34.07238","longitude":"-81.15927","name":" Outback Steakhouse","address":" USA-Columbia"},{"latitude":" 31.32691","longitude":"-89.35629","name":" Outback Steakhouse","address":" USA-Hattiesburg"},{"latitude":" 38.63466","longitude":"-90.31713","name":" Outback Steakhouse","address":" USA-Richmond Heights"},{"latitude":" 40.78934","longitude":"-74.04482","name":" Outback Steakhouse","address":" USA-Secaucus"},{"latitude":" 38.73438","longitude":"-77.77091","name":" Outback Steakhouse","address":" USA-Warrenton"},{"latitude":" 30.18678","longitude":"-81.73001","name":" Outback Steakhouse","address":" USA-Orange Park"},{"latitude":" 45.71267","longitude":"-111.06613","name":" Outback Steakhouse","address":" USA-Bozeman"},{"latitude":" 33.59349","longitude":"-117.67486","name":" Outback Steakhouse","address":" USA-Laguna Hills"},{"latitude":" 35.86047","longitude":"-83.56644","name":" Outback Steakhouse","address":" USA-Sevierville"},{"latitude":" 30.38894","longitude":"-86.42649","name":" Outback Steakhouse","address":" USA-Destin"},{"latitude":" 33.76301","longitude":"-118.19308","name":" Outback Steakhouse","address":" USA-Long Beach"},{"latitude":" 41.37627","longitude":"-81.73478","name":" Outback Steakhouse","address":" USA-Parma"},{"latitude":" 44.26180","longitude":"-88.46881","name":" Outback Steakhouse","address":" USA-Grand Chute"},{"latitude":" 35.88871","longitude":"-78.67975","name":" Outback Steakhouse","address":" USA-Raleigh"},{"latitude":" 41.11902","longitude":"-81.47330","name":" Outback Steakhouse","address":" USA-Cuyahoga Falls"},{"latitude":" 42.27088","longitude":"-84.42976","name":" Outback Steakhouse","address":" USA-Jackson"},{"latitude":" 39.76846","longitude":"-89.60574","name":" Outback Steakhouse","address":" USA-Springfield"},{"latitude":" 41.58478","longitude":"-88.16479","name":" Outback Steakhouse","address":" USA-Joliet"},{"latitude":" 33.53246","longitude":"-117.14931","name":" Outback Steakhouse","address":" USA-Temecula"},{"latitude":" 20.97168","longitude":"-156.67711","name":" Outback Steakhouse","address":" USA-Kahana Maui"},{"latitude":" 38.58987","longitude":"-121.41544","name":" Outback Steakhouse","address":" USA-Sacramento"},{"latitude":" 32.28760","longitude":"-95.30379","name":" Outback Steakhouse","address":" USA-Tyler"},{"latitude":" 42.53385","longitude":"-83.12558","name":" Outback Steakhouse","address":" USA-Heights"},{"latitude":" 38.62556","longitude":"-121.26486","name":" Outback Steakhouse","address":" USA-Gold River"},{"latitude":" 33.39295","longitude":"-111.91059","name":" Outback Steakhouse","address":" USA-United States"},{"latitude":" 44.86182","longitude":"-93.25651","name":" Outback Steakhouse","address":" USA-Bloomington"},{"latitude":" 32.44139","longitude":"-80.69188","name":" Outback Steakhouse","address":" USA-Beaufort"},{"latitude":" 33.50808","longitude":"-84.22943","name":" Outback Steakhouse","address":" USA-Stockbridge"},{"latitude":" 39.97425","longitude":"-76.67897","name":" Outback Steakhouse","address":" USA-York"},{"latitude":" 34.23743","longitude":"-77.87230","name":" Outback Steakhouse","address":" USA-Wilmington"},{"latitude":" 29.78336","longitude":"-95.72735","name":" Outback Steakhouse","address":" USA-Katy"},{"latitude":" 40.14626","longitude":"-88.25801","name":" Outback Steakhouse","address":" USA-Champaign"},{"latitude":" 37.16228","longitude":"-80.42889","name":" Outback Steakhouse","address":" USA-Christiansburg"},{"latitude":" 36.14400","longitude":"-115.28159","name":" Outback Steakhouse","address":" USA-United States"},{"latitude":" 40.81169","longitude":"-73.07966","name":" Outback Steakhouse","address":" USA-Holbrook"},{"latitude":" 38.81866","longitude":"-77.27553","name":" Outback Steakhouse","address":" USA-Fairfax"},{"latitude":" 41.09851","longitude":"-73.95178","name":" Outback Steakhouse","address":" USA-Nyack"},{"latitude":" 35.13711","longitude":"-85.24364","name":" Outback Steakhouse","address":" USA-Chattanooga"},{"latitude":" 40.77446","longitude":"-82.59011","name":" Outback Steakhouse","address":" USA-United States"},{"latitude":" 39.17297","longitude":"-94.53531","name":" Outback Steakhouse","address":" USA-Kansas City"},{"latitude":" 40.90702","longitude":"-74.07908","name":" Outback Steakhouse","address":" USA-Rochelle Park"},{"latitude":" 33.01033","longitude":"-96.97626","name":" Outback Steakhouse","address":" USA-Lewisville"},{"latitude":" 39.80162","longitude":"-86.01338","name":" Outback Steakhouse","address":" USA-Indianapolis"},{"latitude":" 40.49680","longitude":"-88.95307","name":" Outback Steakhouse","address":" USA-Bloomington"},{"latitude":" 40.84488","longitude":"-73.27438","name":" Outback Steakhouse","address":" USA-Commack"},{"latitude":" 39.25067","longitude":"-76.81377","name":" Outback Steakhouse","address":" USA-Ellicott"},{"latitude":" 43.59015","longitude":"-116.27162","name":" Outback Steakhouse","address":" USA-Boise"},{"latitude":" 42.09572","longitude":"-76.00243","name":" Outback Steakhouse","address":" USA-Vestal"},{"latitude":" 27.91646","longitude":"-82.74876","name":" Outback Steakhouse","address":" USA-Largo"},{"latitude":" 40.61162","longitude":"-74.00992","name":" Outback Steakhouse","address":" USA-Brooklyn"},{"latitude":" 39.32700","longitude":"-104.82800","name":" Outback Steakhouse","address":" USA-Castle Rock"},{"latitude":" 29.58809","longitude":"-98.47472","name":" Outback Steakhouse","address":" USA-Antonio"},{"latitude":" 33.86012","longitude":"-84.38055","name":" Outback Steakhouse","address":" USA-Atlanta"},{"latitude":" 35.22973","longitude":"-97.48584","name":" Outback Steakhouse","address":" USA-United States"},{"latitude":" 33.18324","longitude":"-117.33361","name":" Outback Steakhouse","address":" USA-Oceanside"},{"latitude":" 37.52135","longitude":"-77.61349","name":" Outback Steakhouse","address":" USA-Richmond"},{"latitude":" 38.74883","longitude":"-121.26464","name":" Outback Steakhouse","address":" USA-United States"},{"latitude":" 38.62969","longitude":"-76.90741","name":" Outback Steakhouse","address":" USA-Waldorf"},{"latitude":" 34.25727","longitude":"-118.54072","name":" Outback Steakhouse","address":" USA-Northridge"},{"latitude":" 40.43796","longitude":"-79.75993","name":" Outback Steakhouse","address":" USA-Monroeville"},{"latitude":" 32.81789","longitude":"-96.63104","name":" Outback Steakhouse","address":" USA-Mesquite"},{"latitude":" 38.84722","longitude":"-94.82357","name":" Outback Steakhouse","address":" USA-United States"},{"latitude":" 38.08172","longitude":"-78.47178","name":" Outback Steakhouse","address":" USA-Charlottesville"},{"latitude":" 41.79085","longitude":"-71.32220","name":" Outback Steakhouse","address":" USA-Seekonk"},{"latitude":" 42.28427","longitude":"-71.63405","name":" Outback Steakhouse","address":" USA-Westborough"},{"latitude":" 35.39167","longitude":"-97.54941","name":" Outback Steakhouse","address":" USA-Oklahoma City"},{"latitude":" 26.00926","longitude":"-80.24494","name":" Outback Steakhouse","address":" USA-Pembroke Pines"},{"latitude":" 43.05554","longitude":"-76.08166","name":" Outback Steakhouse","address":" USA-Dewitt"},{"latitude":" 35.26960","longitude":"-81.14945","name":" Outback Steakhouse","address":" USA-Gastonia"},{"latitude":" 29.55489","longitude":"-81.22512","name":" Outback Steakhouse","address":" USA-Palm Coast"},{"latitude":" 40.26367","longitude":"-75.08591","name":" Outback Steakhouse","address":" USA-Jamison"},{"latitude":" 39.77386","longitude":"-104.79350","name":" Outback Steakhouse","address":" USA-United States"},{"latitude":" 33.92652","longitude":"-117.87715","name":" Outback Steakhouse","address":" USA-Brea"},{"latitude":" 30.00138","longitude":"-90.15962","name":" Outback Steakhouse","address":" USA-Metairie"},{"latitude":" 30.19925","longitude":"-81.61972","name":" Outback Steakhouse","address":" USA-United States"},{"latitude":" 38.42278","longitude":"-121.41878","name":" Outback Steakhouse","address":" USA-Elk Grove"},{"latitude":" 40.66608","longitude":"-73.55178","name":" Outback Steakhouse","address":" USA-Merrick"},{"latitude":" 41.94946","longitude":"-88.12049","name":" Outback Steakhouse","address":" USA-United States"},{"latitude":" 40.25885","longitude":"-86.97432","name":" Outback Steakhouse","address":" USA-Lafayette"},{"latitude":" 34.07661","longitude":"-80.94468","name":" Outback Steakhouse","address":" USA-Columbia"},{"latitude":" 35.96593","longitude":"-86.80559","name":" Outback Steakhouse","address":" USA-Brentwood"},{"latitude":" 30.61139","longitude":"-96.31424","name":" Outback Steakhouse","address":" USA-College Station"},{"latitude":" 34.24289","longitude":"-82.14250","name":" Outback Steakhouse","address":" USA-Greenwood"},{"latitude":" 32.52355","longitude":"-84.95870","name":" Outback Steakhouse","address":" USA-Columbus"},{"latitude":" 33.49685","longitude":"-111.92185","name":" Outback Steakhouse","address":" USA-Scottsdale"},{"latitude":" 27.93781","longitude":"-82.31701","name":" Outback Steakhouse","address":" USA-Brandon"},{"latitude":" 31.61834","longitude":"-84.22145","name":" Outback Steakhouse","address":" USA-United States"},{"latitude":" 41.63795","longitude":"-72.90386","name":" Outback Steakhouse","address":" USA-Southington"},{"latitude":" 39.65744","longitude":"-86.14227","name":" Outback Steakhouse","address":" USA-Indianapolis"},{"latitude":" 33.85390","longitude":"-117.99790","name":" Outback Steakhouse","address":" USA-Buena Park"},{"latitude":" 39.98240","longitude":"-83.15107","name":" Outback Steakhouse","address":" USA-United States"},{"latitude":" 36.17875","longitude":"-86.60507","name":" Outback Steakhouse","address":" USA-Hermitage"},{"latitude":" 35.62001","longitude":"-97.48883","name":" Outback Steakhouse","address":" USA-Edmond"},{"latitude":" 41.08028","longitude":"-104.88303","name":" Outback Steakhouse","address":" USA-United States"},{"latitude":" 33.50239","longitude":"-101.87798","name":" Outback Steakhouse","address":" USA-Lubbock"},{"latitude":" 37.25058","longitude":"-121.84665","name":" Outback Steakhouse","address":" USA-San Jose"},{"latitude":" 38.97879","longitude":"-76.53889","name":" Outback Steakhouse","address":" USA-Annapolis"},{"latitude":" 41.26328","longitude":"-96.03181","name":" Outback Steakhouse","address":" USA-Omaha"},{"latitude":" 35.20708","longitude":"-84.85086","name":" Outback Steakhouse","address":" USA-Cleveland"},{"latitude":" 34.47480","longitude":"-117.34329","name":" Outback Steakhouse","address":" USA-Victorville"},{"latitude":" 31.55376","longitude":"-110.25720","name":" Outback Steakhouse","address":" USA-Vista"},{"latitude":" 33.32007","longitude":"-111.96828","name":" Outback Steakhouse","address":" USA-Chandler"},{"latitude":" 40.08585","longitude":"-82.95420","name":" Outback Steakhouse","address":" USA-Columbus"},{"latitude":" 37.95867","longitude":"-122.05831","name":" Outback Steakhouse","address":" USA-Hill"},{"latitude":" 42.59532","longitude":"-114.46001","name":" Outback Steakhouse","address":" USA-Twin Falls"},{"latitude":" 41.67308","longitude":"-70.30484","name":" Outback Steakhouse","address":" USA-Hyannis"},{"latitude":" 39.84549","longitude":"-84.19207","name":" Outback Steakhouse","address":" USA-Dayton"},{"latitude":" 42.72581","longitude":"-71.19307","name":" Outback Steakhouse","address":" USA-Methuen"},{"latitude":" 39.01699","longitude":"-84.60700","name":" Outback Steakhouse","address":" USA-Erlanger"},{"latitude":" 30.25711","longitude":"-81.38793","name":" Outback Steakhouse","address":" USA-Jacksonville Beach"},{"latitude":" 41.25675","longitude":"-73.00027","name":" Outback Steakhouse","address":" USA-Orange"},{"latitude":" 35.71292","longitude":"-78.62739","name":" Outback Steakhouse","address":" USA-United States"},{"latitude":" 34.96271","longitude":"-89.99241","name":" Outback Steakhouse","address":" USA-Southaven"},{"latitude":" 35.08279","longitude":"-81.70949","name":" Outback Steakhouse","address":" USA-Gaffney"},{"latitude":" 36.33411","longitude":"-94.18189","name":" Outback Steakhouse","address":" USA-Rogers"},{"latitude":" 38.95654","longitude":"-94.72350","name":" Outback Steakhouse","address":" USA-Overland Park"},{"latitude":" 42.02385","longitude":"-88.33880","name":" Outback Steakhouse","address":" USA-South Elgin"},{"latitude":" 39.39864","longitude":"-76.47980","name":" Outback Steakhouse","address":" USA-Baltimore"},{"latitude":" 42.71987","longitude":"-73.80443","name":" Outback Steakhouse","address":" USA-Colonie"},{"latitude":" 40.39510","longitude":"-104.75390","name":" Outback Steakhouse","address":" USA-Greeley"},{"latitude":" 40.68679","longitude":"-74.33524","name":" Outback Steakhouse","address":" USA-Springfield"},{"latitude":" 33.30597","longitude":"-111.88547","name":" Outback Steakhouse","address":" USA-Chandler"},{"latitude":" 35.29346","longitude":"-80.74348","name":" Outback Steakhouse","address":" USA-Charlotte"},{"latitude":" 38.86247","longitude":"-77.29215","name":" Outback Steakhouse","address":" USA-Fairfax"},{"latitude":" 38.25084","longitude":"-85.62976","name":" Outback Steakhouse","address":" USA-Louisville"},{"latitude":" 43.52494","longitude":"-96.77831","name":" Outback Steakhouse","address":" USA-Sioux Falls"},{"latitude":" 35.13774","longitude":"-106.59368","name":" Outback Steakhouse","address":" USA-Albuquerque"},{"latitude":" 43.87892","longitude":"-91.18789","name":" Outback Steakhouse","address":" USA-Onalaska"},{"latitude":" 28.35700","longitude":"-80.68356","name":" Outback Steakhouse","address":" USA-Merritt Island"},{"latitude":" 40.81924","longitude":"-96.65366","name":" Outback Steakhouse","address":" USA-Lincoln"},{"latitude":" 33.59848","longitude":"-111.98004","name":" Outback Steakhouse","address":" USA-Phoenix"},{"latitude":" 41.21043","longitude":"-80.75082","name":" Outback Steakhouse","address":" USA-Niles"},{"latitude":" 38.41850","longitude":"-75.56403","name":" Outback Steakhouse","address":" USA-United States"},{"latitude":" 38.41181","longitude":"-82.26299","name":" Outback Steakhouse","address":" USA-Barboursville"},{"latitude":" 40.59822","longitude":"-75.52602","name":" Outback Steakhouse","address":" USA-Allentown"},{"latitude":" 26.23905","longitude":"-80.24441","name":" Outback Steakhouse","address":" USA-Coral Springs"},{"latitude":" 28.90149","longitude":"-81.91297","name":" Outback Steakhouse","address":" USA-The Villages"},{"latitude":" 35.09739","longitude":"-77.03838","name":" Outback Steakhouse","address":" USA-New Bern"},{"latitude":" 42.55166","longitude":"-71.78278","name":" Outback Steakhouse","address":" USA-Leominster"},{"latitude":" 36.06085","longitude":"-95.87755","name":" Outback Steakhouse","address":" USA-Tulsa"},{"latitude":" 33.19655","longitude":"-97.13711","name":" Outback Steakhouse","address":" USA-Denton"},{"latitude":" 37.71990","longitude":"-97.24457","name":" Outback Steakhouse","address":" USA-Wichita"},{"latitude":" 39.60575","longitude":"-104.71669","name":" Outback Steakhouse","address":" USA-Aurora"},{"latitude":" 41.13192","longitude":"-81.65344","name":" Outback Steakhouse","address":" USA-Akron"},{"latitude":" 34.18955","longitude":"-84.13109","name":" Outback Steakhouse","address":" USA-United States"},{"latitude":" 26.19962","longitude":"-98.20936","name":" Outback Steakhouse","address":" USA-McAllen"},{"latitude":" 41.14829","longitude":"-74.11892","name":" Outback Steakhouse","address":" USA-Suffern"},{"latitude":" 36.03819","longitude":"-79.83500","name":" Outback Steakhouse","address":" USA-Greensboro"},{"latitude":" 31.30503","longitude":"-94.72652","name":" Outback Steakhouse","address":" USA-Lufkin"},{"latitude":" 36.06640","longitude":"-79.49772","name":" Outback Steakhouse","address":" USA-Burlington"},{"latitude":" 39.86606","longitude":"-75.54319","name":" Outback Steakhouse","address":" USA-Glen Mills"},{"latitude":" 36.59314","longitude":"-79.42605","name":" Outback Steakhouse","address":" USA-Danville"},{"latitude":" 37.36489","longitude":"-81.02929","name":" Outback Steakhouse","address":" USA-Princeton"},{"latitude":" 36.12914","longitude":"-81.67155","name":" Outback Steakhouse","address":" USA-Blowing Rock"},{"latitude":" 28.42666","longitude":"-81.30965","name":" Outback Steakhouse","address":" USA-Orlando"},{"latitude":" 38.56761","longitude":"-89.98477","name":" Outback Steakhouse","address":" USA-Swansea"},{"latitude":" 34.22216","longitude":"-119.15499","name":" Outback Steakhouse","address":" USA-Oxnard"}]