[{"latitude":"33.412144","longitude":"-111.545475","name":"QT-Apache Junction,AZ","address":"21 East Old West Hwy, Apache Junction,AZ 85219, Store No 437|480-288-9023"},{"latitude":"33.4497414","longitude":"-112.3066177","name":"QT [Auto Diesel]-Avondale,AZ","address":"150 N Avondale Blvd, Avondale,AZ 85323, Store No 1424|623-882-2122"},{"latitude":"33.478495","longitude":"-112.340261","name":"QT [Auto Diesel]-Avondale,AZ","address":"13067 W Thomas Rd, Avondale,AZ 85392, Store No 423|623-935-4167"},{"latitude":"33.429525","longitude":"-112.590944","name":"QT Travel Center [Auto Diesel]-Buckeye,AZ","address":"1850 S Miller Rd, Buckeye,AZ 85326, Store No 492|623-386-8855"},{"latitude":"32.895303","longitude":"-111.757452","name":"QT [Auto Diesel]-Casa Grande,AZ","address":"1627 N Pinal Ave, Casa Grande,AZ 85222, Store No 482|520-876-9050"},{"latitude":"33.334721","longitude":"-111.841585","name":"QT-Chandler,AZ","address":"1995 N Arizona Ave, Chandler,AZ 85225, Store No 427|480-917-3128"},{"latitude":"33.276109","longitude":"-111.842381","name":"QT [Auto Diesel]-Chandler,AZ","address":"2010 S Arizona Ave, Chandler,AZ 85286, Store No 442|480-726-5202"},{"latitude":"33.378944","longitude":"-111.772741","name":"QT-Gilbert,AZ","address":"2761 E Baseline Rd, Gilbert,AZ 85234, Store No 469|480-497-8236"},{"latitude":"33.284014","longitude":"-111.75537","name":"QT [Auto Diesel]-Gilbert,AZ","address":"3720 S Val Vista Dr, Gilbert,AZ 85297, Store No 1404|480-892-0107"},{"latitude":"33.336323","longitude":"-111.790195","name":"QT-Gilbert,AZ","address":"726 S Gilbert Rd, Gilbert,AZ 85296, Store No 486|480-855-1673"},{"latitude":"33.365497","longitude":"-111.841757","name":"QT [Auto Diesel]-Gilbert,AZ","address":"847 N Arizona Ave, Gilbert,AZ 50315, Store No 414|480-558-5342"},{"latitude":"33.654463","longitude":"-112.150666","name":"QT-Glendale,AZ","address":"4255 W Union Hills Drive, Glendale,AZ 85308, Store No 413|623-463-0202"},{"latitude":"33.523216","longitude":"-112.167418","name":"QT-Glendale,AZ","address":"5082 NW Grand Ave, Glendale,AZ 85301, Store No 456|623-937-0337"},{"latitude":"33.538511","longitude":"-112.203327","name":"QT-Glendale,AZ","address":"6702 W Glendale Ave, Glendale,AZ 85303, Store No 470|623-872-1044"},{"latitude":"33.50831","longitude":"-112.272449","name":"QT-Glendale,AZ","address":"9910 W Camelback Rd, Glendale,AZ 85307, Store No 448|602-548-7055"},{"latitude":"33.452413","longitude":"-112.341328","name":"QT [Auto Diesel]-Goodyear,AZ","address":"550 N Dysart Rd, Goodyear,AZ 85338, Store No 446|623-882-0431"},{"latitude":"33.452765","longitude":"-112.392436","name":"QT [Auto Diesel]-Goodyear,AZ","address":"575 N Estrella Pkwy, Goodyear,AZ 85338, Store No 1401|623-932-2462"},{"latitude":"33.377303","longitude":"-112.133021","name":"QT [Auto Diesel]-Laveen,AZ","address":"3445 W Baseline Rd, Laveen,AZ 85339, Store No 493|602-237-0070"},{"latitude":"33.068359","longitude":"-112.046588","name":"QT [Auto Diesel]-Maricopa,AZ","address":"20530 N John Wayne Pkwy, Maricopa,AZ 85239, Store No 499|520-568-1907"},{"latitude":"33.394344","longitude":"-111.615244","name":"QT-Mesa,AZ","address":"1141 S Crismon Rd, Mesa,AZ 85208, Store No 459|480-733-5421"},{"latitude":"33.390577","longitude":"-111.839923","name":"QT-Mesa,AZ","address":"1331 S Country Club Dr, Mesa,AZ 85210, Store No 402|480-633-0800"},{"latitude":"33.382441","longitude":"-111.738686","name":"QT-Mesa,AZ","address":"1733 S Greenfield Rd, Mesa,AZ 85206, Store No 438|480-844-8292"},{"latitude":"33.38142","longitude":"-111.823802","name":"QT-Mesa,AZ","address":"1861 S Mesa Dr, Mesa,AZ 85210, Store No 431|480-558-1992"},{"latitude":"33.4077153","longitude":"-111.8752445","name":"QT[Auto Diesel]-Mesa,AZ","address":"2026 W Broadway Rd, Mesa,AZ 85202, Store No 419|480-840-6360"},{"latitude":"33.367263","longitude":"-111.687541","name":"QT-Mesa,AZ","address":"2657 S Power Rd, Mesa,AZ 85208, Store No 496|480-380-9741"},{"latitude":"33.421707","longitude":"-111.684364","name":"QT-Mesa,AZ","address":"339 N Power Rd, Mesa,AZ 85205, Store No 457|480-325-4766"},{"latitude":"33.41532","longitude":"-111.754763","name":"QT-Mesa,AZ","address":"3563 E Main, Mesa,AZ 85213, Store No 417|480-833-9108"},{"latitude":"33.407512","longitude":"-111.805484","name":"QT-Mesa,AZ","address":"414 S Stapley Dr, Mesa,AZ 85204, Store No 433|480-354-6240"},{"latitude":"33.451278","longitude":"-111.841578","name":"QT[Auto Diesel]-Mesa,AZ","address":"517 W Mckellips Rd, Mesa,AZ 85201, Store No 401|480-981-0469"},{"latitude":"33.315917","longitude":"-111.686687","name":"QT[Auto Diesel]-Mesa,AZ","address":"5545 S Power Rd, Mesa,AZ 85212, Store No 478|480-325-1399"},{"latitude":"33.466169","longitude":"-111.702173","name":"QT-Mesa,AZ","address":"5957 E Mcdowell Rd, Mesa,AZ 85215, Store No 447|480-218-0388"},{"latitude":"33.422413","longitude":"-111.849057","name":"QT-Mesa,AZ","address":"816 W University Dr, Mesa,AZ 85201, Store No 452|480-890-3031"},{"latitude":"33.422199","longitude":"-111.632113","name":"QT[Auto Diesel]-Mesa,AZ","address":"9229 E University Dr, Mesa,AZ 85207, Store No 404|480-844-3833"},{"latitude":"32.407588","longitude":"-110.944957","name":"QT [Auto Diesel]-Oro Valley,AZ","address":"11045 N Oracle Rd, Oro Valley,AZ 85737, Store No 1475|520-219-0350"},{"latitude":"33.654927","longitude":"-112.237434","name":"QT-Peoria,AZ","address":"18855 N 83rd Ave, Peoria,AZ 85308, Store No 428|623-979-0353"},{"latitude":"33.610493","longitude":"-112.203143","name":"QT [Auto Diesel]-Peoria,AZ","address":"6721 W Thunderbird Rd, Peoria,AZ 85381, Store No 430|623-362-1504"},{"latitude":"33.7121058","longitude":"-112.2041456","name":"QT [Auto Diesel]-Peoria,AZ","address":"6739 W Happy Valley Rd, Peoria,AZ 85383, Store No 436|623-878-3937"},{"latitude":"33.681852","longitude":"-112.221008","name":"QT-Peoria,AZ","address":"7522 W Deer Valley Rd, Peoria,AZ 85382, Store No 439|623-878-0670"},{"latitude":"33.671375","longitude":"-112.240341","name":"QT [Auto Diesel]-Peoria,AZ","address":"8293 W Lake Pleasant Pkwy, Peoria,AZ 85382, Store No 472|623-561-7887"},{"latitude":"33.609652","longitude":"-112.249831","name":"QT [Auto Diesel]-Peoria,AZ","address":"8870 W Thunderbird Rd, Peoria,AZ 85381, Store No 490|623-362-8033"},{"latitude":"33.566926","longitude":"-112.255138","name":"QT-Peoria,AZ","address":"9020 N 91st Ave, Peoria,AZ 85345, Store No 416|623-825-6300"},{"latitude":"33.46101","longitude":"-112.16834","name":"QT Travel Center [Auto Diesel]-Phoenix,AZ","address":"1155 N 51st St [I-10 Exit 138], Phoenix,AZ 85043, Store No 444|602-841-7032"},{"latitude":"33.505751","longitude":"-112.047278","name":"QT-Phoenix,AZ","address":"1610 E Highland Ave, Phoenix,AZ 85016, Store No 435|602-923-6797"},{"latitude":"33.639934","longitude":"-112.096257","name":"QT-Phoenix,AZ","address":"1707 W Bell Rd, Phoenix,AZ 85023, Store No 411|602-841-1743"},{"latitude":"33.392148","longitude":"-112.099427","name":"QT-Phoenix,AZ","address":"1915 W Southern Ave, Phoenix,AZ 85041, Store No 434|602-233-3355"},{"latitude":"33.666705","longitude":"-112.065453","name":"QT-Phoenix,AZ","address":"19815 N 7th St, Phoenix,AZ 85024, Store No 426|602-548-5701"},{"latitude":"33.66705","longitude":"-112.099849","name":"QT [Auto Diesel]-Phoenix,AZ","address":"19990 N 19th Ave, Phoenix,AZ 85027, Store No 421|602-494-2743"},{"latitude":"33.538459","longitude":"-112.101805","name":"QT-Phoenix,AZ","address":"2009 W Glendale Ave, Phoenix,AZ 85021, Store No 418|602-414-0615"},{"latitude":"33.596667","longitude":"-112.037694","name":"QT-Phoenix,AZ","address":"2019 E Cactus Rd, Phoenix,AZ 85022, Store No 485|602-278-8721"},{"latitude":"33.6772585","longitude":"-112.0311941","name":"QT [Auto Diesel]-Phoenix,AZ","address":"21050 N Cave Creek, Phoenix,AZ 85024, Store No 497|623-247-2389"},{"latitude":"33.640686","longitude":"-112.034719","name":"QT-Phoenix,AZ","address":"2212 E Bell Rd, Phoenix,AZ 85022, Store No 406|623-845-7850"},{"latitude":"33.480319","longitude":"-112.032679","name":"QT [Auto Diesel]-Phoenix,AZ","address":"2250 E Thomas Rd, Phoenix,AZ 85016, Store No 1408|602-923-6702"},{"latitude":"33.655183","longitude":"-112.029457","name":"QT-Phoenix,AZ","address":"2450 E Union Hills Dr, Phoenix,AZ 85050, Store No 420|602-485-3696"},{"latitude":"33.509101","longitude":"-112.11407","name":"QT [Auto Diesel]-Phoenix,AZ","address":"2535 W Camelback Rd, Phoenix,AZ 85017, Store No 461|602-242-0686"},{"latitude":"33.581868","longitude":"-112.119169","name":"QT [Auto Diesel]-Phoenix,AZ","address":"2725 W Peoria Ave, Phoenix,AZ 85029, Store No 454|623-873-4411"},{"latitude":"33.610989","longitude":"-112.119148","name":"QT-Phoenix,AZ","address":"2750 W Thunderbird, Phoenix,AZ 85053, Store No 407|602-264-2902"},{"latitude":"33.422475","longitude":"-112.169145","name":"QT [Auto Diesel]-Phoenix,AZ","address":"2775 S 51st Ave, Phoenix,AZ 85043, Store No 445|602-956-0678"},{"latitude":"33.479424","longitude":"-112.117227","name":"QT-Phoenix,AZ","address":"2836 N 27th Ave, Phoenix,AZ 85009, Store No 458|602-438-6010"},{"latitude":"33.596475","longitude":"-112.1196353","name":"QT [Auto Diesel]-Phoenix,AZ","address":"2840 W Cactus Rd, Phoenix,AZ 85029, Store No 1428|602-749-0905"},{"latitude":"33.494954","longitude":"-112.018818","name":"QT-Phoenix,AZ","address":"2941 E Indian School Rd, Phoenix,AZ 85016, Store No 425|602-942-0376"},{"latitude":"33.494751","longitude":"-112.079023","name":"QT-Phoenix,AZ","address":"321 W Indian School Rd, Phoenix,AZ 85013, Store No 440|602-589-1812"},{"latitude":"33.538486","longitude":"-112.137189","name":"QT [Auto Diesel]-Phoenix,AZ","address":"3605 W Glendale Ave, Phoenix,AZ 85051, Store No 1411|623-772-7211"},{"latitude":"33.625221","longitude":"-112.14051","name":"QT [Auto Diesel]-Phoenix,AZ","address":"3806 W Greenway Rd, Phoenix,AZ 85053, Store No 477|602-493-4047"},{"latitude":"33.492268","longitude":"-112.220452","name":"QT-Phoenix,AZ","address":"3855 N 75th Ave, Phoenix,AZ 85033, Store No 481|602-749-1078"},{"latitude":"33.626178","longitude":"-111.995486","name":"QT-Phoenix,AZ","address":"4011 E Greenway Rd, Phoenix,AZ 85032, Store No 476|623-582-9215"},{"latitude":"33.40705","longitude":"-112.012609","name":"QT [Auto Diesel]-Phoenix,AZ","address":"4075 S 32nd St, Phoenix,AZ 85040, Store No 432|602-943-0750"},{"latitude":"33.4949152","longitude":"-112.1514067","name":"QT [Auto Diesel]-Phoenix,AZ","address":"4275 W Indian School Rd, Phoenix,AZ 85019, Store No 443|602-269-1714"},{"latitude":"33.37797","longitude":"-111.979847","name":"QT-Phoenix,AZ","address":"4725 E Baseline Rd, Phoenix,AZ 85042, Store No 463|602-249-8197"},{"latitude":"33.465982","longitude":"-112.203683","name":"QT-Phoenix,AZ","address":"6702 W Mcdowell, Phoenix,AZ 85035, Store No 451|602-272-4146"},{"latitude":"33.437039","longitude":"-112.204031","name":"QT-Phoenix,AZ","address":"6705 W Buckeye Rd, Phoenix,AZ 85043, Store No 409|602-268-0629"},{"latitude":"33.553227","longitude":"-112.117155","name":"QT-Phoenix,AZ","address":"8004 N 27th Ave, Phoenix,AZ 85051, Store No 412|623-478-7433"},{"latitude":"33.557169","longitude":"-112.065124","name":"QT-Phoenix,AZ","address":"8233 N 7th St, Phoenix,AZ 85020, Store No 479|602-843-1365"},{"latitude":"33.465045","longitude":"-112.237588","name":"QT [Auto Diesel]-Phoenix,AZ","address":"8283 W McDowell Rd, Phoenix,AZ 85037, Store No 449|623-247-1473"},{"latitude":"33.5680443","longitude":"-112.0996689","name":"QT [Auto Diesel]-Phoenix,AZ","address":"9010 N 19th Ave, Phoenix,AZ 85021, Store No 405|602-957-3121"},{"latitude":"33.494318","longitude":"-112.256329","name":"QT [Auto Diesel]-Phoenix,AZ","address":"9120 W Indian School Rd, Phoenix,AZ 85037, Store No 487|602-548-7146"},{"latitude":"33.181006","longitude":"-111.586349","name":"QT-Queen Creek,AZ","address":"1766 W Hunt Hwy, Queen Creek,AZ 85242, Store No 495|480-655-5728"},{"latitude":"33.24869","longitude":"-111.637709","name":"QT-Queen Creek,AZ","address":"22185 S Ellsworth Loop Rd, Queen Creek,AZ 85142, Store No 474|480-987-9061"},{"latitude":"33.638909","longitude":"-112.305876","name":"QT-Surprise,AZ","address":"11420 W Bell Rd, Surprise,AZ 85374, Store No 494|623-972-0266"},{"latitude":"33.647097","longitude":"-112.361576","name":"QT [Auto Diesel]-Surprise,AZ","address":"14007 W Grand Ave, Surprise,AZ 85374, Store No 410|623-556-0238"},{"latitude":"33.407706","longitude":"-111.921952","name":"QT-Tempe,AZ","address":"1106 E Broadway Rd, Tempe,AZ 85282, Store No 408|480-755-1242"},{"latitude":"33.349205","longitude":"-111.958987","name":"QT [Auto Diesel]-Tempe,AZ","address":"1190 W Elliot Rd, Tempe,AZ 85284, Store No 1420|480-449-0217"},{"latitude":"33.445799","longitude":"-111.926275","name":"QT-Tempe,AZ","address":"1545 N Scottsdale Rd, Tempe,AZ 85281, Store No 429|480-753-1106"},{"latitude":"33.421803","longitude":"-111.970874","name":"QT-Tempe,AZ","address":"2111 W University Drive, Tempe,AZ 85281, Store No 400|480-945-0730"},{"latitude":"33.422061","longitude":"-111.893657","name":"QT [Auto Diesel]-Tempe,AZ","address":"2150 E University Dr, Tempe,AZ 85281, Store No 1400|480-838-1090"},{"latitude":"33.392815","longitude":"-111.892225","name":"QT [Auto Diesel]-Tempe,AZ","address":"2195 E Southern Ave, Tempe,AZ 85282, Store No 460|480-921-2937"},{"latitude":"33.389074","longitude":"-111.960689","name":"QT-Tempe,AZ","address":"3875 S Priest Dr, Tempe,AZ 85282, Store No 467|480-831-3049"},{"latitude":"33.334221","longitude":"-111.954478","name":"QT-Tempe,AZ","address":"8810 S Hardy Dr, Tempe,AZ 85284, Store No 462|480-966-2738"},{"latitude":"33.378387","longitude":"-111.928153","name":"QT-Tempe,AZ","address":"918 E Baseline Rd, Tempe,AZ 85283, Store No 441|480-967-0072"},{"latitude":"33.449675","longitude":"-112.272373","name":"QT-Tolleson,AZ","address":"297 N 99th Ave, Tolleson,AZ 85353, Store No 471|623-907-0024"},{"latitude":"33.437158","longitude":"-112.238984","name":"QT-Tolleson,AZ","address":"8302 W Buckeye Rd, Tolleson,AZ 85353, Store No 422|623-478-0662"},{"latitude":"32.191742","longitude":"-110.774246","name":"QT [Auto Diesel]-Tucson,AZ","address":"10230 E Golf Links Rd, Tucson,AZ 85730, Store No 1487|520-741-1776"},{"latitude":"32.205787","longitude":"-110.827195","name":"QT-Tucson,AZ","address":"1250 S Pantano Rd, Tucson,AZ 85710, Store No 1460|520-294-3446"},{"latitude":"32.177841","longitude":"-110.994087","name":"QT [Auto Diesel]-Tucson,AZ","address":"1375 W Ajo Way, Tucson,AZ 85713, Store No 1470|520-298-9347"},{"latitude":"32.205193","longitude":"-110.90949","name":"QT [Auto\/Truck Diesel]-Tucson,AZ","address":"1401 S Alvernon Way, Tucson,AZ 85711, Store No 1461|520-747-3027"},{"latitude":"32.2503516","longitude":"-110.995189","name":"QT [Auto Diesel]-Tucson,AZ","address":"1425 W Grant Rd, Tucson,AZ 85745, Store No 1492|520-886-6321"},{"latitude":"32.200059","longitude":"-110.875277","name":"QT-Tucson,AZ","address":"1884 S Craycroft Rd, Tucson,AZ 85711, Store No 1453|520-624-4482"},{"latitude":"32.244597","longitude":"-110.845874","name":"QT-Tucson,AZ","address":"1925 N Kolb Rd, Tucson,AZ 85715, Store No 1493|520-546-5135"},{"latitude":"32.163675","longitude":"-110.936992","name":"QT [Auto Diesel]-Tucson,AZ","address":"2345 E Irvington Rd, Tucson,AZ 85714, Store No 1490|520-790-0082"},{"latitude":"32.257884","longitude":"-110.960972","name":"QT [Auto Diesel]-Tucson,AZ","address":"2802 N 1St Ave, Tucson,AZ 85719, Store No 1454|520-293-1782"},{"latitude":"32.2650757","longitude":"-110.9776077","name":"QT [Auto Diesel]-Tucson,AZ","address":"3200 N Oracle Rd, Tucson,AZ 85705, Store No 1464|520-623-1441"},{"latitude":"32.133124","longitude":"-111.037859","name":"QT [Auto Diesel]-Tucson,AZ","address":"3345 W Valencia Rd, Tucson,AZ 85746, Store No 1482|520-293-3568"},{"latitude":"32.3382225","longitude":"-111.0383759","name":"QT [Auto Diesel]-Tucson,AZ","address":"3390 W Ina Rd, Tucson,AZ 85741, Store No 1483|520-325-3047"},{"latitude":"32.2971","longitude":"-110.842053","name":"QT [Auto Diesel]-Tucson,AZ","address":"3636 N Cratcroft Rd, Tucson,AZ 85750, Store No 1479|520-514-0464"},{"latitude":"32.236573","longitude":"-110.88221","name":"QT-Tucson,AZ","address":"5151 E Speedway Blvd, Tucson,AZ 85711, Store No 1452|520-529-5643"},{"latitude":"32.359165","longitude":"-111.08432","name":"QT [Auto Diesel]-Tucson,AZ","address":"5565 W Cortaro Farms Rd, Tucson,AZ 85742, Store No 1456|520-886-2019"},{"latitude":"32.192083","longitude":"-110.856136","name":"QT [Auto Diesel]-Tucson,AZ","address":"6385 E Golf Links Rd, Tucson,AZ 85730, Store No 1496|520-883-4509"},{"latitude":"32.1334662","longitude":"-110.9898198","name":"QT [Auto Diesel]-Tucson,AZ","address":"6520 S I-19 Frontage Rd, Tucson,AZ 85756, Store No 1463|520-573-1077"},{"latitude":"32.296717","longitude":"-110.972996","name":"QT [Auto Diesel]-Tucson,AZ","address":"68 W River Rd, Tucson,AZ 85704, Store No 1450|520-744-0844"},{"latitude":"32.220872","longitude":"-110.810436","name":"QT [Auto Diesel]-Tucson,AZ","address":"8530 E Broadway Blvd, Tucson,AZ 85710, Store No 1476|520-797-6963"},{"latitude":"33.606011","longitude":"-112.302261","name":"QT [Auto Diesel]-Youngtown,AZ","address":"11309 Nw Grand Ave, Youngtown,AZ 85363, Store No 468|623-875-6113"},{"latitude":"33.565531","longitude":"-112.308825","name":"QT [Auto Diesel]-Youngtown,AZ","address":"11604 W Olive Ave, Youngtown,AZ 85363, Store No 453|623-977-5533"},{"latitude":"34.049498","longitude":"-84.69947","name":"QT-Acworth,GA","address":"3888 Cobb Pkwy, Acworth,GA 30101, Store No 811|770-529-9434"},{"latitude":"34.088493","longitude":"-84.583531","name":"QT-Acworth,GA","address":"6090 Hwy 92, Acworth,GA 30102, Store No 793|678-445-8111"},{"latitude":"34.379266","longitude":"-84.907409","name":"QT Travel Center-Adairsville,GA","address":"961 Hwy 140 NW [I-75 Exit 140], Adairsville,GA 30103, Store No 757|770-877-5678"},{"latitude":"34.046772","longitude":"-84.223485","name":"QT-Alpharetta,GA","address":"10920 State Bridge Rd, Alpharetta,GA 30005, Store No 716|770-664-7923"},{"latitude":"34.066822","longitude":"-84.293866","name":"QT-Alpharetta,GA","address":"11700 Haynes Bridge Rd, Alpharetta,GA 30005, Store No 765|770-752-9890"},{"latitude":"34.040609","longitude":"-84.319949","name":"QT [Auto Diesel]-Alpharetta,GA","address":"1590 Mansell Rd, Alpharetta,GA 30009, Store No 843|770-640-6263"},{"latitude":"34.0689381","longitude":"-84.2691332","name":"QT-Alpharetta,GA","address":"3190 Old Milton Pkwy, Alpharetta,GA 30009, Store No 782|770-753-2671"},{"latitude":"33.948515","longitude":"-83.35949","name":"QT [Auto Diesel]-Athens,GA","address":"1240 Oconee Connector, Athens,GA 30606, Store No 819|706-546-5733"},{"latitude":"33.806894","longitude":"-84.335764","name":"QT-Atlanta,GA","address":"1836 Briarcliff Rd, Atlanta,GA 30329, Store No 745|404-325-1931"},{"latitude":"33.826958","longitude":"-84.32807","name":"QT-Atlanta,GA","address":"2375 N Druid Hill Rd Ne, Atlanta,GA 30329, Store No 723|404-315-6700"},{"latitude":"33.837132","longitude":"-84.311784","name":"QT [Auto Diesel]-Atlanta,GA","address":"2746 Clairmont Rd NE, Atlanta,GA 30329, Store No 838|404-636-7996"},{"latitude":"33.865599","longitude":"-84.470953","name":"QT-Atlanta,GA","address":"2804 Paces Ferry Rd NW, Atlanta,GA 30339, Store No 729|770-432-9908"},{"latitude":"33.8796616","longitude":"-84.2745667","name":"QT-Atlanta,GA","address":"2805 Chamblee Tucker Rd, Atlanta,GA 30341, Store No 709|770-455-1868"},{"latitude":"33.842649","longitude":"-84.329257","name":"QT-Atlanta,GA","address":"3292 Buford Hwy NE, Atlanta,GA 30329, Store No 721|404-633-6193"},{"latitude":"33.861162","longitude":"-84.308629","name":"QT-Atlanta,GA","address":"4050 Buford Hwy Ne, Atlanta,GA 30345, Store No 797|404-325-3325"},{"latitude":"33.730417","longitude":"-84.573037","name":"QT Travel Center-Atlanta,GA","address":"5705 Fulton Industrial Blvd [I-20 Exit 49], Atlanta,GA 30336, Store No 777|404-344-3440"},{"latitude":"33.825695","longitude":"-84.362716","name":"QT-Atlanta,GA","address":"761 Sidney Marcus Blvd, Atlanta,GA 30324, Store No 744|404-240-0089"},{"latitude":"33.7778282","longitude":"-84.3865204","name":"QT-Atlanta,GA","address":"855 Peachtree St, Atlanta,GA 30308, Store No 1700|404-748-4554"},{"latitude":"33.776583","longitude":"-84.564179","name":"QT-Austell,GA","address":"291 Six Flags Dr, Austell,GA 30168, Store No 742|770-944-0781"},{"latitude":"33.856727","longitude":"-84.59105","name":"QT-Austell,GA","address":"3964 Floyd Rd, Austell,GA 30106, Store No 733|770-805-6312"},{"latitude":"34.05141","longitude":"-83.994241","name":"QT-Buford,GA","address":"2900 Buford Dr, Buford,GA 30519, Store No 785|770-831-1450"},{"latitude":"34.089749","longitude":"-83.997933","name":"QT-Buford,GA","address":"4080 Buford Dr, Buford,GA 30518, Store No 786|678-714-8999"},{"latitude":"34.14477","longitude":"-83.965298","name":"QT [Auto Diesel]-Buford,GA","address":"927 Gainesville Hwy, Buford,GA 30518, Store No 824|678-889-4902"},{"latitude":"34.2519951","longitude":"-84.4700546","name":"QT [Auto Diesel]-Canton,GA","address":"1490 Riverstone Pkwy, Canton,GA 30114, Store No 1714|770-704-4585"},{"latitude":"33.605654","longitude":"-85.023352","name":"QT-Carrollton,GA","address":"1676 Bankhead Hwy, Carrollton,GA 30116, Store No 834|770-838-4957"},{"latitude":"34.206865","longitude":"-84.81803","name":"QT-Cartersville,GA","address":"1364 Joe Frank Harris Pkwy, Cartersville,GA 30120, Store No 792|770-383-8950"},{"latitude":"33.894556","longitude":"-84.305699","name":"QT-Chamblee,GA","address":"5347 Peachtree Industrial Blvd, Chamblee,GA 30341, Store No 773|770-452-7158"},{"latitude":"33.608282","longitude":"-84.435858","name":"QT-College Park,GA","address":"5390 Riverdale Rd, College Park,GA 30349, Store No 724|770-994-0186"},{"latitude":"34.250375","longitude":"-83.460798","name":"QT [Auto Diesel]-Commerce,GA","address":"30839 Hwy 441, Commerce,GA 30529, Store No 828|706-335-5316"},{"latitude":"33.664513","longitude":"-84.032272","name":"QT [Auto Diesel]-Conyers,GA","address":"1340 Klondike Rd, Conyers,GA 30094, Store No 761|770-602-4596"},{"latitude":"33.659255","longitude":"-83.998735","name":"QT-Conyers,GA","address":"1395 Georgia Hwy 138, Conyers,GA 30013, Store No 770|770-860-9692"},{"latitude":"33.625996","longitude":"-83.976902","name":"QT-Conyers,GA","address":"2400 Salem Rd Se, Conyers,GA 30013, Store No 802|770-761-4384"},{"latitude":"33.609325","longitude":"-83.826514","name":"QT [Auto Diesel]-Covington,GA","address":"11124 Hwy 142, Covington,GA 30014, Store No 821|770-787-4910"},{"latitude":"33.602705","longitude":"-83.864086","name":"QT-Covington,GA","address":"3214 Hwy 278 Nw, Covington,GA 30014, Store No 798|678-625-1746"},{"latitude":"34.163866","longitude":"-84.118137","name":"QT-Cumming,GA","address":"1655 Buford Hwy, Cumming,GA 30041, Store No 841|678-455-6198"},{"latitude":"34.25288","longitude":"-84.088159","name":"QT-Cumming,GA","address":"2830 Keith Bridge Rd, Cumming,GA 30041, Store No 812|678-947-3808"},{"latitude":"33.984012","longitude":"-83.925617","name":"QT-Dacula,GA","address":"1750 Winder Hwy, Dacula,GA 30019, Store No 766|678-377-7808"},{"latitude":"34.073729","longitude":"-83.917923","name":"QT-Dacula,GA","address":"2460 Hamilton Mill Rd, Dacula,GA 30019, Store No 784|770-932-1914"},{"latitude":"33.910017","longitude":"-84.824887","name":"QT-Dallas,GA","address":"491 Nathan Dean Blvd, Dallas,GA 30132, Store No 788|770-445-0294"},{"latitude":"33.803912","longitude":"-84.277495","name":"QT-Decatur,GA","address":"1910 Lawrenceville Hwy, Decatur,GA 30033, Store No 741|404-633-2849"},{"latitude":"33.707151","longitude":"-84.21861","name":"QT-Decatur,GA","address":"2753 Wesley Chapel Rd, Decatur,GA 30034, Store No 780|404-534-6538"},{"latitude":"33.786157","longitude":"-84.236188","name":"QT-Decatur,GA","address":"3830 N Decatur Rd, Decatur,GA 30032, Store No 712|404-292-4098"},{"latitude":"33.692223","longitude":"-84.26087","name":"QT [Auto Diesel]-Decatur,GA","address":"3975 Flat Shoals Pkwy, Decatur,GA 30034, Store No 736|404-241-1969"},{"latitude":"33.753865","longitude":"-84.234401","name":"QT-Decatur,GA","address":"4113 Covington Hwy, Decatur,GA 30032, Store No 701|404-284-6286"},{"latitude":"33.901776","longitude":"-84.24505","name":"QT Travel Center-Doraville,GA","address":"4086 Pleasantdale Rd [I-85 Exit 96], Doraville,GA 30340, Store No 707|770-447-6454"},{"latitude":"33.901983","longitude":"-84.275312","name":"QT [Auto Diesel]-Doraville,GA","address":"5500 Buford Hwy Ne, Doraville,GA 30340, Store No 848|770-452-5470"},{"latitude":"33.929871","longitude":"-84.265372","name":"QT-Doraville,GA","address":"6901 Peachtree Industrial Blvd, Doraville,GA 30340, Store No 734|770-368-8889"},{"latitude":"33.750094","longitude":"-84.710912","name":"QT-Douglasville,GA","address":"2042 Fairburn Rd, Douglasville,GA 30135, Store No 808|678-715-3364"},{"latitude":"33.729728","longitude":"-84.73698","name":"QT-Douglasville,GA","address":"2786 Chapel Hill Rd, Douglasville,GA 30134, Store No 758|770-947-0505"},{"latitude":"33.943493","longitude":"-84.12381","name":"QT [Auto Diesel]-Duluth,GA","address":"1565 Pleasant Hill Rd, Duluth,GA 30096, Store No 731|770-931-5103"},{"latitude":"33.97047","longitude":"-84.09755","name":"QT [Auto Diesel]-Duluth,GA","address":"2571 Satellite Blvd, Duluth,GA 30096, Store No 706|770-232-0272"},{"latitude":"34.020763","longitude":"-84.160255","name":"QT [Auto Diesel]-Duluth,GA","address":"3195 Peachtree Industrial Blvd, Duluth,GA 30096, Store No 774|770-495-0370"},{"latitude":"33.962249","longitude":"-84.132376","name":"QT-Duluth,GA","address":"3495 Satellite Blvd, Duluth,GA 30096, Store No 746|770-497-8933"},{"latitude":"33.954167","longitude":"-84.141852","name":"QT [Auto Diesel]-Duluth,GA","address":"3844 Satellite Blvd, Duluth,GA 30096, Store No 710|770-476-7989"},{"latitude":"33.976127","longitude":"-84.163716","name":"QT-Duluth,GA","address":"4006 Buford Hwy Nw, Duluth,GA 30096, Store No 831|678-417-7505"},{"latitude":"33.61122","longitude":"-84.299454","name":"QT Travel Center-Ellenwood,GA","address":"I-67 at Ellenwood Dr Exit 5 [2881 Forest Pkwy], Ellenwood,GA 30294, Store No 787|404-363-6012"},{"latitude":"33.537915","longitude":"-84.577082","name":"QT [Auto Diesel]-Fairburn,GA","address":"7975 Senoia Rd, Fairburn,GA 30213, Store No 825|770-892-2827"},{"latitude":"33.508447","longitude":"-84.42958","name":"QT-Fayetteville,GA","address":"1846 Hwy 85 N, Fayetteville,GA 30214, Store No 807|678-817-1352"},{"latitude":"34.3163795","longitude":"-83.7884827","name":"QT [Auto Diesel]-Gainesville,GA","address":"1910 Jesse Jewell Pkwy NE, Gainesville,GA 30501, Store No 847|770-531-9180"},{"latitude":"34.288001","longitude":"-83.810913","name":"QT [Auto Diesel]-Gainesville,GA","address":"897 W Ridge Rd, Gainesville,GA 30501, Store No 708|770-287-1607"},{"latitude":"34.222597","longitude":"-83.862633","name":"QT [Auto Diesel]-Gainesville,GA","address":"3446 Mundy Mill Rd, Gainesville,GA 30566, Store No 771|770-297-0800"},{"latitude":"34.457251","longitude":"-84.452666","name":"QT [Auto Diesel]-Jasper,GA","address":"3353 Camp Rd, Jasper,GA 30143, Store No 829|706-301-9011"},{"latitude":"34.153192","longitude":"-83.648991","name":"QT Travel Center [Auto Diesel]-Jefferson,GA","address":"5240 US Hwy 129 N [I-85 Exit 137], Jefferson,GA 30549, Store No 737|706-693-4381"},{"latitude":"33.5318642","longitude":"-84.3633118","name":"QT [Auto Diesel]-Jonesboro,GA","address":"8140 Tara Blvd, Jonesboro,GA 30236, Store No 799|770-473-7242"},{"latitude":"33.514714","longitude":"-84.362471","name":"QT-Jonesboro,GA","address":"8805 Tara Blvd, Jonesboro,GA 30236, Store No 756|770-477-4620"},{"latitude":"33.995787","longitude":"-84.591203","name":"QT [Auto Diesel]-Kennesaw,GA","address":"1400 Earnest Barrett Pkwy, Kennesaw,GA 30152, Store No 1715|470-336-4990"},{"latitude":"34.020124","longitude":"-84.621719","name":"QT-Kennesaw,GA","address":"2761 Cobb Pkwy, Kennesaw,GA 30152, Store No 753|678-581-0874"},{"latitude":"34.057698","longitude":"-84.557333","name":"QT-Kennesaw,GA","address":"4340 Bells Ferry Rd, Kennesaw,GA 30144, Store No 752|770-591-0679"},{"latitude":"34.06109","longitude":"-84.5928946","name":"QT [Auto Diesel]-Kennesaw,GA","address":"4433 Wade Green Rd, Kennesaw,GA 30144, Store No 835|770-420-3358"},{"latitude":"34.0347017","longitude":"-83.9909023","name":"QT [Auto Diesel]-Kennesaw,GA","address":"1055 Old Peachtree Rd, Lawrenceville,GA 30043, Store No 755|770-277-1373"},{"latitude":"33.9677799","longitude":"-84.0373065","name":"QT [Auto Diesel]-Lawrenceville,GA","address":"1094 Duluth Hwy, Lawrenceville,GA 30043, Store No 759|770-237-0666"},{"latitude":"33.9548302","longitude":"-83.9882845","name":"QT-Lawrenceville,GA","address":"200 S Clayton St, Lawrenceville,GA 30046, Store No 725|678-407-1026"},{"latitude":"33.888035","longitude":"-84.058912","name":"QT-Lawrenceville,GA","address":"2949 Five Forks Trickum Rd, Lawrenceville,GA 30044, Store No 751|770-736-0323"},{"latitude":"33.909069","longitude":"-84.105409","name":"QT-Lawrenceville,GA","address":"3747 Us Hwy 29, Lawrenceville,GA 30044, Store No 790|770-921-0823"},{"latitude":"33.9174004","longitude":"-84.0001373","name":"QT [Auto Diesel]-Lawrenceville,GA","address":"5050 Sugarloaf Pkwy, Lawrenceville,GA 30045, Store No 740|770-513-1505"},{"latitude":"33.966841","longitude":"-84.014083","name":"QT-Lawrenceville,GA","address":"741 W Pike St, Lawrenceville,GA 30045, Store No 700|770-995-1180"},{"latitude":"33.981944","longitude":"-83.984921","name":"QT [Auto Diesel]-Lawrenceville,GA","address":"765 Buford Dr, Lawrenceville,GA 30045, Store No 764|770-237-3922"},{"latitude":"33.788436","longitude":"-84.621583","name":"QT-Lithia Springs,GA","address":"611 Thornton Rd, Lithia Springs,GA 30122, Store No 720|678-945-0186"},{"latitude":"33.706295","longitude":"-84.1687546","name":"QT [Auto Diesel]-Lithonia,GA","address":"2776 Panola Rd, Lithonia,GA 30058, Store No 747|770-808-0079"},{"latitude":"33.784968","longitude":"-84.101602","name":"QT-Lithonia,GA","address":"7225 Rockbridge Rd, Lithonia,GA 30058, Store No 722|770-413-7177"},{"latitude":"33.354414","longitude":"-84.123458","name":"QT [Auto Diesel]-Locust Grove,GA","address":"4829 Bill Gardner Pkwy, Locust Grove,GA 30248, Store No 837|770-957-4136"},{"latitude":"33.833937","longitude":"-83.890207","name":"QT-Loganville,GA","address":"4675 Atlanta Hwy, Loganville,GA 30052, Store No 796|770-554-0298"},{"latitude":"33.781066","longitude":"-84.537007","name":"QT [Auto Diesel]-Mableton,GA","address":"7130 Mableton Pkwy, Mableton,GA 30126, Store No 738|770-941-3206"},{"latitude":"34.013945","longitude":"-84.552221","name":"QT-Marietta,GA","address":"105 Earnest Barrett Pkwy NW, Marietta,GA 30066, Store No 775|770-919-1320"},{"latitude":"33.920727","longitude":"-84.549675","name":"QT [Auto Diesel]-Marietta,GA","address":"1350 S Cobb Dr SE, Marietta,GA 30060, Store No 713|678-290-1602"},{"latitude":"33.951426","longitude":"-84.497087","name":"QT-Marietta,GA","address":"1900 Lower Roswell Rd, Marietta,GA 30068, Store No 806|678-560-7240"},{"latitude":"33.978691","longitude":"-84.460972","name":"QT [Auto Diesel]-Marietta,GA","address":"3110 Roswell Rd, Marietta,GA 30062, Store No 749|770-579-9277"},{"latitude":"33.943255","longitude":"-84.534196","name":"QT [Auto Diesel]-Marietta,GA","address":"600 S Marietta Pkwy, Marietta,GA 30060, Store No 845|770-919-2096"},{"latitude":"33.93702","longitude":"-84.505953","name":"QT-Marietta,GA","address":"640 Franklin Rd, Marietta,GA 30067, Store No 719|770-425-7518"},{"latitude":"33.968711","longitude":"-84.537561","name":"QT-Marietta,GA","address":"671 N Cobb Pkwy, Marietta,GA 30062, Store No 815|770-424-9202"},{"latitude":"33.935631","longitude":"-84.5567022","name":"QT [Auto Diesel]-Marietta,GA","address":"692 Powder Springs Rd, Marietta,GA 30064, Store No 727|770-427-1147"},{"latitude":"33.9958076","longitude":"-84.5260162","name":"QT [Auto Diesel]-Marietta,GA","address":"825 Sandy Plains Rd, Marietta,GA 30062, Store No 743|770-579-9900"},{"latitude":"33.462337","longitude":"-84.204962","name":"QT-Mcdonough,GA","address":"1494 Jonesboro Rd, Mcdonough,GA 30253, Store No 820|770-898-9020"},{"latitude":"33.431832","longitude":"-84.178713","name":"QT-Mcdonough,GA","address":"50 Willow Lane, Mcdonough,GA 30253, Store No 783|770-898-0388"},{"latitude":"33.408396","longitude":"-84.165419","name":"QT-Mcdonough,GA","address":"955 Highway 155, Mcdonough,GA 30253, Store No 842|770-914-6176"},{"latitude":"33.56903","longitude":"-84.314529","name":"QT-Morrow,GA","address":"6801 Mt Zion Blvd, Morrow,GA 30260, Store No 791|678-422-9660"},{"latitude":"33.553471","longitude":"-84.347226","name":"QT [Auto Diesel]-Morrow,GA","address":"7390 Jonesboro Rd, Morrow,GA 30260, Store No 814|770-968-1843"},{"latitude":"33.401223","longitude":"-84.723256","name":"QT-Newnan,GA","address":"1670 Hwy 34 E, Newnan,GA 30265, Store No 813|678-423-1300"},{"latitude":"33.93091","longitude":"-84.147531","name":"QT [Auto Diesel]-Norcross,GA","address":"1515 Beaver Ruin Rd, Norcross,GA 30093, Store No 714|770-381-5513"},{"latitude":"33.936036","longitude":"-84.184968","name":"QT-Norcross,GA","address":"2185 Beaver Ruin Rd, Norcross,GA 30091, Store No 703|770-242-5747"},{"latitude":"33.923189","longitude":"-84.172096","name":"QT-Norcross,GA","address":"5095 Oakbrook Pkwy, Norcross,GA 30093, Store No 748|770-931-1119"},{"latitude":"33.977166","longitude":"-84.21826","name":"QT-Norcross,GA","address":"5255 Peachtree Pkwy, Norcross,GA 30092, Store No 776|770-729-9668"},{"latitude":"33.919594","longitude":"-84.197555","name":"QT-Norcross,GA","address":"5770 Brookhollow Pkwy, Norcross,GA 30071, Store No 705|770-242-8945"},{"latitude":"33.905183","longitude":"-84.200661","name":"QT-Norcross,GA","address":"6065 Singleton Rd, Norcross,GA 30093, Store No 718|770-242-9083"},{"latitude":"33.924211","longitude":"-84.215722","name":"QT-Norcross,GA","address":"6140 Jimmy Carter Blvd, Norcross,GA 30071, Store No 750|770-840-7505"},{"latitude":"33.9417786","longitude":"-84.2498522","name":"QT [Auto Diesel]-Peachtree Corners,GA","address":"3229 Peacetree Corners Circle, Peachtree Corners,GA 30092, Store No 735|770-662-0537"},{"latitude":"33.554472","longitude":"-84.414081","name":"QT-Riverdale,GA","address":"7350 Georgia Hwy 85, Riverdale,GA 30274, Store No 760|770-909-7324"},{"latitude":"33.57797","longitude":"-84.390299","name":"QT-Riverdale,GA","address":"93 Upper Riverdale Rd, Riverdale,GA 30274, Store No 726|770-996-5825"},{"latitude":"34.047177","longitude":"-84.360098","name":"QT-Roswell,GA","address":"20 E Crossville Rd, Roswell,GA 30075, Store No 803|770-552-5515"},{"latitude":"34.061218","longitude":"-84.420328","name":"QT [Auto Diesel]-Roswell,GA","address":"4635 Woodstock Rd, Roswell,GA 30075, Store No 754|770-594-1025"},{"latitude":"33.97308","longitude":"-84.357762","name":"QT-Sandy Springs,GA","address":"7884 Roswell, Sandy Springs,GA 30350, Store No 711|770-390-9683"},{"latitude":"33.991154","longitude":"-84.344805","name":"QT-Sandy Springs,GA","address":"8200 Dunwoody Pl, Sandy Springs,GA 30350, Store No 730|770-640-8157"},{"latitude":"33.901101","longitude":"-84.490538","name":"QT-Smyrna,GA","address":"2180 Windy Hill Rd, Smyrna,GA 30080, Store No 768|770-434-5502"},{"latitude":"33.884072","longitude":"-84.475736","name":"QT-Smyrna,GA","address":"2671 Spring Rd, Smyrna,GA 30080, Store No 732|770-434-4726"},{"latitude":"33.844402","longitude":"-84.50064","name":"QT-Smyrna,GA","address":"4495 S Cobb Dr, Smyrna,GA 30080, Store No 1702|678-556-0646"},{"latitude":"33.85606","longitude":"-83.993759","name":"QT-Snellville,GA","address":"1912 Main St, Snellville,GA 30078, Store No 804|770-978-4338"},{"latitude":"33.869793","longitude":"-84.015074","name":"QT-Snellville,GA","address":"2008 Scenic Hwy, Snellville,GA 30078, Store No 794|678-344-9236"},{"latitude":"33.80407","longitude":"-84.042961","name":"QT [Auto Diesel]-Snellville,GA","address":"3490 Centerville Hwy, Snellville,GA 30039, Store No 816|678-344-2654"},{"latitude":"33.50352","longitude":"-84.238956","name":"QT-Stockbridge,GA","address":"1614 Hudson Bridge Rd, Stockbridge,GA 30281, Store No 789|770-506-4014"},{"latitude":"33.547112","longitude":"-84.250551","name":"QT-Stockbridge,GA","address":"5260 North Henry Blvd, Stockbridge,GA 30281, Store No 772|770-389-0238"},{"latitude":"33.8255005","longitude":"-84.1041107","name":"QT [Auto Diesel]-Stone Mountain,GA","address":"5065 Stone Mountain Hwy, Stone Mountain,Ga 30087, Store No 795|770-982-9696"},{"latitude":"34.049854","longitude":"-84.09191","name":"QT-Suwanee,GA","address":"1075 Peachtree Ind Blvd, Suwanee,GA 30024, Store No 769|678-546-3732"},{"latitude":"34.038958","longitude":"-84.052787","name":"QT [Auto Diesel]-Suwanee,GA","address":"3359 Hwy 317, Suwanee,GA 30024, Store No 844|770-831-8473"},{"latitude":"34.072707","longitude":"-84.165998","name":"QT-Suwanee,GA","address":"3611 Peachtree Pkwy, Suwanee,GA 30024, Store No 778|770-622-8388"},{"latitude":"33.842232","longitude":"-84.200729","name":"QT-Tucker,GA","address":"1999 Mountain Industrial Blvd, Tucker,GA 30084, Store No 704|770-270-0274"},{"latitude":"33.836973","longitude":"-84.238856","name":"QT-Tucker,GA","address":"3317 Lawrenceville Hwy, Tucker,GA 30084, Store No 728|770-939-2918"},{"latitude":"33.881089","longitude":"-84.219414","name":"QT-Tucker,GA","address":"4330 Chamblee Tucker Rd, Tucker,GA 30084, Store No 739|770-908-1696"},{"latitude":"33.893263","longitude":"-84.209524","name":"QT-Tucker,GA","address":"6182 S Norcross Tucker Rd, Norcross,GA 30084, Store No 717|770-621-0386"},{"latitude":"33.569793","longitude":"-84.542702","name":"QT-Union City,GA","address":"4745 Jonesboro Rd, Union City,GA 30291, Store No 763|770-306-9100"},{"latitude":"33.63989","longitude":"-84.972169","name":"QT-Villa Rica,GA","address":"650 Hwy 61, Villa Rica,GA 30180, Store No 810|770-459-0226"},{"latitude":"33.717834","longitude":"-84.937634","name":"QT-Woodstock,GA","address":"1470 Towne Lake Pkwy, Woodstock,GA 30189, Store No 779|770-516-5797"},{"latitude":"34.143816","longitude":"-84.510985","name":"QT-Woodstock,GA","address":"4865 Old Hwy 5, Woodstock,GA 30188, Store No 781|678-445-2753"},{"latitude":"34.086808","longitude":"-84.527374","name":"QT-Woodstock,GA","address":"9765 Hwy 92, Woodstock,GA 30188, Store No 801|770-591-4274"},{"latitude":"41.731987","longitude":"-93.587332","name":"QT [Auto Diesel]-Ankeny,IA","address":"802 E 1st St, Ankeny,IA 50021, Store No 514|515-964-5180"},{"latitude":"41.600562","longitude":"-93.782454","name":"QT-Clive,IA","address":"11925 University Ave, Clive,IA 50325, Store No 566|515-223-5226"},{"latitude":"41.600488","longitude":"-93.605936","name":"QT-Des Moines,IA","address":"1000 E University, Des Moines,IA 50316, Store No 516|515-266-3500"},{"latitude":"41.586902","longitude":"-93.636016","name":"QT-Des Moines,IA","address":"1421 Ingersoll, Des Moines,IA 50309, Store No 515|515-243-2357"},{"latitude":"41.59389","longitude":"-93.59493","name":"QT-Des Moines,IA","address":"1501 E Grand, Des Moines,IA 50317, Store No 535|515-266-0961"},{"latitude":"41.627616","longitude":"-93.579069","name":"QT [Auto Diesel]-Des Moines,IA","address":"2221 E Euclid Ave, Des Moines,IA 50317, Store No 501|515-299-8876"},{"latitude":"41.615162","longitude":"-93.600759","name":"QT-Des Moines,IA","address":"2300 E 14th St, Des Moines,IA 50316, Store No 530|515-265-0643"},{"latitude":"41.615339","longitude":"-93.646736","name":"QT-Des Moines,IA","address":"2300 Martin Luther King Pkwy, Des Moines,IA 50310, Store No 560|515-279-4493"},{"latitude":"41.6062546","longitude":"-93.5726013","name":"QT [Auto Diesel]-Des Moines,IA","address":"2428 Hubbell Ave Des Moines,IA 50317, Store No 541|515-263-8576"},{"latitude":"41.600325","longitude":"-93.559894","name":"QT [Auto Diesel]-Des Moines,IA","address":"2945 E University, Des Moines,IA 50317, Store No 534|515-266-9905"},{"latitude":"41.629203","longitude":"-93.544783","name":"QT-Des Moines,IA","address":"3700 Hubbell Ave, Des Moines,IA 50317, Store No 500|515-261-7029"},{"latitude":"41.548933","longitude":"-93.596603","name":"QT-Des Moines,IA","address":"3941 Se 14th St, Des Moines,IA 50320, Store No 544|515-287-4781"},{"latitude":"41.547722","longitude":"-93.645204","name":"QT [Auto Diesel]-Des Moines,IA","address":"4024 Fleur Dr, Des Moines,IA 50321, Store No 559|515-287-7558"},{"latitude":"41.643478","longitude":"-93.61963","name":"QT-Des Moines,IA","address":"4575 Nw 2nd, Des Moines,IA 50313, Store No 538|515-288-8276"},{"latitude":"41.647944","longitude":"-93.599165","name":"QT Travel Center [Auto Diesel]-Des Moines,IA","address":"4801 NE 14th St [I-80 I-35 Exit 136], Des Moines,IA 50313, Store No 562|515-266-1630"},{"latitude":"41.600555","longitude":"-93.626472","name":"QT [Auto Diesel]-Des Moines,IA","address":"614 University Ave, Des Moines,IA 50314, Store No 527|515-243-5841"},{"latitude":"41.52633","longitude":"-93.624635","name":"QT-Des Moines,IA","address":"850 Army Post Rd, Des Moines,IA 50315, Store No 523|515-287-4705"},{"latitude":"41.570184","longitude":"-93.703154","name":"QT-Des Moines,IA","address":"901 Sw 63rd St, Des Moines,IA 50312, Store No 554|515-274-2914"},{"latitude":"41.658472","longitude":"-93.773187","name":"QT [Auto Diesel]-Grimes,IA","address":"1900 Se 37Th St, Grimes,IA 50111, Store No 531|515-986-5087"},{"latitude":"41.654601","longitude":"-93.69734","name":"QT-Johnston,IA","address":"5169 Merle Hay Rd, Johnston,IA 50322, Store No 568|515-276-2070"},{"latitude":"41.644183","longitude":"-93.698187","name":"QT-Urbandale,IA","address":"4600 Merle Hay Rd, Urbandale,IA 50322, Store No 513|515-278-4551"},{"latitude":"41.62956","longitude":"-93.754418","name":"QT-Urbandale,IA","address":"9915 Douglas Ave, Urbandale,IA 50322, Store No 567|515-270-8363"},{"latitude":"41.594609","longitude":"-93.736044","name":"QT [Auto Diesel]-West Des Moines,IA","address":"1451 22nd St, West Des Moines,IA 50266, Store No 517|515-223-3097"},{"latitude":"41.614523","longitude":"-93.717141","name":"QT-Windsor Heights,IA","address":"7220 Hickman Rd, Windsor Heights,IA 50324, Store No 503|515-331-8936"},{"latitude":"38.900652","longitude":"-90.058466","name":"QT-Bethalto,IL","address":"605 W Bethalto Dr, Bethalto,IL 62010, Store No 695|618-258-7278"},{"latitude":"38.781994","longitude":"-89.951034","name":"QT-Edwardsville,IL","address":"2490 Troy Rd, Edwardsville,IL 62025, Store No 694|618-656-0017"},{"latitude":"38.92273","longitude":"-90.191869","name":"QT-Godfrey Township,IL","address":"2809 Godfrey Rd, Godfrey Township,IL 62035, Store No 698|618-466-8486"},{"latitude":"38.702138","longitude":"-90.143608","name":"QT-Granite City,IL","address":"2159 Madison Ave, Granite City,IL 62040, Store No 697|618-451-7014"},{"latitude":"38.718125","longitude":"-90.122439","name":"QT-Granite City,IL","address":"3120 Nameoki Rd, Granite City,IL 62040, Store No 688|618-877-1707"},{"latitude":"39.104105","longitude":"-94.88186","name":"QT [Auto Diesel]-Bonner Springs,KS","address":"389 N 130th St, Bonner Springs,KS 66012, Store No 199|913-721-0267"},{"latitude":"37.561612","longitude":"-97.275487","name":"QT-Derby,KS","address":"1430 Nelson Dr, Derby,KS 67037, Store No 314|913-884-4786"},{"latitude":"37.577978","longitude":"-97.244564","name":"QT [Auto Diesel]-Derby,KS","address":"2801 N Rock Rd, Derby,KS 67037, Store No 363|785-840-9459"},{"latitude":"37.818298","longitude":"-96.881111","name":"QT [Auto Diesel]-El Dorado,KS","address":"2314 W Central Ave, El Dorado,KS 67042, Store No 310|913-438-9797"},{"latitude":"38.8110146","longitude":"-94.9137647","name":"QT [Auto Diesel]-Gardner,KS","address":"694 E Main St, Gardner,KS 66030, Store No 249|913-768-7130"},{"latitude":"39.090286","longitude":"-94.677522","name":"QT Travel Center [Auto Diesel]-Kansas City,KS","address":"4202 Kansas Ave [I-635 Exit 3], Kansas City,KS 66103, Store No 231|913-390-0068"},{"latitude":"39.10889","longitude":"-94.760384","name":"QT [Auto Diesel]-Kansas City,KS","address":"555 N 78th St, Kansas City,KS 66112, Store No 239|913-764-6845"},{"latitude":"39.128738","longitude":"-94.770024","name":"QT-Kansas City,KS","address":"8200 Parallel Pkwy, Kansas City,KS 66112, Store No 172|913-390-8246"},{"latitude":"38.942829","longitude":"-95.222939","name":"QT-Lawrence,KS","address":"1020 E 23rd St, Lawrence,KS 66046, Store No 167|913-281-2059"},{"latitude":"38.927967","longitude":"-94.742224","name":"QT [Auto Diesel]-Lenexa,KS","address":"11070 Pflumm, Lenexa,KS 66215, Store No 235|913-334-2171"},{"latitude":"38.956026","longitude":"-94.761016","name":"QT-Lenexa,KS","address":"9530 Lackman Rd, Lenexa,KS 66219, Store No 242|913-334-1542"},{"latitude":"39.022235","longitude":"-94.69058","name":"QT [Auto Diesel]-Merriam,KS","address":"9025 Johnson Dr, Merriam,KS 66202, Store No 160|913-384-1405"},{"latitude":"39.043164","longitude":"-94.656346","name":"QT-Mission,KS","address":"4700 Lamar, Mission,KS 66202, Store No 194|913-789-7211"},{"latitude":"38.8689","longitude":"-94.834038","name":"QT [Auto Diesel]-Olathe,KS","address":"1051 W Dennis Ave, Olathe,KS 66061, Store No 252|913-764-6400"},{"latitude":"38.883584","longitude":"-94.797133","name":"QT-Olathe,KS","address":"1301 E Santa Fe, Olathe,KS 66061, Store No 182|913-432-7003"},{"latitude":"38.88386","longitude":"-94.767244","name":"QT-Olathe,KS","address":"15650 W 135th St, Olathe,KS 66062, Store No 206|913-631-2648"},{"latitude":"38.84257","longitude":"-94.816054","name":"QT-Olathe,KS","address":"15710 S Us 169 Hwy, Olathe,KS 66062, Store No 215|913-631-4950"},{"latitude":"38.912806","longitude":"-94.792802","name":"QT [Auto Diesel]-Olathe,KS","address":"17840 W 119th St, Olathe,KS 66061, Store No 219|913-381-0342"},{"latitude":"38.854447","longitude":"-94.800225","name":"QT-Olathe,KS","address":"18619 W 151st St, Olathe,KS 66062, Store No 212|913-432-5259"},{"latitude":"38.934288","longitude":"-94.639731","name":"QT-Overland Park,KS","address":"10700 Roe Ave, Overland Park,KS 66211, Store No 210|913-381-6699"},{"latitude":"39.0154839","longitude":"-94.6716385","name":"QT [Auto Diesel]-Overland Park,KS","address":"7400 Shawnee Mission Pkwy, Overland Park,KS 66202, Store No 157|913-469-1836"},{"latitude":"38.854362","longitude":"-94.674937","name":"QT [Auto Diesel]-Overland Park,KS","address":"7681 W 151st St, Overland Park,KS 66223, Store No 203|913-962-0055"},{"latitude":"38.989321","longitude":"-94.667596","name":"QT-Overland Park,KS","address":"7701 Metcalf, Overland Park,KS 66204, Store No 246|913-339-9236"},{"latitude":"38.97076","longitude":"-94.700653","name":"QT [Auto Diesel]-Overland Park,KS","address":"9901 W 87th St, Overland Park,KS 66212, Store No 243|913-422-1036"},{"latitude":"37.796018","longitude":"-97.327104","name":"QT [Auto Diesel]-Park City,KS","address":"928 E 61st St N, Park City,KS 67219, Store No 394|913-492-0242"},{"latitude":"39.036969","longitude":"-94.639489","name":"QT-Roeland Park,KS","address":"5055 Roe Ave, Roeland Park,KS 66205, Store No 174|913-681-9748"},{"latitude":"38.992868","longitude":"-94.705229","name":"QT-Shawnee,KS","address":"10301 W 75th St, Shawnee,KS 66203, Store No 185|316-788-3311"},{"latitude":"39.022594","longitude":"-94.725195","name":"QT-Shawnee,KS","address":"11915 Johnson Dr, Shawnee,KS 66203, Store No 166|316-788-5066"},{"latitude":"39.009209","longitude":"-94.826688","name":"QT [Auto Diesel]-Shawnee,KS","address":"20605 Shawnee Mission Pkwy, Shawnee,KS 66218, Store No 226|316-321-1580"},{"latitude":"39.008626","longitude":"-94.714348","name":"QT-Shawnee,KS","address":"6637 Nieman Rd, Shawnee,KS 66203, Store No 164|316-262-2252"},{"latitude":"37.686183","longitude":"-97.326168","name":"QT [Auto Diesel]-Wichita,KS","address":"1010 E Douglas Ave, Wichita,KS 67211, Store No 386|316-831-9007"},{"latitude":"37.636843","longitude":"-97.351624","name":"QT [Auto Diesel]-Wichita,KS","address":"1021 West 31st St S, Wichita,KS 67217, Store No 320|316-943-2120"},{"latitude":"37.708183","longitude":"-97.461442","name":"QT-Wichita,KS","address":"10315 W 13th, Wichita,KS 67212, Store No 374|316-721-1334"},{"latitude":"37.68612","longitude":"-97.244216","name":"QT-Wichita,KS","address":"110 S Rock Rd, Wichita,KS 67207, Store No 353|316-681-1593"},{"latitude":"37.6841","longitude":"-97.353319","name":"QT-Wichita,KS","address":"1112 W Douglas, Wichita,KS 67203, Store No 349|316-686-3221"},{"latitude":"37.693767","longitude":"-97.207445","name":"QT-Wichita,KS","address":"11223 E Central, Wichita,KS 67206, Store No 383|316-684-5460"},{"latitude":"37.72294","longitude":"-97.188816","name":"QT [Auto Diesel]-Wichita,KS","address":"12825 E 21st N, Wichita,KS 67206, Store No 327|316-682-7731"},{"latitude":"37.679626","longitude":"-97.170745","name":"QT [Auto Diesel]-Wichita,KS","address":"14402 E Kellogg St, Wichita,KS 67230, Store No 316|316-688-1438"},{"latitude":"37.666414","longitude":"-97.462015","name":"QT-Wichita,KS","address":"1500 S Maize Rd, Wichita,KS 67203, Store No 315|316-729-9001"},{"latitude":"37.66673","longitude":"-97.352642","name":"QT-Wichita,KS","address":"1532 S Seneca, Wichita,KS 67213, Store No 347|316-773-4997"},{"latitude":"37.6716853","longitude":"-97.3184402","name":"QT [Auto Diesel]-Wichita,KS","address":"1607 E Lincoln, Wichita,KS 67211, Store No 373|316-262-1923"},{"latitude":"37.663702","longitude":"-97.279871","name":"QT [Auto Diesel]-Wichita,KS","address":"1620 S Oliver, Wichita,KS 67218, Store No 329|none listed"},{"latitude":"37.663865","longitude":"-97.226014","name":"QT [Auto Diesel]-Wichita,KS","address":"1620 S Webb Rd, Wichita,KS 67207, Store No 366|316-264-2973"},{"latitude":"37.6079801","longitude":"-97.3175979","name":"QT [Auto Diesel]-Wichita,KS","address":"1623 E 47th St, Wichita,KS 67216, Store No 356|316-686-1554"},{"latitude":"37.656072","longitude":"-97.244282","name":"QT-Wichita,KS","address":"2106 S Rock Rd, Wichita,KS 67207, Store No 376|316-683-4911"},{"latitude":"37.680644","longitude":"-97.444092","name":"QT-Wichita,KS","address":"242 S Tyler, Wichita,KS 67209, Store No 343|316-942-0363"},{"latitude":"37.651493","longitude":"-97.371263","name":"QT-Wichita,KS","address":"2510 W Pawnee, Wichita,KS 67213, Store No 384|316-722-5400"},{"latitude":"37.642179","longitude":"-97.31723","name":"QT-Wichita,KS","address":"2801 S Hydraulic, Wichita,KS 67216, Store No 328|316-265-2965"},{"latitude":"37.6350249","longitude":"-97.3022939","name":"QT [Auto Diesel]-Wichita,KS","address":"2821 E 31st St S, Wichita,KS 67216, Store No 313|316-942-3687"},{"latitude":"37.650119","longitude":"-97.299844","name":"QT-Wichita,KS","address":"3106 E Pawnee St, Wichita,KS 67211, Store No 372|316-942-0746"},{"latitude":"37.679778","longitude":"-97.38925","name":"QT [Auto Diesel]-Wichita,KS","address":"324 S West St, Wichita,KS 67213, Store No 396|316-267-9057"},{"latitude":"37.7351","longitude":"-97.280632","name":"QT [Auto Diesel]-Wichita,KS","address":"3520 N Oliver Ave, Wichita,KS 67220, Store No 322|316-264-9116"},{"latitude":"37.75268","longitude":"-97.244666","name":"QT [Auto Diesel]-Wichita,KS","address":"3820 N Rock Rd, Wichita,KS 67226, Store No 388|316-522-7544"},{"latitude":"37.708701","longitude":"-97.388494","name":"QT-Wichita,KS","address":"3933 W 13th St, Wichita,KS 67203, Store No 360|316-682-6412"},{"latitude":"37.6237797","longitude":"-97.3707211","name":"QT [Auto Diesel]-Wichita,KS","address":"3945 S Meridian Ave, Wichita,KS 67217, Store No 345|316-522-8541"},{"latitude":"37.757045","longitude":"-97.426986","name":"QT [Auto Diesel]-Wichita,KS","address":"4051 N Ridge Rd, Wichita,KS 67205, Store No 359|316-522-9101"},{"latitude":"37.69397","longitude":"-97.281305","name":"QT [Auto Diesel]-Wichita,KS","address":"4730 E Central, Wichita,KS 67218, Store No 389|316-522-9409"},{"latitude":"37.593205","longitude":"-97.334262","name":"QT [Auto Diesel]-Wichita,KS","address":"5611 S Broadway, Wichita,KS 67216, Store No 378|316-685-4022"},{"latitude":"37.694494","longitude":"-97.412831","name":"QT-Wichita,KS","address":"6011 W Central, Wichita,KS 67212, Store No 321|316-744-2686"},{"latitude":"37.676773","longitude":"-97.298864","name":"QT [Auto Diesel]-Wichita,KS","address":"625 S Hillside St, Wichita,KS 67211, Store No 369|316-687-0582"},{"latitude":"37.722731","longitude":"-97.343983","name":"QT-Wichita,KS","address":"626 W 21st St N, Wichita,KS 67203, Store No 368|316-634-1048"},{"latitude":"37.723656","longitude":"-97.425633","name":"QT [Auto Diesel]-Wichita,KS","address":"7130 W 21st St N, Wichita,KS 567205, Store No 358|316-729-5998"},{"latitude":"37.696632","longitude":"-97.335426","name":"QT [Auto Diesel]-Wichita,KS","address":"730 N Broadway, Wichita,KS 67214, Store No 391|316-630-8122"},{"latitude":"37.6780509","longitude":"-97.3355146","name":"QT [Auto Diesel]-Wichita,KS","address":"750 S Broadway, Wichita,KS 67211, Store No 326|316-733-0598"},{"latitude":"38.443547","longitude":"-90.374266","name":"QT-Arnold,MO","address":"1069 Jeffco Blvd, Arnold,MO 63010, Store No 618|636-296-1277"},{"latitude":"38.592847","longitude":"-90.538083","name":"QT [Auto Diesel]-Ballwin,MO","address":"14800 Manchester Rd, Ballwin,MO 63011, Store No 621|636-391-5788"},{"latitude":"38.71872","longitude":"-90.330465","name":"QT-Bel Ridge,MO","address":"9099 Natural Bridge Rd, Bel Ridge,MO 63121, Store No 601|314-867-2777"},{"latitude":"38.764904","longitude":"-90.203796","name":"QT Travel Center [Auto Diesel]-Bellefontaine,MO","address":"10845 Lilac Dr [I-270 Exit 33], Bellefontaine,MO 63137, Store No 605|816-322-2300"},{"latitude":"38.814095","longitude":"-94.52542","name":"QT [Auto Diesel]-Belton,MO","address":"501 E N Ave, Belton,MO 64012, Store No 233|816-318-0322"},{"latitude":"38.813207","longitude":"-94.500165","name":"QT-Belton,MO","address":"7920 E 171st, Belton,MO 64012, Store No 171|314-522-8082"},{"latitude":"38.762891","longitude":"-90.337013","name":"QT [Auto Diesel]-Berkeley,MO","address":"6805 N Hanley Rd, Berkeley,MO 63134, Store No 612|816-229-1791"},{"latitude":"39.029642","longitude":"-94.30449","name":"QT-Blue Springs,MO","address":"1128 N Woods Chapel Rd, Blue Springs,MO 64015, Store No 180|816-224-1110"},{"latitude":"39.001848","longitude":"-94.250858","name":"QT [Auto Diesel]-Blue Springs,MO","address":"1201 N 7 Hwy, Blue Springs,MO 64014, Store No 241|816-228-0502"},{"latitude":"39.020233","longitude":"-94.272704","name":"QT [Auto Diesel]-Blue Springs,MO","address":"705 SW Westbound US 40 Hwy, Blue Springs,MO 64015, Store No 217|816-228-5660"},{"latitude":"38.741065","longitude":"-90.405343","name":"QT-Bridgeton,MO","address":"11444 St Charles Rock Rd, Bridgeton,MO 63044, Store No 664|314-739-5137"},{"latitude":"38.760119","longitude":"-90.435493","name":"QT-Bridgeton,MO","address":"12700 St Charles Rock Rd, Bridgeton,MO 63044, Store No 659|636-240-0969"},{"latitude":"38.773038","longitude":"-90.737249","name":"QT-Dardenne Prairie,MO","address":"1150 Feise Rd, Dardenne Prairie,MO 63368, Store No 657|636-527-1819"},{"latitude":"38.590363","longitude":"-90.595673","name":"QT-Ellisville,MO","address":"16100 Manchester Rd, Ellisville,MO 63011, Store No 634|636-938-1443"},{"latitude":"38.505148","longitude":"-90.623908","name":"QT [Auto Diesel]-Eureka,MO","address":"290 E 4th St, Eureka,MO 63025, Store No 655|636-861-3967"},{"latitude":"38.523988","longitude":"-90.486943","name":"QT-Fenton,MO","address":"1907 Hawkins Rd, Fenton,MO 63026, Store No 656|636-349-1990"},{"latitude":"38.540966","longitude":"-90.4699326","name":"QT [Auto Diesel]-Fenton,MO","address":"1923 Bowles Ave, Fenton,MO 63026, Store No 642|636-305-1857"},{"latitude":"38.463559","longitude":"-90.425024","name":"QT [Auto Diesel]-Fenton,MO","address":"2600 State Route 141, Fenton,MO 63026, Store No 652|314-522-2320"},{"latitude":"38.76634","longitude":"-90.280083","name":"QT [Auto Diesel]-Ferguson,MO","address":"10768 W Florissant Ave, Ferguson,MO 63136, Store No 676|314-830-3531"},{"latitude":"38.808289","longitude":"-90.359206","name":"QT-Florissant,MO","address":"150 Howdershell Rd, Florissant,MO 63031, Store No 627|314-972-7544"},{"latitude":"38.801617","longitude":"-90.313087","name":"QT [Auto Diesel]-Florissant,MO","address":"2105 N Hwy 67, Florissant,MO 63033, Store No 670|816-468-4366"},{"latitude":"39.208062","longitude":"-94.548417","name":"QT-Gladstone,MO","address":"6309 NE Antioch Rd, Gladstone,MO 64119, Store No 237|816-322-3933"},{"latitude":"38.857767","longitude":"-94.525573","name":"QT [Auto Diesel]-Grandview,MO","address":"6015 E 147th St, Grandview,MO 64030, Store No 186|314-487-5800"},{"latitude":"38.514899","longitude":"-90.342285","name":"QT [Auto Diesel]-Green Park,MO","address":"6312 S Lindbergh, Green Park,MO 76180, Store No 649|816-884-3553"},{"latitude":"38.663795","longitude":"-94.367488","name":"QT [Auto Diesel]-Harrisonville,MO","address":"1402 N 291 Hwy, Harrisonville,MO 64701, Store No 247|314-731-5222"},{"latitude":"38.7810671","longitude":"-90.3897263","name":"QT [Auto Diesel]-Hazelwood,MO","address":"5909 Howdershell, Hazelwood,MO 63042, Store No 615|314-972-7291"},{"latitude":"38.784447","longitude":"-90.354286","name":"QT [Auto Diesel]-Hazelwood,MO","address":"7400 N Lindbergh Blvd, Hazelwood,MO 63042, Store No 650|636-931-7569"},{"latitude":"38.2544","longitude":"-90.400558","name":"QT Travel Center-Herculaneum,MO","address":"850 Mcnutt Rd [I-55 Exit 178], Herculaneum,MO 63048, Store No 611|636-677-4797"},{"latitude":"38.485218","longitude":"-90.49962","name":"QT [Auto Diesel]-High Ridge,MO","address":"1617 Gravois Rd, High Ridge,MO 63049, Store No 646|816-254-7490"},{"latitude":"39.049115","longitude":"-94.448123","name":"QT [Auto Diesel]-Independence,MO","address":"11101 E 40 Hwy, Independence,MO 64055, Store No 205|816-353-4191"},{"latitude":"39.094821","longitude":"-94.445577","name":"QT-Independence,MO","address":"11201 E Truman Rd, Independence,MO 64052, Store No 230|816-478-0080"},{"latitude":"39.1164042","longitude":"-94.3857899","name":"QT [Auto Diesel]-Independence,MO","address":"16001 E US 24 Hwy, Independence,MO 64050, Store No 175|816-478-0245"},{"latitude":"39.03432","longitude":"-94.387306","name":"QT [Auto Diesel]-Independence,MO","address":"16501 E US Hwy 40, Independence,MO 64055, Store No 202|816-796-6671"},{"latitude":"39.04811","longitude":"-94.362609","name":"QT-Independence,MO","address":"17815 E 39th St, Independence,MO 64057, Store No 245|816-461-7284"},{"latitude":"39.130865","longitude":"-94.352029","name":"QT [Auto Diesel]-Independence,MO","address":"19010 Us 24 Hwy, Independence,MO 64058, Store No 201|816-461-7020"},{"latitude":"39.0790342","longitude":"-94.4138032","name":"QT [Auto Diesel]-Independence,MO","address":"201 23rd St, Independence,MO 64055, Store No 155|816-350-0874"},{"latitude":"39.077696","longitude":"-94.390516","name":"QT-Independence,MO","address":"2321 Lee's Summit Rd, Independence,MO 64055, Store No 165|816-795-7223"},{"latitude":"39.071604","longitude":"-94.378298","name":"QT-Independence,MO","address":"2601 S 291 Hwy, Independence,MO 64057, Store No 161|816-254-7355"},{"latitude":"39.0436969","longitude":"-94.3407831","name":"QT [Auto Diesel]-Independence,MO","address":"4005 Little Blue Pkwy, Independence,MO 64057, Store No 152|816-795-8895"},{"latitude":"39.048448","longitude":"-94.415224","name":"QT-Independence,MO","address":"4024 S Noland Rd, Independence,MO 64055, Store No 216|816-792-0562"},{"latitude":"39.031808","longitude":"-94.35877","name":"QT-Independence,MO","address":"4740 Arrowhead Dr, Independence,MO 64057, Store No 248|816-941-9559"},{"latitude":"39.268197","longitude":"-94.452982","name":"QT-Kansas City,MO","address":"10150 Ne Cookingham Rd, Kansas City,MO 64157, Store No 159|816-942-3355"},{"latitude":"38.943038","longitude":"-94.596998","name":"QT [Auto Diesel]-Kansas City,MO","address":"10232 Wornall Rd, Kansas City,MO 64114, Store No 168|816-941-9559"},{"latitude":"38.934869","longitude":"-94.607212","name":"QT [Auto Diesel]-Kansas City,MO","address":"10601 State Line Rd, Kansas City,MO 64114, Store No 178|816-436-6589"},{"latitude":"39.246166","longitude":"-94.596029","name":"QT-Kansas City,MO","address":"1251 Nw Barry Rd, Kansas City,MO 64155, Store No 225|816-931-6886"},{"latitude":"39.049901","longitude":"-94.601488","name":"QT-Kansas City,MO","address":"1301 Westport Rd, Kansas City,MO 64111, Store No 176|816-942-9048"},{"latitude":"38.889586","longitude":"-94.586104","name":"QT [Auto Diesel]-Kansas City,MO","address":"13100 Holmes Rd, Kansas City,MO 64145, Store No 197|816-931-4940"},{"latitude":"39.07249","longitude":"-94.607259","name":"QT-Kansas City,MO","address":"3101 Southwest Blvd, Kansas City,MO 64108, Store No 227|816-361-2633"},{"latitude":"38.997869","longitude":"-94.593244","name":"QT-Kansas City,MO","address":"344 W 72nd St, Kansas City,MO 64114, Store No 190|816-561-6055"},{"latitude":"39.048922","longitude":"-94.586378","name":"QT-Kansas City,MO","address":"4327 Main St, Kansas City,MO 64111, Store No 184|816-454-7534"},{"latitude":"39.18457","longitude":"-94.548749","name":"QT-Kansas City,MO","address":"5025 N Antioch Rd, Kansas City,MO 64118, Store No 238|816-454-0783"},{"latitude":"39.188147","longitude":"-94.519899","name":"QT [Auto Diesel]-Kansas City,MO","address":"5108 NE Vivion Rd, Kansas City,MO 64119, Store No 169|816-453-3388"},{"latitude":"39.195897","longitude":"-94.586917","name":"QT [Auto Diesel]-Kansas City,MO","address":"528 NW Englewood Rd, Kansas City,MO 64118, Store No 173|816-468-1883"},{"latitude":"39.217328","longitude":"-94.587988","name":"QT-Kansas City,MO","address":"601 NW 68Th St, Kansas City,MO 64118, Store No 193|816-333-3239"},{"latitude":"38.966714","longitude":"-94.512338","name":"QT [Auto Diesel]-Kansas City,MO","address":"6507 E 87th St, Kansas City,MO 64138, Store No 234|816-483-0623"},{"latitude":"39.093667","longitude":"-94.503501","name":"QT-Kansas City,MO","address":"6641 Truman Rd, Kansas City,MO 64126, Store No 204|816-231-3740"},{"latitude":"39.130375","longitude":"-94.502305","name":"QT-Kansas City,MO","address":"6820 E Front St, Kansas City,MO 64120, Store No 224|816-741-6640"},{"latitude":"39.24673","longitude":"-94.66271","name":"QT [Auto Diesel]-Kansas City,MO","address":"7133 NW Barry Rd, Kansas City,MO 64152, Store No 218|816-454-6363"},{"latitude":"39.169552","longitude":"-94.496505","name":"QT [Auto Diesel]-Kansas City,MO","address":"7100 NE Parvin Rd, Kansas City,MO 64117, Store No 229|816-454-6363"},{"latitude":"38.983291","longitude":"-94.608237","name":"QT [Auto Diesel]-Kansas City,MO","address":"8011 State Line Rd, Kansas City,MO 64114, Store No 222|816-231-6141"},{"latitude":"39.106913","longitude":"-94.483112","name":"QT-Kansas City,MO","address":"8501 Winner Rd, Kansas City,MO 64125, Store No 207|816-468-1379"},{"latitude":"39.263302","longitude":"-94.575925","name":"QT-Kansas City,MO","address":"9340 N Oak Trafficway, Kansas City,MO 64155, Store No 221|816-903-4134"},{"latitude":"39.3688812","longitude":"-94.5792923","name":"QT [Auto Diesel]-Kearney,MO","address":"411 W 92 Hwy, Kearney,MO 64060, Store NO 198|636-561-1014"},{"latitude":"38.762435","longitude":"-90.78707","name":"QT-Lake St Louis,MO","address":"8334 Highway N, Lake St Louis,MO 63367, Store No 669|816-524-8213"},{"latitude":"38.911312","longitude":"-94.392223","name":"QT [Auto Diesel]-Lee's Summit,MO","address":"1001 SW Blue Pkwy, Lee's Summit,MO 64063, Store No 183|816-537-6061"},{"latitude":"38.852837","longitude":"-94.377802","name":"QT [Auto Diesel]-Lee's Summit,MO","address":"120 SW M-150 Hwy, Lee's Summit,MO 64082, Store No 200|816-373-0176"},{"latitude":"38.982674","longitude":"-94.360281","name":"QT-Lee's Summit,MO","address":"800 NE Woods Chapel Rd, Lee's Summit,MO 64064, Store No 208|816-524-2946"},{"latitude":"38.904506","longitude":"-94.362929","name":"QT-Lee's Summit,MO","address":"801 SE M-291 Hwy, Lee's Summit,MO 64063, Store No 162|816-415-8700"},{"latitude":"39.239905","longitude":"-94.438602","name":"QT [Auto Diesel]-Liberty,MO","address":"655 S 291 Hwy, Liberty,MO 64068, Store No 151|314-647-7114"},{"latitude":"38.613605","longitude":"-90.323171","name":"QT [Auto Diesel]-Maplewood,MO","address":"2633 S Big Bend Ave, Maplewood,MO 63143, Store No 610|314-849-5622"},{"latitude":"38.567926","longitude":"-90.340045","name":"QT-Marlborough,MO","address":"8000 Watson Rd, Marlborough,MO 63119, Store No 679|314-344-3304"},{"latitude":"38.71456","longitude":"-90.423631","name":"QT-Maryland Heights,MO","address":"11525 Dorsett Rd, Maryland Heights,MO 63043, Store No 644|314-991-4408"},{"latitude":"38.698238","longitude":"-90.435551","name":"QT-Maryland Heights,MO","address":"11829 Lackland Rd, Maryland Heights,MO 63146, Store No 622|816-471-2886"},{"latitude":"39.143627","longitude":"-94.568735","name":"QT-North Kansas City,MO","address":"1010 Armour Rd, North Kansas City,MO 64116, Store No 153|816-472-1714"},{"latitude":"39.146932","longitude":"-94.580161","name":"QT-North Kansas City,MO","address":"2525 Burlington St, North Kansas City,MO 64116, Store No 228|816-690-8569"},{"latitude":"39.013","longitude":"-94.127646","name":"QT Travel Center [Auto Diesel]-Oak Grove,MO","address":"I-70 at F Hwy Exit 28 [309 S Broadway], Oak Grove,MO 64075, Store No 150|314-965-6110"},{"latitude":"38.567979","longitude":"-90.39137","name":"QT-Oakland,MO","address":"9951 Big Bend Blvd, Oakland,MO 63122, Store No 626|636-300-0744"},{"latitude":"38.763042","longitude":"-90.699339","name":"QT [Auto Diesel]-O'Fallon,MO","address":"140 Fallon Loop Rd, O'Fallon,MO 63368, Store No 675|636-272-4727"},{"latitude":"38.719251","longitude":"-90.701181","name":"QT [Auto Diesel]-O'Fallon,MO","address":"4750 Hwy K, O'Fallon,MO 63368, Store No 632|636-978-7973"},{"latitude":"38.801092","longitude":"-90.677394","name":"QT-O'Fallon,MO","address":"801 Belleau Creek Rd, O'Fallon,MO 63366, Store No 640|636-240-8341"},{"latitude":"38.7915573","longitude":"-90.6995544","name":"QT [Auto Diesel]-O'Fallon,MO","address":"8601 Mexico Rd, O'Fallon,MO 63366, Store No 643|636-240-7957"},{"latitude":"38.798433","longitude":"-90.735966","name":"QT-O'Fallon,MO","address":"955 Bryan Rd, O'Fallon,MO 63366, Store No 662|314-426-1811"},{"latitude":"38.70545","longitude":"-90.361565","name":"QT-Overland,MO","address":"2621 Woodson Rd, Overland,MO 63114, Store No 630|314-429-3738"},{"latitude":"38.686564","longitude":"-90.351483","name":"QT-Overland,MO","address":"8815 Page Blvd, Overland,MO 63114, Store No 625|314-423-1344"},{"latitude":"38.686874","longitude":"-90.362679","name":"QT [Auto Diesel]-Overland,MO","address":"9404 Page Ave, Overland,MO 63132, Store No 665|816-858-2503"},{"latitude":"39.210244","longitude":"-94.680337","name":"QT [Auto Diesel]-Parkville,MO","address":"8601 NW 45 Hwy, Parkville,MO 64152, Store No 189|816-505-1609"},{"latitude":"39.354901","longitude":"-94.765587","name":"QT Travel Center-Platte City,MO","address":"I-29 at Hwy 92 Exit 18 [1951 Prairie View Rd], Platte City,MO 64079, Store No 236|816-415-2279"},{"latitude":"39.216744","longitude":"-94.477105","name":"QT Travel Center [Auto Diesel]-Pleasant Valley,MO","address":"I-35 and Pleasant Valley Rd [N-Exit; S-Exit 14] [8600 Pleasant Valley Rd], Pleasant Valley,MO 64068, Store No 179|816-743-0078"},{"latitude":"39.009553","longitude":"-94.482555","name":"QT [Auto Diesel]-Raytown,MO","address":"8733 E 63rd St, Raytown,MO 64133, Store No 156|816-358-7026"},{"latitude":"38.993104","longitude":"-94.472282","name":"QT [Auto Diesel]-Raytown,MO","address":"9323 E 350 Hwy, Raytown,MO 64133, Store No 209|816-358-7026"},{"latitude":"38.625576","longitude":"-90.334122","name":"QT [Auto Diesel]-Richmond Heights,MO","address":"1530 S Hanley Rd, Richmond Heights,MO 63144, Store NO 647|314-647-2332"},{"latitude":"39.1781387","longitude":"-94.6137924","name":"QT [Auto Diesel]-Riverside,MO","address":"4600 NW Gateway Dr, Riverside,MO 64150, Store No 170|816-741-8589"},{"latitude":"39.365186","longitude":"-94.583437","name":"QT [Auto Diesel]-Smithville,MO","address":"1407 S 169 Hwy, Smithville,MO 64089, Store No 213|816-532-4821"},{"latitude":"38.726339","longitude":"-90.3778899","name":"QT-St Ann,MO","address":"10123 St Charles Rock Rd, St Ann,MO 63074, Store No 635|314-739-2200"},{"latitude":"38.769738","longitude":"-90.524533","name":"QT-St Charles,MO","address":"1500 Zumbehl Rd, St Charles,MO 63303, Store No 660|636-255-0527"},{"latitude":"38.765114","longitude":"-90.496144","name":"QT [Auto Diesel]-St Charles,MO","address":"1640 S 5th St, St Charles,MO 63303, Store No 602|636-946-8141"},{"latitude":"38.786876","longitude":"-90.494038","name":"QT-St Charles,MO","address":"225 N Kingshighway, St Charles,MO 63301, Store No 603|636-947-8389"},{"latitude":"38.7786","longitude":"-90.50918","name":"QT [Auto Diesel]-St Charles,MO","address":"2260 First Capitol Dr, St Charles,MO 63301, Store No 673|636-947-4244"},{"latitude":"38.7906189","longitude":"-90.5652618","name":"QT [Auto Diesel]-St Charles,MO","address":"3889 Mexico Rd, St Charles,MO 63303, Store No 623|636-939--266"},{"latitude":"38.7058333","longitude":"-90.3405882","name":"QT [Auto Diesel]-St John,MO","address":"8583 St Charles Rock Rd, St John,MO 63114, Store No 607|314-429-5338"},{"latitude":"38.692736","longitude":"-90.399651","name":"QT-St Louis,MO","address":"10793 Page Ave, St Louis,MO 63132, Store No 614|314-426-6193"},{"latitude":"38.785579","longitude":"-90.233809","name":"QT [Auto Diesel]-St Louis,MO","address":"11802 Lusher Rd, St Louis,MO 63138, Store No 639|314-741-1150"},{"latitude":"38.491279","longitude":"-90.382608","name":"QT-St Louis,MO","address":"13099 Tesson Ferry Rd, St Louis,MO 63128, Store No 678|314-842-0704"},{"latitude":"38.771583","longitude":"-90.267092","name":"QT [Auto Diesel]-St Louis,MO","address":"2791 Dunn Rd, St Louis,MO 63136, Store No 628|314-355-5644"},{"latitude":"38.511898","longitude":"-90.318747","name":"QT-St Louis,MO","address":"3475 Lemay Ferry Rd, St Louis,MO 63125, Store No 633|314-416-9775"},{"latitude":"38.483368","longitude":"-90.304573","name":"QT-St Louis,MO","address":"4435 Telegraph Rd, St Louis,MO 63129, Store No 674|314-487-1240"},{"latitude":"38.461686","longitude":"-90.372542","name":"QT [Auto Diesel]-St Louis,MO","address":"4450 Meramec Bottom Rd, St Louis,MO 63129, Store No 629|314-845-2598"},{"latitude":"38.56811","longitude":"-90.524343","name":"QT [Auto Diesel]-St Louis,MO","address":"604 Big Bend Rd, St Louis,MO 63021, Store No 641|636-230-6765"},{"latitude":"38.555125","longitude":"-90.314657","name":"QT-St Louis,MO","address":"9101 Gravois Rd, St Louis,MO 63123, Store No 624|314-832-6000"},{"latitude":"38.620166","longitude":"-90.267059","name":"QT [Auto Diesel]-St Louis Downtown,MO","address":"1615 S Kingshighway Blvd, St Louis Downtown,MO 63110, Store No 637|314-771-5038"},{"latitude":"38.615643","longitude":"-90.286617","name":"QT [Auto Diesel]-St Louis Downtown,MO","address":"2166 Hampton Ave, St Louis,MO 63139, Store No 687|314-645-7184"},{"latitude":"38.6220245","longitude":"-90.2189255","name":"QT [Auto Diesel]-St Louis Downtown,MO","address":"2600 Chouteau Ave, St Louis Downtown,MO 63103, Store No 658|314-664-4274"},{"latitude":"38.6023025","longitude":"-90.2292471","name":"QT [Auto Diesel]-St Louis Downtown,MO","address":"2851 Gravois Ave, St Louis Downtown,MO 63118, Store No 638|314-664-6657"},{"latitude":"38.6005554","longitude":"-90.2708511","name":"QT [Auto Diesel]-St Louis Downtown,MO","address":"3291 S Kingshighway Blvd, St Louis Downtown,MO 63139, Store No 648|314-351-4600"},{"latitude":"38.589564","longitude":"-90.255751","name":"QT [Auto Diesel]-St Louis Downtown,MO","address":"4101 Gravois Ave, St Louis Downtown,MO 63116, Store No 636|314-776-1806"},{"latitude":"38.570092","longitude":"-90.28507","name":"QT-St Louis Downtown,MO","address":"6900 Gravois, St Louis Downtown,MO 63116, Store No 668|314-353-8707"},{"latitude":"38.628661","longitude":"-90.246488","name":"QT [Auto Diesel]-St Louis Downtown,MO","address":"904 S Vandeventer Ave, St Louis Downtown,MO 63110, Store No 671|314-533-4333"},{"latitude":"38.541125","longitude":"-90.28045","name":"QT-St Louis Unincorp.,MO","address":"3638 Bayless Rd, St Louis Unincorp,MO 63125, Store No 609|314-631-8384"},{"latitude":"37.775864","longitude":"-90.613098","name":"QT Travel Center-St Peters,MO","address":"3000 Mid Rivers Mall Dr [I-70 Exit 222], St Peters,MO 63376, Store No 606|636-397-2506"},{"latitude":"38.757463","longitude":"-90.586286","name":"QT-St Peters,MO","address":"3847 McClay Rd, St Peters,MO 63376, Store No 604|636-928-9884"},{"latitude":"38.80101","longitude":"-90.621681","name":"QT [Auto Diesel]-St Peters,MO","address":"391 N Main, St Peters,MO 63376, Store No 608|636-970-3029"},{"latitude":"38.743446","longitude":"-90.610588","name":"QT-St Peters,MO","address":"4646 S St Peters Pkwy, St Peters,MO 63304, Store No 619|636-441-4099"},{"latitude":"38.442716","longitude":"-90.99159","name":"QT [Auto Diesel]-Union,MO","address":"100 Bourbeuse River Access, Union,MO 63084, Store No 672|636-744-0007"},{"latitude":"38.716895","longitude":"-90.673823","name":"QT-Weldon Springs,MO","address":"5905 Hwy 94 S, Weldon Springs,MO 63304, Store No 645|636-939-6688"},{"latitude":"38.812576","longitude":"-90.873613","name":"QT-Wentzville,MO","address":"1140 W Pearce Blvd, Wentzville,MO 63385, Store No 654|636-332-5056"},{"latitude":"38.822289","longitude":"-90.853079","name":"QT-Wentzville,MO","address":"55 Wentzville Pky, Wentzville,MO 63385, Store No 663|636-332-5920"},{"latitude":"35.3338661","longitude":"-80.7184982","name":"QT [Auto Diesel]-Charlotte,NC","address":"11230 N Tryon St, Charlotte,NC 28262, Store No 1032|704-549-8712"},{"latitude":"35.1947283","longitude":"-80.8739696","name":"QT [Auto Diesel]-Charlotte,NC","address":"116 Clanton Rd, Charlotte,NC 28217, Store No 1076|704-522-3877"},{"latitude":"35.178838","longitude":"-80.882708","name":"QT [Auto Diesel]-Charlotte,NC","address":"127 E Woodlawn Rd, Charlotte,NC 28217, Store No 1071|704-525-1008"},{"latitude":"35.13458","longitude":"-80.939379","name":"QT [Auto Diesel]-Charlotte,NC","address":"2326 Sandy Porter Rd, Charlotte,NC 28273, Store No 1065|704-587-9490"},{"latitude":"35.2241213","longitude":"-80.8898033","name":"QT [Auto Diesel]-Charlotte,NC","address":"3025 Wilkinson Blvd, Charlotte,NC 28208, Store No 1004|704-395-3474"},{"latitude":"35.2113392","longitude":"-80.7820107","name":"QT [Auto Diesel]-Charlotte,NC","address":"3206 Eastway Dr, Charlotte,NC 28205, Store No 1052|704-537-8404"},{"latitude":"35.307824","longitude":"-80.845167","name":"QT [Auto Diesel]-Charlotte,NC","address":"4937 Sunset Rd, Charlotte,NC 28269, Store No 1029|704-494-4601"},{"latitude":"35.2097433","longitude":"-80.7568811","name":"QT [Auto Diesel]-Charlotte,NC","address":"5209 Central Ave, Charlotte,NC 28212, Store No 1059|704-567-2346"},{"latitude":"35.2025422","longitude":"-80.7293194","name":"QT-Charlotte,NC","address":"6721 Albemarle Rd, Charlotte,NC 28212, Store No 1053|704-563-1795"},{"latitude":"35.13678","longitude":"-80.875397","name":"QT-Charlotte,NC","address":"7115 South Blvd, Charlotte,NC 28273, Store No 1070|704-554-6413"},{"latitude":"35.258059","longitude":"-80.737174","name":"QT [Auto Diesel]-Charlotte,NC","address":"7205 The Plaza, Charlotte,NC 28215, Store No 1051|704-537-7851"},{"latitude":"35.429344","longitude":"-80.609435","name":"QT-Concord,NC","address":"1086 Concord Pkwy N, Concord,NC 28027, Store No 1023|704-720-0616"},{"latitude":"35.3752365","longitude":"-80.5515613","name":"QT [Auto Diesel]-Concord,NC","address":"1862 Warren C Coleman Blvd, Concord,NC 28025, Store No 1030|704-786-8748"},{"latitude":"35.4183287","longitude":"-80.6714834","name":"QT [Auto Diesel]-Concord,NC","address":"383 George Liles Pkwy, Concord,NC 28027, Store No 1012|704-782-0531"},{"latitude":"35.394934","longitude":"-80.616116","name":"QT-Concord,NC","address":"859 Concord Pkwy S, Concord,NC 28027, Store No 1025|704-786-7845"},{"latitude":"35.4491076","longitude":"-81.0018827","name":"QT-Denver,NC","address":"7259 NC 73 Hwy, Denver,NC 28037, Store No 1017|704-827-1624"},{"latitude":"35.2598753","longitude":"-81.2146703","name":"QT [Auto Diesel]-Gastonia,NC","address":"1843 W Franklin Blvd, Gastonia,NC 28052, Store No 1043|704-861-6211"},{"latitude":"35.290449","longitude":"-81.18925","name":"QT [Auto Diesel]-Gastonia,NC","address":"2305 N Chester St, Gastonia,NC 28052, Store No 1042|704-833-3008"},{"latitude":"35.266227","longitude":"-81.176741","name":"QT [Auto Diesel]-Gastonia,NC","address":"310 E Long Ave, Gastonia,NC 28054, Store No 1045|704-866-7119"},{"latitude":"35.318393","longitude":"-80.673415","name":"QT [Auto Diesel]-Harrisburg,NC","address":"5755 NC Hwy 49 S, Harrisburg,NC 28075, Store No 1031|704-455-2273"},{"latitude":"35.061893","longitude":"-80.634462","name":"QT [Auto Diesel]-Indian Trail,NC","address":"5650 W Hwy 74, Indian Trail,NC 28110, Store No 1054|704-225-0343"},{"latitude":"35.4732421","longitude":"-80.6010749","name":"QT [Auto Diesel]-Kannapolis,NC","address":"2585 Dale Earnhardt Blvd, Kannapolis,NC 28083, Store No 1003|704-933-2756"},{"latitude":"35.499312","longitude":"-80.567751","name":"QT [Auto Diesel]-Kannapolis,NC","address":"2790 Lane St, Kannapolis,NC 28083, Store No 1044|704-934-0014"},{"latitude":"35.4507001","longitude":"-80.6093102","name":"QT [Auto Diesel]-Kannapolis,NC","address":"821 Cloverleaf Plaza, Kannapolis,NC 28083, Store No 1022|704-788-8431"},{"latitude":"35.129265","longitude":"-80.7328974","name":"QT [Auto Diesel]-Matthews,NC","address":"10621 Monroe Rd, Matthews,NC 28105, Store No 1028|704-846-8747"},{"latitude":"34.9880877","longitude":"-80.5311369","name":"QT [Auto Diesel]-Monroe,NC","address":"603 W Roosevelt Blvd, Monroe,NC 28110, Store No 1074|704-283-1772"},{"latitude":"35.590125","longitude":"-80.842863","name":"QT [Auto Diesel]-Mooresville,NC","address":"161 W Plaza Dr, Mooresville,NC 28117, Store No 1008|704-660-0153"},{"latitude":"35.596243","longitude":"-80.877969","name":"QT [Auto Diesel]-Mooresville,NC","address":"680 River Hwy, Mooresville,NC 28117, Store No 1009|704-664-0855"},{"latitude":"41.18279","longitude":"-95.930381","name":"QT-Bellevue,NE","address":"1311 Fort Crook Rd N, Bellevue,NE 68005, Store No 586|402-738-9237"},{"latitude":"41.205032","longitude":"-96.116833","name":"QT-Omaha,NE","address":"13007 Q St, Omaha,NE 68137, Store No 599|402-861-6870"},{"latitude":"41.218134","longitude":"-96.043271","name":"QT-Omaha,NE","address":"4212 S 84th St, Omaha,NE 68127, Store No 588|402-935-7959"},{"latitude":"41.298761","longitude":"-96.024095","name":"QT-Omaha,NE","address":"4404 N 72nd St, Omaha,NE 68134, Store No 587|402-571-1302"},{"latitude":"41.272369","longitude":"-95.984041","name":"QT-Omaha,NE","address":"4720 Hamilton, Omaha,NE 68132, Store No 585|402-556-7430"},{"latitude":"41.20941","longitude":"-96.081288","name":"QT [Auto Diesel]-Omaha,NE","address":"5005 S 108th St, Omaha,NE 68137, Store No 596|402-592-9131"},{"latitude":"41.306843","longitude":"-96.073784","name":"QT-Omaha,NE","address":"5305 N 103rd St, Omaha,NE 68134, Store No 589|402-498-4482"},{"latitude":"41.212131","longitude":"-96.006443","name":"QT [Auto Diesel]-Omaha,NE","address":"6045 L Street, Omaha,NE 68117, Store No 580|402-731-0110"},{"latitude":"41.253055","longitude":"-95.984385","name":"QT-Omaha,NE","address":"715 S Saddlecreek Rd, Omaha,NE 68106, Store No 594|402-561-0694"},{"latitude":"41.284841","longitude":"-96.04805","name":"QT-Omaha,NE","address":"8727 Maple, Omaha,NE 68134, Store No 597|402-391-2650"},{"latitude":"36.756771","longitude":"-95.935222","name":"QT [Auto Diesel]-Bartlesville,OK","address":"102 SE Washington Blvd, Bartlesville,OK 74006, Store No 32|918-335-1688"},{"latitude":"36.725687","longitude":"-95.935254","name":"QT [Auto Diesel]-Bartlesville,OK","address":"1835 SE Washington Blvd, Bartlesville,OK 74006, Store No 37|918-333-0694"},{"latitude":"35.9894219","longitude":"-95.8864617","name":"QT [Auto Diesel]-Bixby,OK","address":"12037 S Memorial Dr, Bixby,OK 74008, Store No 98|918-364-5528"},{"latitude":"35.944381","longitude":"-95.8868","name":"QT [Auto Diesel]-Bixby,OK","address":"15102 S Memorial, Bixby,OK 74008, Store No 51|918-366-2700"},{"latitude":"36.033362","longitude":"-95.815497","name":"QT-Broken Arrow,OK","address":"1820 S Aspen, Broken Arrow,OK 74012, Store No 82|918-258-0151"},{"latitude":"36.06081","longitude":"-95.759881","name":"QT-Broken Arrow,OK","address":"2400 E Kenosha, Broken Arrow,OK 74014, Store No 33|918-355-2876"},{"latitude":"36.075606","longitude":"-95.815266","name":"QT [Auto Diesel]-Broken Arrow,OK","address":"2400 N Aspen, Broken Arrow,OK 74012, Store No 6|918-251-2923"},{"latitude":"36.061006","longitude":"-95.831101","name":"QT-Broken Arrow,OK","address":"3502 W Kenosha St, Broken Arrow,OK 74012, Store No 95|918-250-0603"},{"latitude":"36.004046","longitude":"-95.797274","name":"QT-Broken Arrow,OK","address":"4705 S Elm, Broken Arrow,OK 74012, Store No 81|918-455-8349"},{"latitude":"36.046154","longitude":"-95.85069","name":"QT [Auto Diesel]-Broken Arrow,OK","address":"4901 W Houston St, Broken Arrow,OK 74012, Store No 94|918-250-7486"},{"latitude":"36.060899","longitude":"-95.79583","name":"QT-Broken Arrow,OK","address":"501 W Kenosha Ave, Broken Arrow,OK 74012, Store No 80|918-258-8600"},{"latitude":"36.046381","longitude":"-95.751581","name":"QT [Auto Diesel]-Broken Arrow,OK","address":"8100 E Highway 51, Broken Arrow,OK 74014, Store No 50|918-251-4331"},{"latitude":"36.067826","longitude":"-95.780581","name":"QT [Auto Diesel]-Broken Arrow,OK","address":"900 E Hillside Dr, Broken Arrow,OK 74012, Store No 34|918-355-0014"},{"latitude":"36.336265","longitude":"-95.602379","name":"QT [Auto Diesel]-Claremore,OK","address":"151 S Fred Swan Ln, Claremore,OK 74017, Store No 40|918-283-1871"},{"latitude":"36.250023","longitude":"-95.667641","name":"QT [Auto Diesel]-Claremore,OK","address":"24985 S Hwy 66, Claremore,OK 74019, Store No 66|918-341-0012"},{"latitude":"36.308467","longitude":"-95.619998","name":"QT-Claremore,OK","address":"520 S JM Davis Blvd, Claremore,OK 74017, Store No 20|918-342-5908"},{"latitude":"36.365503","longitude":"-95.91829","name":"QT [Auto Diesel]-Collinsville,OK","address":"5020 E 146th St North, Collinsville,OK 74021, Store No 3|918-371-5757"},{"latitude":"35.95168","longitude":"-96.013684","name":"QT [Auto Diesel]-Glenpool,OK","address":"12100 S Waco, Glenpool,OK 74033, Store No 121|918-296-9898"},{"latitude":"35.959345","longitude":"-96.009053","name":"QT [Auto Diesel]-Glenpool,OK","address":"91 W 141st St, Glenpool,OK 74033, Store No 106|918-291-2904"},{"latitude":"36.015143","longitude":"-95.976751","name":"QT [Auto Diesel]-Jenks,OK","address":"712 S Elm, Jenks,OK 74037, Store No 101|918-299-3131"},{"latitude":"35.7688954","longitude":"-95.4025999","name":"QT [Auto Diesel]-Muskogee,OK","address":"1919 N 32nd St, Muskogee,OK 74401, Store No 72|918-681-7507"},{"latitude":"36.2634536","longitude":"-95.8452958","name":"QT-Owasso,OK","address":"11502 E 76th St N, Owasso,OK 74055, Store No 2|918-272-1596"},{"latitude":"36.321547","longitude":"-95.8189","name":"QT [Auto Diesel]-Owasso,OK","address":"11590 N 140th East Ave, Owasso,OK 74055, Store No 62|918-371-3333"},{"latitude":"36.278512","longitude":"-95.830117","name":"QT [Auto Diesel]-Owasso,OK","address":"12902 E 86th St N, Owasso,OK 74055, Store No 22|918-272-9991"},{"latitude":"36.293166","longitude":"-95.848255","name":"QT-Owasso,OK","address":"9600 N Garnett Rd, Owasso,OK 74055, Store No 42|918-272-4083"},{"latitude":"36.104583","longitude":"-96.118727","name":"QT [Auto Diesel]-Sand Springs,OK","address":"2 E 41St st S, Sand Springs,OK 74063, Store No 12|918-241-3095"},{"latitude":"36.134395","longitude":"-96.115883","name":"QT [Auto Diesel]-Sand Springs,OK","address":"200 S Hwy 97, Sand Springs,OK 74063, Store No 23|918-245-9249"},{"latitude":"35.988288","longitude":"-96.099741","name":"QT-Sapulpa,OK","address":"1040 E Taft, Sapulpa,OK 74601, Store No 36|918-227-5083"},{"latitude":"36.012736","longitude":"-96.112204","name":"QT [Auto Diesel]-Sapulpa,OK","address":"1222 N 9th St, Sapulpa,OK 74066, Store No 38|918-224-1700"},{"latitude":"36.018341","longitude":"-95.886744","name":"QT-Tulsa,OK","address":"10028 S Memorial, Tulsa,OK 74133, Store No 97|918-298-5536"},{"latitude":"36.148647","longitude":"-95.904602","name":"QT [Auto Diesel]-Tulsa,OK","address":"1014 S Sheridan, Tulsa,OK 74112, Store No 14|918-835-7474"},{"latitude":"36.148574","longitude":"-95.967294","name":"QT [Auto Diesel]-Tulsa,OK","address":"1022 S Utica Ave, Tulsa,OK 74120, Store No 90|918-585-2107"},{"latitude":"36.118765","longitude":"-95.862438","name":"QT-Tulsa,OK","address":"10220 E 31st St, Tulsa,OK 74146, Store No 69|918-660-0311"},{"latitude":"36.147745","longitude":"-95.862569","name":"QT-Tulsa,OK","address":"10310 E 11th, Tulsa,OK 74128, Store No 5|918-834-2968"},{"latitude":"36.075267","longitude":"-95.855086","name":"QT-Tulsa,OK","address":"10738 E 61st St, Tulsa,OK 74133, Store No 83|918-252-7454"},{"latitude":"36.148145","longitude":"-95.8500997","name":"QT [Auto Diesel]-Tulsa,OK","address":"11315 E 11th St, Tulsa,OK 74128, Store No 74|918-437-3676"},{"latitude":"36.1297414","longitude":"-96.0057886","name":"QT [Auto Diesel]-Tulsa,OK","address":"1202 W 23rd St S, Tulsa,OK 74107, Store No 17|918-599-7971"},{"latitude":"36.08994","longitude":"-95.833179","name":"QT [Auto Diesel]-Tulsa,OK","address":"12880 E 51st St S, Tulsa,OK 74134, Store No 55|918-660-7628"},{"latitude":"36.133243","longitude":"-95.832829","name":"QT-Tulsa,OK","address":"12910 E 21st St, Tulsa,OK 74134, Store No 26|918-437-0924"},{"latitude":"36.060903","longitude":"-95.972784","name":"QT-Tulsa,OK","address":"1415 E 71st St S, Tulsa,OK 74136, Store No 45|918-481-5841"},{"latitude":"36.141223","longitude":"-95.992274","name":"QT [Auto Diesel]-Tulsa,OK","address":"1443 S Denver, Tulsa,OK 74119, Store No 53|918-584-7645"},{"latitude":"36.089823","longitude":"-96.010501","name":"QT [Auto Diesel]-Tulsa,OK","address":"1617 W 51st St, Tulsa,OK 74107, Store No 9|918-234-0380"},{"latitude":"36.160811","longitude":"-95.793855","name":"QT Travel Center [Auto Diesel]-Tulsa,OK","address":"16505 E Admiral Pl [I-44 Exit 238], Tulsa,OK 74116, Store No 71|918-446-4325"},{"latitude":"36.1611737","longitude":"-95.7618372","name":"QT-Tulsa,OK","address":"18 S 193rd ET Ave, Tulsa,OK 74108, Store No 24|918-266-7218"},{"latitude":"36.134217","longitude":"-95.940507","name":"QT-Tulsa,OK","address":"1946 S Harvard, Tulsa,OK 74112, Store No 27|918-744-0330"},{"latitude":"36.162676","longitude":"-95.851064","name":"QT-Tulsa,OK","address":"215 N Garnett, Tulsa,OK 74116, Store No 77|918-438-0180"},{"latitude":"36.157187","longitude":"-96.0203625","name":"QT [Auto Diesel]-Tulsa,OK","address":"220 N Gilcrease Museum Rd, Tulsa,OK 74127, Store No 59|918-592-7700"},{"latitude":"36.160864","longitude":"-95.950114","name":"QT-Tulsa,OK","address":"2749 E Admiral Pl, Tulsa,OK 74110, Store No 75|918-834-1141"},{"latitude":"36.161279","longitude":"-95.940494","name":"QT-Tulsa,OK","address":"28 N Harvard, Tulsa,OK 74115, Store No 85|918-834-1861"},{"latitude":"36.147643","longitude":"-95.945917","name":"QT-Tulsa,OK","address":"3008 E 11th, Tulsa,OK 74104, Store No 16|918-592-2400"},{"latitude":"36.119996","longitude":"-95.90472","name":"QT-Tulsa,OK","address":"3050 S Sheridan Rd, Tulsa,OK 74129, Store No 13|918-834-7792"},{"latitude":"36.118703","longitude":"-95.833404","name":"QT-Tulsa,OK","address":"3108 S 129th E Ave, Tulsa,OK 74134, Store No 21|918-627-3707"},{"latitude":"36.101344","longitude":"-96.029651","name":"QT-Tulsa,OK","address":"3304 W 42nd Pl, Tulsa,OK 74107, Store No 18|918-446-5005"},{"latitude":"36.111284","longitude":"-95.97587","name":"QT-Tulsa,OK","address":"3606 S Peoria, Tulsa,OK 74105, Store No 57|918-743-5936"},{"latitude":"36.1049004","longitude":"-95.8515854","name":"QT [Auto Diesel]-Tulsa,OK","address":"4030 S Garnett Rd, Tulsa,OK 74146, Store No 84|918-663-9681"},{"latitude":"36.219659","longitude":"-95.958079","name":"QT-Tulsa,OK","address":"4545 N Lewis Ave, Tulsa,OK 74110, Store No 11|918-425-1896"},{"latitude":"36.092185","longitude":"-95.922044","name":"QT-Tulsa,OK","address":"4795 S Yale Ave, Tulsa,OK 74136, Store No 25|918-627-3501"},{"latitude":"36.160877","longitude":"-95.922211","name":"QT-Tulsa,OK","address":"4903 E Admiral Pl, Tulsa,OK 74115, Store No 7|918-834-4553"},{"latitude":"36.0922173","longitude":"-95.9402323","name":"QT [Auto Diesel]-Tulsa,OK","address":"4950 S Harvard Ave, Tulsa,OK 74105, Store No 41|918-742-1577"},{"latitude":"36.091538","longitude":"-95.97574","name":"QT [Auto Diesel]-Tulsa,OK","address":"4970 S Peoria Ave, Tulsa,OK 74105, Store No 1|918-742-1553"},{"latitude":"36.089636","longitude":"-95.90455","name":"QT-Tulsa,OK","address":"5116 S Sheridan, Tulsa,OK 74135, Store No 31|918-627-6574"},{"latitude":"36.061004","longitude":"-95.919104","name":"QT-Tulsa,OK","address":"5151 E 71st, Tulsa,OK 74136, Store No 93|918-492-9299"},{"latitude":"36.16424","longitude":"-95.904451","name":"QT [Auto Diesel]-Tulsa,OK","address":"519 N Sheridan Rd, Tulsa,OK 74115, Store No 44|918-832-9999"},{"latitude":"36.075852","longitude":"-95.957893","name":"QT-Tulsa,OK","address":"5955 S Lewis, Tulsa,OK 74105, Store No 29|918-742-4599"},{"latitude":"36.076481","longitude":"-96.048074","name":"QT Travel Center [Auto Diesel]-Tulsa,OK","address":"6008 S 49th W Ave [I-44 Exit 222], Tulsa,OK 74107, Store No 102|918-446-5500"},{"latitude":"36.060422","longitude":"-95.873477","name":"QT-Tulsa,OK","address":"7103 S 92nd E Ave, Tulsa,OK 74111, Store No 99|918-254-0069"},{"latitude":"36.075268","longitude":"-95.891033","name":"QT-Tulsa,OK","address":"7626 E 61st St, Tulsa,OK 74133, Store No 10|918-254-6758"},{"latitude":"36.1600342","longitude":"-95.887207","name":"QT [Auto Diesel]-Tulsa,OK","address":"7878 E Admiral Place, Tulsa,OK 74115, Store No 8|918-835-8245"},{"latitude":"36.061049","longitude":"-96.002344","name":"QT [Auto Diesel]-Tulsa,OK","address":"807 W 71st St, Tulsa,OK 74132, Store No 107|918-447-2781"},{"latitude":"36.046892","longitude":"-95.885915","name":"QT-Tulsa,OK","address":"8081 S Memorial, Tulsa,OK 74133, Store No 79|918-459-9268"},{"latitude":"36.133586","longitude":"-95.886144","name":"QT [Auto Diesel]-Tulsa,OK","address":"8105 E 21st St, Tulsa,OK 85201, Store No 19|918-628-6800"},{"latitude":"36.032488","longitude":"-95.921954","name":"QT-Tulsa,OK","address":"9037 S Yale, Tulsa,OK 74137, Store No 78|918-496-0247"},{"latitude":"36.0316774","longitude":"-95.8684245","name":"QT [Auto Diesel]-Tulsa,OK","address":"9111 S Mingo Rd, Tulsa,OK 74133, Store No 91|918-249-1928"},{"latitude":"36.0904655","longitude":"-95.8692474","name":"QT [Auto Diesel]-Tulsa,OK","address":"9529 E 51st St, Tulsa,OK 74145, Store No 28|918-622-2862"},{"latitude":"36.026982","longitude":"-95.951027","name":"QT-Tulsa,OK","address":"9555 Riverside Dr, Tulsa,OK 74137, Store No 96|918-296-5397"},{"latitude":"36.177207","longitude":"-95.869803","name":"QT [Auto Diesel]-Tulsa,OK","address":"9621 E Pine, Tulsa,OK 74115, Store No 56|918-834-9871"},{"latitude":"35.958754","longitude":"-95.395366","name":"QT [Auto Diesel]-Wagoner,OK","address":"210 S Dewey, Wagoner,OK 74467, Store No 52|918-485-0118"},{"latitude":"34.532455","longitude":"-82.697295","name":"QT [Auto Diesel]-Anderson,SC","address":"1509 Pearman Dairy Rd, Anderson,SC 29625, Store No 1108|864-225-6037"},{"latitude":"34.535353","longitude":"-82.63122","name":"QT [Auto Diesel]-Anderson,SC","address":"1701 E Greenville St, Anderson,SC 29621, Store No 1116|864-964-8232"},{"latitude":"34.532541","longitude":"-82.6641","name":"QT [Auto Diesel]-Anderson,SC","address":"2901 N Main St, Anderson,SC 29621, Store No 1109|864-225-8002"},{"latitude":"34.560766","longitude":"-82.695185","name":"QT [Auto Diesel]-Anderson,SC","address":"4123 Clemson Blvd, Anderson,SC 29621, Store No 1107|864-222-2271"},{"latitude":"34.577345","longitude":"-82.69176","name":"QT [Auto Diesel]-Anderson,SC","address":"4535 Liberty Hwy, Anderson,SC 29621, Store No 1106|864-224-8645"},{"latitude":"35.014905","longitude":"-81.957804","name":"QT [Auto Diesel]-Boiling Springs,SC","address":"140 Candlenut Lane, Boiling Springs,SC 29316, Store No 1100|864-578-8111"},{"latitude":"35.107856","longitude":"-81.042332","name":"QT [Auto Diesel]-Clover,SC","address":"4020 Charlotte Hwy, Clover,SC 29710, Store No 1057|803-831-7051"},{"latitude":"34.913308","longitude":"-82.105078","name":"QT [Auto Diesel]-Duncan,SC","address":"105 Spartangreen Blvd, Duncan,SC 29334, Store No 1112|864-486-8067"},{"latitude":"34.825923","longitude":"-82.545914","name":"QT [Auto Diesel]-Easley,SC","address":"4855 Calhoun Memorial Hwy, Easley,SC 29640, Store No 1121|864-859-8195"},{"latitude":"35.0092","longitude":"-80.91749","name":"QT [Auto Diesel]-Fort Mill,SC","address":"1312 Hwy 160 East, Fort Mill,SC 29715, Store No 1062|803-802-5818"},{"latitude":"35.09558","longitude":"-80.936363","name":"QT [Auto Diesel]-Fort Mill,SC","address":"265 Carowinds Blvd, Fort Mill,SC 29708, Store No 1079|803-802-5867"},{"latitude":"35.0890248","longitude":"-80.9322527","name":"QT [Auto Diesel]-Fort Mill,SC","address":"3282 Hwy 21, Fort Mill,SC 29715, Store No 1077|803-547-5949"},{"latitude":"35.061348","longitude":"-80.9637327","name":"QT [Auto Diesel]-Fort Mill,SC","address":"891 Gold Hill Rd, Fort Mill,SC 29708, Store No 1075|803-802-4795"},{"latitude":"35.0323179","longitude":"-80.9705351","name":"QT [Auto Diesel]-Fort Mill,SC","address":"974 Sutton Rd, Fort Mill,SC 29708, Store No 1060|803-802-9579"},{"latitude":"35.080327","longitude":"-81.704695","name":"QT [Auto Diesel]-Gaffney,SC","address":"101 Lemmons Ln, Gaffney,SC 29341, Store No 1120|864-489-6218"},{"latitude":"34.860129","longitude":"-82.404561","name":"QT [Auto Diesel]-Greenville,SC","address":"100 Rutherford St, Greenville,SC 29609, Store No 1140|864-233-4252"},{"latitude":"34.836308","longitude":"-82.317007","name":"QT [Auto Diesel]-Greenville,SC","address":"1012 Woodruff Rd, Greenville,SC 29607, Store No 1147|864-234-7208"},{"latitude":"34.8079866","longitude":"-82.2817672","name":"QT [Auto Diesel]-Greenville,SC","address":"1015 E Butler Rd, Greenville,SC 29607, Store No 1135|864-987-1823"},{"latitude":"34.820343","longitude":"-82.2816925","name":"QT [Auto Diesel]-Greenville,SC","address":"1460 Woodruff Rd, Greenville,SC 29607, Store No 1134|864-286-1296"},{"latitude":"34.801358","longitude":"-82.4242","name":"QT [Auto Diesel]-Greenville,SC","address":"1509 Grove Rd, Greenville,SC 29605, Store No 1145|864-269-5171"},{"latitude":"34.882793","longitude":"-82.356409","name":"QT [Auto Diesel]-Greenville,SC","address":"2048 Wade Hampton Blvd, Greenville,SC 29615, Store No 1104|864-292-0570"},{"latitude":"34.862889","longitude":"-82.278725","name":"QT [Auto Diesel]-Greenville,SC","address":"2701 Pelham Rd, Greenville,SC 29615, Store No 1119|864-288-2466"},{"latitude":"34.786067","longitude":"-82.376702","name":"QT [Auto Diesel]-Greenville,SC","address":"4701 Augusta Rd, Greenville,SC 29605, Store No 1133|864-288-2466"},{"latitude":"34.8561529","longitude":"-82.3564026","name":"QT [Auto Diesel]-Greenville,SC","address":"548 N Pleasantburg Dr, Greenville,SC 29607, Store No 1105|864-277-6100"},{"latitude":"34.8515403","longitude":"-82.4507343","name":"QT [Auto Diesel]-Greenville,SC","address":"6050 Whitehorse Rd, Greenville,SC 29611, Store No 1146|864-250-2802"},{"latitude":"34.888963","longitude":"-82.468815","name":"QT [Auto Diesel]-Greenville,SC","address":"7840 White Horse Rd, Greenville,SC 29611, Store No 1115|864-269-4344"},{"latitude":"34.94193","longitude":"-82.259139","name":"QT [Auto Diesel]-Greer,SC","address":"1302 W Wade Hampton Blvd, Greer,SC 29650, Store No 1113|864-246-8640"},{"latitude":"34.889672","longitude":"-82.1570257","name":"QT [Auto Diesel]-Greer,SC","address":"1840 Hwy 101 S, Greer,SC 29651, Store No 1110|864-879-0830"},{"latitude":"34.8758311","longitude":"-82.225481","name":"QT [Auto Diesel]-Greer,SC","address":"2414 S Hwy 14, Greer,SC 29650, Store No 1114|864-879-1125"},{"latitude":"34.9537258","longitude":"-80.8507778","name":"QT [Auto Diesel]-Indian Land,SC","address":"8320 Charlotte Hwy, Indian Land,SC 29707, Store No 1049|864-877-6596"},{"latitude":"34.9984758","longitude":"-80.8554747","name":"QT [Auto Diesel]-Indian Land,SC","address":"9565 Charlotte Hwy, Indian Land,SC 29707, Store No 1048|803-548-3183"},{"latitude":"34.955118","longitude":"-82.128642","name":"QT [Auto Diesel]-Lyman,SC","address":"12203 Greenville Hwy, Lyman,SC 29365, Store No 1118|803-547-7148"},{"latitude":"34.776605","longitude":"-82.3163579","name":"QT [Auto Diesel]-Mauldin,SC","address":"304 W Butler Rd, Mauldin,SC 29662, Store No 1144|864-439-6006"},{"latitude":"34.632447","longitude":"-82.782114","name":"QT [Auto Diesel]-Pendleton,SC","address":"7620 Hwy 76, Pendleton,SC 29670, Store No 1127|864-288-4003"},{"latitude":"34.7880075","longitude":"-82.4805967","name":"QT [Auto Diesel]-Piedmont,SC","address":"3450 Hwy 153, Piedmont,SC 29673, Store No 1130|864-295-0785"},{"latitude":"34.9122233","longitude":"-80.978394","name":"QT [Auto Diesel]-Rock Hill,SC","address":"1169 Anderson Rd S Rock Hill,SC 29730, Store No 1092|803-329-2531"},{"latitude":"34.975999","longitude":"-80.992392","name":"QT [Auto Diesel]-Rock Hill,SC","address":"1195 Riverview Rd, Rock Hill,SC 29732, Store No 1099|803-817-7641"},{"latitude":"34.9768219","longitude":"-80.9871368","name":"QT [Auto Diesel]-Rock Hill,SC","address":"3836 Celanese Rd, Rock Hill,SC 29730, Store No 1061|803-980-1696"},{"latitude":"34.9554434","longitude":"-80.9963202","name":"QT [Auto Diesel]-Rock Hill,SC","address":"664 Anderson Rd N, Rock Hill,SC 29730, Store No 1098|803-327-0006"},{"latitude":"34.9322339","longitude":"-81.0555509","name":"QT [Auto Diesel]-Rock Hill,SC","address":"990 S Cherry Rd, Rock Hill,SC 29732, Store No 1091|803-981-9249"},{"latitude":"34.7043749","longitude":"-82.2420725","name":"QT [Auto Diesel]-Simpsonville,SC","address":"200 Harrison Bridge Rd, Simpsonville,SC,29680, Store No 1138|864-962-0704"},{"latitude":"35.019525","longitude":"-81.897686","name":"QT [Auto Diesel]-Spartanburg,SC","address":"21 Fairview Church Rd, Spartanburg,SC 29303, Store No 1129|864-582-5900"},{"latitude":"34.920353","longitude":"-81.992642","name":"QT [Auto Diesel]-Spartanburg,SC","address":"2313 Reidville Rd, Spartanburg,SC 29301, Store No 1126|864-576-2315"},{"latitude":"34.95428","longitude":"-81.921703","name":"QT [Auto Diesel]-Spartanburg,SC","address":"448 E Saint John St, Spartanburg,SC 29302, Store No 1132|864-585-0784"},{"latitude":"34.945442","longitude":"-81.943507","name":"QT [Auto Diesel]-Spartanburg,SC","address":"489 W Main St, Spartanburg,SC 29301, Store No 1131|864-585-5544"},{"latitude":"34.985746","longitude":"-81.973031","name":"QT [Auto Diesel]-Spartanburg,SC","address":"7114 Lone Oak Rd, Spartanburg,SC 29303, Store No 1111|864-503-9404"},{"latitude":"32.415279","longitude":"-97.2289289","name":"QT [Auto Diesel]-Alvarado,TX","address":"6940 E Hwy 67, Alvarado,TX 76009, Store No 955|817-783-3225"},{"latitude":"32.756367","longitude":"-97.114409","name":"QT [Auto Diesel]-Arlington,TX","address":"1425 N Cooper St, Arlington,TX 76011, Store No 876|817-795-1661"},{"latitude":"32.763045","longitude":"-97.077854","name":"QT-Arlington,TX","address":"2023 E Lamar Blvd, Arlington,TX 76006, Store No 947|817-795-1659"},{"latitude":"32.73602","longitude":"-97.147698","name":"QT-Arlington,TX","address":"2425 W Division, Arlington,TX 76012, Store No 857|817-460-7837"},{"latitude":"32.648861","longitude":"-97.064475","name":"QT-Arlington,TX","address":"2451 E Sublett Rd, Arlington,TX 76018, Store No 986|817-472-7900"},{"latitude":"32.68891","longitude":"-97.115164","name":"QT-Arlington,TX","address":"3532 Matlock Rd, Arlington,TX 76015, Store No 854|817-557-2045"},{"latitude":"32.675308","longitude":"-97.092652","name":"QT-Arlington,TX","address":"4201 S Collins St, Arlington,TX 76018, Store No 870|817-419-7476"},{"latitude":"32.669764","longitude":"-97.204325","name":"QT [Auto Diesel]-Arlington,TX","address":"4930 Little Rd, Arlington,TX 76017, Store No 856|817-483-5338"},{"latitude":"32.655137","longitude":"-97.134576","name":"QT [Auto Diesel]-Arlington,TX","address":"5601 S Cooper St, Arlington,TX 76017, Store No 880|817-468-5454"},{"latitude":"32.62674","longitude":"-97.115807","name":"QT-Arlington,TX","address":"701 W Harris Rd, Arlington,TX 76002, Store No 950|817-557-8900"},{"latitude":"32.739065","longitude":"-97.097271","name":"QT-Arlington,TX","address":"901 E Division, Arlington,TX 76011, Store No 859|817-275-3245"},{"latitude":"32.736873","longitude":"-96.610474","name":"QT [Auto Diesel]-Balch Springs,TX","address":"12631 Lake June Rd, Balch Springs,TX 75180, Store No 982|972-288-3177"},{"latitude":"32.841556","longitude":"-97.133735","name":"QT-Bedford,TX","address":"2201 Central Dr, Bedford,TX 76021, Store No 863|817-358-8882"},{"latitude":"32.673187","longitude":"-97.469317","name":"QT [Auto Diesel]-Benbrook,TX","address":"9201 Benbrook Blvd, Benbrook,TX 76126, Store No 939|817-249-2983"},{"latitude":"32.544393","longitude":"-97.326768","name":"QT-Burleson,TX","address":"213 Nw Renfro, Burleson,TX 76028, Store No 956|817-295-2864"},{"latitude":"32.498083","longitude":"-97.367785","name":"QT [Auto Diesel]-Burleson,TX","address":"2690 SW Wilshire Blvd, Burleson,TX 76028, Store No 958|817-447-2177"},{"latitude":"33.021384","longitude":"-96.932127","name":"QT-Carrollton,TX","address":"1528 W Hebron Pkwy W, Carrollton,TX 75010, Store No 930|972-492-7139"},{"latitude":"32.936469","longitude":"-96.993463","name":"QT [Auto Diesel]-Coppell,TX","address":"1484 S Beltline Rd, Coppell,TX 75019, Store No 969|972-393-6201"},{"latitude":"32.895088","longitude":"-96.713076","name":"QT [Auto Diesel]-Dallas,TX","address":"10101 Royal Lane, Dallas,TX 75238, Store No 979|214-553-1085"},{"latitude":"32.863764","longitude":"-96.673027","name":"QT-Dallas,TX","address":"12100 E Northwest Hwy, Dallas,TX 75218, Store No 902|214-321-8550"},{"latitude":"33.00762","longitude":"-96.795078","name":"QT [Auto Diesel]-Dallas,TX","address":"19020 Preston Rd, Dallas,TX 75252, Store No 891|972-867-0572"},{"latitude":"32.997152","longitude":"-96.86273","name":"QT-Dallas,TX","address":"2929 Frankford Rd, Dallas,TX 75287, Store No 932|972-306-9738"},{"latitude":"32.909334","longitude":"-96.878441","name":"QT-Dallas,TX","address":"2968 Forest Ln, Dallas,TX 75234, Store No 903|972-484-3881"},{"latitude":"32.833797","longitude":"-96.837274","name":"QT-Dallas,TX","address":"3230 W Mockingbird Lane, Dallas,TX 75235, Store No 936|214-352-3847"},{"latitude":"32.6853119","longitude":"-96.8241399","name":"QT [Auto Diesel]-Dallas,TX","address":"4767 S RL Thornton, Dallas,TX 75232, Store No 971|214-374-1413"},{"latitude":"32.740955","longitude":"-96.824936","name":"QT [Auto Diesel]-Dallas,TX","address":"511 S Zang Blvd, Dallas,TX 75208, Store No 975|214-941-4827"},{"latitude":"32.7497496","longitude":"-96.9211186","name":"QT [Auto Diesel]-Dallas,TX","address":"5909 W Davis St, Dallas,TX 75211, Store No 970|214-623-0828"},{"latitude":"32.933713","longitude":"-96.802936","name":"QT [Auto Diesel]-Dallas,TX","address":"6055 Alpha Rd, Dallas,TX 75240, Store No 1900|972-239-7400"},{"latitude":"32.861794","longitude":"-96.75115","name":"QT-Dallas,TX","address":"6060 Skillman Rd, Dallas,TX 75231, Store No 904|214-373-1800"},{"latitude":"32.875372","longitude":"-96.761876","name":"QT-Dallas,TX","address":"7104 Greenville Ave, Dallas,TX 75231, Store No 933|214-750-6249"},{"latitude":"32.812381","longitude":"-96.726952","name":"QT-Dallas,TX","address":"7818 Garland Rd, Dallas,TX 75214, Store No 972|214-321-0222"},{"latitude":"32.644241","longitude":"-96.857013","name":"QT [Auto Diesel]-Dallas,TX","address":"8414 S Hampton Rd, Dallas,TX 75232, Store No 923|972-228-4830"},{"latitude":"32.909082","longitude":"-96.730038","name":"QT [Auto Diesel]-Dallas,TX","address":"9500 Forest Ln, Dallas,TX 75243, Store No 900|214-341-1163"},{"latitude":"32.677621","longitude":"-97.14968","name":"QT-Dalworthington Garde,TX","address":"4200 S Bowen Rd, Dalworthington Garde,TX 76016, Store No 850|817-375-0742"},{"latitude":"33.230011","longitude":"-97.175842","name":"QT [Auto Diesel]-Denton,TX","address":"3113 W University, Denton,TX 76207, Store No 912|940-891-0107"},{"latitude":"33.206329","longitude":"-97.13543","name":"QT-Denton,TX","address":"321 W Eagle Dr, Denton,TX 76201, Store No 905|940-381-4916"},{"latitude":"33.233451","longitude":"-97.085533","name":"QT [Auto Diesel]-Denton,TX","address":"3300 E University, Denton,TX 76208, Store No 899|940-382-1478"},{"latitude":"33.174393","longitude":"-97.090179","name":"QT-Denton,TX","address":"3701 Ih 35 South, Denton,TX 76210, Store No 911|940-380-8738"},{"latitude":"32.589771","longitude":"-96.826059","name":"QT [Auto Diesel]-Desoto,TX","address":"1235 E Beltline Rd, Desoto,TX 75115, Store No 974|972-230-4838"},{"latitude":"32.661798","longitude":"-96.906402","name":"QT-Duncanville,TX","address":"102 E Camp Wisdom, Duncanville,TX 75116, Store No 924|972-283-1549"},{"latitude":"32.642603","longitude":"-96.891593","name":"QT [Auto Diesel]-Duncanville,TX","address":"925 S Cockrell Hill, Duncanville,TX 75137, Store No 925|972-708-9909"},{"latitude":"32.335434","longitude":"-96.6155014","name":"QT [Auto Diesel]-Ennis,TX","address":"100 N I-45, Ennis,TX 75119, Store No 989|972-875-1206"},{"latitude":"32.836344","longitude":"-97.119534","name":"QT [Auto Diesel]-Euless,TX","address":"105 Westpark Way, Euless,TX 76040, Store No 887|817-358-6921"},{"latitude":"32.852134","longitude":"-97.099835","name":"QT-Euless,TX","address":"1100 N Industrial Blvd, Euless,TX 76039, Store No 867|817-571-7569"},{"latitude":"32.828041","longitude":"-97.099857","name":"QT-Euless,TX","address":"700 S Industrial Blvd, Euless,TX 76040, Store No 869|817-283-2730"},{"latitude":"32.90617","longitude":"-96.918774","name":"QT [Auto Diesel]-Farmers Branch,TX","address":"1600 LBJ Fwy, Farmers Branch,TX 75234, Store No 999|972-556-9755"},{"latitude":"32.662101","longitude":"-97.280815","name":"QT [Auto Diesel]-Forest Hill,TX","address":"6549 Wichita St, Forest Hill,TX 76119, Store No 1875|817-531-4500"},{"latitude":"32.627108","longitude":"-97.323224","name":"QT Travel Center [Auto Diesel]-Fort Worth,TX","address":"101 W Everman Pkwy [I-35 W Exit 42], Fort Worth,TX 76134, Store No 873|817-293-1093"},{"latitude":"32.776626","longitude":"-97.345683","name":"QT-Fort Worth,TX","address":"109 E Northside Dr, Fort Worth,TX 76164, Store No 884|817-625-4994"},{"latitude":"32.732663","longitude":"-97.33131","name":"QT [Auto Diesel]-Fort Worth,TX","address":"1101 Hemphill St, Fort Worth,TX 76104, Store No 885|817-334-7901"},{"latitude":"32.66071","longitude":"-97.236238","name":"QT [Auto Diesel]-Fort Worth,TX","address":"1225 W Kennedale Pkwy, Fort Worth,TX 76140, Store No 874|817-563-4858"},{"latitude":"32.578679","longitude":"-97.317975","name":"QT [Auto Diesel]-Fort Worth,TX","address":"12345 South Fwy, Fort Worth,TX 76028, Store No 957|817-615-8003"},{"latitude":"32.64911","longitude":"-97.347905","name":"QT-Fort Worth,TX","address":"1900 Alta Mesa Blvd, Fort Worth,TX 76134, Store No 871|817-615-8609"},{"latitude":"32.795174","longitude":"-97.325625","name":"QT [Auto Diesel]-Fort Worth,TX","address":"2501 NE 28th St, Fort Worth,TX 76106, Store No 882|817-378-8410"},{"latitude":"32.733325","longitude":"-97.441665","name":"QT [Auto Diesel]-Fort Worth,TX","address":"2800 Alta Mere Dr, Fort Worth,TX 76116, Store No 881|817-732-4646"},{"latitude":"32.9334571","longitude":"-97.3133446","name":"QT [Auto Diesel]-Fort Worth,TX","address":"3201 Golden Triangle Blvd, Fort Worth,TX 76177, Store No 965|817-741-6737"},{"latitude":"32.764619","longitude":"-97.478915","name":"QT-Fort Worth,TX","address":"324 Clifford Center Dr, Fort Worth,TX 76108, Store No 877|817-367-2578"},{"latitude":"32.6738045","longitude":"-97.3821259","name":"QT [Auto Diesel]-Fort Worth,TX","address":"5101 Grandbury Rd, Fort Worth,TX 76133, Store No 954|817-294-5239"},{"latitude":"32.666398","longitude":"-97.420269","name":"QT-Fort Worth,TX","address":"5700 Bryant Irvin, Fort Worth,TX 76132, Store No 918|817-292-4853"},{"latitude":"32.754392","longitude":"-97.215479","name":"QT-Fort Worth,TX","address":"6601 Brentwood Stair, Fort Worth,TX 76112, Store No 861|817-457-6789"},{"latitude":"33.15343","longitude":"-96.851982","name":"QT [Auto Diesel]-Frisco,TX","address":"4645 Main St, Frisco,TX 75034, Store No 937|214-872-1656"},{"latitude":"33.1748919","longitude":"-96.8369484","name":"QT [Auto Diesel]-Frisco,TX","address":"5530 Eldorado Pkwy, Frisco,TX 75034, Store No 915|214-494-4306"},{"latitude":"32.912673","longitude":"-96.629789","name":"QT-Garland,TX","address":"131 Lavon Dr, Garland,TX 75040, Store No 938|972-205-0410"},{"latitude":"32.893828","longitude":"-96.665512","name":"QT [Auto Diesel]-Garland,TX","address":"2010 S Shiloh Rd, Garland,TX 75042, Store No 908|972-278-1236"},{"latitude":"32.869108","longitude":"-96.632852","name":"QT-Garland,TX","address":"220 W Centerville Rd, Garland,TX 75041, Store No 901|972-840-3100"},{"latitude":"32.945397","longitude":"-96.665474","name":"QT-Garland,TX","address":"3011 N Shiloh Rd, Garland,TX 75044, Store No 907|972-530-9051"},{"latitude":"32.96143","longitude":"-96.68261","name":"QT-Garland,TX","address":"4906 Jupiter Rd, Garland,TX 75044, Store No 906|972-496-2739"},{"latitude":"32.844764","longitude":"-96.59571","name":"QT-Garland,TX","address":"5825 Broadway Blvd, Garland,TX 75043, Store No 909|972-240-5847"},{"latitude":"32.709357","longitude":"-97.020112","name":"QT-Grand Prairie,TX","address":"1005 W Pioneer Pkwy, Grand Prairie,TX 75051, Store No 853|972-606-8890"},{"latitude":"32.7631838","longitude":"-96.9948444","name":"QT [Auto Diesel]-Grand Prairie,TX","address":"1110 N Beltline Rd, Grand Prairie,TX 75050, Store No 953|972-262-1171"},{"latitude":"32.742","longitude":"-97.020957","name":"QT [Auto Diesel]-Grand Prairie,TX","address":"1206 W Main St, Grand Prairie,TX 75050, Store No 964|972-504-9179"},{"latitude":"32.785252","longitude":"-97.060955","name":"QT [Auto Diesel]-Grand Prairie,TX","address":"2805 NE Green Oaks Blvd, Grand Prairie,TX 75050, Store No 852|817-640-5019"},{"latitude":"32.680922","longitude":"-97.007374","name":"QT-Grand Prairie,TX","address":"3768 S Carrier Pkwy, Grand Prairie,TX 75052, Store No 921|972-264-9988"},{"latitude":"32.6749029","longitude":"-97.0236567","name":"QT [Auto Diesel]-Grand Prairie,TX","address":"4005 Lake Ridge Pkwy, Grand Prairie,TX 75052, Store No 946|972-522-7668"},{"latitude":"32.931815","longitude":"-97.087801","name":"QT-Grapevine,TX","address":"801 Ira E Woods, Grapevine,TX 64063, Store No 967|817-442-5203"},{"latitude":"33.1007947","longitude":"-96.0722477","name":"QT Travel Center [Auto Diesel]-Greenville,TX","address":"1400 S Joe Ramsey Blvd, Greenville,TX 75402, Store No 983|903-455-0551"},{"latitude":"32.793988","longitude":"-97.290734","name":"QT-Haltom City,TX","address":"2321 N Beach St, Haltom City,TX 76111, Store No 889|817-759-0289"},{"latitude":"32.830013","longitude":"-97.264454","name":"QT-Haltom City,TX","address":"4601 Denton Hwy, Haltom City,TX 76117, Store No 888|817-503-7847"},{"latitude":"32.841761","longitude":"-97.290291","name":"QT-Haltom City,TX","address":"5400 N Beach St, Haltom City,TX 76137, Store No 868|817-849-1126"},{"latitude":"32.809275","longitude":"-97.2069","name":"QT-Hurst,TX","address":"1400 W Hurst Blvd, Hurst,TX 76053, Store No 865|817-284-6446"},{"latitude":"32.840038","longitude":"-97.186107","name":"QT-Hurst,TX","address":"1500 Precinct Line Rd, Hurst,TX 76054, Store No 860|817-282-4627"},{"latitude":"32.631592","longitude":"-96.701961","name":"QT [Auto Diesel]-Hutchins,TX","address":"401 E Wintergreen, Hutchins,TX 78141, Store No 973|972-225-7500"},{"latitude":"32.8086802","longitude":"-96.9260539","name":"QT [Auto Diesel]-Irving,TX","address":"1501 E SH 356, Irving,TX 75060, Store No 998|972-579-3041"},{"latitude":"32.832578","longitude":"-96.993247","name":"QT [Auto Diesel]-Irving,TX","address":"1718 N Beltline Rd, Irving,TX 75061, Store No 995|972-986-7576"},{"latitude":"32.8385201","longitude":"-96.9517593","name":"QT [Auto Diesel]-Irving,TX","address":"2215 N O'Conner Rd, Irving,TX 75062, Store No 992|972-252-2467"},{"latitude":"32.872547","longitude":"-96.975549","name":"QT [Auto Diesel]-Irving,TX","address":"4301 N Beltine Rd, Irving,TX 75038, Store No 994|972-252-3791"},{"latitude":"32.925216","longitude":"-97.254339","name":"QT-Keller,TX","address":"700 S Main St [Hwy 377], Keller,TX 76248, Store No 862|817-745-8747"},{"latitude":"32.923729","longitude":"-97.186047","name":"QT-Keller,TX","address":"8836 Davis Blvd, Keller,TX 76248, Store No 968|817-488-1719"},{"latitude":"33.129728","longitude":"-97.036113","name":"QT [Auto Diesel]-Lake Dallas,TX","address":"302 Swisher Rd, Lake Dallas,TX 75065, Store No 940|940-497-4175"},{"latitude":"32.809593","longitude":"-97.421616","name":"QT-Lake Worth,TX","address":"6249 Lake Worth Blvd, Lake Worth,TX 76135, Store No 879|817-237-5901"},{"latitude":"32.604452","longitude":"-96.819994","name":"QT [Auto Diesel]-Lancaster,TX","address":"3311 W Pleasant Run Rd, Lancaster,TX 74146, Store No 1976|972-224-0505"},{"latitude":"32.639094","longitude":"-96.805665","name":"QT [Auto Diesel]-Lancaster,TX","address":"3900 N Houston School Rd, Lancaster,TX 75134, Store No 922|972-228-5923"},{"latitude":"33.00611","longitude":"-97.015039","name":"QT-Lewisville,TX","address":"1035 W Round Grove Rd, Lewisville,TX 75067, Store No 941|972-315-5107"},{"latitude":"33.071553","longitude":"-97.024219","name":"QT [Auto Diesel]-Lewisville,TX","address":"1231 Justin Rd, Lewisville,TX 75077, Store No 942|972-317-8717"},{"latitude":"33.020025","longitude":"-96.993189","name":"QT-Lewisville,TX","address":"1701 S State Hwy 121 Bus, Lewisville,TX 75067, Store No 927|972-221-0410"},{"latitude":"32.998634","longitude":"-96.997482","name":"QT [Auto Diesel]-Lewisville,TX","address":"801 E SH121 Bus, Lewisville,TX 75057, Store No 928|972-436-7109"},{"latitude":"33.169579","longitude":"-96.88924","name":"QT [Auto Diesel]-Little Elm,TX","address":"2181 Fm 423, Little Elm,TX 75068, Store No 920|214-872-3755"},{"latitude":"32.567377","longitude":"-97.118805","name":"QT [Auto Diesel]-Mansfield,TX","address":"1590 E Broad St, Mansfield,TX 76063, Store No 952|682-518-1859"},{"latitude":"32.59194","longitude":"-97.15049","name":"QT-Mansfield,TX","address":"1601 Fm 157, Mansfield,TX 76063, Store No 951|817-539-0952"},{"latitude":"33.179608","longitude":"-96.618926","name":"QT [Auto Diesel]-Mckinney,TX","address":"1700 S Mcdonald, Mckinney,TX 75069, Store No 916|214-585-4844"},{"latitude":"33.229268","longitude":"-96.62894","name":"QT Travel Center [Auto Diesel]-Mckinney,TX","address":"1750 Wilmeth Rd, Mckinney,TX 75071, Store No 963|214-491-4909"},{"latitude":"33.216642","longitude":"-96.644427","name":"QT [Auto Diesel]-Mckinney,TX","address":"2285 W University Dr, Mckinney,TX 75071, Store No 919|972-548-9775"},{"latitude":"33.140818","longitude":"-96.692142","name":"QT [Auto Diesel]-Mckinney,TX","address":"4151 Stacy Rd, Mckinney,TX 75070, Store No 913|214-383-5161"},{"latitude":"33.129698","longitude":"-96.732868","name":"QT-Mckinney,TX","address":"7349 S Custer Rd, Mckinney,TX 75070, Store No 914|214-383-2984"},{"latitude":"32.769179","longitude":"-96.620142","name":"QT [Auto Diesel]-Mesquite,TX","address":"1610 W Scyene Rd, Mesquite,TX 75149, Store No 985|972-285-1600"},{"latitude":"32.8244645","longitude":"-96.6227629","name":"QT [Auto Diesel]-Mesquite,TX","address":"4451 N Galloway Ave, Mesquite,TX 75150, Store No 980|972-686-2262"},{"latitude":"32.792782","longitude":"-96.684586","name":"QT [Auto Diesel]-Mesquite,TX","address":"5500 S Buckner Blvd, Mesquite,TX 75149, Store No 987|214-321-3773"},{"latitude":"32.861152","longitude":"-97.209773","name":"QT-North Richland Hills,TX","address":"6345 Davis Blvd, North Richland Hills,TX 76180, Store No 855|817-788-9081"},{"latitude":"32.839817","longitude":"-97.239616","name":"QT [Auto Diesel]-North Richland Hills,TX","address":"6640 NE Loop 820, North Richland Hills,TX 76108, Store No 878|817-485-3900"},{"latitude":"32.828854","longitude":"-97.221085","name":"QT [Auto Diesel]-North Richland Hills,TX","address":"7541 Blvd 26, North Richland Hills,TX 76180, Store No 851|817-581-9613"},{"latitude":"33.025196","longitude":"-97.2729606","name":"QT [Auto Diesel]-Northlake,TX","address":"8141 Gasoline Alley, Northlake,TX 76262, Store No 1863|682-831-1079"},{"latitude":"33.056871","longitude":"-96.689261","name":"QT-Plano,TX","address":"1100 E Spring Creek Pkwy, Plano,TX 75074, Store No 892|972-424-4967"},{"latitude":"33.015851","longitude":"-96.787216","name":"QT-Plano,TX","address":"4608 W Plano Pkwy, Plano,TX 75093, Store No 893|972-312-0410"},{"latitude":"33.060062","longitude":"-96.795877","name":"QT-Plano,TX","address":"6400 Preston Rd, Plano,TX 75024, Store No 934|972-618-8752"},{"latitude":"33.02771","longitude":"-96.839212","name":"QT-Plano,TX","address":"6425 W Park Blvd, Plano,TX 75093, Store No 897|972-378-3882"},{"latitude":"33.006742","longitude":"-96.699181","name":"QT-Plano,TX","address":"650 K Ave, Plano,TX 75074, Store No 898|972-423-5071"},{"latitude":"33.010186","longitude":"-96.682245","name":"QT-Plano,TX","address":"900 Jupiter Rd, Plano,TX 75074, Store No 896|972-509-9592"},{"latitude":"33.028027","longitude":"-96.712946","name":"QT-Plano,TX","address":"901 W Park, Plano,TX 75075, Store No 890|972-312-1868"},{"latitude":"33.108639","longitude":"-96.768257","name":"QT [Auto Diesel]-Plano,TX","address":"9635 Coit Rd, Plano,TX 75024, Store No 910|214-872-2322"},{"latitude":"32.950939","longitude":"-96.737288","name":"QT [Auto Diesel]-Richardson,TX","address":"522 W Beltline Rd, Richardson,TX 75080, Store No 960|972-907-3667"},{"latitude":"32.786948","longitude":"-97.385203","name":"QT [Auto Diesel]-River Oaks,TX","address":"2601 Jacksboro Hwy, River Oaks,TX 76114, Store No 984|817-740-0881"},{"latitude":"32.909664","longitude":"-96.45108","name":"QT [Auto Diesel]-Rockwall,TX","address":"2012 S Goliad St, Rockwall,TX 75087, Store No 935|972-722-2885"},{"latitude":"32.908554","longitude":"-96.586074","name":"QT-Rowlett,TX","address":"1900 Lakeview Pkwy, Rowlett,TX 75088, Store No 931|972-475-9363"},{"latitude":"32.9079151","longitude":"-96.5553463","name":"QT [Auto Diesel]-Rowlett,TX","address":"4901 Lakeview Pkwy, Rowlett,TX 75089, Store No 990|972-412-8249"},{"latitude":"32.847657","longitude":"-97.343268","name":"QT [Auto Diesel]-Saginaw,TX","address":"1100 S Blue Mound, Saginaw,TX 76131, Store No 988|817-306-5765"},{"latitude":"32.938048","longitude":"-97.105255","name":"QT [Auto Diesel]-Southlake,TX","address":"2905 E Southlake Blvd, Southlake,TX 76092, Store No 858|817-481-3995"},{"latitude":"32.7069794","longitude":"-96.2780334","name":"QT [Auto Diesel]-Terrell,TX","address":"1619 State Hwy 34 S, Terrell,TX 75160, Store No 993|972-551-3404"},{"latitude":"33.078588","longitude":"-96.892605","name":"QT-The Colony,TX","address":"4850 Main St, The Colony,TX 75056, Store No 917|972-624-1031"},{"latitude":"32.881137","longitude":"-97.260754","name":"QT-Watauga,TX","address":"7500 Denton Hwy, Watauga,TX 76148, Store No 864|817-498-6204"},{"latitude":"32.459186","longitude":"-96.843487","name":"QT Travel Center [Auto Diesel]-Waxahachie,TX","address":"5400 N I-35 E, Waxahachie,TX 75165, Store No 943|972-937-2233"},{"latitude":"32.729822","longitude":"-97.820322","name":"QT [Auto Diesel]-Weatherford,TX","address":"2001 S Bowie Dr, Weatherford,TX 76086, Store No 949|817-594-7570"},{"latitude":"33.02792","longitude":"-97.211659","name":"QT [Auto Diesel]-Westlake,TX","address":"2301 N Hwy 377, Westlake,TX 76262, Store No 966|817-491-0504"},{"latitude":"32.75957","longitude":"-97.421501","name":"QT-Westworth Village,TX","address":"6301 Westworth Blvd, Westworth Village,TX 76114, Store No 866|817-731-6048"},{"latitude":"33.011034","longitude":"-96.596464","name":"QT-Wylie,TX","address":"3459 FM 544, Wylie,TX 75098, Store No 894|972-442-9587"}]