[{"latitude":"33.2662","longitude":"-86.81043","name":"Staples - 3552 Pelham Pkwy; Pelham","address":" AL 35124>205-621-0263"},{"latitude":"33.59689","longitude":"-86.64716","name":"Staples - 1905 Edwards Lake Rd; Birmingham","address":" AL 35235>205-661-3214"},{"latitude":"33.42696","longitude":"-86.71223","name":"Staples - 4614 Hwy 280; Birmingham","address":" AL 35242>205-980-0596"},{"latitude":"34.55983","longitude":"-87.00027","name":"Staples - 817 Beltline Rd; Decatur","address":" AL 35603>256-353-0373"},{"latitude":"34.78573","longitude":"-86.95437","name":"Staples - 1036 Hwy 72 East; Athens","address":" AL 35611>256-233-1840"},{"latitude":"34.74195","longitude":"-86.60225","name":"Staples - 1201 N Memorial Pkwy; Huntsville","address":" AL 35801>256-536-0526"},{"latitude":"34.64896","longitude":"-86.5714","name":"Staples - 9032A S Memorial Pkwy; Huntsville","address":" AL 35802>256-883-3366"},{"latitude":"34.30243","longitude":"-86.27641","name":"Staples - 11468 Hwy 431 S; Guntersville","address":" AL 35976>256-878-1592"},{"latitude":"30.60578","longitude":"-87.89619","name":"Staples - 1802 US Hwy 98; Daphne","address":" AL 36526>251-621-0029"},{"latitude":"34.21267","longitude":"-91.97044","name":"Staples - 2910 E Harding Blvd; Pine Bluff","address":" AR 71601>870-534-7600"},{"latitude":"35.087189","longitude":"-92.411307","name":"Staples - 640 Elsinger Blvd; Conway","address":" AR 72032>501-513-6954"},{"latitude":"34.75197","longitude":"-92.41042","name":"Staples - 12309 Chenal Pkwy; Little Rock","address":" AR 72211>501-225-2773"},{"latitude":"36.356","longitude":"-92.33945","name":"Staples - 34 Staples Dr; Mountain Home","address":" AR 72653>870-492-2321"},{"latitude":"36.33538","longitude":"-94.17419","name":"Staples - 4021 W Walnut St; Rogers","address":" AR 72758>479-636-0285"},{"latitude":"35.27883","longitude":"-93.09301","name":"Staples - 89 SR 331 N; Russellville","address":" AR 72802>479-858-6428"},{"latitude":"35.362868","longitude":"-94.369175","name":"Staples - 5711 Rogers Ave; Fort Smith","address":" AR 72903>479-452-3946"},{"latitude":"33.4876","longitude":"-112.073","name":"Staples - 106 W Osborn; Phoenix","address":" AZ 85013>602-248-8122"},{"latitude":"33.5088","longitude":"-112.043","name":"Staples - 1801 E Camelback Rd; Phoenix","address":" AZ 85016>602-234-0404"},{"latitude":"33.71081","longitude":"-112.11314","name":"Staples - 2501 W Happy Valley Rd; Phoenix","address":" AZ 85027>623-580-1633"},{"latitude":"33.5827","longitude":"-111.977","name":"Staples - N 10815 Tatum Blvd; Paradise Valley","address":" AZ 85028>480-948-0202"},{"latitude":"33.582","longitude":"-112.12","name":"Staples - 2760 W Peoria Ave; Phoenix","address":" AZ 85029>602-863-3688"},{"latitude":"33.250495","longitude":"-111.628509","name":"Staples - 21168 E Ocotillo Rd; Queen Creek","address":" AZ 85142>480-358-4979"},{"latitude":"33.45097","longitude":"-111.73411","name":"Staples - 4535 E McKellips Rd; Mesa","address":" AZ 85215>480-641-5302"},{"latitude":"33.37845","longitude":"-111.81262","name":"Staples - 865 E Baseline Rd; Gilbert","address":" AZ 85233>480-926-1477"},{"latitude":"33.24891","longitude":"-111.83826","name":"Staples - 4240 S Arizona Ave; Chandler","address":" AZ 85248>480-883-9893"},{"latitude":"33.28291","longitude":"-111.79079","name":"Staples - 2840 E Germann Rd; Chandler","address":" AZ 85249>480-722-0764"},{"latitude":"33.4878","longitude":"-111.926","name":"Staples - 3550 N Goldwater Blvd; Scottsdale","address":" AZ 85251>480-970-1100"},{"latitude":"33.627551","longitude":"-111.893359","name":"Staples - 15657 N Hayden Rd; Scottsdale","address":" AZ 85260>480-607-5024"},{"latitude":"33.408999","longitude":"-111.925767","name":"Staples - 914 E Broadway Rd; Tempe","address":" AZ 85282>480-824-0818"},{"latitude":"33.350746","longitude":"-111.956373","name":"Staples - 1110 W Elliot Ave; Tempe","address":" AZ 85284>480-491-5158"},{"latitude":"33.28115","longitude":"-111.791821","name":"Staples - 2840 E Germann Rd; Chandler","address":" AZ 85286>480-722-0764"},{"latitude":"33.5099","longitude":"-112.154","name":"Staples - 4350 W Camelback Rd; Glendale","address":" AZ 85301>623-934-0004"},{"latitude":"32.6978","longitude":"-114.62","name":"Staples - 101 W 16th St; Yuma","address":" AZ 85364>928-329-9899"},{"latitude":"33.637194","longitude":"-112.226787","name":"Staples - 7865 W Bell Rd; Peoria","address":" AZ 85382>623-878-4411"},{"latitude":"33.466506","longitude":"-112.387802","name":"Staples - 1755 N Pebblecreek Pkwy; Goodyear","address":" AZ 85395>623-535-0798"},{"latitude":"31.55558","longitude":"-110.2552","name":"Staples - 4299 E Hwy 90; Sierra Vista","address":" AZ 85635>520-452-1000"},{"latitude":"35.1743","longitude":"-111.666","name":"Staples - 2625 N Woodlands Village Blvd; Flagstaff","address":" AZ 86001>928-214-8424"},{"latitude":"34.5452","longitude":"-112.468","name":"Staples - 186 E Sheldon St; Prescott","address":" AZ 86301>928-776-0041"},{"latitude":"34.864862","longitude":"-111.801269","name":"Staples - 2350 W Hwy 89A; Sedona","address":" AZ 86336>928-282-2576"},{"latitude":"35.21964","longitude":"-114.03305","name":"Staples - 3320 N Stockton Hill Rd  Bldg C; Kingman","address":" AZ 86401>928-692-2125"},{"latitude":"34.50266","longitude":"-114.3458","name":"Staples - 1851 Kiowa Ave; Lake Havasu","address":" AZ 86404>928-505-1101"},{"latitude":"34.0076","longitude":"-118.337449","name":"Staples - 3701 W Santa Rosalia Dr; Los Angeles","address":" CA 90008>323-293-2278"},{"latitude":"34.03629","longitude":"-118.271","name":"Staples - 1701 S Figueroa; Los Angeles","address":" CA 90015>213-746-6330"},{"latitude":"34.063824","longitude":"-118.292563","name":"Staples - 3223 W 6th St; Los Angeles","address":" CA 90020>213-738-9837"},{"latitude":"34.04948","longitude":"-118.43491","name":"Staples - 10830 W Santa Monica Blvd; Los Angeles","address":" CA 90025>310-441-1734"},{"latitude":"34.0332","longitude":"-118.454","name":"Staples - 2052 Bundy Dr; W Los Angeles","address":" CA 90025>310-826-0442"},{"latitude":"34.0976","longitude":"-118.331","name":"Staples - 6450 Sunset Blvd; Hollywood","address":" CA 90028>323-467-2155"},{"latitude":"34.09058","longitude":"-118.28967","name":"Staples - 4641 W Santa Monica Blvd; Los Angeles","address":" CA 90029>323-669-7583"},{"latitude":"34.0625","longitude":"-118.347","name":"Staples - 5407 Wilshire Blvd; Los Angeles","address":" CA 90036>323-965-5240"},{"latitude":"33.958","longitude":"-118.39476","name":"Staples - 8704 S Sepulveda Blvd; Westchester","address":" CA 90045>310-342-5113"},{"latitude":"34.026236","longitude":"-118.432923","name":"Staples - 11341 National Blvd; Los Angeles","address":" CA 90064>310-445-4041"},{"latitude":"34.1152","longitude":"-118.247","name":"Staples - 3360 N San Fernando Rd; Glendale","address":" CA 90065>323-256-2409"},{"latitude":"33.879796","longitude":"-118.220532","name":"Staples - 203 Towne Center Dr; Compton","address":" CA 90220>310.885.0348"},{"latitude":"33.92634","longitude":"-118.12764","name":"Staples - 12070 Lakewood Blvd; Downey","address":" CA 90242>562-803-6377"},{"latitude":"33.893562","longitude":"-118.287191","name":"Staples - 701 West Redondo Beach Blvd; Gardena","address":" CA 90247>310-324-1495"},{"latitude":"33.98847","longitude":"-118.21336","name":"Staples - 3090 E Slauson Ave; Hungtington","address":" CA 90255>323-277-3706"},{"latitude":"33.9943","longitude":"-118.454","name":"Staples - 1501 Lincoln Blvd; Venice","address":" CA 90291>310-577-6740"},{"latitude":"33.94587","longitude":"-118.33678","name":"Staples - 3451 W Century Blvd; Inglewood","address":" CA 90303>310-673-6800"},{"latitude":"34.02771","longitude":"-118.48611","name":"Staples - 1610 Wilshire Boulevard; Santa Monica","address":" CA 90403>310-828-7779"},{"latitude":"33.82743","longitude":"-118.35086","name":"Staples - 22025 Hawthorne Blvd; Torrance","address":" CA 90503>310-540-3093"},{"latitude":"33.792","longitude":"-118.334","name":"Staples - 2748 Pacific Coast Hwy; Torrance","address":" CA 90505>310-784-2410"},{"latitude":"33.9627","longitude":"-118.033","name":"Staples - 13550-B Whittier Blvd; Whittier","address":" CA 90605>562-698-2034"},{"latitude":"33.80298","longitude":"-118.0133","name":"Staples - 6816 E Katella Rd; Cypress","address":" CA 90630>714-891-0288"},{"latitude":"33.893571","longitude":"-118.287148","name":"Staples - 1310 South Beach Blvd; LaHabra","address":" CA 90631>562.691.9641"},{"latitude":"33.88715","longitude":"-118.10088","name":"Staples - 10820 Alondra Blvd; Cerritos","address":" CA 90703>562-916-7886"},{"latitude":"33.783215","longitude":"-118.073637","name":"Staples - 12337 Seal Beach Blvd; Seal Beach","address":" CA 90740>562-594-3765"},{"latitude":"33.80814","longitude":"-118.27195","name":"Staples - 250 E Sepulveda Blvd; Carson","address":" CA 90745>310-522-0810"},{"latitude":"33.7869","longitude":"-118.139","name":"Staples - 4600 Pacific Coast Hwy; Long Beach","address":" CA 90804>562-597-1922"},{"latitude":"33.8198","longitude":"-118.185","name":"Staples - 3515 Atlantic Ave; Long Beach","address":" CA 90807>562-427-6477"},{"latitude":"34.1361","longitude":"-117.986","name":"Staples - 1450 S Mountain Ave; Monrovia","address":" CA 91010>626-305-5686"},{"latitude":"34.13153","longitude":"-118.1466","name":"Staples - 875 S Arroyo Pkwy; Pasadena","address":" CA 91105>626-578-3490"},{"latitude":"34.14621","longitude":"-118.0737","name":"Staples - 3660 Colorado Blvd; Pasadena","address":" CA 91107>626-395-0693"},{"latitude":"34.14927","longitude":"-118.247","name":"Staples - 213 N Glendale Ave; Glendale","address":" CA 91206>818-240-2133"},{"latitude":"34.19081","longitude":"-118.93328","name":"Staples - 2725 Teller Rd; Newbury Park","address":" CA 91320>805-498-4371"},{"latitude":"34.26471","longitude":"-118.5012","name":"Staples - 17020 Chatsworth St; Granada Hills","address":" CA 91344>818-831-8095"},{"latitude":"34.38377","longitude":"-118.5714","name":"Staples - 25570 N Old Rd; Valencia","address":" CA 91355>661-286-2700"},{"latitude":"34.15434","longitude":"-118.7926","name":"Staples - 5760 Lindero Canyon Rd; Westlake Village","address":" CA 91362>818-865-9660"},{"latitude":"34.183393","longitude":"-118.603856","name":"Staples - 21825 Erwin St; Woodland Hills","address":" CA 91367>818-577-2632"},{"latitude":"34.18007","longitude":"-118.46368","name":"Staples - 6104 Sepulveda Blvd; Van Nuys","address":" CA 91411>818-908-2360"},{"latitude":"34.19093","longitude":"-118.32899","name":"Staples - 2080 Empire Ave; Burbank","address":" CA 91504>818-238-2928"},{"latitude":"34.1622","longitude":"-118.315","name":"Staples - 1060 W Almeda Ave; Burbank","address":" CA 91506>818-558-3350"},{"latitude":"34.1433","longitude":"-118.407","name":"Staples - 12605 Ventura Blvd; Studio City","address":" CA 91604>818-753-6390"},{"latitude":"34.2017","longitude":"-118.413","name":"Staples - 12807 Sherman Way; N Hollywood","address":" CA 91605>818-503-7960"},{"latitude":"34.0007","longitude":"-117.72","name":"Staples - 4016 Grand Ave; Chino","address":" CA 91710>909-613-0322"},{"latitude":"34.11419","longitude":"-117.8365","name":"Staples - 1391 E Gladstone St; Glendora","address":" CA 91740>909-599-4361"},{"latitude":"33.99263","longitude":"-117.9185","name":"Staples - 17638 E Castleton St; City of Industry","address":" CA 91748>626-839-1739"},{"latitude":"34.110462","longitude":"-117.761435","name":"Staples - 2330 Foothill Blvd; LaVerne","address":" CA 91750>909-450-2340"},{"latitude":"33.97739","longitude":"-117.55356","name":"Staples - 12495 Limonite Ave; Mira Loma","address":" CA 91752>951-360-3110"},{"latitude":"34.03717","longitude":"-118.14705","name":"Staples - 2345 Atlantic Blvd; Monterey Park","address":" CA 91754>323-980-9233"},{"latitude":"34.06992","longitude":"-117.56018","name":"Staples - 921 N Milliken Ave; Ontario","address":" CA 91761>909-987-9336"},{"latitude":"34.08809","longitude":"-117.669","name":"Staples - 300 S Mountain Ave; Upland","address":" CA 91786>909-981-9039"},{"latitude":"34.02651","longitude":"-117.83716","name":"Staples - 21555 Valley Blvd; Walnut","address":" CA 91789>909-594-6379"},{"latitude":"32.5947","longitude":"-117.0353","name":"Staples - 1850 Main Court; Chula Vista","address":" CA 91911>619-421-4777"},{"latitude":"32.7769","longitude":"-117.006","name":"Staples - 8805 Murray Dr; La Mesa","address":" CA 91941>619-469-0734"},{"latitude":"33.13281","longitude":"-117.25948","name":"Staples - 2712 Loker Ave W; Carlsbad","address":" CA 92010>760-476-1476"},{"latitude":"32.73899","longitude":"-116.9411","name":"Staples - 2879 Jamacha Rd; El Cajon","address":" CA 92019>619-670-1094"},{"latitude":"33.11313","longitude":"-117.1017","name":"Staples - 1358 W Valley Pkwy; Escondido","address":" CA 92029>760-781-3930"},{"latitude":"33.18336","longitude":"-117.3391","name":"Staples - 2150 Vista Way; Oceanside","address":" CA 92054>760-754-5110"},{"latitude":"32.93865","longitude":"-117.04608","name":"Staples - 12900 Gregg Blvd; Poway","address":" CA 92064>858-391-1600"},{"latitude":"33.13481","longitude":"-117.17705","name":"Staples - 561 Grand Ave; San Marcos","address":" CA 92069>760-471-5770"},{"latitude":"32.9938","longitude":"-117.259","name":"Staples - 681 San Rodolfo Dr; Solana Beach","address":" CA 92075>858-481-7151"},{"latitude":"33.19778","longitude":"-117.24823","name":"Staples - 235 Vista Village Dr; Vista","address":" CA 92083>760-639-1420"},{"latitude":"32.77144","longitude":"-117.14243","name":"Staples - 1880 Camino de la Reina Park; San Diego","address":" CA 92108>619-725-0770"},{"latitude":"32.7997","longitude":"-117.24","name":"Staples - 1650 Garnet Ave; San Diego","address":" CA 92109>858-490-1700"},{"latitude":"32.75182","longitude":"-117.205","name":"Staples - 3146B Sports Arena Blvd; San Diego","address":" CA 92110>619-523-6005"},{"latitude":"32.8191","longitude":"-117.15","name":"Staples - 4240 Kearny Mesa Rd; Kearny Mesa","address":" CA 92111>858-279-0355"},{"latitude":"32.89289","longitude":"-117.203","name":"Staples - 9420 Scranton Rd; Mira Mesa","address":" CA 92121>858-623-0048"},{"latitude":"32.97934","longitude":"-117.08353","name":"Staples - 11160 Rancho Carmel Dr; Carmel Mtn Ranch","address":" CA 92128>858-675-0426"},{"latitude":"32.769238","longitude":"-115.531518","name":"Staples - 560 E Danenberg Dr; El Centro","address":" CA 92243>760-335-4901"},{"latitude":"33.714847","longitude":"-116.292564","name":"Staples - 78680 Hwy 111; La Quinta","address":" CA 92253>760-564-8957"},{"latitude":"33.7211","longitude":"-116.392","name":"Staples - 72-811 Hwy 111; Palm Desert","address":" CA 92260>760-341-4814"},{"latitude":"33.814324","longitude":"-116.492077","name":"Staples - 5001 Ramon Rd; Palm Springs","address":" CA 92264>760-325-7056"},{"latitude":"34.468792","longitude":"-117.244453","name":"Staples - 19201 A - Bear Valley Rd; Apple Valley","address":" CA 92308>760-961-6472"},{"latitude":"34.106674","longitude":"-117.19496","name":"Staples - 27945 Greenspot Rd; Highland","address":" CA 92346>909-863-1274"},{"latitude":"34.467456","longitude":"-117.35071","name":"Staples - 11930 Amargosa Rd; Victorville","address":" CA 92392>760-955-2288"},{"latitude":"34.03474","longitude":"-117.07004","name":"Staples - 33730 Yucaipa Blvd; Yucaipa","address":" CA 92399>909-797-7711"},{"latitude":"34.06861","longitude":"-117.26263","name":"Staples - 945 E Hospitality Ln; San Bernardino","address":" CA 92408>909-478-9884"},{"latitude":"33.9114","longitude":"-117.461","name":"Staples - 3750 Tyler St; Riverside","address":" CA 92503>951-358-2840"},{"latitude":"33.95729","longitude":"-117.39256","name":"Staples - 6296 Magnolia Ave; Riverside","address":" CA 92506>951-782-2140"},{"latitude":"33.942241","longitude":"-117.288669","name":"Staples - 2550 Canyon Springs Pkwy; Riverside","address":" CA 92507>951-656-6594"},{"latitude":"33.69377","longitude":"-117.33864","name":"Staples - 29225 Central Ave; Lake Elsinore","address":" CA 92530>951-245-9686"},{"latitude":"33.7474","longitude":"-117.0082","name":"Staples - 3381 W Florida Ave; Hemet","address":" CA 92545>951-658-0224"},{"latitude":"33.55675","longitude":"-117.19926","name":"Staples - 25070 Madison Ave; Murrieta","address":" CA 92562>951-696-9668"},{"latitude":"33.678114","longitude":"-117.174715","name":"Staples - 30450 Haun Rd; Menifee","address":" CA 92584>951-301-1109"},{"latitude":"33.48266","longitude":"-117.09579","name":"Staples - 32120 Hwy 79 S ; Temecula","address":" CA 92592>516-302-6478"},{"latitude":"33.70033","longitude":"-117.83625","name":"Staples - 2160 Barranca Pkwy; Irvine","address":" CA 92606>949-838-0388"},{"latitude":"33.63479","longitude":"-117.9164","name":"Staples - 241 E 17th St; Costa Mesa","address":" CA 92627>949-548-4955"},{"latitude":"33.6338","longitude":"-117.71","name":"Staples - 22631 Lake Forest Dr; Lake Forest","address":" CA 92630>949-837-3323"},{"latitude":"33.7305","longitude":"-117.991","name":"Staples - 7881 Edinger Ave; Huntington Beach","address":" CA 92647>714-379-0044"},{"latitude":"33.6804","longitude":"-118.00343","name":"Staples - 7131 Yorktown Ave; Huntington Beach","address":" CA 92648>714-374-6725"},{"latitude":"33.57271","longitude":"-117.72278","name":"Staples - 26791 Aliso Creek Rd; Aliso Viejo","address":" CA 92656>949-448-4120"},{"latitude":"33.66879","longitude":"-117.865","name":"Staples - 4343 MacArthur Blvd; Newport Beach","address":" CA 92660>949-752-9186"},{"latitude":"33.43756","longitude":"-117.6224","name":"Staples - 93 Via Pico Plaza; San Clemente","address":" CA 92672>949-492-2633"},{"latitude":"33.6486","longitude":"-117.592","name":"Staples - 30511 Avenida de las Flores; Rancho Santa Margarita","address":" CA 92688>949-635-1870"},{"latitude":"33.56702","longitude":"-117.63129","name":"Staples - 27542 Antonio Pkwy; Ladera Ranch","address":" CA 92694>949-365-1321"},{"latitude":"33.69869","longitude":"-117.88382","name":"Staples - 3861 S Bristol St; Santa Ana","address":" CA 92704>714-556-3633"},{"latitude":"33.7597","longitude":"-117.836","name":"Staples - 2120 E 17th St; Santa Ana","address":" CA 92705>714-550-6767"},{"latitude":"33.8423","longitude":"-117.9573","name":"Staples - 790 N Brookhurst St; Anaheim","address":" CA 92801>714-254-7270"},{"latitude":"33.91205","longitude":"-117.8669","name":"Staples - 2375 E Imperial Hwy; Brea","address":" CA 92821>714-672-9384"},{"latitude":"33.7734","longitude":"-117.921","name":"Staples - 13031 Harbor Blvd; Garden Grove","address":" CA 92843>714-741-8320"},{"latitude":"33.8977","longitude":"-117.562","name":"Staples - 1210 Hamner Ave; Norco","address":" CA 92860>951-372-0119"},{"latitude":"33.82269","longitude":"-117.8358","name":"Staples - 2050 N Tustin Ave; Orange","address":" CA 92865>714-282-0081"},{"latitude":"33.7815","longitude":"-117.868","name":"Staples - 330 S Main St; Orange","address":" CA 92868>714-939-7606"},{"latitude":"33.82646","longitude":"-117.51327","name":"Staples - 3439 Grand Oaks; Corona","address":" CA 92882>951-817-9090"},{"latitude":"33.87706","longitude":"-117.7424","name":"Staples - 5511 Mirage St; Yorba Linda","address":" CA 92887>714-283-1412"},{"latitude":"34.272127","longitude":"-119.249234","name":"Staples - 3400 Telegraph Rd;  Ventura","address":" CA 93003>805-654-9522"},{"latitude":"34.218","longitude":"-119.073","name":"Staples - 317 W Ventura Blvd; Camarillo","address":" CA 93010>805-384-1540"},{"latitude":"34.23428","longitude":"-119.17676","name":"Staples - 411 Esplanade Dr; Oxnard","address":" CA 93036>805-988-1781"},{"latitude":"34.2787","longitude":"-118.737","name":"Staples - 2880 Cochran St; Simi Valley","address":" CA 93065>805-579-9700"},{"latitude":"34.41579","longitude":"-119.693","name":"Staples - 410 State St; Santa Barbara","address":" CA 93101>805-965-9577"},{"latitude":"34.4303","longitude":"-119.8686","name":"Staples - 7015 Marketplace Dr; Goleta","address":" CA 93117>805-961-8093"},{"latitude":"36.3285","longitude":"-119.657","name":"Staples - 510 N 11th Ave; Hanford","address":" CA 93230>559-585-7270"},{"latitude":"36.29679","longitude":"-119.313","name":"Staples - 3729 S Mooney Blvd; Visalia","address":" CA 93277>559-635-9394"},{"latitude":"35.2622","longitude":"-120.649","name":"Staples - 2950 Broad St; San Luis Obispo","address":" CA 93401>805-782-9881"},{"latitude":"35.52632","longitude":"-120.70066","name":"Staples - 815 El Camino Real; Atascadero","address":" CA 93422>805-462-9500"},{"latitude":"34.64869","longitude":"-120.4569","name":"Staples - 615 H St; Lompoc","address":" CA 93436>805-740-0192"},{"latitude":"35.6148","longitude":"-120.6792","name":"Staples - 160 Niblick Rd; Paso Robles","address":" CA 93446>805-227-1570"},{"latitude":"34.69348","longitude":"-118.1708","name":"Staples - 44620 Valley Central Way; Lancaster","address":" CA 93536>661-723-1277"},{"latitude":"34.5957","longitude":"-118.14589","name":"Staples - 39258 10th St W; Palmdale","address":" CA 93551>661-265-7630"},{"latitude":"36.60875","longitude":"-121.8547","name":"Staples - 1550 Canyon Del Rey Blvd; Seaside","address":" CA 93955>831-393-2102"},{"latitude":"37.45215","longitude":"-122.17789","name":"Staples - 700 El Camino Real; Menlo Park","address":" CA 94025>650-329-9440"},{"latitude":"37.64127","longitude":"-122.4195","name":"Staples - 470 Noor Ave; South San Francisco","address":" CA 94080>650-869-6882"},{"latitude":"37.79209","longitude":"-122.4211","name":"Staples - 1700 Van Ness Ave; San Francisco","address":" CA 94109>415-771-7030"},{"latitude":"37.55879","longitude":"-122.2818","name":"Staples - 2230 Bridgepoint Pkwy; San Mateo","address":" CA 94404>650-573-9972"},{"latitude":"37.96428","longitude":"-121.99187","name":"Staples - 4498 Treat Blvd; Concord","address":" CA 94521>925-609-1014"},{"latitude":"37.9456","longitude":"-122.059","name":"Staples - 2120 Contra Costa Blvd; Pleasant Hill","address":" CA 94523>925-691-4060"},{"latitude":"37.92363","longitude":"-122.3165","name":"Staples - 11545 San Pablo Ave; El Cerrito","address":" CA 94530>510-231-0388"},{"latitude":"37.9628","longitude":"-121.76233","name":"Staples - 4863 Lone Tree Way; Antioch","address":" CA 94531>925-706-4038"},{"latitude":"38.255187","longitude":"-122.066447","name":"Staples - 1250 Oliver Rd; Fairfield","address":" CA 94534>707-436-9877"},{"latitude":"37.546692","longitude":"-121.986895","name":"Staples - 39116 Fremont Hub; Fremont","address":" CA 94538>510-494-9565"},{"latitude":"38.32231","longitude":"-122.2985","name":"Staples - 3325 Jefferson St; Napa","address":" CA 94558>707-258-1490"},{"latitude":"37.9909","longitude":"-122.305","name":"Staples - 1200 Fitzgerald Dr; Pinole","address":" CA 94564>510-223-0402"},{"latitude":"37.70321","longitude":"-122.12604","name":"Staples - 15555 E 14th St; San Leandro","address":" CA 94578>510-276-0460"},{"latitude":"37.7744","longitude":"-121.984","name":"Staples - 2710 Crow Canyon Rd; San Ramon","address":" CA 94583>925-552-1960"},{"latitude":"37.866381","longitude":"-122.268015","name":"Staples - 2352 Shattuck Ave; Berkeley","address":" CA 94704>510-704-0872"},{"latitude":"37.96759","longitude":"-122.5208","name":"Staples - 655 Irwin St; San Rafael","address":" CA 94901>415-485-0507"},{"latitude":"38.0932","longitude":"-122.559","name":"Staples - 55 Rowland Way; Novato","address":" CA 94945>415-897-0544"},{"latitude":"38.24713","longitude":"-122.61629","name":"Staples - 207 S McDowell Blvd; Petaluma","address":" CA 94952>707-762-3131"},{"latitude":"37.29357","longitude":"-121.93929","name":"Staples - 500 E Hamilton Ave; Campbell","address":" CA 95008>408-374-4206"},{"latitude":"37.322223","longitude":"-122.03818","name":"Staples - 20830 Stevens Creek Blvd; Cupertino","address":" CA 95014>408-252-1019"},{"latitude":"37.02319","longitude":"-121.5641","name":"Staples - 8840 San Ysidro Ave; Gilroy","address":" CA 95020>408-846-8977"},{"latitude":"37.43307","longitude":"-121.8967","name":"Staples - 627 E Calaveras Blvd; Milpitas","address":" CA 95035>408-956-9204"},{"latitude":"37.155435","longitude":"-121.653015","name":"Staples - 1023 Cochrane Rd; Morgan Hill","address":" CA 95037>408-779-7505"},{"latitude":"36.98528","longitude":"-121.9804","name":"Staples - 2460 17th Ave; Santa Cruz","address":" CA 95062>831-477-9002"},{"latitude":"36.92004","longitude":"-121.78","name":"Staples - 1445 Main St; Watsonville","address":" CA 95076>831-763-1943"},{"latitude":"37.349874","longitude":"-121.923908","name":"Staples - 760 Newhall Dr; San Jose","address":" CA 95110>408-271-5061"},{"latitude":"37.23191","longitude":"-121.77178","name":"Staples - 121 Bernal Rd; San Jose","address":" CA 95119>408-361-0208"},{"latitude":"38.1158","longitude":"-121.344","name":"Staples - 2415 W Kettleman Lane; Lodi","address":" CA 95242>209-367-6850"},{"latitude":"37.757332","longitude":"-121.466366","name":"Staples - 2471 N Naglee Rd; Tracy","address":" CA 95304>209-832-2391"},{"latitude":"37.79527","longitude":"-121.19382","name":"Staples - 249 Commerce Ave; Manteca","address":" CA 95337>209-239-4045"},{"latitude":"37.318","longitude":"-120.4684","name":"Staples - 20 W Olive Ave; Merced","address":" CA 95348>209-383-0306"},{"latitude":"37.71544","longitude":"-120.95767","name":"Staples - 2347 Claribel Rd; Riverbank","address":" CA 95367>209-863-1301"},{"latitude":"37.9742","longitude":"-120.358","name":"Staples - 1171 Sanguinetti Rd; Sonora","address":" CA 95370>209-536-2600"},{"latitude":"37.5099","longitude":"-120.873","name":"Staples - 1850 Countryside Dr; Turlock","address":" CA 95380>209-632-2209"},{"latitude":"38.293241","longitude":"-122.475974","name":"Staples - 977 Wt Napa St; Sonoma","address":" CA 95476>707-935-1466"},{"latitude":"39.13398","longitude":"-123.19957","name":"Staples - 1225 Airport Park Blvd; Ukiah","address":" CA 95482>707-463-7110"},{"latitude":"40.777939","longitude":"-124.19131","name":"Staples - 3300 Broadway St, Eureka","address":" CA 95501>707-269-0196"},{"latitude":"38.9046","longitude":"-121.076","name":"Staples - 411 Grass Valley Hwy; Auburn","address":" CA 95603>530-823-1040"},{"latitude":"38.68117","longitude":"-121.27","name":"Staples - 6330 Sunrise Blvd; Citrus Heights","address":" CA 95610>916-722-1011"},{"latitude":"38.4258","longitude":"-121.39198","name":"Staples - 9146 E Stockton Blvd; Elk Grove","address":" CA 95624>916-686-2450"},{"latitude":"38.64641","longitude":"-121.11684","name":"Staples - 2435 Iron Pointe Rd; Folsom","address":" CA 95630>916-983-2861"},{"latitude":"38.3467","longitude":"-120.77156","name":"Staples - 12060 Industry Blvd; Jackson","address":" CA 95642>209-257-0430"},{"latitude":"38.7418","longitude":"-121.22776","name":"Staples - 8670 Sierra College Blvd; Roseville","address":" CA 95661>916-781-3517"},{"latitude":"38.78219","longitude":"-121.2647","name":"Staples - 6770 Stanford Ranch Rd; Roseville","address":" CA 95678>916-781-9344"},{"latitude":"38.3656","longitude":"-121.961","name":"Staples - 1010 Helen Power Dr; Vacaville","address":" CA 95688>707-452-8991"},{"latitude":"38.60439","longitude":"-121.2679","name":"Staples - 2690 Sunrise Blvd; Rancho Cordova","address":" CA 95742>916-858-1868"},{"latitude":"38.48214","longitude":"-121.50372","name":"Staples - 7551 Freeport Blvd; Sacramento","address":" CA 95832>916-395-9112"},{"latitude":"38.63852","longitude":"-121.5035","name":"Staples - 3631 Truxel Rd; Natomas","address":" CA 95834>916-928-0890"},{"latitude":"39.725693","longitude":"-121.800079","name":"Staples - 2019 Forest Ave; Chico","address":" CA 95928>530-343-8080"},{"latitude":"39.2346","longitude":"-121.0356","name":"Staples - 646 Sutton Way; Grass Valley","address":" CA 95945>530-477-6700"},{"latitude":"39.49823","longitude":"-121.574","name":"Staples - 2150 Feather River Blvd; Oroville","address":" CA 95965>530-533-1718"},{"latitude":"39.1417","longitude":"-121.624","name":"Staples - 671 Colusa Ave; Yuba City","address":" CA 95991>530-671-1256"},{"latitude":"40.16502","longitude":"-122.2264","name":"Staples - 580 S Main St; Red Bluff","address":" CA 96080>530-527-9232"},{"latitude":"38.9138","longitude":"-120.0026","name":"Staples - 2061 Lake Tahoe Blvd; South Lake Tahoe","address":" CA 96150>530-544-9817"},{"latitude":"39.912236","longitude":"-105.050369","name":"Staples - 5150 W 120th Ave; Westminster","address":" CO 80020>720-887-2497"},{"latitude":"39.960035","longitude":"-104.989772","name":"Staples - 14458 Delaware St; Westminster","address":" CO 80023>303-920-8004"},{"latitude":"39.593354","longitude":"-104.965058","name":"Staples - 6767 S Vine St; Centennial","address":" CO 80122>303-703-4481"},{"latitude":"39.544956","longitude":"-104.947283","name":"Staples - 9449 S University Blvd; Highlands Ranch","address":" CO 80126>303-346-8957"},{"latitude":"39.066622","longitude":"-104.850409","name":"Staples - 6096 Jackson Creek Pkwy; Monument","address":" CO 80132>719-487-0568"},{"latitude":"39.51459","longitude":"-104.76307","name":"Staples - 11236 S Pikes Peak Dr; Parker","address":" CO 80138>303-841-2651"},{"latitude":"39.65346","longitude":"-104.91454","name":"Staples - 6435 E Hampden Ave; Denver","address":" CO 80222>303-759-3127"},{"latitude":"39.710632","longitude":"-105.078933","name":"Staples - 7350 W Alameda; Lakewood","address":" CO 80226>303-742-0500"},{"latitude":"39.70107","longitude":"-104.94055","name":"Staples - 870 S Colorado Blvd; Glendale","address":" CO 80246>303-758-9900"},{"latitude":"40.01483","longitude":"-105.25784","name":"Staples - 1601 29th St; Boulder","address":" CO 80301>303-444-0575"},{"latitude":"39.723937","longitude":"-105.186001","name":"Staples - 16630 W Colfax; Golden","address":" CO 80401>303-278-4258"},{"latitude":"39.51835","longitude":"-105.30596","name":"Staples - 10853 US Hwy 285; Conifer","address":" CO 80433>303-816-1125"},{"latitude":"40.15283","longitude":"-105.10052","name":"Staples - 210 Ken Pratt Blvd; Longmont","address":" CO 80501>303-776-0747"},{"latitude":"40.40889","longitude":"-105.0051","name":"Staples - 1665 Rocky Mountain Ave; Loveland","address":" CO 80538>970-461-3035"},{"latitude":"38.89761","longitude":"-104.85161","name":"Staples - 4520 Centennial Blvd; Colorado Springs","address":" CO 80919>719-598-3214"},{"latitude":"38.87272","longitude":"-104.71936","name":"Staples - 2955 New Center Point; Colorado Springs","address":" CO 80922>719-591-6184"},{"latitude":"38.30984","longitude":"-104.624","name":"Staples - 1411 Hwy 50 W; Pueblo","address":" CO 81008>719-545-1545"},{"latitude":"41.69375","longitude":"-72.91475","name":"Staples - 871 Farmington Ave; Bristol","address":" CT 06010>860-314-2070"},{"latitude":"41.72587","longitude":"-72.61844","name":"Staples - 49 Putnam Blvd; Glastonbury","address":" CT 06033>860-657-0658"},{"latitude":"41.8256","longitude":"-72.4987","name":"Staples - 35 Talcottville Rd; Vernon","address":" CT 06066>860-870-4032"},{"latitude":"41.8175","longitude":"-72.8696","name":"Staples - 15 Albany Tpke; Simsbury","address":" CT 06092>860-843-7633"},{"latitude":"41.66252","longitude":"-72.72065","name":"Staples - 3174 Berlin Tpke; Newington","address":" CT 06111>860-666-2443"},{"latitude":"41.78609","longitude":"-72.74923","name":"Staples - 2550 Albany Ave; W Hartford","address":" CT 06117>860-233-1930"},{"latitude":"41.73315","longitude":"-72.19925","name":"Staples - 82 Storrs Rd; Willimantic","address":" CT 06226>860-423-3143"},{"latitude":"41.36751","longitude":"-72.11806","name":"Staples - 292 US Rte 1; New London","address":" CT 06320>860-439-1872"},{"latitude":"41.51347","longitude":"-72.10929","name":"Staples - 45 Salem Tpke; Norwich","address":" CT 06360>860-886-8870"},{"latitude":"41.28446","longitude":"-72.81901","name":"Staples - 85 N Main St; Branford","address":" CT 06405>203-488-7300"},{"latitude":"41.5546","longitude":"-72.6823","name":"Staples - 900 Washington St; Middletown","address":" CT 06457>860-343-6173"},{"latitude":"41.24006","longitude":"-73.0338","name":"Staples - 1371 Boston Post Rd; Milford","address":" CT 06460>203-878-6078"},{"latitude":"41.2941","longitude":"-72.3807","name":"Staples - 1000 Boston Post Rd; Old Saybrook","address":" CT 06475>860-395-2980"},{"latitude":"41.2669","longitude":"-73.1313","name":"Staples - 3 Armstrong Dr; Shelton","address":" CT 06484>203-225-7755"},{"latitude":"41.4587","longitude":"-73.23699","name":"Staples - 775 Main St S; Southbury","address":" CT 06488>203-267-6678"},{"latitude":"41.63519","longitude":"-72.8742","name":"Staples - 672 Queen St; Southington","address":" CT 06489>860-628-0801"},{"latitude":"41.49958","longitude":"-72.81068","name":"Staples - 1145 N Colony Rd; Wallingford","address":" CT 06492>203-265-2555"},{"latitude":"41.3743","longitude":"-72.91549","name":"Staples - 2335 Dixwell Ave; Hamden","address":" CT 06514>203-407-4250"},{"latitude":"41.22132","longitude":"-73.21836","name":"Staples - 4543 Main St; Bridgeport","address":" CT 06606>203-365-8430"},{"latitude":"41.566829","longitude":"-73.005731","name":"Staples - 910 Wolcott Rd; Waterbury","address":" CT 06705>203-573-0925"},{"latitude":"41.55801","longitude":"-73.41922","name":"Staples - 122 Danbury Rd; New Milford","address":" CT 06776>860-355-1012"},{"latitude":"41.79979","longitude":"-73.12099","name":"Staples - 15 S Main St; Torrington","address":" CT 06790>860-489-3686"},{"latitude":"41.57719","longitude":"-73.10084","name":"Staples - 544 Straits Tpke; Watertown","address":" CT 06795>860-274-5067"},{"latitude":"41.4065","longitude":"-73.4167","name":"Staples - 67 Newtown Rd; Danbury","address":" CT 06810>203-830-6978"},{"latitude":"41.39401","longitude":"-73.53328","name":"Staples - 113 Mill Plain Rd; Danbury","address":" CT 06811>203-791-0411"},{"latitude":"41.164","longitude":"-73.2354","name":"Staples - 1201 Kings Hwy; Fairfield","address":" CT 06824>203-579-4051"},{"latitude":"41.15845","longitude":"-73.42016","name":"Staples - 654 Main Ave; Norwalk","address":" CT 06851>203-840-7431"},{"latitude":"41.125951","longitude":"-73.388917","name":"Staples - 420 - 440 Westport Ave; Norwalk","address":" CT 06851>203-845-0260"},{"latitude":"41.0932","longitude":"-73.4501","name":"Staples - 51 Richards Ave; Norwalk","address":" CT 06854>203-857-5470"},{"latitude":"41.0426","longitude":"-73.5758","name":"Staples - 1297 E Putnam Ave; Greenwich","address":" CT 06878>203-698-9011"},{"latitude":"41.0673","longitude":"-73.5453","name":"Staples - 2299 Summer St; Stamford","address":" CT 06905>203-323-1441"},{"latitude":"38.8995","longitude":"-77.0292","name":"Staples - 1250 H St NW; Washington","address":" DC 20005>202-638-3907"},{"latitude":"38.90346","longitude":"-77.04389","name":"Staples - 1901 L St; Washington","address":" DC 20036>202-293-4415"},{"latitude":"39.66893","longitude":"-75.66676","name":"Staples - 323 W Main St; Newark","address":" DE 19702>302-266-8230"},{"latitude":"39.66172","longitude":"-75.73103","name":"Staples - 1 Chestnut Hill Plaza; Newark","address":" DE 19713>302-738-8020"},{"latitude":"39.66549","longitude":"-75.60288","name":"Staples - 128 Sunset Blvd; New Castle","address":" DE 19720>302-395-3910"},{"latitude":"39.80599","longitude":"-75.5496","name":"Staples - 3640 Concord Pike; Wilmington","address":" DE 19803>302-477-1162"},{"latitude":"39.73669","longitude":"-75.62473","name":"Staples - 3200 Kirkwood Hwy; Wilmington","address":" DE 19808>302-633-4330"},{"latitude":"39.1867","longitude":"-75.5372","name":"Staples - 1041 N Dupont Hwy; Dover","address":" DE 19901>302-736-5754"},{"latitude":"38.735634","longitude":"-75.141431","name":"Staples - 18670 Coastal Hwy; Rehoboth Beach","address":" DE 19971>302-645-0863"},{"latitude":"30.640929","longitude":"-81.453474","name":"Staples - 1445 Sadler Rd; Fernandina Beach","address":" FL 32034>904-261-2824"},{"latitude":"30.165881","longitude":"-81.745757","name":"Staples - 2285 Kingsley Ave; Orange Park","address":" FL 32073>904-272-0973"},{"latitude":"29.674382","longitude":"-81.303263","name":"Staples - 1775 US Hwy 1 S; St. Augustine","address":" FL 32084>904-819-1256"},{"latitude":"29.17963","longitude":"-81.08302","name":"Staples - 2500 W International Speedway Blvd; Daytona Beach","address":" FL 32114>386-257-0303"},{"latitude":"29.5572","longitude":"-81.2181","name":"Staples - 9 Old Kings Rd; Palm Coast","address":" FL 32137>386-447-9155"},{"latitude":"28.93455","longitude":"-81.93897","name":"Staples - 720 US Hwy 441; Lady Lake","address":" FL 32159>352-750-9801"},{"latitude":"29.6172","longitude":"-81.7064","name":"Staples - 327 Hwy 19 N; Palatka","address":" FL 32177>386-325-1831"},{"latitude":"30.293","longitude":"-81.6044","name":"Staples - 5800 Beach Blvd; Jacksonville","address":" FL 32207>904-396-9192"},{"latitude":"30.173412","longitude":"-81.626656","name":"Staples - 11111 San Jose Blvd; Jacksonville","address":" FL 32223>904-880-9280"},{"latitude":"30.25395","longitude":"-81.52305","name":"Staples - 10261 River Marsh Dr; Jacksonville","address":" FL 32246>904-998-1761"},{"latitude":"30.256994","longitude":"-81.391379","name":"Staples - 4016 S Third St; Jacksonville Beach","address":" FL 32250>904-270-8368"},{"latitude":"30.4707","longitude":"-84.2897","name":"Staples - 2241 N Monroe St; Tallahassee","address":" FL 32303>850-385-9155"},{"latitude":"30.731354","longitude":"-86.566436","name":"Staples - 2821 Ferdon Blvd S; Crestview","address":" FL 32536>850-682-1041"},{"latitude":"28.6616","longitude":"-81.34138","name":"Staples - 5779 S Hwy 17-92; Casselberry","address":" FL 32707>407-260-9888"},{"latitude":"28.685896","longitude":"-81.539477","name":"Staples - 1626 W Orange Blossom Trl; Apopka","address":" FL 32712>407-880-1136"},{"latitude":"28.7552","longitude":"-81.3477","name":"Staples - 4215 Lake Mary Blvd; Lake Mary","address":" FL 32746>407-323-3206"},{"latitude":"28.64735","longitude":"-81.23144","name":"Staples - 1950 W SR 426; Oviedo","address":" FL 32765>407-977-0586"},{"latitude":"28.553","longitude":"-80.8458","name":"Staples - 3155 Columbia Blvd; Titusville","address":" FL 32780>321-383-1545"},{"latitude":"28.55191","longitude":"-81.35012","name":"Staples - 2774 E Colonial Dr; Orlando","address":" FL 32803>407-894-7226"},{"latitude":"28.462969","longitude":"-81.270736","name":"Staples - 7157 Narcoossee Rd; Orlando","address":" FL 32822>407-482-0133"},{"latitude":"28.03542","longitude":"-80.62229","name":"Staples - 1595 Palm Bay Rd; Palm Bay","address":" FL 32905>321-726-6922"},{"latitude":"28.12655","longitude":"-80.67403","name":"Staples - 1270-13 N Wickham Rd; Melbourne","address":" FL 32935>321-255-2593"},{"latitude":"27.62245","longitude":"-80.38976","name":"Staples - 1191 US Hwy 1; Vero Beach","address":" FL 32960>772-563-4940"},{"latitude":"25.86635","longitude":"-80.31596","name":"Staples - 1700 W 49th St; Hialeah","address":" FL 33012>305-828-1645"},{"latitude":"26.27753","longitude":"-80.09757","name":"Staples - 3742 N Federal Hwy; Lighthouse Point","address":" FL 33064>954-942-1764"},{"latitude":"25.797477","longitude":"-80.188587","name":"Staples - 2121 Biscayne Blvd; Miami","address":" FL 33137>305-573-1680"},{"latitude":"25.75052","longitude":"-80.24606","name":"Staples - 2120 SW 32nd Ave; Coral Gables","address":" FL 33145>305-448-0556"},{"latitude":"25.596982","longitude":"-80.354333","name":"Staples - 18591 S Dixie Hwy; Cutler Bay","address":" FL 33157>305-969-8171"},{"latitude":"25.683846","longitude":"-80.415524","name":"Staples - 13640 N Kendall Dr; Miami","address":" FL 33186>305-387-5267"},{"latitude":"26.1941","longitude":"-80.2518","name":"Staples - 7500 W Commercial Blvd; Lauderhill","address":" FL 33319>954-748-4230"},{"latitude":"26.8069","longitude":"-80.0814","name":"Staples - 1260 Northlake Blvd; Lake Park","address":" FL 33403>561-882-0928"},{"latitude":"26.70757","longitude":"-80.081323","name":"Staples - 2029 Okeechobee Blvd; West Palm Beach","address":" FL 33409>561-686-4054"},{"latitude":"26.51564","longitude":"-80.07653","name":"Staples - 1540 S W 8th St; Boynton Beach","address":" FL 33426>561-735-4347"},{"latitude":"26.9363","longitude":"-80.0814","name":"Staples - 201 N US 1; Jupiter","address":" FL 33477>561-743-9393"},{"latitude":"27.93852","longitude":"-82.3223","name":"Staples - 2424 W Brandon Blvd; Brandon","address":" FL 33511>813-661-9639"},{"latitude":"28.269663","longitude":"-82.191313","name":"Staples - 7910 Gall Blvd; Zephyrhills","address":" FL 33542>813-783-6026"},{"latitude":"27.99504","longitude":"-82.12059","name":"Staples - 1866 Jim Redman Pkwy; Plant City","address":" FL 33563>813-707-1332"},{"latitude":"27.95868","longitude":"-82.50745","name":"Staples - 3702 W  Spruce St; Tampa","address":" FL 33607>813-872-0467"},{"latitude":"28.05366","longitude":"-82.42648","name":"Staples - 11806 Bruce B Downs Blvd; Tampa","address":" FL 33612>813-558-9025"},{"latitude":"28.0868","longitude":"-82.502681","name":"Staples - 15017 N Dale Mabry Hwy; Tampa","address":" FL 33618>813-968-1461"},{"latitude":"28.11599","longitude":"-82.379954","name":"Staples - 6260 Commerce Palms; New Tampa","address":" FL 33647>813-558-0928"},{"latitude":"27.79154","longitude":"-82.68022","name":"Staples - 2004 34th St N; St Petersburg","address":" FL 33713>727-327-2292"},{"latitude":"28.0481","longitude":"-82.73927","name":"Staples - 30190 US Hwy 19N; Clearwater","address":" FL 33761>727-784-1502"},{"latitude":"27.89449","longitude":"-82.78715","name":"Staples - 13013 Seminole Blvd; Largo","address":" FL 33778>727-559-0000"},{"latitude":"28.09355","longitude":"-81.973736","name":"Staples - 4011 US Hwy 98 N; Lakeland","address":" FL 33809>863-815-0459"},{"latitude":"27.9872","longitude":"-81.95699","name":"Staples - 4313 S Florida Ave; Lakeland","address":" FL 33813>863-644-9665"},{"latitude":"28.231659","longitude":"-81.644751","name":"Staples - 3500 Posner Blvd; Davenport","address":" FL 33837>863-420-7064"},{"latitude":"28.01197","longitude":"-81.73009","name":"Staples - 700 3rd St SW 470 Citi Centre; Winter Haven","address":" FL 33880>863-401-9661"},{"latitude":"26.617702","longitude":"-81.798402","name":"Staples - 3236 Forum Blvd; Fort Myers","address":" FL 33905>239-936-1255"},{"latitude":"26.54407","longitude":"-81.8737","name":"Staples - 7191-3 Cypress Lake Dr; Ft Myers","address":" FL 33907>239-466-5487"},{"latitude":"26.668512","longitude":"-81.93443","name":"Staples - 1800 Pine Island Road NE; Cape Coral","address":" FL 33909>239-573-6192"},{"latitude":"26.49163","longitude":"-81.79138","name":"Staples - 10016 Gulf Center Dr; Fort Myers","address":" FL 33913>239-267-2899"},{"latitude":"27.0052","longitude":"-82.1324","name":"Staples - 1825 Tamiami Trl; Port Charlotte","address":" FL 33948>941-764-0555"},{"latitude":"26.619283","longitude":"-81.939668","name":"Staples - 1631 Del Prado Blvd; Cape Coral","address":" FL 33990>239-458-6628"},{"latitude":"26.21961","longitude":"-81.77258","name":"Staples - 6305 Naples Blvd; Naples","address":" FL 34109>239-591-2930"},{"latitude":"26.296375","longitude":"-81.804515","name":"Staples - 13585 N Tamiami Trl; Naples","address":" FL 34110>239-566-9791"},{"latitude":"26.064068","longitude":"-81.703408","name":"Staples - 12632 E Tamiami Trl; Naples","address":" FL 34113>239-774-1694"},{"latitude":"26.27213","longitude":"-81.73842","name":"Staples - 2415 Tarpon Bay; Naples","address":" FL 34119>239-513-0392"},{"latitude":"27.39072","longitude":"-82.46047","name":"Staples - 5429 University Pkwy; University Park","address":" FL 34201>941-360-9413"},{"latitude":"27.49659","longitude":"-82.63516","name":"Staples - 7210 Manatee Ave; Bradenton","address":" FL 34209>941-761-3467"},{"latitude":"27.2345","longitude":"-82.4984","name":"Staples - 8199 Tamiami Trl S ; Sarasota","address":" FL 34231>941-923-8275"},{"latitude":"27.338494","longitude":"-82.532641","name":"Staples - 1900 Fruitville Rd; Sarasota","address":" FL 34236>941-951-0102"},{"latitude":"27.05036","longitude":"-82.39001","name":"Staples - 4291 S Tamiami Trl; Venice","address":" FL 34293>941-497-2269"},{"latitude":"29.1865","longitude":"-82.11199","name":"Staples - 1901 E Silversprings Blvd; Ocala","address":" FL 34470>352-840-0080"},{"latitude":"29.16388","longitude":"-82.167834","name":"Staples - 2497 SW 27th Ave; Ocala","address":" FL 34471>352-873-8767"},{"latitude":"28.49365","longitude":"-82.59706","name":"Staples - 4210 Commercial Way; Spring Hill","address":" FL 34606>352-666-0306"},{"latitude":"28.14751","longitude":"-82.7414","name":"Staples - 41334 N Hwy 19; Tarpon Springs","address":" FL 34689>727-939-2330"},{"latitude":"28.56481","longitude":"-81.740107","name":"Staples - 1600 S Grand Hwy; Clermont","address":" FL 34711>352-242-6296"},{"latitude":"28.305307","longitude":"-81.405104","name":"Staples - 101 W Vine St.; Kissimmee","address":" FL 34741>407-944-4405"},{"latitude":"28.252688","longitude":"-81.31168","name":"Staples - 4058 13th St; St. Cloud","address":" FL 34769>407-892-2793"},{"latitude":"28.524811","longitude":"-81.582447","name":"Staples - 3065 Daniels Rd; Winter Garden","address":" FL 34787>407-656-3210"},{"latitude":"27.2716","longitude":"-80.2901","name":"Staples - 10139 SE US Hwy 1; Port St Lucie","address":" FL 34952>772-335-0414"},{"latitude":"27.4239","longitude":"-80.3266","name":"Staples - 2609 S Federal Hwy; Fort Pierce","address":" FL 34982>772-466-0636"},{"latitude":"27.311843","longitude":"-80.403501","name":"Staples - 1729 NW St. Lucie W Blvd; Port St. Lucie","address":" FL 34986>772-336-1852"},{"latitude":"27.1658","longitude":"-80.2289","name":"Staples - 3150 SE Federal Hwy; Stuart","address":" FL 34994>772-221-0628"},{"latitude":"34.05469","longitude":"-84.2838","name":"Staples - 945 N Point Dr; Alpharetta","address":" GA 30022>678-366-0245"},{"latitude":"34.07053","longitude":"-84.16973","name":"Staples - 3630 Peachtree Pkwy; Suwanee","address":" GA 30024>678-474-0245"},{"latitude":"33.69227","longitude":"-84.07562","name":"Staples - 8170 Mall Pkwy; Lithonia","address":" GA 30038>770-484-1731"},{"latitude":"34.195248","longitude":"-84.128417","name":"Staples - 2355 Market Place Blvd; Cumming","address":" GA 30040>770-889-6634"},{"latitude":"33.9461","longitude":"-84.623","name":"Staples - 2535B Dallas Hwy; W Marietta","address":" GA 30064>678-354-1415"},{"latitude":"33.851144","longitude":"-84.209038","name":"Staples - 4351 Hugh Howell Rd; Tucker ","address":" GA 30084>770-621-3013"},{"latitude":"33.96055","longitude":"-84.1376","name":"Staples - 2255 Pleasant Hill Rd; Duluth","address":" GA 30096>678-474-4761"},{"latitude":"34.02919","longitude":"-84.65385","name":"Staples - 3344 Cobb Pkwy; Acworth","address":" GA 30101>678-574-6829"},{"latitude":"34.24333","longitude":"-84.49564","name":"Staples - 108 Riverstone Pkwy; Canton","address":" GA 30114>770-345-9472"},{"latitude":"33.553854","longitude":"-85.076672","name":"Staples - 1325 S Park St; Carrollton","address":" GA 30117>770-836-1088"},{"latitude":"34.16738","longitude":"-84.78662","name":"Staples - 155 Cherokee Place; Cartersville","address":" GA 30121>770-386-9100"},{"latitude":"34.2628","longitude":"-85.1877","name":"Staples - 212 Shorter Ave; Rome","address":" GA 30161>706-291-8106"},{"latitude":"33.46842","longitude":"-84.44708","name":"Staples - 105 Banks Station; Fayetteville","address":" GA 30214>678-817-1811"},{"latitude":"33.0491","longitude":"-85.0244","name":"Staples - 240 New Franklin Rd; LaGrange","address":" GA 30240>706-885-0919"},{"latitude":"33.46484","longitude":"-84.21391","name":"Staples - 1772 Jonesboro Rd; McDonough","address":" GA 30253>770-898-0372"},{"latitude":"33.3972","longitude":"-84.5905","name":"Staples - 225 Market Place Connector; Peachtree City","address":" GA 30269>770-486-9767"},{"latitude":"33.77324","longitude":"-84.37045","name":"Staples - 650 Ponce De Leon Ave; Atlanta","address":" GA 30308>404-881-0354"},{"latitude":"33.65697","longitude":"-84.50249","name":"Staples - 3675 Marketplace Blvd; E Point","address":" GA 30344>404-344-0117"},{"latitude":"34.06871","longitude":"-83.98638","name":"Staples - 3205 Woodward Crossing Blvd; Buford","address":" GA 30519>678-482-6318"},{"latitude":"33.4837","longitude":"-82.08373","name":"Staples - 246 Robert C Daniel Jr Pkwy; Augusta","address":" GA 30909>706-667-6180"},{"latitude":"32.81997","longitude":"-83.71214","name":"Staples - 4658 Presidential Pkwy; Macon","address":" GA 31206>478-475-0115"},{"latitude":"32.03902","longitude":"-81.067745","name":"Staples - 1915 E Victory Square Dr; Savannah","address":" GA 31404>912-353-7231"},{"latitude":"31.98089","longitude":"-81.14919","name":"Staples - 11605 Abercorn St; Savannah","address":" GA 31419>912-927-0169"},{"latitude":"31.20161","longitude":"-82.31761","name":"Staples - 2250 Brunswick Hwy; Waycross","address":" GA 31501>912-284-9192"},{"latitude":"31.204552","longitude":"-81.484239","name":"Staples - 58 Altama Village Dr; Brunswick","address":" GA 31525>912-554-4544"},{"latitude":"31.5811","longitude":"-84.1763","name":"Staples - 501 N Slappy Blvd; Albany","address":" GA 31701>229-639-1887"},{"latitude":"31.4503","longitude":"-83.528","name":"Staples - 196 S Virginia Ave; Tifton","address":" GA 31794>229-391-9045"},{"latitude":"32.54037","longitude":"-84.96468","name":"Staples - 5555 Whittlesey Blvd; Columbus","address":" GA 31909>706-653-0451"},{"latitude":"41.64295","longitude":"-93.50549","name":"Staples - 3500 8th St SW; Altoona","address":" IA 50009>515-957-8233"},{"latitude":"42.0083","longitude":"-93.6097","name":"Staples - 1333 Buckeye Rd; Ames","address":" IA 50010>515-663-0597"},{"latitude":"41.706061","longitude":"-93.579705","name":"Staples - 2407 SE Delaware Ave; Ankeny","address":" IA 50021>515-964-1691"},{"latitude":"43.1483","longitude":"-93.2455","name":"Staples - 3440 4th St SW; Mason City","address":" IA 50401>641-423-4012"},{"latitude":"42.459","longitude":"-92.3222","name":"Staples - 1542 Flammang Dr; Waterloo","address":" IA 50702>319-232-3700"},{"latitude":"42.447226","longitude":"-96.344347","name":"Staples - 5001 Sergeant Rd; Sioux City","address":" IA 51106>712-276-4335"},{"latitude":"42.4946","longitude":"-90.7163","name":"Staples - 190 JFK Rd; Dubuque","address":" IA 52002>563-582-9090"},{"latitude":"41.649393","longitude":"-91.538984","name":"Staples - 820 S Riverside Dr; Iowa City","address":" IA 52246>319-354-0799"},{"latitude":"41.9523","longitude":"-91.7245","name":"Staples - 2431 Wiley Blvd; Cedar Rapids","address":" IA 52404>319-396-6400"},{"latitude":"40.816041","longitude":"-91.139445","name":"Staples - 3200 Agency St; Burlington","address":" IA 52601>319-752-8707"},{"latitude":"41.5735","longitude":"-90.5248","name":"Staples - 5245 Elmore Ave; Davenport","address":" IA 52807>563-359-4600"},{"latitude":"42.90607","longitude":"-112.45987","name":"Staples - 1710 Hurley Dr.; Pocatello","address":" ID 83202>208-237-1317"},{"latitude":"43.4792","longitude":"-111.9841","name":"Staples - 1999 S 25th E; Ammon","address":" ID 83406>208-542-6500"},{"latitude":"46.39682","longitude":"-116.99816","name":"Staples - 2320 Thain Grade; Lewiston","address":" ID 83501>208-743-0514"},{"latitude":"43.617","longitude":"-116.619","name":"Staples - 1901 Caldwell Blvd; Nampa","address":" ID 83651>208-466-3300"},{"latitude":"43.6144","longitude":"-116.2827","name":"Staples - 8059 W Preece Dr; Boise","address":" ID 83704>208-375-5550"},{"latitude":"43.66264","longitude":"-116.35527","name":"Staples - 6299 Eagle Rd; Boise","address":" ID 83713>208-939-1726"},{"latitude":"47.6941","longitude":"-116.79","name":"Staples - 206 Ironwood Dr; Coeur d'Alene","address":" ID 83814>208-667-8604"},{"latitude":"46.73357","longitude":"-117.03754","name":"Staples - 233 War Bonnett Dr; Moscow","address":" ID 83843>208-882-2811"},{"latitude":"48.30231","longitude":"-116.54398","name":"Staples - 260 Bonner Mall Way; Ponderay","address":" ID 83852>208-255-4551"},{"latitude":"42.00755","longitude":"-88.04645","name":"Staples - 610 Meacham Rd; Elk Grove Village","address":" IL 60007>847-891-1086"},{"latitude":"42.05197","longitude":"-87.99345","name":"Staples - 1551 Algonquin Rd; Rolling Meadows","address":" IL 60008>847-640-7620"},{"latitude":"42.08063","longitude":"-87.79715","name":"Staples - 1509 Waukegan Rd; Glenview","address":" IL 60025>847-832-0283"},{"latitude":"42.18824","longitude":"-87.82327","name":"Staples - 1931 Skokie Valley; Highland Park","address":" IL 60035>847-681-0029"},{"latitude":"42.254578","longitude":"-87.948245","name":"Staples - 1600 N Milwaukee Ave; Vernon Hills","address":" IL 60061>847-367-5825"},{"latitude":"41.858465","longitude":"-88.065891","name":"Staples - 539 W Roosevelt Rd; Glen Ellyn","address":" IL 60137>630-790-0989"},{"latitude":"41.98265","longitude":"-88.34347","name":"Staples - 432 Randall Rd; S Elgin","address":" IL 60177>847-214-8738"},{"latitude":"41.53443","longitude":"-88.20181","name":"Staples - 992 Brook Forest Ave; Shorewood","address":" IL 60404>815-609-2387"},{"latitude":"41.52416","longitude":"-87.84969","name":"Staples - 20015 S LaGrange Rd; Frankfort","address":" IL 60423>815-806-8334"},{"latitude":"41.717","longitude":"-87.7407","name":"Staples - 9631 S Cicero  Ave; Oak Lawn","address":" IL 60453>708-425-3084"},{"latitude":"41.60821","longitude":"-87.850709","name":"Staples - 5515 S 95th Ave; Orland Park","address":" IL 60462>708-364-0712"},{"latitude":"41.757449","longitude":"-87.942759","name":"Staples - 7199 S Kingery Hwy; Willowbrook","address":" IL 60527>630-920-0506"},{"latitude":"41.793641","longitude":"-88.127546","name":"Staples - 1125 E Ogden Ave; Naperville","address":" IL 60563>630-357-2985"},{"latitude":"41.74165","longitude":"-88.2043","name":"Staples - 1552 S Rte 59; Naperville","address":" IL 60564>630-305-0253"},{"latitude":"41.88358","longitude":"-87.62618","name":"Staples - 111 N Wabash Ave; Chicago","address":" IL 60602>312-641-1213"},{"latitude":"41.86798","longitude":"-87.63938","name":"Staples - 1130 S Canal St; Chicago","address":" IL 60607>312-588-0924"},{"latitude":"41.96566","longitude":"-87.66783","name":"Staples - 4610 N Clark Chicago; Chicago","address":" IL 60640>773-769-0536"},{"latitude":"41.956239","longitude":"-87.802967","name":"Staples - 7000 W Forest Preserve Dr; Norridge","address":" IL 60706>708-457-8438"},{"latitude":"41.1706","longitude":"-87.8516","name":"Staples - 1585 N SR 50; Bourbonnais","address":" IL 60914>815-932-0705"},{"latitude":"42.28055","longitude":"-89.63145","name":"Staples - 1722-1724 S W Ave; Freeport","address":" IL 61032>815-235-2563"},{"latitude":"41.35969","longitude":"-89.12318","name":"Staples - 4350 Mahoney Dr; Peru","address":" IL 61354>815-224-8650"},{"latitude":"40.97564","longitude":"-90.38174","name":"Staples - 2353 National Blvd; Galesburg","address":" IL 61401>309-341-1051"},{"latitude":"40.54569","longitude":"-89.6024","name":"Staples - 3507 Court St; Pekin","address":" IL 61554>309-347-2664"},{"latitude":"40.1405","longitude":"-88.25874","name":"Staples - 2005 N Prospect Ave; Champaign","address":" IL 61822>217-373-8490"},{"latitude":"39.935","longitude":"-91.3673","name":"Staples - 3100 Broadway; Quincy","address":" IL 62301>217-223-6099"},{"latitude":"39.9242","longitude":"-88.9544","name":"Staples - 900 Commerce Place; Forsyth","address":" IL 62535>217-875-9951"},{"latitude":"39.721842","longitude":"-90.264779","name":"Staples - 1813 W Morton Ave; Jacksonville","address":" IL 62650>217-245-9648"},{"latitude":"38.31069","longitude":"-88.96113","name":"Staples - 131 Davidson Ave; Mount Vernon","address":" IL 62864>618-244-2410"},{"latitude":"37.7352","longitude":"-89.1859","name":"Staples - 1325 E Main St; Carbondale","address":" IL 62901>618-457-2825"},{"latitude":"39.9274","longitude":"-86.0156","name":"Staples - 8645 E 96th St; Fishers","address":" IN 46038>317-913-1669"},{"latitude":"40.039","longitude":"-85.9976","name":"Staples - 16751 Clover Rd; Noblesville","address":" IN 46060>317-776-4832"},{"latitude":"39.710359","longitude":"-86.372813","name":"Staples - 230 S Perry Rd; Plainfield","address":" IN 46168>317-204-1079"},{"latitude":"39.86919","longitude":"-86.12107","name":"Staples - 6101 N Keystone; Indianapolis","address":" IN 46220>317-722-9853"},{"latitude":"39.66599","longitude":"-86.082","name":"Staples - 5140 E Southport Rd; Southport","address":" IN 46237>317-784-7353"},{"latitude":"39.924709","longitude":"-86.022817","name":"Staples - 8245 E 96th St; Indianapolis","address":" IN 46256>317-913-1669"},{"latitude":"39.9121","longitude":"-86.2166","name":"Staples - 3250A W 86th St; Indianapolis","address":" IN 46268>317-871-3091"},{"latitude":"41.56969","longitude":"-87.50692","name":"Staples - 7951 Calumet Ave; Munster","address":" IN 46321>219-513-0769"},{"latitude":"41.45965","longitude":"-87.03445","name":"Staples - 2106 Morthland Dr; Valparaiso","address":" IN 46383>219-464-9005"},{"latitude":"41.469823","longitude":"-87.331683","name":"Staples - 8205 Broadway; Merrillville","address":" IN 46410>219-769-0757"},{"latitude":"41.61798","longitude":"-85.89497","name":"Staples - 4024 Elkhart Rd; Goshen","address":" IN 46526>574-875-3553"},{"latitude":"41.2351","longitude":"-85.8102","name":"Staples - 3600 Commerce Dr; Warsaw","address":" IN 46580>574-268-2023"},{"latitude":"41.62919","longitude":"-86.235","name":"Staples - 1143 E Ireland Rd; S Bend","address":" IN 46614>574-299-9709"},{"latitude":"41.07566","longitude":"-85.19681","name":"Staples - 4408 Illinois Rd; Fort Wayne","address":" IN 46804>260-436-6806"},{"latitude":"40.4767","longitude":"-86.1063","name":"Staples - 1807 E Markland Ave; Kokomo","address":" IN 46901>765-457-2905"},{"latitude":"40.5366","longitude":"-85.6735","name":"Staples - 2630 S Western Ave; Marion","address":" IN 46953>765-651-9285"},{"latitude":"38.32386","longitude":"-85.76545","name":"Staples - 1250 Veterans Pkwy; Clarksville","address":" IN 47129>812-285-1213"},{"latitude":"40.2182","longitude":"-85.4038","name":"Staples - 1501 McGalliard Blvd; Muncie","address":" IN 47304>765-284-8761"},{"latitude":"39.1654","longitude":"-86.497","name":"Staples - 2813 E 3rd St; Bloomington","address":" IN 47401>812-330-8880"},{"latitude":"38.4225","longitude":"-86.9379","name":"Staples - 3830 Newton St; Jasper","address":" IN 47546>812-634-7466"},{"latitude":"37.9819","longitude":"-87.4727","name":"Staples - 235 N Burkhardt Rd; Evansville","address":" IN 47715>812-475-9357"},{"latitude":"39.42604","longitude":"-87.41483","name":"Staples - 125 Davis Ave; Terre Haute","address":" IN 47802>812-478-9545"},{"latitude":"40.3915","longitude":"-86.8413","name":"Staples - 3500 SR 38; Lafayette","address":" IN 47905>765-447-2477"},{"latitude":"39.1798","longitude":"-96.5562","name":"Staples - 632 Tuttle Creek Blvd; Manhattan","address":" KS 66502>785-770-9200"},{"latitude":"38.42448","longitude":"-96.2155","name":"Staples - 2200 Industrial Rd; Emporia","address":" KS 66801>620-342-5200"},{"latitude":"37.98138","longitude":"-100.8388","name":"Staples - 2508 E Kansas Ave; Garden City","address":" KS 67846>620-275-2400"},{"latitude":"38.21316","longitude":"-85.67293","name":"Staples - 3030 Bardstown Rd; Louisville","address":" KY 40205>502-454-4191"},{"latitude":"38.251549","longitude":"-85.621704","name":"Staples - 5067 Shelbyville Rd; Louisville","address":" KY 40207>502-891-0276"},{"latitude":"38.139818","longitude":"-85.678441","name":"Staples - 4515 Outer Loop Dr; Louisville","address":" KY 40219>502-968-4440"},{"latitude":"38.2186","longitude":"-85.5832","name":"Staples - 1935 S Hurstbourne Pkwy; Louisville","address":" KY 40220>502-499-2631"},{"latitude":"38.15133","longitude":"-85.83523","name":"Staples - 6801 Dixie Hwy; Louisville","address":" KY 40258>502-271-1013"},{"latitude":"38.02662","longitude":"-84.53521","name":"Staples - 2081 Harrodsburg Rd; Lexington","address":" KY 40504>859-277-2228"},{"latitude":"38.02467","longitude":"-84.41942","name":"Staples - 2321 Sir Barton Way; Lexington","address":" KY 40509>859-543-8485"},{"latitude":"38.167604","longitude":"-84.897205","name":"Staples - 1303 US 127 S; Frankfort","address":" KY 40601>502-223-6478"},{"latitude":"39.04969","longitude":"-84.57471","name":"Staples - 2310 Buttermilk Crossing; Cresent Springs","address":" KY 41017>859-341-5585"},{"latitude":"38.99899","longitude":"-84.65374","name":"Staples - 7659 Mall Rd; Florence","address":" KY 41042>859-525-2331"},{"latitude":"39.00569","longitude":"-84.42269","name":"Staples - 400 Crossroads Blvd; Cold Spring","address":" KY 41076>859-441-0333"},{"latitude":"37.5053","longitude":"-82.53324","name":"Staples - 238 Cassidy Blvd; Pikeville","address":" KY 41501>606-432-1161"},{"latitude":"36.95389","longitude":"-86.4318","name":"Staples - 1680 Campbell Ln; Bowling Green","address":" KY 42104>270-746-0711"},{"latitude":"37.73499","longitude":"-85.88689","name":"Staples - 1811 N Dixie; Elizabethtown","address":" KY 42701>270-737-9929"},{"latitude":"42.1725","longitude":"-72.57407","name":"Staples - 591 Memorial Dr; Chicopee","address":" MA 01020>413-593-8812"},{"latitude":"42.07927","longitude":"-72.5275","name":"Staples - 433 N Main St; E Longmeadow","address":" MA 01028>413-525-4925"},{"latitude":"42.3606","longitude":"-72.5449","name":"Staples - 125 Westgate Center Dr; Hadley","address":" MA 01035>413-253-2599"},{"latitude":"42.339726","longitude":"-72.642804","name":"Staples - 122 N King St; Northampton","address":" MA 01060>413-582-9680"},{"latitude":"42.11267","longitude":"-72.72418","name":"Staples - 273 B E Main St; Westfield","address":" MA 01085>413-564-8104"},{"latitude":"42.13223","longitude":"-72.62587","name":"Staples - 1129 Riverdale Rd; West Springfield","address":" MA 01089>413-739-0026"},{"latitude":"42.1429","longitude":"-72.4907","name":"Staples - 1690 Boston Post Rd; East Springfield","address":" MA 01129>413-543-0000"},{"latitude":"42.46785","longitude":"-73.19472","name":"Staples - 555 Hubbard Ave; Pittsfield","address":" MA 01201>413-496-9042"},{"latitude":"42.17935","longitude":"-73.3644","name":"Staples - 740 Main St; Great Barrington","address":" MA 01230>413-644-0235"},{"latitude":"42.58641","longitude":"-72.62341","name":"Staples - 259 Mohawk Trl; Greenfield","address":" MA 01301>413-775-0293"},{"latitude":"42.56567","longitude":"-71.97863","name":"Staples - 60 Pearson Blvd; Gardner","address":" MA 01440>978-632-4285"},{"latitude":"42.5478","longitude":"-71.7625","name":"Staples - 510 N Main St; Leominster","address":" MA 01453>978-534-0841"},{"latitude":"42.19868","longitude":"-71.84242","name":"Staples - 436 S Bridge St; Auburn","address":" MA 01501>508-721-9500"},{"latitude":"42.2769","longitude":"-71.7133","name":"Staples - 571 Boston Tpke; Shrewsbury","address":" MA 01545>508-842-1507"},{"latitude":"42.1258","longitude":"-72.05549","name":"Staples - 120 Charlton Rd; Sturbridge","address":" MA 01566>508-347-5955"},{"latitude":"42.28223","longitude":"-71.60854","name":"Staples - 18 Lyman St; Westborough","address":" MA 01581>508-870-8761"},{"latitude":"42.29285","longitude":"-71.77717","name":"Staples - 541B Lincoln St; Worcester","address":" MA 01604>508-852-3771"},{"latitude":"42.2986","longitude":"-71.423","name":"Staples - 659 Worcester Rd; Framingham","address":" MA 01701>508-820-3020"},{"latitude":"42.48229","longitude":"-71.41431","name":"Staples - 145 Great  Rd; Acton","address":" MA 01720>978-263-6150"},{"latitude":"42.35002","longitude":"-71.49674","name":"Staples - 771 Boston Post Rd; Marlborough","address":" MA 01752>508-229-2011"},{"latitude":"42.15976","longitude":"-71.50078","name":"Staples - 220 Fortune Blvd; Milford","address":" MA 01757>508-634-6934"},{"latitude":"42.30043","longitude":"-71.35845","name":"Staples - 881 Worcester Rd; Natick","address":" MA 01760>508-655-0811"},{"latitude":"42.497","longitude":"-71.1239","name":"Staples - 335 Washington St; Woburn","address":" MA 01801>781-932-4132"},{"latitude":"42.486","longitude":"-71.2195","name":"Staples - 111 Middlesex Tpke; Burlington","address":" MA 01803>781-221-4610"},{"latitude":"42.61058","longitude":"-71.33533","name":"Staples - 265 Chelmsford St; Chelmsford","address":" MA 01824>978-256-1828"},{"latitude":"42.67527","longitude":"-71.12997","name":"Staples - 73 Tpke St; N Andover","address":" MA 01845>978-685-6518"},{"latitude":"42.51844","longitude":"-71.09148","name":"Staples - 34 Walkers Brook Dr; Reading","address":" MA 01867>781-944-0563"},{"latitude":"42.48174","longitude":"-71.02068","name":"Staples - 444 Broadway; Saugus","address":" MA 01906>781-231-6860"},{"latitude":"42.57553","longitude":"-70.89124","name":"Staples - 65 Dodge St; North Beverly","address":" MA 01915>978-922-3339"},{"latitude":"42.5488","longitude":"-70.9368","name":"Staples - 230 Independence Way; Danvers","address":" MA 01923>978-762-0152"},{"latitude":"42.5859","longitude":"-70.9646","name":"Staples - 301 Newbury St; Danvers","address":" MA 01923>978-777-9400"},{"latitude":"42.48525","longitude":"-70.90055","name":"Staples - 17 Paradise Rd; Salem","address":" MA 01970>978-741-4244"},{"latitude":"42.11552","longitude":"-71.46651","name":"Staples - 284 Hartford Ave; Bellingham","address":" MA 02019>508-966-1200"},{"latitude":"42.2453","longitude":"-71.1713","name":"Staples - 450 Providence Hwy; Dedham","address":" MA 02026>781-329-3766"},{"latitude":"42.0266","longitude":"-71.2379","name":"Staples - 390 W St; Mansfield","address":" MA 02048>508-261-2889"},{"latitude":"42.1784","longitude":"-71.1915","name":"Staples - 991 Providence Hwy; Norwood","address":" MA 02062>781-255-7720"},{"latitude":"42.359284","longitude":"-71.057984","name":"Staples - 1 Washington Mall; Boston","address":" MA 02108>617-248-8975"},{"latitude":"42.2843","longitude":"-71.0445","name":"Staples - 757 Gallivan Blvd; Dorchester","address":" MA 02122>617-436-0770"},{"latitude":"42.35997","longitude":"-71.15134","name":"Staples - 1660 Soldiers Field Rd; Brighton","address":" MA 02135>617-254-4822"},{"latitude":"42.37203","longitude":"-71.12119","name":"Staples - 57 JFK St; Cambridge","address":" MA 02138>617-491-1166"},{"latitude":"42.3897","longitude":"-71.142","name":"Staples - 186 Alewife Brook Pkwy; Cambridge","address":" MA 02138>617-547-3948"},{"latitude":"42.395","longitude":"-71.08377","name":"Staples - 165 Middlesex Ave; Somerville","address":" MA 02145>617-623-7980"},{"latitude":"42.4123","longitude":"-70.9943","name":"Staples - 151 VFW Pkwy; Revere","address":" MA 02151>781-289-8950"},{"latitude":"42.216071","longitude":"-70.999325","name":"Staples - 500 Grossman Dr; Braintree","address":" MA 02184>781-794-2951"},{"latitude":"42.24387","longitude":"-70.9353","name":"Staples - 729 Bridge St; Weymouth","address":" MA 02191>781-331-4282"},{"latitude":"42.34479","longitude":"-71.10467","name":"Staples - 401 Park Dr; Boston","address":" MA 02215>617-638-3292"},{"latitude":"42.07201","longitude":"-71.04541","name":"Staples - 599 Belmont St; Brockton","address":" MA 02301>508-587-7793"},{"latitude":"42.1261","longitude":"-71.0674","name":"Staples - 20 Stockwell Dr; Avon","address":" MA 02322>508-580-5459"},{"latitude":"42.10736","longitude":"-70.77303","name":"Staples - 125 Church St; Pembroke","address":" MA 02359>781-826-5842"},{"latitude":"41.9544","longitude":"-70.6847","name":"Staples - 131 Samoset St; Plymouth","address":" MA 02360>508-746-5215"},{"latitude":"42.40345","longitude":"-71.23604","name":"Staples - 800 Lexington St; Waltham","address":" MA 02451>781-899-4943"},{"latitude":"42.30449","longitude":"-71.22092","name":"Staples - 163 Highland Ave; Needham","address":" MA 02494>781-449-5766"},{"latitude":"41.5568","longitude":"-70.59959","name":"Staples - 7 Davis Straits Rd; Falmouth","address":" MA 02540>508-495-0800"},{"latitude":"41.775757","longitude":"-70.745544","name":"Staples - 2421 Cranberry Hwy; Wareham","address":" MA 02571>508-273-0414"},{"latitude":"41.66429","longitude":"-70.2867","name":"Staples - 364 Barnstable Rd; Hyannis","address":" MA 02601>508-771-4950"},{"latitude":"41.7841","longitude":"-69.99805","name":"Staples - 136 Rte 6A; Orleans","address":" MA 02653>508-240-0425"},{"latitude":"41.9228","longitude":"-71.3578","name":"Staples - 275 Washington St; South Attleboro","address":" MA 02703>508-761-5900"},{"latitude":"41.6402","longitude":"-70.8852","name":"Staples - 17 Plaza Way; Fairhaven","address":" MA 02719>508-997-5103"},{"latitude":"41.6719","longitude":"-71.1589","name":"Staples - 416 William S Canning Blvd; Fall River","address":" MA 02722>508-679-4500"},{"latitude":"38.07777","longitude":"-78.47785","name":"Staples - 600 South St W; Raynham","address":" MA 02767>508-824-0600"},{"latitude":"41.79614","longitude":"-71.33077","name":"Staples - 175 W Highland Ave; Seekonk","address":" MA 02771>508-336-3233"},{"latitude":"38.62812","longitude":"-76.91262","name":"Staples - 3019 Festival Way; Waldorf","address":" MD 20601>301-638-3400"},{"latitude":"38.3019","longitude":"-76.51909","name":"Staples - 45035 Worth Ave; California","address":" MD 20619>301-863-3313"},{"latitude":"38.953771","longitude":"-76.874124","name":"Staples - 7933 Annapolis Rd; Lanham","address":" MD 20706>301-306-4530"},{"latitude":"39.08555","longitude":"-76.86199","name":"Staples - 14280 Baltimore Ave; Laurel","address":" MD 20707>301-604-4991"},{"latitude":"38.9522","longitude":"-76.7208","name":"Staples - 4450 Mitchellville Rd; Bowie","address":" MD 20716>301-352-5410"},{"latitude":"38.77013","longitude":"-76.88815","name":"Staples - 8861 Branch Ave; Clinton","address":" MD 20735>301-856-7027"},{"latitude":"38.9964","longitude":"-76.9074","name":"Staples - 8904 62nd Ave; College Park","address":" MD 20740>301-474-0610"},{"latitude":"38.80375","longitude":"-76.99029","name":"Staples - 6139 Oxon Hill Rd; Oxon Hill","address":" MD 20745>301-749-6567"},{"latitude":"38.898148","longitude":"-76.827602","name":"Staples - 10530 Campus Way; South Largo","address":" MD 20774>301-336-5861"},{"latitude":"38.96624","longitude":"-76.95493","name":"Staples - 2950 Belcrest Center Dr; Hyattesville","address":" MD 20782>301-559-2494"},{"latitude":"38.97697","longitude":"-77.09135","name":"Staples - 6800 Wisconsin Ave; Chevy Chase","address":" MD 20815>301-652-3174"},{"latitude":"39.06445","longitude":"-77.12727","name":"Staples - 1531 Rockville Pike; Rockville","address":" MD 20852>301-881-6390"},{"latitude":"40.0302","longitude":"-76.23545","name":"Staples - 20906 Lincoln Hwy; East Lancaster","address":" MD 20876>301-540-5446"},{"latitude":"39.1427","longitude":"-77.2208","name":"Staples - 660 Quince Orchard Rd; Gaithersburg","address":" MD 20878>301-987-7611"},{"latitude":"39.05425","longitude":"-76.95484","name":"Staples - 12008 Cherry Hill Rd; Silver Spring","address":" MD 20904>301-572-7200"},{"latitude":"39.06217","longitude":"-77.05212","name":"Staples - 12389 Georgia Ave; Silver Spring","address":" MD 20906>301-949-6501"},{"latitude":"39.524","longitude":"-76.35556","name":"Staples - 615 Bel Air Rd; Bel Air","address":" MD 21014>410-638-9543"},{"latitude":"39.25168","longitude":"-76.82043","name":"Staples - 4380-B Montgomery Rd; Ellicott City","address":" MD 21043>410-461-1465"},{"latitude":"39.1813","longitude":"-76.8228","name":"Staples - 9091 Snowden River Pkwy; Columbia","address":" MD 21045>410-312-1575"},{"latitude":"39.15861","longitude":"-76.7223","name":"Staples - 7661 Arundel Mills Blvd; Hanover","address":" MD 21076>410-799-4828"},{"latitude":"39.4435","longitude":"-76.62727","name":"Staples - 2131 York Rd; Timonium","address":" MD 21093>410-561-7799"},{"latitude":"39.5752","longitude":"-76.98099","name":"Staples - 405 N Center St; Westminster","address":" MD 21157>410-857-3950"},{"latitude":"39.375961","longitude":"-76.724862","name":"Staples - 1340 - 1354 Reistertown Rd; Pikesville","address":" MD 21208>410-484-0472"},{"latitude":"39.36352","longitude":"-76.61008","name":"Staples - 5835 York Rd; Baltimore","address":" MD 21212>410-323-6235"},{"latitude":"39.29625","longitude":"-76.50584","name":"Staples - 7929 Eastern Ave; Baltimore","address":" MD 21224>410-288-3391"},{"latitude":"39.28542","longitude":"-76.74478","name":"Staples - 6030 Baltimore National Pike; Catonsville","address":" MD 21228>410-747-7057"},{"latitude":"39.37084","longitude":"-76.467239","name":"Staples - 8115 Honeygo Blvd; Nottingham","address":" MD 21236>410-933-1887"},{"latitude":"39.3983","longitude":"-76.586","name":"Staples - 803 Goucher Blvd; Towson","address":" MD 21286>410-337-7212"},{"latitude":"38.98557","longitude":"-76.55482","name":"Staples - 2631 Housley Rd; Annapolis","address":" MD 21401>410-266-9757"},{"latitude":"39.63553","longitude":"-78.83901","name":"Staples - 1230 National Hwy; LaVale","address":" MD 21502>301-729-7840"},{"latitude":"38.7737","longitude":"-76.0577","name":"Staples - 8168 Elliot Rd; Easton","address":" MD 21601>410-770-3839"},{"latitude":"39.43103","longitude":"-77.42021","name":"Staples - 1305 W 7th St; Frederick","address":" MD 21702>301-620-9011"},{"latitude":"39.38224","longitude":"-77.40043","name":"Staples - 5557 Urbana Pke; Frederick","address":" MD 21704>301-663-0643"},{"latitude":"39.63198","longitude":"-77.76003","name":"Staples - 1631 Wesel Blvd; Hagerstown","address":" MD 21740>301-714-0370"},{"latitude":"38.41384","longitude":"-75.56825","name":"Staples - 2636 N Salisbury Blvd; Salisbury","address":" MD 21801>410-548-9141"},{"latitude":"38.33787","longitude":"-75.1096","name":"Staples - 12641-96 Ocean Gateway; Ocean City","address":" MD 21842>410-213-1168"},{"latitude":"39.60246","longitude":"-75.80195","name":"Staples - 801 E Pulaski Hwy; Elkton","address":" MD 21921>410-620-2425"},{"latitude":"43.481","longitude":"-70.4816","name":"Staples - 201 Mariner Way; Biddeford","address":" ME 04005>207-294-6380"},{"latitude":"43.9069","longitude":"-69.9173","name":"Staples - 8 Gurnet Rd; Brunswick","address":" ME 04011>207-725-2741"},{"latitude":"43.83662","longitude":"-70.44059","name":"Staples - 770 Roosevelt Trl; North Windham","address":" ME 04062>207-892-1740"},{"latitude":"43.723338","longitude":"-70.233996","name":"Staples - 240 US Rte 1; Falmouth","address":" ME 04105>207-781-2255"},{"latitude":"43.645","longitude":"-70.3268","name":"Staples - 443 Western Ave; S Portland","address":" ME 04106>207-871-9148"},{"latitude":"44.0839","longitude":"-70.2039","name":"Staples - 855 Lisbon St; Lewiston","address":" ME 04240>207-753-0779"},{"latitude":"44.308507","longitude":"-69.806876","name":"Staples - 14 Crossing Way; Augusta","address":" ME 04330>207-629-9314"},{"latitude":"44.8346","longitude":"-68.7444","name":"Staples - 180 Bangor Mall Blvd; Bangor","address":" ME 04401>207-947-9225"},{"latitude":"44.12339","longitude":"-69.0998","name":"Staples - 235 Camden St; Rockland","address":" ME 04841>207-596-5696"},{"latitude":"44.57032","longitude":"-69.64194","name":"Staples - 40 Waterville Commons Dr; Waterville","address":" ME 04901>207-873-4092"},{"latitude":"42.5325","longitude":"-83.1648","name":"Staples - 1129 W 14 Mile Rd; Clawson","address":" MI 48017>248-288-4163"},{"latitude":"42.6763","longitude":"-82.8312","name":"Staples - 51382 Gratiot Ave; Chesterfield","address":" MI 48051>586-949-3469"},{"latitude":"43.0361","longitude":"-82.45789","name":"Staples - 4303 24th Ave; Fort Gratiot","address":" MI 48059>810-385-6980"},{"latitude":"42.5313","longitude":"-82.914","name":"Staples - 31900 Gratiot Ave; Roseville","address":" MI 48066>586-415-0078"},{"latitude":"42.279123","longitude":"-83.214865","name":"Staples - 23035 Outer Dr; Allen Park","address":" MI 48101>313-563-3537"},{"latitude":"42.2795","longitude":"-83.78197","name":"Staples - 2601 Jackson St; Ann Arbor","address":" MI 48103>734-994-6437"},{"latitude":"42.54324","longitude":"-83.80376","name":"Staples - 8063 Challis Rd; Brighton","address":" MI 48116>810-227-3980"},{"latitude":"42.3021","longitude":"-83.25969","name":"Staples - 23131 Michigan Ave; Dearborn","address":" MI 48124>313-562-1840"},{"latitude":"41.95225","longitude":"-83.402049","name":"Staples - 2145 N Telegraph Rd; Monroe","address":" MI 48162>734-457-0135"},{"latitude":"42.3962","longitude":"-82.9201","name":"Staples - 17410 Mack Ave; Grosse Point","address":" MI 48230>313-343-9033"},{"latitude":"42.60455","longitude":"-83.2663","name":"Staples - 43313 Woodward Ave; Bloomfield Hills","address":" MI 48302>248-874-1198"},{"latitude":"42.65334","longitude":"-83.13459","name":"Staples - 1950 S Rochester Rd; Rochester Hills","address":" MI 48306>248-651-7160"},{"latitude":"42.70584","longitude":"-83.3053","name":"Staples - 280 Brown Rd; Auburn Hills","address":" MI 48326>248-393-7099"},{"latitude":"42.4926","longitude":"-83.51729","name":"Staples - 47610 Grand River; Novi","address":" MI 48374>248-449-2749"},{"latitude":"42.52887","longitude":"-83.44062","name":"Staples - 335 Haggerty Rd; Walled Lake","address":" MI 48390>248-926-1997"},{"latitude":"42.93918","longitude":"-83.64487","name":"Staples - 6272 Saginaw Rd; Grand Blanc","address":" MI 48439>810-953-0966"},{"latitude":"43.01836","longitude":"-83.63267","name":"Staples - 4190 E Court St; Burton","address":" MI 48509>810-715-1564"},{"latitude":"43.4805","longitude":"-83.973","name":"Staples - 2860 Tittabawassee Rd; Saginaw","address":" MI 48604>989-793-9123"},{"latitude":"43.66148","longitude":"-84.24606","name":"Staples - 1517 Joe Mann Blvd; Midland","address":" MI 48642>989-837-7831"},{"latitude":"43.6233","longitude":"-83.9139","name":"Staples - 4021 N Euclid Ave; Bay City","address":" MI 48706>989-667-0422"},{"latitude":"43.58073","longitude":"-84.76675","name":"Staples - 2141 S Mission St; Mt. Pleasant","address":" MI 48858>989-772-7842"},{"latitude":"42.7337","longitude":"-84.5098","name":"Staples - 3003 E Michigan Ave; Lansing","address":" MI 48912>517-332-3632"},{"latitude":"42.74079","longitude":"-84.67415","name":"Staples - 321 N Marketplace Blvd; Lansing","address":" MI 48917>517-627-6700"},{"latitude":"42.26062","longitude":"-85.17562","name":"Staples - 6128 Beckley Dr N; Battle Creek","address":" MI 49014>269-979-3929"},{"latitude":"42.07978","longitude":"-86.42223","name":"Staples - 1485 Mall Dr; Benton Harbor","address":" MI 49022>269-927-2242"},{"latitude":"41.8786","longitude":"-84.0457","name":"Staples - 1416 S Main St; Adrian","address":" MI 49221>517-266-1176"},{"latitude":"43.68764","longitude":"-85.49274","name":"Staples - 408 Perry Ave; Big Rapids","address":" MI 49307>231-592-8072"},{"latitude":"42.846174","longitude":"-85.617056","name":"Staples - 1849 Marketplace Dr; Caledonia","address":" MI 49316>616-698-9287"},{"latitude":"43.06625","longitude":"-86.21932","name":"Staples - 840 Jackson St; Grand Haven","address":" MI 49417>616-847-2946"},{"latitude":"42.8829","longitude":"-85.74709","name":"Staples - 3313 Century Center Dr; Grandville","address":" MI 49418>616-261-1309"},{"latitude":"42.80873","longitude":"-86.08981","name":"Staples - 2337 N Park Dr; Holland","address":" MI 49424>616-393-8103"},{"latitude":"43.2043","longitude":"-86.2022","name":"Staples - 1773 E Sherman Blvd; Muskegon","address":" MI 49444>231-739-7739"},{"latitude":"42.91061","longitude":"-85.53676","name":"Staples - 5110 28th St; Grand Rapids","address":" MI 49512>616-949-2705"},{"latitude":"44.72989","longitude":"-85.63506","name":"Staples - 2632 Crossing Circle; Traverse City","address":" MI 49685>231-929-8374"},{"latitude":"45.003562","longitude":"-93.16445","name":"Staples - 2100 N Snelling Dr; Roseville","address":" MN 55113>651-633-1034"},{"latitude":"44.732586","longitude":"-93.199038","name":"Staples - 14969 Florence Trl; Apple Valley","address":" MN 55124>952-953-0005"},{"latitude":"44.945781","longitude":"-92.906508","name":"Staples - 9885 Hudson Place; Woodbury","address":" MN 55125>651-731-9917"},{"latitude":"44.971991","longitude":"-93.425761","name":"Staples - 11500 Wayzata Blvd; Minnetonka","address":" MN 55305>952-545-6165"},{"latitude":"44.860501","longitude":"-93.331064","name":"Staples - 4200 78th St; Bloomington","address":" MN 55435>952-835-1571"},{"latitude":"44.0642","longitude":"-92.50188","name":"Staples - 3839 Market Place Dr NW; Rochester","address":" MN 55901>507-536-3939"},{"latitude":"37.3006","longitude":"-89.5802","name":"Staples - 294 Siemers Dr; Cape Girardeau","address":" MO 63701>573-651-4846"},{"latitude":"38.16908","longitude":"-92.60972","name":"Staples - 3534 Hwy 54; Osage Beach","address":" MO 65049>573-365-8943"},{"latitude":"38.58232","longitude":"-92.21595","name":"Staples - 2500 Missouri Blvd; Jefferson City","address":" MO 65109>573-659-3624"},{"latitude":"38.95139","longitude":"-92.29385","name":"Staples - 115 Conley Rd; Columbia","address":" MO 65201>573-441-9900"},{"latitude":"38.70858","longitude":"-93.26741","name":"Staples - 3601 W Boadway; Sedalia","address":" MO 65301>660-826-8226"},{"latitude":"37.9395","longitude":"-91.77618","name":"Staples - 615 S Bishop; Rolla","address":" MO 65401>573-368-2878"},{"latitude":"36.66299","longitude":"-93.24266","name":"Staples - 1495 Hwy 248; Branson","address":" MO 65616>417-348-0651"},{"latitude":"37.14181","longitude":"-93.2544","name":"Staples - 2135 E Independence Ave; Springfield","address":" MO 65804>417-890-5146"},{"latitude":"47.51627","longitude":"-111.31213","name":"Staples - 207 Northwest Bypass; Great Falls","address":" MT 59404>406-453-0900"},{"latitude":"46.615625","longitude":"-112.00665","name":"Staples - 2020 Cromwell Dixon Lane; Helena","address":" MT 59601>406-442-5890"},{"latitude":"45.97071","longitude":"-112.50661","name":"Staples - 3636 Harrison Ave; Butte","address":" MT 59701>406-494-1000"},{"latitude":"45.6772","longitude":"-111.067","name":"Staples - 200 S 23rd Ave; Bozeman","address":" MT 59715>406-582-4450"},{"latitude":"45.71387","longitude":"-111.06799","name":"Staples - 2975 Max Ave; Bozeman","address":" MT 59718>406-585-1235"},{"latitude":"46.8918","longitude":"-114.0378","name":"Staples - 2640 N Reserve St; Missoula","address":" MT 59808>406-728-9558"},{"latitude":"48.20799","longitude":"-114.2936","name":"Staples - 1290 Hwy 2 E; Kalispell","address":" MT 59901>406-257-8200"},{"latitude":"36.02988","longitude":"-80.38198","name":"Staples - 2509A Lewisville Clemmons Rd; Clemmons","address":" NC 27012>336-766-1601"},{"latitude":"36.47529","longitude":"-80.61767","name":"Staples - 2123 Rockford St; Mt Airy","address":" NC 27030>336-789-1067"},{"latitude":"36.18912","longitude":"-80.27216","name":"Staples - 430 Hanes Mill Rd; Winston Salem","address":" NC 27105>336-377-3436"},{"latitude":"35.6995","longitude":"-79.78789","name":"Staples - 176 N Hwy 42; Asheboro","address":" NC 27203>336-629-2235"},{"latitude":"35.984318","longitude":"-80.020264","name":"Staples - 265 Eastchester Dr; High Point","address":" NC 27262>336-804-6033"},{"latitude":"36.1096","longitude":"-80.0948","name":"Staples - 210 Harmon Creek Rd; Kernersville","address":" NC 27284>336-993-7474"},{"latitude":"36.0584","longitude":"-79.88851","name":"Staples - 4214 W Wendover Ave; Greensboro","address":" NC 27407>336-856-9800"},{"latitude":"35.7588","longitude":"-78.78312","name":"Staples - 1391 Kildaire Farm Rd; Cary","address":" NC 27511>919-481-6558"},{"latitude":"35.80422","longitude":"-78.7803","name":"Staples - 220 Grande Heights Dr.; Cary","address":" NC 27513>919-380-8510"},{"latitude":"35.93963","longitude":"-79.02171","name":"Staples - 1710 E Franklin St; Chapel Hill","address":" NC 27514>919-942-4115"},{"latitude":"35.59373","longitude":"-78.77392","name":"Staples - 921 E Broad St; Fuquay-Varina","address":" NC 27526>919-552-1693"},{"latitude":"35.68735","longitude":"-78.578033","name":"Staples - 1220 Timber Dr E; Garner","address":" NC 27529>919-334-0148"},{"latitude":"35.37997","longitude":"-77.93414","name":"Staples - 1101B Berkeley Plaza; Goldsboro","address":" NC 27534>919-778-1588"},{"latitude":"36.33738","longitude":"-78.44112","name":"Staples - 160 Dabney Rd; Henderson","address":" NC 27537>252-738-2488"},{"latitude":"35.98006","longitude":"-78.54103","name":"Staples - 11845 Retail Dr; Wake Forest","address":" NC 27587>919-562-5134"},{"latitude":"35.8474","longitude":"-78.5826","name":"Staples - 2950 Millbrook Rd; Raleigh","address":" NC 27604>919-876-7264"},{"latitude":"35.8194","longitude":"-78.6238","name":"Staples - 404 E Six Forks Rd; Raleigh","address":" NC 27609>919-856-0084"},{"latitude":"35.90934","longitude":"-78.78136","name":"Staples - 8041 Brier Creek Pkwy; Raleigh","address":" NC 27617>919-484-2482"},{"latitude":"36.0495","longitude":"-78.9051","name":"Staples - 3600 N Duke St; Durham","address":" NC 27704>919-479-9352"},{"latitude":"35.58325","longitude":"-77.37232","name":"Staples - 600 E Greenville Blvd; Greenville","address":" NC 27834>252-355-4093"},{"latitude":"35.7325","longitude":"-77.95189","name":"Staples - 2342 Forest Hills Rd; Wilson","address":" NC 27893>252-234-6202"},{"latitude":"35.99081","longitude":"-75.64749","name":"Staples - 2210 S Croatan Hwy; Nags Head","address":" NC 27959>252-449-0204"},{"latitude":"35.43913","longitude":"-80.60584","name":"Staples - 1480 US Hwy 29 N; Concord","address":" NC 28025>704-262-3503"},{"latitude":"35.3333","longitude":"-81.8901","name":"Staples - 129 Plaza Dr; Forest City","address":" NC 28043>828-286-9478"},{"latitude":"35.44394","longitude":"-80.86367","name":"Staples - 10031 Biddick Lane; Huntersville","address":" NC 28078>704-892-9699"},{"latitude":"35.59349","longitude":"-80.87161","name":"Staples - 615 River Hwy; Mooresville","address":" NC 28117>704-660-3400"},{"latitude":"35.65132","longitude":"-80.45901","name":"Staples - 355 Faith Rd; Salisbury","address":" NC 28146>704-797-0134"},{"latitude":"35.213092","longitude":"-80.834862","name":"Staples - 1055 Metropolitan Ave; Charlotte","address":" NC 28204>704-332-3042"},{"latitude":"35.08814","longitude":"-80.85854","name":"Staples - 8322 Pineville Matthews Rd; Charlotte","address":" NC 28226>704-540-2391"},{"latitude":"35.34661","longitude":"-80.84144","name":"Staples - 7014 Smith Corners Blvd; Charlotte","address":" NC 28269>704-494-4093"},{"latitude":"35.06401","longitude":"-80.76981","name":"Staples - 10850 Providence Rd; Charlotte","address":" NC 28277>704-844-6155"},{"latitude":"35.06969","longitude":"-78.9655","name":"Staples - 5075 Morganton Rd; Fayetteville","address":" NC 28314>910-867-7845"},{"latitude":"35.16116","longitude":"-79.42203","name":"Staples - 290 Turner St; Aberdeen","address":" NC 28315>910-692-2781"},{"latitude":"34.2369","longitude":"-77.8726","name":"Staples - 322 S College Rd; Wilmington","address":" NC 28403>910-313-0636"},{"latitude":"34.13609","longitude":"-77.891252","name":"Staples - 5613 Carolina Beach Rd; Wilmington","address":" NC 28412>910-313-3160"},{"latitude":"34.77856","longitude":"-77.3931","name":"Staples - 1144 Western Blvd; Jacksonville","address":" NC 28546>910-346-4237"},{"latitude":"34.73608","longitude":"-76.80858","name":"Staples - 5201 US Hwy 70; Morehead City","address":" NC 28557>252-726-2666"},{"latitude":"35.10175","longitude":"-77.09044","name":"Staples - 3230 MLK Blvd; New Bern","address":" NC 28562>252-637-6867"},{"latitude":"36.2227","longitude":"-81.70359","name":"Staples - 1275 Blowing Rock Rd; Boone","address":" NC 28607>828-263-0551"},{"latitude":"35.814851","longitude":"-80.874188","name":"Staples - 224 Turnersburg Hwy; Statesville","address":" NC 28625>704-883-7543"},{"latitude":"35.725074","longitude":"-81.701496","name":"Staples - D114 Morganton Heights Blvd; Morganton","address":" NC 28655>828-439-6019"},{"latitude":"35.50521","longitude":"-82.99144","name":"Staples - 89 Russ Ave; Waynesville","address":" NC 28786>828-456-2089"},{"latitude":"35.34514","longitude":"-82.4375","name":"Staples - 150 Highland Sq Dr; Hendersonville","address":" NC 28792>828-696-1635"},{"latitude":"35.60134","longitude":"-82.55334","name":"Staples - 65 Merrimon Ave; Asheville","address":" NC 28801>828-232-2886"},{"latitude":"46.79658","longitude":"-100.79503","name":"Staples - 840 S Washington St; Bismarck","address":" ND 58504>701-223-1069"},{"latitude":"48.205282","longitude":"-101.293796","name":"Staples -  10 28th Ave SW; Minot","address":" ND 58701>701-837-4915"},{"latitude":"41.45092","longitude":"-96.48366","name":"Staples - 1039 E 23rd; Fremont","address":" NE 68025>402-727-9556"},{"latitude":"40.814038","longitude":"-96.652171","name":"Staples - 4940 O St; Lincoln","address":" NE 68510>402-467-1118"},{"latitude":"41.12039","longitude":"-100.7628","name":"Staples - 1000 S Dewey; N Platte","address":" NE 69101>308-532-1990"},{"latitude":"41.86766","longitude":"-103.6399","name":"Staples - 1711 Frontage Rd; Scottsbluff","address":" NE 69361>308-632-4385"},{"latitude":"42.80641","longitude":"-71.56381","name":"Staples - 124 Rte 101A; Amherst","address":" NH 03031>603-578-4897"},{"latitude":"42.86372","longitude":"-71.34819","name":"Staples - 41 Nashua Rd; Londonderry","address":" NH 03053>603-434-8990"},{"latitude":"42.70972","longitude":"-71.44167","name":"Staples - 252 Daniel Webster Hwy; Nashua","address":" NH 03060>603-897-6600"},{"latitude":"42.7787","longitude":"-71.4973","name":"Staples - 255 Amherst St; Nashua","address":" NH 03063>603-880-1428"},{"latitude":"42.7685","longitude":"-71.21908","name":"Staples - 176 S Broadway; Salem","address":" NH 03079>603-893-6114"},{"latitude":"42.9551","longitude":"-71.437","name":"Staples - 1525 S Willow St; Manchester","address":" NH 03103>603-668-4950"},{"latitude":"42.958838","longitude":"-71.477895","name":"Staples - 85 S River Rd; Bedford","address":" NH 03110>603-623-9025"},{"latitude":"43.45738","longitude":"-71.55936","name":"Staples - 75 Laconia Rd; Tilton","address":" NH 03276>603-286-9301"},{"latitude":"43.21458","longitude":"-71.53149","name":"Staples - 76 Fort Eddy Plaza; Concord","address":" NH 03301>603-225-9573"},{"latitude":"42.9242","longitude":"-72.2916","name":"Staples - 63 Key Rd; Keene","address":" NH 03431>603-355-1381"},{"latitude":"44.30744","longitude":"-71.80257","name":"Staples - 804 Meadow St; Littleton","address":" NH 03561>603-444-5255"},{"latitude":"43.62855","longitude":"-72.325567","name":"Staples - 254 Plainfield Rd; West Lebanon","address":" NH 03784>603-298-5260"},{"latitude":"43.0937","longitude":"-70.7938","name":"Staples - 45 Gosling Rd; Newington","address":" NH 03801>603-334-3423"},{"latitude":"43.29799","longitude":"-70.992967","name":"Staples - 125 Washington St; Rochester","address":" NH 03839>603-330-0165"},{"latitude":"44.026768","longitude":"-71.116978","name":"Staples - 19 Barnes Rd; North Conway","address":" NH 03860>603-356-0730"},{"latitude":"42.828","longitude":"-71.1076","name":"Staples - 58 Plaistow Rd; Plaistow","address":" NH 03865>603-382-3280"},{"latitude":"42.8933","longitude":"-70.8738","name":"Staples - 536 Lafayette Rd; Seabrook","address":" NH 03874>603-474-8511"},{"latitude":"43.2227","longitude":"-70.888","name":"Staples - 249 Indian Brook Pkwy; Somersworth","address":" NH 03878>603-750-0078"},{"latitude":"42.99234","longitude":"-70.92476","name":"Staples - 20 Portsmouth Ave; Stratham","address":" NH 03885>603-772-2617"},{"latitude":"40.7792","longitude":"-74.1887","name":"Staples - 135 Bloomfield Ave; Bloomfield","address":" NJ 07003>973-259-1411"},{"latitude":"40.83379","longitude":"-74.2272","name":"Staples - 91-93 Rte 23 Pompton Ave; Cedar Grove","address":" NJ 07009>973-571-0104"},{"latitude":"40.83111","longitude":"-74.14233","name":"Staples - 136 Kingsland Rd; Clifton","address":" NJ 07014>973-594-9701"},{"latitude":"40.816","longitude":"-73.9809","name":"Staples - 547 River Rd; Edgewater","address":" NJ 07020>201-945-0955"},{"latitude":"40.8596","longitude":"-73.9723","name":"Staples - 461-469 W St; Fort Lee","address":" NJ 07024>201-461-0150"},{"latitude":"40.62028","longitude":"-74.24747","name":"Staples - 653 W Edgar Rd; Linden","address":" NJ 07036>908-862-5855"},{"latitude":"40.7969","longitude":"-74.3443","name":"Staples - 506 W Mt. Pleasant Ave; Livingston","address":" NJ 07039>973-740-0096"},{"latitude":"40.77545","longitude":"-74.033","name":"Staples - 3113 Kennedy Blvd; Noeth Bergen","address":" NJ 07047>201-863-6700"},{"latitude":"40.8033","longitude":"-74.2478","name":"Staples - 235 Prospect Ave; West Orange","address":" NJ 07052>973-736-8020"},{"latitude":"40.86102","longitude":"-74.38396","name":"Staples - 760 Rte 46 W; Parsippany","address":" NJ 07054>973-541-0300"},{"latitude":"40.64141","longitude":"-74.41885","name":"Staples - 1515 Rte 22 W; Watchung","address":" NJ 07069>908-222-9402"},{"latitude":"40.82556","longitude":"-74.09596","name":"Staples - 280 Rte 17 N; E Rutherford","address":" NJ 07073>201-531-9777"},{"latitude":"40.55393","longitude":"-74.43189","name":"Staples - 7000 Hadley Rd; S Plainfield","address":" NJ 07080>908-756-4068"},{"latitude":"40.68551","longitude":"-74.31856","name":"Staples - 155 Rte 22 E; Springfield","address":" NJ 07081>973-467-0808"},{"latitude":"40.72059","longitude":"-74.28883","name":"Staples - 2933 Vauxhall Rd; Vauxhall","address":" NJ 07088>908-206-8765"},{"latitude":"40.720603","longitude":"-74.095865","name":"Staples - 701 SR 440; Jersey City","address":" NJ 07304>201-536-1890"},{"latitude":"40.72922","longitude":"-74.03587","name":"Staples - 613 Washington Blvd; Jersey City","address":" NJ 07310>201-217-9900"},{"latitude":"41.02427","longitude":"-74.2411","name":"Staples - 350 Ramapo Valley Rd; Oakland","address":" NJ 07436>201-337-1270"},{"latitude":"41.07553","longitude":"-74.14649","name":"Staples - 1300 Rte17 N; Ramsey","address":" NJ 07446>201-785-0981"},{"latitude":"40.98919","longitude":"-74.33172","name":"Staples - 106 Rte 23 N; Riverdale","address":" NJ 07457>973-248-1463"},{"latitude":"40.93633","longitude":"-74.26983","name":"Staples - 1491 Rte 23; Wayne","address":" NJ 07470>973-872-1485"},{"latitude":"40.897442","longitude":"-74.238708","name":"Staples - 545 US Hwy 46; Totowa","address":" NJ 07511>973-890-5454"},{"latitude":"40.9103","longitude":"-74.03375","name":"Staples - 466 Hackensack Ave; Hackensack","address":" NJ 07601>201-678-0600"},{"latitude":"40.93347","longitude":"-73.9967","name":"Staples - 25 W Central St; Bergenfield","address":" NJ 07621>201-244-1100"},{"latitude":"40.955282","longitude":"-74.074346","name":"Staples - 501 Rte 17 S; Paramus","address":" NJ 07652>201-986-3834"},{"latitude":"41.0349","longitude":"-74.03351","name":"Staples - 175 Kinderkamack Rd; Park Ridge","address":" NJ 07656>201-802-0813"},{"latitude":"40.8875","longitude":"-74.0926","name":"Staples - 217 Rte 46 W; Saddlebrook","address":" NJ 07663>201-909-8993"},{"latitude":"40.31745","longitude":"-74.06233","name":"Staples - 1021 Broad St; Shrewsbury","address":" NJ 07702>732-460-0623"},{"latitude":"40.23722","longitude":"-74.03852","name":"Staples - 1100 Hwy 35; Ocean","address":" NJ 07712>732-918-9446"},{"latitude":"40.35879","longitude":"-74.30907","name":"Staples - 166 US Rte 9 N; Marlboro","address":" NJ 07726>732-617-0314"},{"latitude":"40.28389","longitude":"-74.2934","name":"Staples - 4345 Hwy Rte 9; Freehold","address":" NJ 07728>732-431-5878"},{"latitude":"40.42022","longitude":"-74.18442","name":"Staples - 3140 Rte 35; Hazlet","address":" NJ 07730>732-335-3420"},{"latitude":"40.14699","longitude":"-74.22687","name":"Staples - 4514 Rte 9 S; Howell","address":" NJ 07731>732-942-1105"},{"latitude":"40.4026","longitude":"-74.12459","name":"Staples - 1515 Rte 35 N; Middletown","address":" NJ 07748>732-671-1100"},{"latitude":"40.82959","longitude":"-74.83454","name":"Staples - 2045 Hwy 57; Hackettstown","address":" NJ 07840>908-684-1214"},{"latitude":"41.071474","longitude":"-74.741589","name":"Staples - 19 Hampton House Rd; Newton","address":" NJ 07860>973-579-7009"},{"latitude":"40.87352","longitude":"-74.53765","name":"Staples - 140 Rte 10 West; Randolph","address":" NJ 07869>973-537-0326"},{"latitude":"40.869277","longitude":"-74.650412","name":"Staples - 281 SR 10 E; Succasunna","address":" NJ 07876>973-252-0633"},{"latitude":"40.7836","longitude":"-74.6988","name":"Staples - 187 Rte 206 N; Chester","address":" NJ 07930>908-879-4943"},{"latitude":"40.75054","longitude":"-74.40237","name":"Staples - 300 Main St; Madison","address":" NJ 07940>973-236-0800"},{"latitude":"40.7978","longitude":"-74.47192","name":"Staples - 30 Lafayette Ave; Morristown","address":" NJ 07960>973-734-1800"},{"latitude":"39.92304","longitude":"-75.04527","name":"Staples - 2230 W Marlton Pike; Cherry Hill","address":" NJ 08002>856-910-9111"},{"latitude":"39.7304","longitude":"-75.0352","name":"Staples - 3501 Black Horse Pike; Turnersville","address":" NJ 08012>856-262-8800"},{"latitude":"39.7219","longitude":"-75.11635","name":"Staples - 767 N Delsea Dr; Glassboro","address":" NJ 08028>856-307-1573"},{"latitude":"39.70676","longitude":"-74.27843","name":"Staples - 601 Washington Ave; Manahawkin","address":" NJ 08050>609-597-4583"},{"latitude":"39.89448","longitude":"-74.93419","name":"Staples - 701 Rte 70 W; Marlton","address":" NJ 08053>856-596-0231"},{"latitude":"39.9446","longitude":"-74.95918","name":"Staples - 1181 Nixon Dr; Moorestown","address":" NJ 08057>856-642-1124"},{"latitude":"40.00285","longitude":"-74.79304","name":"Staples - 555 High St; Mt Holly","address":" NJ 08060>609-261-6060"},{"latitude":"40.01979","longitude":"-74.9421","name":"Staples - 1341 A Fairview Blvd; Delran","address":" NJ 08075>856-764-2923"},{"latitude":"39.80373","longitude":"-74.93276","name":"Staples - 200 Rte 73 S; W Berlin","address":" NJ 08091>856-753-5033"},{"latitude":"39.82794","longitude":"-75.09077","name":"Staples - 1907 Deptford Center Rd; Deptford","address":" NJ 08096>856-232-0059"},{"latitude":"39.80536","longitude":"-75.16802","name":"Staples - 1075 Mantua Pike; Woodbury","address":" NJ 08096>856-415-2061"},{"latitude":"39.08847","longitude":"-74.81948","name":"Staples - 11 Court House S Dennis Rd; Cape May Courthouse","address":" NJ 08210>609-463-1240"},{"latitude":"39.33327","longitude":"-74.5954","name":"Staples - 9 Bethel Rd; Somers Point","address":" NJ 08244>609-926-6937"},{"latitude":"39.4505","longitude":"-74.6395","name":"Staples - 120 Wrangleboro Rd; Mays Landing","address":" NJ 08330>609-407-7500"},{"latitude":"39.42353","longitude":"-75.04027","name":"Staples - 2124 N 2nd St; Millville","address":" NJ 08332>856-293-0914"},{"latitude":"40.2727","longitude":"-74.5382","name":"Staples - 440 Rte 130 S ; East Windsor","address":" NJ 08520>609-443-4440"},{"latitude":"40.301","longitude":"-74.6759","name":"Staples - 3495 US Rte 1; Princeton","address":" NJ 08540>609-520-8385"},{"latitude":"40.25903","longitude":"-74.72456","name":"Staples - 2495 Brunswick Pike; Lawrence","address":" NJ 08648>609-671-1800"},{"latitude":"40.19222","longitude":"-74.64252","name":"Staples - 550 Marketplace Blvd; Hamilton","address":" NJ 08691>609-581-7902"},{"latitude":"40.054819","longitude":"-74.154514","name":"Staples - 495 Rte 70; Brick","address":" NJ 08723>732-477-0790"},{"latitude":"39.848888","longitude":"-74.187271","name":"Staples - 300 N Main St; Forked River","address":" NJ 08731>609-242-1417"},{"latitude":"40.14045","longitude":"-74.06224","name":"Staples - 2145 Hwy 35; Sea Girt","address":" NJ 08750>732-449-1279"},{"latitude":"39.964697","longitude":"-74.201841","name":"Staples - 2 Rte 37 W; Toms River","address":" NJ 08753>732-505-0094"},{"latitude":"40.500321","longitude":"-74.857831","name":"Staples - 17 Reaville Ave; Flemington","address":" NJ 08822>908-806-6040"},{"latitude":"40.56398","longitude":"-74.30134","name":"Staples - 801 Rte 1 and Green St; Iselin","address":" NJ 08830>732-634-6093"},{"latitude":"40.517372","longitude":"-74.630806","name":"Staples - 315 US Hwy 206; Hillsborough","address":" NJ 08844>908-281-6896"},{"latitude":"40.674917","longitude":"-75.135577","name":"Staples - 1200 New Brunswick Ave; Phillipsburg","address":" NJ 08865>908-454-7855"},{"latitude":"40.575405","longitude":"-74.632806","name":"Staples - 300 Rte 202; Raritan","address":" NJ 08869>908-685-0658"},{"latitude":"40.462405","longitude":"-74.46003","name":"Staples - 871 Rte 1 S; North Brunswick","address":" NJ 08902>732-509-3755"},{"latitude":"35.10913","longitude":"-106.5765","name":"Staples - 6001 Menaul Blvd NE; Albuquerque","address":" NM 87110>505-830-3322"},{"latitude":"35.13","longitude":"-106.53","name":"Staples - 9701 Montgomery NE; Albuquerque","address":" NM 87111>505-292-2440"},{"latitude":"35.2028","longitude":"-106.65736","name":"Staples - 10242 Coors Bypass Blvd NW; Albuquerque","address":" NM 87114>505-890-8822"},{"latitude":"36.7477","longitude":"-108.16455","name":"Staples - 3030 B E Main St; Farmington","address":" NM 87402>505-327-1229"},{"latitude":"32.3125","longitude":"-106.75049","name":"Staples - 2260 E Lohman Ave; Las Cruces","address":" NM 88011>505-526-4871"},{"latitude":"32.71576","longitude":"-103.1384","name":"Staples - 1781 N Turner St; Hobbs","address":" NM 88240>505-391-7900"},{"latitude":"32.88234","longitude":"-105.9594","name":"Staples - 801 White Sands Blvd; Alamogordo","address":" NM 88310>505-443-8890"},{"latitude":"36.039063","longitude":"-114.991233","name":"Staples - 280 W Lake Mead Pkwy; Henderson","address":" NV 89015>702-558-0319"},{"latitude":"36.003543","longitude":"-115.085441","name":"Staples - 675 S Green Valley Pkwy; Henderson","address":" NV 89052>702-564-2014"},{"latitude":"36.286988","longitude":"-115.132885","name":"Staples - 6960 N 5th St N; Las Vegas","address":" NV 89084>702-399-2431"},{"latitude":"36.067178","longitude":"-115.175194","name":"Staples - 6677 Las Vegas Blvd S; Las Vegas","address":" NV 89119>702-207-2896"},{"latitude":"39.50693","longitude":"-119.799504","name":"Staples - 355 E Plumb Lane; Reno","address":" NV 89502>775-324-7700"},{"latitude":"39.532656","longitude":"-119.862602","name":"Staples - 10350 N McCarran Blvd; Reno","address":" NV 89503>775-787-3460"},{"latitude":"40.747749","longitude":"-73.993354","name":"Staples - 330 7th Ave; New York","address":" NY 10001>646-473-0336"},{"latitude":"40.7364","longitude":"-73.9902","name":"Staples - 5 Union Square W; New York","address":" NY 10003>212-929-6323"},{"latitude":"40.7307","longitude":"-73.9922","name":"Staples - 769 Broadway; New York","address":" NY 10003>646-654-6660"},{"latitude":"40.71159","longitude":"-74.0087","name":"Staples - 217 Broadway (Vesey St); New York","address":" NY 10007>212-346-9624"},{"latitude":"40.740638","longitude":"-73.985747","name":"Staples - 315 Park  Ave S; New York","address":" NY 10010>212-254-0487"},{"latitude":"40.740933","longitude":"-73.994488","name":"Staples - 641 6th Ave; New York","address":" NY 10011>212-462-2959"},{"latitude":"40.733197","longitude":"-73.999549","name":"Staples - 390 Avenue of the Americas; New York","address":" NY 10011>212-673-1090"},{"latitude":"40.74799","longitude":"-73.9838","name":"Staples - 16 E 34th St; New York","address":" NY 10016>212-683-8009"},{"latitude":"40.751216","longitude":"-73.973883","name":"Staples - 675 3rd Ave; New York","address":" NY 10017>212-687-3219"},{"latitude":"40.751886","longitude":"-73.98249","name":"Staples - 442 5th Ave; New York","address":" NY 10018>212-221-3517"},{"latitude":"40.75307","longitude":"-73.99276","name":"Staples - 500 8th Ave New York; New York","address":" NY 10018>212-244-2681"},{"latitude":"40.78487","longitude":"-73.97973","name":"Staples - 2248 Broadway; New York","address":" NY 10024>212-712-9617"},{"latitude":"40.80746","longitude":"-73.94579","name":"Staples - 105 W 125th St; Harlem","address":" NY 10027>212-864-5747"},{"latitude":"40.78","longitude":"-73.9555","name":"Staples - 1280 Lexington Ave; New York","address":" NY 10028>212-426-6190"},{"latitude":"40.852199","longitude":"-73.934234","name":"Staples - 4320 Broadway; New York","address":" NY 10033>212-927-0467"},{"latitude":"40.76021","longitude":"-73.98833","name":"Staples - 776 8th Ave; Manhattan","address":" NY 10036>212-265-4550"},{"latitude":"40.764852","longitude":"-73.961589","name":"Staples - 1257 2nd Ave; New York","address":" NY 10065>212-223-0347"},{"latitude":"40.62419","longitude":"-74.13735","name":"Staples - 1520 Forest Ave; Staten Island","address":" NY 10302>718-815-5599"},{"latitude":"40.5835","longitude":"-74.0955","name":"Staples - 1885 Hylan Blvd; Staten Island","address":" NY 10306>718-987-5063"},{"latitude":"40.58758","longitude":"-74.16804","name":"Staples - 2535 Richmond Ave; Staten Island","address":" NY 10314>718-477-1040"},{"latitude":"40.85197","longitude":"-73.86769","name":"Staples - 2040 White Plains Rd; Bronx","address":" NY 10462>718-409-9260"},{"latitude":"40.88123","longitude":"-73.90321","name":"Staples - 5680 Broadway and W 234th St; Bronx","address":" NY 10463>718-884-6544"},{"latitude":"40.869","longitude":"-73.83212","name":"Staples - 330-340 Baychester Ave; Bronx","address":" NY 10475>718-320-1632"},{"latitude":"41.0467","longitude":"-73.805","name":"Staples - 339 Tarrytown Rd; Elmsford","address":" NY 10523>914-345-9401"},{"latitude":"40.92152","longitude":"-73.76418","name":"Staples - 2444 Boston Post Rd; Larchmont","address":" NY 10538>914-833-2031"},{"latitude":"41.2162","longitude":"-73.7185","name":"Staples - 350 N Bedford Rd; Mt Kisco","address":" NY 10549>914-242-2106"},{"latitude":"40.90139","longitude":"-73.82369","name":"Staples - 275 E Sandford Blvd; Mt. Vernon","address":" NY 10550>914-699-1555"},{"latitude":"40.99337","longitude":"-73.6751","name":"Staples - 515 Boston Post Rd; Portchester","address":" NY 10573>914-937-8193"},{"latitude":"40.9938","longitude":"-73.8203","name":"Staples - 855 Central Park Ave; Scarsdale","address":" NY 10583>914-725-0324"},{"latitude":"41.29191","longitude":"-73.82146","name":"Staples - 3333 Crompond Rd; Yorktown","address":" NY 10598>914-734-2445"},{"latitude":"40.9528","longitude":"-73.8525","name":"Staples - 465 Tuckahoe Rd; Yonkers","address":" NY 10710>914-793-4277"},{"latitude":"41.31169","longitude":"-74.1284","name":"Staples - 31 Centre Dr; Central Valley","address":" NY 10917>845-783-3226"},{"latitude":"41.45678","longitude":"-74.37979","name":"Staples - 470 Rte 211 E; Middletown","address":" NY 10940>845-343-4590"},{"latitude":"41.1","longitude":"-74.0219","name":"Staples - 230 W Rte 59; Nanuet","address":" NY 10954>845-624-3161"},{"latitude":"41.09929","longitude":"-73.95372","name":"Staples - 2653 Palisades Ctr Dr; W Nyack","address":" NY 10994>845-353-3774"},{"latitude":"40.79304","longitude":"-73.69428","name":"Staples - 1410 Nern Blvd; Manhasset","address":" NY 11030>516-869-6858"},{"latitude":"40.7421","longitude":"-73.66079","name":"Staples - 2310 Jericho Trnpike; Garden City Park","address":" NY 11040>516-739-6903"},{"latitude":"40.7708","longitude":"-73.91707","name":"Staples - 24-41 31st St; Astoria","address":" NY 11102>718-932-0315"},{"latitude":"40.6167","longitude":"-74.02979","name":"Staples - 9319 5th Ave; Brooklyn","address":" NY 11209>718-833-1270"},{"latitude":"40.67376","longitude":"-73.98653","name":"Staples - 348 4th Ave; Brooklyn","address":" NY 11215>718-222-5732"},{"latitude":"40.722601","longitude":"-73.939326","name":"Staples - 535 Morgan Ave; Brooklyn","address":" NY 11222>718-388-3447"},{"latitude":"40.59688","longitude":"-73.98514","name":"Staples - 1949 Stillwell Ave; Brooklyn","address":" NY 11223>718-333-0680"},{"latitude":"40.64645","longitude":"-73.95805","name":"Staples - 1011 Flatbush Ave; Brooklyn","address":" NY 11226>718-703-0979"},{"latitude":"40.61145","longitude":"-73.9616","name":"Staples - 1880 Coney Island Ave; Brooklyn","address":" NY 11230>718-376-8336"},{"latitude":"40.62901","longitude":"-73.92793","name":"Staples - 1760 Utica Ave; Brooklyn","address":" NY 11234>718-763-5733"},{"latitude":"40.5909","longitude":"-73.9501","name":"Staples - 2892 Ocean Ave; Brooklyn","address":" NY 11235>718-743-8238"},{"latitude":"40.64558","longitude":"-73.87643","name":"Staples - 409 Gateway Dr; Brooklyn","address":" NY 11239>718-348-9477"},{"latitude":"40.78201","longitude":"-73.83598","name":"Staples - 134-01 20th Ave; Queens","address":" NY 11356>718-460-2258"},{"latitude":"40.759033","longitude":"-73.772965","name":"Staples - 209 - 34 Northern Blvd; Bayside","address":" NY 11361>718-229-0138"},{"latitude":"40.74889","longitude":"-73.872","name":"Staples - 93-18 Roosevelt Ave; Jackson Heights","address":" NY 11372>718-335-0286"},{"latitude":"40.71132","longitude":"-73.8589","name":"Staples - 90-30 Metropolitan Ave; Queens","address":" NY 11374>718-459-1295"},{"latitude":"40.74103","longitude":"-73.9074","name":"Staples - 58-12 Queens Blvd; Queens","address":" NY 11377>718-424-5355"},{"latitude":"40.7535","longitude":"-73.9089","name":"Staples - 51-10 Broadway; Woodside","address":" NY 11377>718-932-9673"},{"latitude":"40.68988","longitude":"-73.84201","name":"Staples - 102-34 Atlantic Ave; Ozone Park","address":" NY 11416>718-441-7398"},{"latitude":"40.698765","longitude":"-73.815234","name":"Staples - 91 - 30 Van Wyck Expy; Jamaica","address":" NY 11418>718-262-8788"},{"latitude":"40.72733","longitude":"-73.71131","name":"Staples - 251-21 Jericho Tpke; Bellerose","address":" NY 11426>718-831-1289"},{"latitude":"40.65652","longitude":"-73.57702","name":"Staples - 160 E Sunrise Hwy; Freeport","address":" NY 11520>516-623-1434"},{"latitude":"40.86724","longitude":"-73.63168","name":"Staples - 71 School St; Glen Cove","address":" NY 11542>516-609-8001"},{"latitude":"40.70385","longitude":"-73.62479","name":"Staples - 280 Penninsula Blvd; Hempstead","address":" NY 11550>516-481-8191"},{"latitude":"40.626247","longitude":"-73.737702","name":"Staples - 345 Rockaway Tpke;Lawrence","address":" NY 11559>516-239-7280"},{"latitude":"40.62187","longitude":"-73.64112","name":"Staples - 3650 Long Beach Rd; Oceanside","address":" NY 11572>516-594-4487"},{"latitude":"40.6601","longitude":"-73.7041","name":"Staples - 80 W Sunrise Hwy; Valley Stream","address":" NY 11581>516-792-0013"},{"latitude":"40.74439","longitude":"-73.602679","name":"Staples - 1080 Old Country Rd; Westbury","address":" NY 11590>516-794-0403"},{"latitude":"40.7386","longitude":"-73.3201","name":"Staples - 1241  Deer Park Ave; N Babylon","address":" NY 11703>631-243-3036"},{"latitude":"40.72679","longitude":"-73.28189","name":"Staples - 854 Sunrise Hwy; West Bay Shore","address":" NY 11706>631-206-2280"},{"latitude":"40.8406","longitude":"-73.31319","name":"Staples - 5003 Jericho Tpke; Commack","address":" NY 11725>631-543-7513"},{"latitude":"40.74071","longitude":"-73.19901","name":"Staples - 2650-1 Sunrise Hwy and Irish Ln; East Islip","address":" NY 11730>631-859-1005"},{"latitude":"40.7389","longitude":"-73.41798","name":"Staples - 204 Airport Plaza; Farmingdale","address":" NY 11735>631-454-8290"},{"latitude":"40.8287","longitude":"-73.4116","name":"Staples - 49 Jericho Tpke; Huntington","address":" NY 11746>631-425-0224"},{"latitude":"40.7809","longitude":"-73.5584","name":"Staples - 84 Jericho Tpke; Jericho","address":" NY 11753>516-334-1367"},{"latitude":"40.725477","longitude":"-73.525362","name":"Staples - 2981-2991 Hempstead Tpke; Levittown","address":" NY 11756>516-520-0218"},{"latitude":"40.6778","longitude":"-73.436","name":"Staples - 5500 Sunrise Hwy; Massapequa","address":" NY 11758>516-799-9516"},{"latitude":"40.82605","longitude":"-72.99522","name":"Staples - 2799 Rte 112; Medford","address":" NY 11763>631-207-2470"},{"latitude":"40.775505","longitude":"-73.029668","name":"Staples - 380 Sunrise Hwy; Patchogue","address":" NY 11772>631-475-3731"},{"latitude":"40.92499","longitude":"-73.048","name":"Staples - 5141 Nesconset Rd; Port Jefferson","address":" NY 11776>631-476-9860"},{"latitude":"40.870536","longitude":"-73.130543","name":"Staples - 2100 Nesconset Hwy; Stony Brook","address":" NY 11790>631-366-5190"},{"latitude":"40.78085","longitude":"-73.50351","name":"Staples - 442 S Oyster Bay Rd; Hicksville","address":" NY 11801>516-942-3401"},{"latitude":"40.93099","longitude":"-72.67579","name":"Staples - 1087 Rte 58; Riverhead","address":" NY 11901>631-369-9370"},{"latitude":"40.934012","longitude":"-72.317837","name":"Staples - 2044 Montauk Hwy; Bridgehampton","address":" NY 11932>631-537-1654"},{"latitude":"42.861926","longitude":"-73.78497","name":"Staples - 24 Maxwell Dr; Clifton Park","address":" NY 12065>518-371-1482"},{"latitude":"42.61061","longitude":"-73.78877","name":"Staples - 241 Rte 9W; Glenmont","address":" NY 12077>518-426-0044"},{"latitude":"42.7527","longitude":"-73.7676","name":"Staples - 601 Troy-Schenectady Rd; Latham","address":" NY 12110>518-782-7839"},{"latitude":"42.655","longitude":"-73.6966","name":"Staples - 600 Greenbush Rd; Rensselaer","address":" NY 12144>518-283-3039"},{"latitude":"42.70891","longitude":"-73.824","name":"Staples - 1440 Central Ave; Albany","address":" NY 12205>518-435-9920"},{"latitude":"41.9711","longitude":"-73.991","name":"Staples - 1399 Ulster Ave; Kingston","address":" NY 12401>845-336-0386"},{"latitude":"42.2713","longitude":"-73.75998","name":"Staples - 350 Fairview Ave; Hudson","address":" NY 12534>518-822-9121"},{"latitude":"41.61563","longitude":"-73.91588","name":"Staples - 1849 S Rd; Wappingers Falls","address":" NY 12590>845-298-0767"},{"latitude":"41.661488","longitude":"-73.928177","name":"Staples - 2522 S Rd; Poughkeepsie","address":" NY 12601>845-483-0765"},{"latitude":"41.66621","longitude":"-74.67281","name":"Staples - 56 Thompson Sq; Monticello","address":" NY 12701>845-794-0045"},{"latitude":"43.33029","longitude":"-73.67216","name":"Staples - 752 Upper Glen St; Queensbury","address":" NY 12804>518-792-6900"},{"latitude":"43.09792","longitude":"-73.74993","name":"Staples - 3035 Rte 50; Saratoga Springs","address":" NY 12866>518-581-7298"},{"latitude":"44.6963","longitude":"-73.4896","name":"Staples - 77 Consumer Square; Plattsburgh","address":" NY 12901>518-562-1375"},{"latitude":"42.95309","longitude":"-76.54552","name":"Staples - 2 Plaza Dr; Auburn","address":" NY 13021>315-258-9557"},{"latitude":"43.05297","longitude":"-76.26208","name":"Staples - 3736 Milton Ave; Camillus","address":" NY 13031>315-488-4071"},{"latitude":"43.18528","longitude":"-76.2279","name":"Staples - 4118 Rte 31; Clay","address":" NY 13041>315-715-0112"},{"latitude":"42.60102","longitude":"-76.20404","name":"Staples - 3912 Rte 281; Cortland","address":" NY 13045>607-662-0553"},{"latitude":"43.062","longitude":"-76.0642","name":"Staples - 3 Chevy Dr; E Syracuse","address":" NY 13057>315-463-8040"},{"latitude":"43.09745","longitude":"-75.30495","name":"Staples - 4795 Commercial Dr; New Hartford","address":" NY 13413>315-768-8992"},{"latitude":"43.9766","longitude":"-75.9423","name":"Staples - 1283 Arsenal St; Watertown","address":" NY 13601>315-782-2019"},{"latitude":"42.0968","longitude":"-75.9833","name":"Staples - 3701 Vestal Pkwy East; Vestal","address":" NY 13850>607-797-2524"},{"latitude":"42.85779","longitude":"-76.99628","name":"Staples - 337 Hamilton St; Geneva","address":" NY 14456>315-789-7399"},{"latitude":"43.02946","longitude":"-77.44092","name":"Staples - 7560 Commons Blvd; Victor","address":" NY 14564>585-425-8130"},{"latitude":"43.2119","longitude":"-77.46299","name":"Staples - 950 Hard Rd; Webster","address":" NY 14580>585-670-9470"},{"latitude":"43.2047","longitude":"-77.6594","name":"Staples - 1370 W Ridge Rd; Rochester","address":" NY 14615>585-865-8340"},{"latitude":"43.19701","longitude":"-77.5878","name":"Staples - 1115 E Ridge Rd; Irondequoit","address":" NY 14621>585-266-7980"},{"latitude":"43.089121","longitude":"-77.60767","name":"Staples - 1100 Jefferson Rd; Rochester","address":" NY 14623>585-424-1901"},{"latitude":"43.132761","longitude":"-77.49601","name":"Staples - 1601 Penfield Rd; Rochester","address":" NY 14625>585-248-5560"},{"latitude":"42.07654","longitude":"-78.46134","name":"Staples - 2735 W State St; Olean","address":" NY 14760>716-372-5441"},{"latitude":"42.43102","longitude":"-76.50865","name":"Staples - 742 S Meadow St; Ithaca","address":" NY 14850>607-275-0240"},{"latitude":"42.15487","longitude":"-76.87938","name":"Staples - 821 CR 64; Big Flats","address":" NY 14903>607-796-2327"},{"latitude":"40.03345","longitude":"-83.12282","name":"Staples - 3939 Trueman Blvd; Hilliard","address":" OH 43026>614-876-5340"},{"latitude":"40.16096","longitude":"-83.01767","name":"Staples - 59 Meadow Park Ave; Lewis Center","address":" OH 43035>740-549-2755"},{"latitude":"40.40017","longitude":"-82.45335","name":"Staples - 1558 E Coshocton Rd; Mt. Vernon","address":" OH 43050>740-392-2155"},{"latitude":"39.93648","longitude":"-82.79367","name":"Staples - 2321 Taylor Park Dr; Reynoldsburg","address":" OH 43068>614-866-1332"},{"latitude":"39.8778","longitude":"-83.04371","name":"Staples - 1739 Stringtown Rd; Grove City","address":" OH 43123>614-539-5772"},{"latitude":"39.9947","longitude":"-83.0254","name":"Staples - 1747 Olentangy River Rd; Columbus","address":" OH 43212>614-299-9425"},{"latitude":"39.9744","longitude":"-82.89721","name":"Staples - 3790 E Broad; Whitehall","address":" OH 43213>614-237-9258"},{"latitude":"40.04352","longitude":"-82.91776","name":"Staples - 3737 Easton Market; Columbus","address":" OH 43219>614-337-0399"},{"latitude":"40.05204","longitude":"-83.05106","name":"Staples - 4505 Kenny Rd; Columbus","address":" OH 43220>614-442-5554"},{"latitude":"40.097","longitude":"-83.0905","name":"Staples - 3680 W Dublin-Granville Rd; Columbus","address":" OH 43235>614-766-6744"},{"latitude":"41.354771","longitude":"-83.648085","name":"Staples - 1135 S Main St; Bowling Green","address":" OH 43402>419-352-1570"},{"latitude":"41.37346","longitude":"-83.11557","name":"Staples - 2136 Enterprise Ave; Fremont","address":" OH 43420>419-355-0101"},{"latitude":"39.9779","longitude":"-82.01609","name":"Staples - 3030 Maple Ave; Zanesville","address":" OH 43701>740-455-3002"},{"latitude":"40.07372","longitude":"-80.86993","name":"Staples - 50585 Valley Plaza Dr; St Clairsville","address":" OH 43950>740-695-9647"},{"latitude":"41.588048","longitude":"-81.225556","name":"Staples - 255 Meadowlands Dr; Chardon","address":" OH 44024>440-286-8585"},{"latitude":"41.39806","longitude":"-82.10765","name":"Staples - 1733 Midway Mall Blvd; Elyria","address":" OH 44035>440-324-6332"},{"latitude":"41.677887","longitude":"-81.309513","name":"Staples - 9215 Mentor Ave; Mentor","address":" OH 44060>440-205-0830"},{"latitude":"41.47311","longitude":"-81.76918","name":"Staples - 2150 W 117th St; Cleveland","address":" OH 44111>216-251-6189"},{"latitude":"41.51972","longitude":"-81.46375","name":"Staples - 5950 Mayfield Rd; Mayfield Heights","address":" OH 44124>440-684-0302"},{"latitude":"41.32224","longitude":"-81.83659","name":"Staples - 12421 Pearl Rd; Strongsville","address":" OH 44136>440-878-0849"},{"latitude":"41.1193","longitude":"-81.47199","name":"Staples - 645 Howe Ave; Cuyahoga Falls","address":" OH 44221>330-945-4488"},{"latitude":"41.23953","longitude":"-81.34865","name":"Staples - 9374 SR 14; Streetsboro","address":" OH 44241>330-422-1607"},{"latitude":"41.16684","longitude":"-81.86167","name":"Staples - 4029 Pearl Rd; Medina","address":" OH 44256>330-725-6743"},{"latitude":"40.99009","longitude":"-81.49227","name":"Staples - 2981 Arlington Rd; Akron","address":" OH 44312>330-645-1397"},{"latitude":"41.13525","longitude":"-81.64255","name":"Staples - 4014 Medina Rd; Copley","address":" OH 44333>330-666-8034"},{"latitude":"41.2102","longitude":"-80.7508","name":"Staples - 6004 Youngstown Rd; Niles","address":" OH 44446>330-544-6200"},{"latitude":"41.02685","longitude":"-80.63454","name":"Staples - 1260 Doral Dr; Boardman","address":" OH 44514>330-965-9795"},{"latitude":"40.9027","longitude":"-81.155","name":"Staples - 1846 Freshley Ave; Alliance","address":" OH 44601>330-829-9506"},{"latitude":"40.47752","longitude":"-81.43816","name":"Staples - 11 Winspear Dr; New Philadelphia","address":" OH 44663>330-339-7707"},{"latitude":"40.8435","longitude":"-81.94229","name":"Staples -  3761 Burbank Rd; Wooster","address":" OH 44691>330-345-4320"},{"latitude":"41.40129","longitude":"-82.65535","name":"Staples - 5500 Milan Rd; Sandusky","address":" OH 44870>419-626-8077"},{"latitude":"40.7676","longitude":"-82.58925","name":"Staples - 542 Lexington Springmill Rd N; Mansfield","address":" OH 44906>419-529-4199"},{"latitude":"39.497554","longitude":"-84.329006","name":"Staples - 3601 Towne Blvd; Franklin","address":" OH 45005>513-423-4091"},{"latitude":"39.389513","longitude":"-84.504532","name":"Staples - 3339 Princeton Rd; Hamilton","address":" OH 45011>513-737-0495"},{"latitude":"39.260517","longitude":"-84.79304","name":"Staples - 595 Ring Rd; Harrison","address":" OH 45030>513-202-0600"},{"latitude":"39.30071","longitude":"-84.31314","name":"Staples - 9550 Mason Montgomery Rd; Mason","address":" OH 45040>513-754-0235"},{"latitude":"39.11258","longitude":"-84.50571","name":"Staples - 1400 Reading Rd; Cincinnati","address":" OH 45202>513-651-5739"},{"latitude":"39.14495","longitude":"-84.43058","name":"Staples - 3808 Paxton Ave; Cincinnatti","address":" OH 45209>513-321-5777"},{"latitude":"39.1441","longitude":"-84.6196","name":"Staples - 6180 W Glenway Ave; Cincinnati","address":" OH 45211>513-481-3978"},{"latitude":"33.71531","longitude":"-116.29317","name":"Staples - 7800 Montgomery Rd; Kenwood","address":" OH 45236>513-891-5734"},{"latitude":"39.2246","longitude":"-84.5879","name":"Staples - 8465 Colerain Ave; Cincinnati","address":" OH 45239>513-923-3124"},{"latitude":"39.29824","longitude":"-84.46513","name":"Staples - 12050 Princeton Pike; Cincinnati","address":" OH 45246>513-671-2246"},{"latitude":"39.072","longitude":"-84.3135","name":"Staples - 8666 Beechmont Ave; Cincinnati","address":" OH 45255>513-474-4321"},{"latitude":"40.05513","longitude":"-84.23438","name":"Staples - 1761 W Main St; Troy","address":" OH 45373>937-339-4622"},{"latitude":"39.87108","longitude":"-84.13821","name":"Staples - 8139 Old Troy Pike; Huber Heights","address":" OH 45424>937-237-2752"},{"latitude":"39.64994","longitude":"-84.1101","name":"Staples - 6254 Wilmington Pike; Centerville","address":" OH 45459>937-848-6917"},{"latitude":"39.33706","longitude":"-82.07393","name":"Staples - 973 E State St; Athens","address":" OH 45701>740-592-1330"},{"latitude":"41.0546","longitude":"-83.6037","name":"Staples - 2350 Tiffin Ave; Findlay","address":" OH 45840>419-420-9437"},{"latitude":"35.63663","longitude":"-97.482379","name":"Staples - 1632 S Broadway; Edmond","address":" OK 73013>405-216-8137"},{"latitude":"35.4848","longitude":"-97.7593","name":"Staples - 1701 Garth Brooks Blvd; Yukon","address":" OK 73099>405-354-8009"},{"latitude":"35.53546","longitude":"-97.56299","name":"Staples - 2844A NW 63rd Ave; Oklahoma City","address":" OK 73116>405-842-5933"},{"latitude":"35.39106","longitude":"-97.51343","name":"Staples - 128 W I-240 Service Rd; Oklahoma City","address":" OK 73139>405-634-3768"},{"latitude":"34.189408","longitude":"-97.144389","name":"Staples - 1209 N Commerce St; Ardmore","address":" OK 73401>580-220-2918"},{"latitude":"34.6211","longitude":"-98.4216","name":"Staples - 1217 NW Sheridan Rd; Lawton","address":" OK 73505>580-357-3518"},{"latitude":"36.39074","longitude":"-97.91621","name":"Staples - 3418 W Owen K. Garriot Rd; Enid","address":" OK 73703>580-242-8900"},{"latitude":"36.71417","longitude":"-95.93408","name":"Staples - 2400 SE Washington Blvd; Bartlesville","address":" OK 74006>918-335-9135"},{"latitude":"36.12804","longitude":"-97.05088","name":"Staples - 616 N Perkins; Stillwater","address":" OK 74075>405-624-8256"},{"latitude":"36.1241","longitude":"-95.9396","name":"Staples - 2711 S Harvard; Tulsa","address":" OK 74114>918-744-1597"},{"latitude":"36.054221","longitude":"-96.001834","name":"Staples - 7521 S Olympia Ave W; Tulsa","address":" OK 74132>918-447-0381"},{"latitude":"36.06001","longitude":"-95.86062","name":"Staples - 10302 E 71st S ; Tulsa","address":" OK 74133>918-294-8823"},{"latitude":"34.91919","longitude":"-95.74335","name":"Staples - 502 S George Nigh Expy; McAlester","address":" OK 74501>918-423-3100"},{"latitude":"36.72978","longitude":"-97.06739","name":"Staples - 2216 N 14th St; Ponca City","address":" OK 74601>580-762-0813"},{"latitude":"35.38212","longitude":"-96.92753","name":"Staples - 4737 N Kickapoo St; Shawnee","address":" OK 74801>405-214-0261"},{"latitude":"34.79061","longitude":"-96.6536","name":"Staples - 1630 Lonnie Abbott Blvd; Ada","address":" OK 74820>580-310-9135"},{"latitude":"45.60649","longitude":"-121.1961","name":"Staples - 460 Mount Hood St; The Dalles","address":" OR 97058>541-298-2222"},{"latitude":"45.38144","longitude":"-122.7637","name":"Staples - 8795 SW Tualatin Sherwood Rd; Tualatin","address":" OR 97062>503-885-0500"},{"latitude":"45.21614","longitude":"-123.19746","name":"Staples - 1150 NE Hwy 99 W; McMinnville","address":" OR 97128>503-474-0403"},{"latitude":"45.614248","longitude":"-122.684867","name":"Staples - 1805 N Tomahawk Island Dr; Portland","address":" OR 97217>503-283-8686"},{"latitude":"45.573583","longitude":"-122.556024","name":"Staples - 10251 NE Cascades Pkwy; Portland","address":" OR 97220>503-493-4598"},{"latitude":"45.00583","longitude":"-122.99804","name":"Staples - 6305 Ulali Dr; Keizer","address":" OR 97303>503-393-0190"},{"latitude":"44.63467","longitude":"-123.0779","name":"Staples - 2000 S Santiam Hwy; Albany","address":" OR 97322>541-928-9701"},{"latitude":"44.04795","longitude":"-123.1269","name":"Staples - 2370 W 11th Ave; Eugene","address":" OR 97402>541-465-8900"},{"latitude":"43.39182","longitude":"-124.2478","name":"Staples - 1995 Newmark Ave; Coos Bay","address":" OR 97420>541-888-4415"},{"latitude":"43.2339","longitude":"-123.3779","name":"Staples - 1414 NW Valley View Dr; Roseburg","address":" OR 97470>541-673-7080"},{"latitude":"44.082506","longitude":"-123.043968","name":"Staples - 3320 Gateway St; Springfield","address":" OR 97477>541-741-4621"},{"latitude":"42.31366","longitude":"-122.8564","name":"Staples - 45 E Stewart Ave; Medford","address":" OR 97501>541-774-9919"},{"latitude":"42.4396","longitude":"-123.3157","name":"Staples - 901 NE D St; Grants Pass","address":" OR 97526>541-955-5018"},{"latitude":"42.2053","longitude":"-121.7559","name":"Staples - 2206 Washburn Way; Klamath Falls","address":" OR 97603>541-882-1611"},{"latitude":"44.09478","longitude":"-121.3008","name":"Staples - 63485 Hwy 97; Bend","address":" OR 97701>541-312-2880"},{"latitude":"44.02378","longitude":"-116.9454","name":"Staples - 125 SE 13th St; Ontario","address":" OR 97914>541-889-0880"},{"latitude":"40.13996","longitude":"-79.84206","name":"Staples - 800 Rostraver Rd; Belle Vernon","address":" PA 15012>724-929-5020"},{"latitude":"40.66022","longitude":"-80.31534","name":"Staples - 3938 Broadhead Rd; Monaca","address":" PA 15061>724-775-1204"},{"latitude":"40.58946","longitude":"-79.75114","name":"Staples - 100 Tarentum Bridge Rd; New Kensington","address":" PA 15068>724-337-1855"},{"latitude":"40.44704","longitude":"-80.1656","name":"Staples - 6521 Steubenville Pike; Pittsburgh","address":" PA 15205>412-494-0658"},{"latitude":"40.45859","longitude":"-79.91869","name":"Staples - 6375 Penn Ave; Pittsburgh","address":" PA 15206>412-363-5148"},{"latitude":"40.4063","longitude":"-80.0378","name":"Staples - 2515 Banksville Rd; Pittsburgh","address":" PA 15216>412-571-9150"},{"latitude":"40.5265","longitude":"-80.007","name":"Staples - 4801 McKnight Rd; Pittsburgh","address":" PA 15237>412-369-9660"},{"latitude":"40.48814","longitude":"-79.89391","name":"Staples - 999 Freeport Rd; Pittsburgh","address":" PA 15238>412-781-0506"},{"latitude":"40.1828","longitude":"-80.2326","name":"Staples - 301 Oak Spring Rd; Washington","address":" PA 15301>724-228-5866"},{"latitude":"39.90359","longitude":"-79.7525","name":"Staples - 3 Work Pkwy; Uniontown","address":" PA 15401>724-438-6303"},{"latitude":"40.3074","longitude":"-79.5946","name":"Staples - 6207 Rte 30; Greensburg","address":" PA 15601>724-838-7380"},{"latitude":"40.59921","longitude":"-79.19704","name":"Staples - 3100 Oakland Ave; Indiana","address":" PA 15701>724-463-7680"},{"latitude":"41.12086","longitude":"-78.72829","name":"Staples - 690 Shaffer Rd; Dubois","address":" PA 15801>814-371-9790"},{"latitude":"40.29858","longitude":"-78.83465","name":"Staples - 590 Galleria Dr; Johnstown","address":" PA 15904>814-262-9096"},{"latitude":"40.878","longitude":"-79.9531","name":"Staples - 110 Moraine Pointe Plaza; Butler","address":" PA 16001>724-282-1109"},{"latitude":"40.68594","longitude":"-80.09135","name":"Staples - 1675 Rte 228; Cranberry Township","address":" PA 16066>724-778-3300"},{"latitude":"41.2274","longitude":"-80.4507","name":"Staples - 439 S Hermitage Rd; Hermitage","address":" PA 16148>724-342-0439"},{"latitude":"41.62221","longitude":"-80.21108","name":"Staples - 16218 Conneaut Lake Rd; Meadville","address":" PA 16335>814-337-5515"},{"latitude":"42.058242","longitude":"-80.084981","name":"Staples - 1924 Keystone Dr; Erie","address":" PA 16509>814-868-4901"},{"latitude":"40.4684","longitude":"-78.4068","name":"Staples - 217 Falcon Lane; Altoona","address":" PA 16602>814-940-7346"},{"latitude":"40.80783","longitude":"-77.89473","name":"Staples - 1646 N Atherton; State College","address":" PA 16803>814-237-2381"},{"latitude":"40.23632","longitude":"-76.93621","name":"Staples - 128 S 32nd St; Camp Hill","address":" PA 17011>717-731-1761"},{"latitude":"40.188726","longitude":"-77.195555","name":"Staples - 100 Noble Blvd; Carlisle","address":" PA 17013>717-243-1213"},{"latitude":"40.28002","longitude":"-76.66589","name":"Staples - 710 W Chocolate Ave; Hershey","address":" PA 17033>717-533-3670"},{"latitude":"40.3084","longitude":"-76.42449","name":"Staples - 1820 Quentin Rd; Lebanon","address":" PA 17042>717-228-2451"},{"latitude":"40.24275","longitude":"-76.99054","name":"Staples - 5850 Carlisle Pike; Mechanicsburg","address":" PA 17055>717-795-7590"},{"latitude":"40.278234","longitude":"-76.817061","name":"Staples - 4203 Union Deposit Rd; Harrisburg","address":" PA 17111>717-561-6010"},{"latitude":"39.91156","longitude":"-77.65186","name":"Staples - 963 Norland Ave; Chambersburg","address":" PA 17201>717-263-2550"},{"latitude":"39.84371","longitude":"-77.20095","name":"Staples - 1275 York Rd; Gettysburg","address":" PA 17325>717-337-2113"},{"latitude":"39.8256","longitude":"-76.9781","name":"Staples - 440 Eisenhower Dr; Hanover","address":" PA 17331>717-630-9811"},{"latitude":"39.98384","longitude":"-76.66714","name":"Staples - 2915 Concord Rd; York","address":" PA 17402>717-755-1439"},{"latitude":"39.97891","longitude":"-76.75738","name":"Staples - 965 Loucks St; York","address":" PA 17404>717-852-8454"},{"latitude":"40.19073","longitude":"-76.17637","name":"Staples - 365 N Reading Rd; Ephrata","address":" PA 17522>717-733-6677"},{"latitude":"40.023589","longitude":"-76.206995","name":"Staples - 2350 Lincoln Hwy E; Lancaster","address":" PA 17601>717-295-8402"},{"latitude":"40.06268","longitude":"-76.30808","name":"Staples - 1296 Lititz Pike; Lancaster","address":" PA 17601>717-396-8917"},{"latitude":"41.24931","longitude":"-76.96243","name":"Staples - 1915 E 3rd St; Williamsport","address":" PA 17701>570-323-3822"},{"latitude":"41.006888","longitude":"-76.434555","name":"Staples - 1005 Scott Town Center; Bloomsburg","address":" PA 17815>570-912-6008"},{"latitude":"40.841614","longitude":"-76.83292","name":"Staples - 292 Marketplace Blvd; Selinsgrove","address":" PA 17870>570-743-1083"},{"latitude":"40.6696","longitude":"-76.1998","name":"Staples - 6104 Cressona Mall; Pottsville","address":" PA 17901>570-385-7360"},{"latitude":"40.6273","longitude":"-75.41601","name":"Staples - 2138 W Union Blvd; Bethlehem","address":" PA 18018>610-865-5030"},{"latitude":"40.71005","longitude":"-75.28352","name":"Staples - 3764 Easton Nazareth Hwy; Easton","address":" PA 18045>610-258-6344"},{"latitude":"40.65517","longitude":"-75.28666","name":"Staples - 4403 Birkland Place; Easton","address":" PA 18045>610-515-1244"},{"latitude":"40.64114","longitude":"-75.4912","name":"Staples - 2409 MacArthur Rd; Whitehall","address":" PA 18052>610-821-8711"},{"latitude":"40.55537","longitude":"-75.49184","name":"Staples - 3300 Lehigh St; Allentown","address":" PA 18103>610-791-9637"},{"latitude":"40.58809","longitude":"-75.55893","name":"Staples - 4628 Broadway; Allentown","address":" PA 18104>610-530-7470"},{"latitude":"40.9799","longitude":"-76.0233","name":"Staples - 180 Susquehanna Blvd; Hazleton","address":" PA 18202>570-459-5631"},{"latitude":"41.35358","longitude":"-74.72519","name":"Staples - 102 Milford Landing Dr; Milford","address":" PA 18337>570-491-2840"},{"latitude":"40.99412","longitude":"-75.24975","name":"Staples - 205 Applegate Rd; Stroudsburg","address":" PA 18360>570-420-0600"},{"latitude":"41.45655","longitude":"-75.65855","name":"Staples - 951 Viewmont Dr; Dickson City","address":" PA 18519>570-342-5138"},{"latitude":"41.2398","longitude":"-75.8401","name":"Staples - 453 Arena Hub Plaza; Wilkes Barre","address":" PA 18702>570-824-8304"},{"latitude":"40.3211","longitude":"-75.1314","name":"Staples - 436 N Main St; Doylestown","address":" PA 18901>215-489-1130"},{"latitude":"40.36329","longitude":"-74.96617","name":"Staples - 300 W Bridge St; New Hope","address":" PA 18938>215-862-4525"},{"latitude":"40.23499","longitude":"-74.94568","name":"Staples - 10 W Rd; Newtown","address":" PA 18940>215-579-0151"},{"latitude":"40.461433","longitude":"-75.371418","name":"Staples - 654 NW End Blvd; Quakertown","address":" PA 18951>215-538-8812"},{"latitude":"40.32202","longitude":"-75.30629","name":"Staples - 4020 Bethlehem Pike; Telford","address":" PA 18969>215-721-9033"},{"latitude":"40.22947","longitude":"-75.13791","name":"Staples - 1075 Main St; Warrington","address":" PA 18976>215-343-3251"},{"latitude":"40.02018","longitude":"-75.31641","name":"Staples - 755 W Lancaster Ave; Bryn Mawr","address":" PA 19010>610-525-8932"},{"latitude":"40.10477","longitude":"-74.94895","name":"Staples - 2329 Street Rd; Bensalem","address":" PA 19020>215-633-7923"},{"latitude":"39.8863","longitude":"-75.33113","name":"Staples - 124 Morton Ave; Folsom","address":" PA 19033>610-532-7187"},{"latitude":"40.1792","longitude":"-74.87739","name":"Staples - 2339 E Lincoln Hwy; Langhorne","address":" PA 19047>215-547-9880"},{"latitude":"40.14798","longitude":"-75.000843","name":"Staples - 93 E Street Rd; Feasterville Trevose","address":" PA 19053>215-355-3025"},{"latitude":"39.9373","longitude":"-75.3508","name":"Staples - 751 Sproul Rd; Springfield","address":" PA 19064>610-328-9239"},{"latitude":"40.00935","longitude":"-75.26137","name":"Staples - 933 Montgomery Ave; Narberth","address":" PA 19072>610-660-9080"},{"latitude":"39.97412","longitude":"-75.32156","name":"Staples - 1305 Westchester Pike; Havertown","address":" PA 19083>610-449-8030"},{"latitude":"40.07484","longitude":"-75.42564","name":"Staples - 145 E Swedesford Rd; Wayne","address":" PA 19087>610-254-8050"},{"latitude":"40.15554","longitude":"-75.12166","name":"Staples - 1025 N Easton Rd; Willow Grove","address":" PA 19090>215-830-0883"},{"latitude":"39.95069","longitude":"-75.1657","name":"Staples - 1500 Chestnut St; Philadelphia","address":" PA 19102>215-864-9520"},{"latitude":"40.0679","longitude":"-75.1981","name":"Staples - 7700 Germantown Ave; Chestnut Hill","address":" PA 19118>215-248-4936"},{"latitude":"40.0302","longitude":"-75.1029","name":"Staples - 4640 Roosevelt Blvd; Philadelphia","address":" PA 19124>215-535-7040"},{"latitude":"40.06396","longitude":"-75.23847","name":"Staples - 8500 Henry Ave; Philadelphia","address":" PA 19128>215-483-2482"},{"latitude":"39.91719","longitude":"-75.18015","name":"Staples - 2290 Oregon Ave; Philadelphia","address":" PA 19145>215-465-1763"},{"latitude":"39.9328","longitude":"-75.1435","name":"Staples - 1300 S Columbus Blvd; Philadelphia","address":" PA 19147>215-551-7543"},{"latitude":"40.01916","longitude":"-75.68456","name":"Staples - 935 E Lancaster Ave; Downingtown","address":" PA 19335>610-518-6890"},{"latitude":"40.03329","longitude":"-75.6314","name":"Staples - 105 E Swedesford Rd; Exton","address":" PA 19341>610-594-2553"},{"latitude":"39.884202","longitude":"-75.530277","name":"Staples - 901 Byers Dr; Glen Mills","address":" PA 19342>610-459-1920"},{"latitude":"39.863743","longitude":"-75.683185","name":"Staples - 855 E Baltimore Pke; Kennett Square","address":" PA 19348>610-444-5670"},{"latitude":"39.97059","longitude":"-75.5852","name":"Staples - 937 Paoli Pke; West Goshen","address":" PA 19380>610-696-8311"},{"latitude":"40.138065","longitude":"-75.311459","name":"Staples - 2832 DeKalb Pke; East Norriton","address":" PA 19401>610-272-2074"},{"latitude":"40.2065","longitude":"-75.22499","name":"Staples - 1210 N Bethlehem Pke; North Wales","address":" PA 19454>215-654-9152"},{"latitude":"40.13177","longitude":"-75.53809","name":"Staples - 260 Schuylkill Rd; Phoenixville","address":" PA 19460>610-933-8848"},{"latitude":"40.266702","longitude":"-75.654996","name":"Staples - 270 Upland Square Dr; Pottstown","address":" PA 19464>610-327-5803"},{"latitude":"40.21205","longitude":"-75.49926","name":"Staples - 1844 Ridge Pike; Royersford","address":" PA 19468>610-454-0315"},{"latitude":"40.30733","longitude":"-75.8636","name":"Staples - 4270 Perkiomen Ave; Reading","address":" PA 19606>610-779-3405"},{"latitude":"40.34","longitude":"-75.98003","name":"Staples - 1167 Berkshire Blvd; Wyomissing","address":" PA 19610>610-372-3134"},{"latitude":"41.52418","longitude":"-71.29906","name":"Staples - 870 W Main Rd; Middletown","address":" RI 02842>401-848-0100"},{"latitude":"41.58093","longitude":"-71.49383","name":"Staples - 1007 Ten Rod Rd; North Kingstown","address":" RI 02852>401-295-5505"},{"latitude":"41.44357","longitude":"-71.48011","name":"Staples - 160 Old Tower Hill Rd; Wakefield","address":" RI 02879>401-783-8127"},{"latitude":"41.7053","longitude":"-71.4933","name":"Staples - 1276 Bald Hill Rd; Warwick","address":" RI 02886>401-828-3737"},{"latitude":"41.357531","longitude":"-71.809623","name":"Staples - 13 Airport Rd; Westerly","address":" RI 02891>401-388-9505"},{"latitude":"41.83656","longitude":"-71.40926","name":"Staples - 555 N Main St; Providence","address":" RI 02904>401-272-2828"},{"latitude":"41.87003","longitude":"-71.52093","name":"Staples - 371 Putnam Pke; Smithfield","address":" RI 02917>401-232-3533"},{"latitude":"41.755532","longitude":"-71.459019","name":"Staples - 4000 Chapel View Blvd; Cranston","address":" RI 02920>401-943-2060"},{"latitude":"33.954","longitude":"-80.3743","name":"Staples - 1121 Broad St; Sumter","address":" SC 29150>803-773-0910"},{"latitude":"33.98899","longitude":"-80.9738","name":"Staples - 4464 Devine St; Columbia","address":" SC 29205>803-787-5916"},{"latitude":"34.072898","longitude":"-81.154864","name":"Staples - 320 Harbison Blvd; Columbia","address":" SC 29212>803-732-1590"},{"latitude":"34.0645","longitude":"-80.956","name":"Staples - 2746 Decker Blvd; Columbia","address":" SC 29223>803-865-0149"},{"latitude":"32.77637","longitude":"-79.97395","name":"Staples - 78 Folly Rd; Charleston","address":" SC 29407>843-402-0955"},{"latitude":"32.87947","longitude":"-80.02236","name":"Staples - 4950 Centrepointe Dr.; North Charleston","address":" SC 29418>843-747-0267"},{"latitude":"32.8023","longitude":"-79.8904","name":"Staples - 845 Houston Ncutt Blvd; Mt Pleasant","address":" SC 29464>843-881-1127"},{"latitude":"33.0366","longitude":"-80.1563","name":"Staples - 1318 N Main St; Summerville","address":" SC 29483>843-851-7717"},{"latitude":"34.84805","longitude":"-82.39464","name":"Staples - 500 E McBee Ave; Greenville","address":" SC 29601>864-271-3553"},{"latitude":"34.82512","longitude":"-82.29103","name":"Staples - 1451 Woodruff Rd; Greenville","address":" SC 29607>864-289-0044"},{"latitude":"34.8896","longitude":"-82.39955","name":"Staples - 3210 N Pleasantburg; Greenville","address":" SC 29609>864-250-9726"},{"latitude":"34.552589","longitude":"-82.675653","name":"Staples - 120 Fritz Dr; Anderson","address":" SC 29621>864-231-7460"},{"latitude":"34.80709","longitude":"-82.61862","name":"Staples - 6101 Calhoun Memorial Hwy; Easley","address":" SC 29640>864-306-3590"},{"latitude":"34.94077","longitude":"-82.26134","name":"Staples - 1301 W Wade Hampton Blvd; Greer","address":" SC 29651>864-801-2690"},{"latitude":"34.6903","longitude":"-82.99079","name":"Staples - 101 Bi Lo Place; Seneca","address":" SC 29678>864-882-3575"},{"latitude":"34.93889","longitude":"-80.96769","name":"Staples - 2350 Dave Lyle Blvd; Rock Hill","address":" SC 29730>803-980-3388"},{"latitude":"33.5237","longitude":"-81.72","name":"Staples - 933 Pine Log Rd; Aiken","address":" SC 29803>803-643-0846"},{"latitude":"32.44037","longitude":"-80.70446","name":"Staples - 11 Robert Smalls Pkwy; Beaufort","address":" SC 29906>843-525-0237"},{"latitude":"32.2595","longitude":"-80.8528","name":"Staples - 1050 Fording Island Rd; Bluffton","address":" SC 29910>843-815-6880"},{"latitude":"32.15592","longitude":"-80.76382","name":"Staples - 11 Palmetto Bay Rd; Hilton Head","address":" SC 29928>843-842-3869"},{"latitude":"43.51456","longitude":"-96.73141","name":"Staples - 515 W 41st  St; Sioux Falls","address":" SD 57105>605-338-9276"},{"latitude":"35.94874","longitude":"-86.81724","name":"Staples - 2000 Mallory Ln; Franklin","address":" TN 37067>615-771-2013"},{"latitude":"36.3332","longitude":"-86.6213","name":"Staples - 1012 Glenbrook Way; Hendersonville","address":" TN 37075>615-822-0552"},{"latitude":"36.19189","longitude":"-86.61527","name":"Staples - 5100 Old Hickory Blvd; Hermitage","address":" TN 37076>615-391-3519"},{"latitude":"36.164946","longitude":"-86.507819","name":"Staples - 401 S Mount Juliet Rd; Mt. Juliet","address":" TN 37122>615-773-5000"},{"latitude":"35.8477","longitude":"-86.4289","name":"Staples - 1740 Old Fort Pkwy; Murfreesboro","address":" TN 37129>615-895-9908"},{"latitude":"35.97951","longitude":"-86.569293","name":"Staples - 809 Industrial Blvd; Smyrna","address":" TN 37167>615-220-2891"},{"latitude":"36.10492","longitude":"-86.76407","name":"Staples - 100 Powell Place; Nashville","address":" TN 37204>615-298-1178"},{"latitude":"36.076568","longitude":"-86.948138","name":"Staples - 7615 US Hwy 70 S; West Nashville","address":" TN 37221>615-673-7019"},{"latitude":"35.45223","longitude":"-84.62103","name":"Staples - 1609 S Congress Pkwy; Athens","address":" TN 37303>423-745-5502"},{"latitude":"35.19941","longitude":"-84.84647","name":"Staples - 4375 Keith St; Cleveland","address":" TN 37312>423-478-0076"},{"latitude":"35.1411","longitude":"-85.24744","name":"Staples - 5450 Hwy 153; Chattanooga","address":" TN 37343>423-877-3277"},{"latitude":"35.03779","longitude":"-85.1554","name":"Staples - 2220 Hamilton Place Blvd; Chattanooga","address":" TN 37421>423-510-9654"},{"latitude":"36.17664","longitude":"-82.79388","name":"Staples - 1505 E Andrew Johnson Hwy; Greeneville","address":" TN 37745>423-798-0110"},{"latitude":"36.0137","longitude":"-84.25645","name":"Staples - 849 W Main St; Oak Ridge","address":" TN 37830>865-220-0197"},{"latitude":"35.88027","longitude":"-83.570864","name":"Staples - 713 Winfield Dunn Pkwy; Sevierville","address":" TN 37876>865-774-3986"},{"latitude":"35.91705","longitude":"-84.08549","name":"Staples - 8913 Town and Country Circle; Knoxville","address":" TN 37923>865-560-3150"},{"latitude":"36.15263","longitude":"-85.51427","name":"Staples - 514 S Willow Ave; Cookeville","address":" TN 38501>931-372-9956"},{"latitude":"35.99298","longitude":"-85.03998","name":"Staples - 2547 N Main St; Crossville","address":" TN 38555>931-707-0533"},{"latitude":"32.953621","longitude":"-96.836616","name":"Staples - 4400 Beltline Rd; Addison","address":" TX 75001>972-788-1652"},{"latitude":"33.10237","longitude":"-96.6797","name":"Staples - 812 W McDermott Dr; Allen","address":" TX 75013>972-747-0694"},{"latitude":"33.10902","longitude":"-96.80697","name":"Staples - 3333 Preston Rd; Frisco","address":" TX 75034>972-668-0701"},{"latitude":"33.0555","longitude":"-97.0121","name":"Staples - 997 Valley Ridge Blvd; Lewisville","address":" TX 75067>972-353-3877"},{"latitude":"33.12949","longitude":"-96.727291","name":"Staples - 8676  Hwy 121; McKinney","address":" TX 75070>972-649-6151"},{"latitude":"32.94527","longitude":"-96.6994","name":"Staples - 1306 E Beltline Rd; Richardson","address":" TX 75081>972-238-5050"},{"latitude":"32.903008","longitude":"-96.451534","name":"Staples - 1009 E I- 30; Rockwall","address":" TX 75087>972-722-2237"},{"latitude":"32.76845","longitude":"-96.89834","name":"Staples - 4351 Dallas-Ft Worth Tpke; Dallas","address":" TX 75211>214-905-6135"},{"latitude":"32.79602","longitude":"-96.68453","name":"Staples - 9222 E RL Thornton Frwy; Dallas","address":" TX 75228>214-320-1649"},{"latitude":"32.90888","longitude":"-96.80327","name":"Staples - 11700 Preston Rd; Dallas","address":" TX 75230>214-696-0675"},{"latitude":"32.98153","longitude":"-96.76903","name":"Staples - 16817 Coit Rd; Dallas","address":" TX 75248>972-381-1190"},{"latitude":"33.10117","longitude":"-96.10854","name":"Staples - 6834 Wesley Dr; Greenville","address":" TX 75401>903-450-9899"},{"latitude":"32.67971","longitude":"-97.11426","name":"Staples - I-20 203 Merchants Row; Arlington","address":" TX 76018>817-466-4017"},{"latitude":"32.3391","longitude":"-97.40697","name":"Staples - 1615 W Henderson; Cleburne","address":" TX 76031>817-517-6305"},{"latitude":"32.878639","longitude":"-97.096308","name":"Staples - 2800 Hwy 121; Euless","address":" TX 76039>817-283-7308"},{"latitude":"32.43394","longitude":"-97.78512","name":"Staples - 301 E Hwy 377; Granbury","address":" TX 76048>817-573-4695"},{"latitude":"32.595","longitude":"-97.14783","name":"Staples - 1781 US Hwy 287; Mansfield","address":" TX 76063>682-518-0599"},{"latitude":"32.94184","longitude":"-97.11753","name":"Staples - 200 N Kimball Ave;  Southlake","address":" TX 76092>817-310-0261"},{"latitude":"32.80908","longitude":"-97.42267","name":"Staples - 6313 Lake Worth Blvd; Lake Worth","address":" TX 76135>817-237-4500"},{"latitude":"32.89377","longitude":"-97.25672","name":"Staples - 8000 Denton Hwy; Watauga","address":" TX 76148>817-577-7460"},{"latitude":"33.18998","longitude":"-97.10449","name":"Staples - 2315 Colorado Blvd; Denton","address":" TX 76205>940-442-5271"},{"latitude":"32.20727","longitude":"-98.24272","name":"Staples - 200 Wolfe Nursery Rd; Stephenville","address":" TX 76401>254-965-8500"},{"latitude":"31.07836","longitude":"-97.37978","name":"Staples - 2112 SW HK Dodgen Loop; Temple","address":" TX 76504>254-899-1330"},{"latitude":"29.812369","longitude":"-95.162152","name":"Staples - 6022 E Sam Houston Pkwy N; Houston","address":" TX 77049>281-454-4431"},{"latitude":"29.916091","longitude":"-95.612514","name":"Staples - 19714 Northwest Fwy; Houston","address":" TX 77065>281-807-3292 "},{"latitude":"29.984428","longitude":"-95.501051","name":"Staples - 4701 FM 1960 Rd W: Houston","address":" TX 77069>281-586-7292"},{"latitude":"29.629309","longitude":"-95.235264","name":"Staples - 10045 Almeda Genoa Rd; Houston","address":" TX 77075>713-394-0049"},{"latitude":"29.775701","longitude":"-95.383502","name":"Staples - 1919 Taylor St; Houston","address":" TX 77075>713-426-1047"},{"latitude":"30.04989","longitude":"-95.433206","name":"Staples - 19507 I-45 N; Spring","address":" TX 77388>281-528-0189"},{"latitude":"29.466433","longitude":"-95.086812","name":"Staples - 3120 Gulf Fwy S; Dickinson","address":" TX 77539>281-534-6129"},{"latitude":"29.543097","longitude":"-95.141549","name":"Staples - 19335 Gulf Fwy; Webster","address":" TX 77598>281-557-0904"},{"latitude":"29.608564","longitude":"-98.460094","name":"Staples - 2003 N Loop 1604; San Antonio","address":" TX 78232>210-545-2691"},{"latitude":"29.614391","longitude":"-98.601747","name":"Staples - 18203 Rim Dr; San Antonio","address":" TX 78257>210-877-6239"},{"latitude":"25.95156","longitude":"-97.50354","name":"Staples - 2436 Pablo Kisel Blvd; Brownsville","address":" TX 78526>956-541-1500"},{"latitude":"26.30221","longitude":"-98.18002","name":"Staples - 1606 W University Dr; Edinburg","address":" TX 78539>956-287-1415"},{"latitude":"26.19922","longitude":"-98.20475","name":"Staples - 405 N Jackson Rd; Pharr","address":" TX 78577>956-630-3961"},{"latitude":"30.112361","longitude":"-97.355134","name":"Staples - 767 SR 71 W; Bastrop","address":" TX 78602>512-308-9005"},{"latitude":"30.304517","longitude":"-97.709729","name":"Staples - 1201 Barbara Jordan Blvd; Austin","address":" TX 78723>512-542-0001"},{"latitude":"30.221067","longitude":"-97.841455","name":"Staples - 4301 W William Cannon; Austin","address":" TX 78749>512-892-0792"},{"latitude":"32.027","longitude":"-102.14639","name":"Staples - 4509 Navarro Dr; Midland","address":" TX 79707>432-697-7106"},{"latitude":"31.89833","longitude":"-102.31216","name":"Staples - 5161 E 42nd St; Odessa","address":" TX 79762>432-367-3344"},{"latitude":"41.07276","longitude":"-111.9774","name":"Staples - 730 N Main St; Layton","address":" UT 84041>801-593-0464"},{"latitude":"40.272067","longitude":"-111.687502","name":"Staples - 336 E University Pkwy; Orem","address":" UT 84058>801-224-5040"},{"latitude":"40.7264","longitude":"-111.544","name":"Staples - 6543 N Landmark Dr; Park City","address":" UT 84098>435-615-9778"},{"latitude":"40.7599","longitude":"-111.872","name":"Staples - 624 E 400th St; Salt Lake City","address":" UT 84102>801-355-9444"},{"latitude":"40.6958","longitude":"-111.9572","name":"Staples - 3560 S 2700 W; W Valley City","address":" UT 84119>801-966-0242"},{"latitude":"41.7583","longitude":"-111.834","name":"Staples - 1427 N Main St; Logan","address":" UT 84341>435-752-9063"},{"latitude":"41.19016","longitude":"-111.9819","name":"Staples - 4043 Riverdale Rd; Ogden","address":" UT 84405>801-392-4222"},{"latitude":"40.2209","longitude":"-111.656","name":"Staples - 971 S University Dr; Provo","address":" UT 84601>801-370-0170"},{"latitude":"37.11162","longitude":"-113.55524","name":"Staples - 245 Red Cliffs Dr; St George","address":" UT 84790>435-628-7742"},{"latitude":"38.78826","longitude":"-77.51362","name":"Staples - 7743 Sudley Rd; Manassas","address":" VA 20109>703-393-7050"},{"latitude":"38.74337","longitude":"-77.45285","name":"Staples - 9890 Liberia Ave; Manassas","address":" VA 20110>703-257-2373"},{"latitude":"38.8889","longitude":"-77.4192","name":"Staples - 13653 Lee Jackson Memorial Hwy; Chantilly","address":" VA 20151>703-263-9731"},{"latitude":"38.7856","longitude":"-77.648782","name":"Staples - 7973 Stonewall Shoppes Sq; Gainesville","address":" VA 20155>571-261-2174"},{"latitude":"39.03257","longitude":"-77.40285","name":"Staples - 21060 Southbank St; Sterling","address":" VA 20165>703-406-3270"},{"latitude":"39.11504","longitude":"-77.54025","name":"Staples - 1019-B Edwards Ferry Rd; Leesburg","address":" VA 20176>703-669-8199"},{"latitude":"38.72947","longitude":"-77.80064","name":"Staples - 251 W Lee Hwy; Warrenton","address":" VA 20186>540-347-5989"},{"latitude":"38.951769","longitude":"-77.347507","name":"Staples - 11620 Plaza America Dr; Reston","address":" VA 20190>703-481-6762"},{"latitude":"38.7766","longitude":"-77.2658","name":"Staples - 9230 Old Keene Mill; Burke","address":" VA 22015>703-440-0359"},{"latitude":"38.86549","longitude":"-77.2745","name":"Staples - 9470 Arlington Blvd; Fairfax","address":" VA 22031>703-591-9809"},{"latitude":"38.8508","longitude":"-77.1311","name":"Staples - 5801 Leesburg Pike; Baileys","address":" VA 22041>703-845-5600"},{"latitude":"38.89271","longitude":"-77.18687","name":"Staples - 1104 W Broad St; Falls Church","address":" VA 22046>703-534-0101"},{"latitude":"38.77062","longitude":"-77.17249","name":"Staples - 6731 Frontier Dr; Springfield","address":" VA 22150>703-719-9550"},{"latitude":"38.9245","longitude":"-77.2365","name":"Staples - 8387C Leesburg Pike; Vienna","address":" VA 22182>703-883-0011"},{"latitude":"38.63671","longitude":"-77.29737","name":"Staples - 14497 Potomac Mills Rd; Woodbridge","address":" VA 22192>703-491-0947"},{"latitude":"38.880754","longitude":"-77.104471","name":"Staples - 3804 Wilson Blvd; Arlington","address":" VA 22203>703-812-8410"},{"latitude":"38.8356","longitude":"-77.05079","name":"Staples - 3301 Jefferson Davis Hwy; Alexandria","address":" VA 22305>703-836-9485"},{"latitude":"38.74741","longitude":"-77.08315","name":"Staples - 7708 Richmond Hwy; Alexandria","address":" VA 22306>703-799-8203"},{"latitude":"38.82277","longitude":"-77.1614","name":"Staples - 6548B Little River Tpke; Alexandria","address":" VA 22312>703-914-0134"},{"latitude":"38.296","longitude":"-77.4928","name":"Staples - 2003 Plank Rd; Fredericksburg","address":" VA 22401>540-374-1424"},{"latitude":"38.47661","longitude":"-77.42345","name":"Staples - 295 Worth Ave; Stafford","address":" VA 22556>540-657-6648"},{"latitude":"39.16129","longitude":"-78.1678","name":"Staples -  2045 Pleasent Valley Center; Winchester","address":" VA 22602>540-667-2893"},{"latitude":"38.96298","longitude":"-78.1926","name":"Staples - 135 Crooked Run Plaza; Front Royal","address":" VA 22630>540-635-5691"},{"latitude":"38.48225","longitude":"-77.96932","name":"Staples - 15323 Montanus Dr; Culpeper","address":" VA 22701>540-829-9814"},{"latitude":"38.43316","longitude":"-78.84795","name":"Staples - 265 Burgess Rd; Harrisonburg","address":" VA 22801>540-432-0124"},{"latitude":"38.031984","longitude":"-78.485149","name":"Staples - 600 Twentyninth Place Ct; Charlottesville","address":" VA 22901>434-975-0501"},{"latitude":"38.03137","longitude":"-78.48576","name":"Staples - 243 Ridge McIntire Rd; Charlottesville","address":" VA 22903>434-977-5506"},{"latitude":"37.28316","longitude":"-76.72026","name":"Staples - 1320 Richmond Rd; Williamsburg","address":" VA 23185>757-253-1985"},{"latitude":"37.60211","longitude":"-77.56513","name":"Staples - 1530 N Parham Rd; Richmond","address":" VA 23229>804-346-2855"},{"latitude":"37.58153","longitude":"-77.4986","name":"Staples - 1601 Willow Lawn Dr; Richmond","address":" VA 23230>804-673-3450"},{"latitude":"37.65023","longitude":"-77.61508","name":"Staples - 3540 Pump Rd; Richmond","address":" VA 23233>804-364-2441"},{"latitude":"37.5058","longitude":"-77.60469","name":"Staples - 1248 CarMia Way; Richmond","address":" VA 23235>804-897-2988"},{"latitude":"37.24911","longitude":"-77.38914","name":"Staples - 84 Southgate Square; Colonial Heights","address":" VA 23834>804-524-9010"},{"latitude":"37.29754","longitude":"-79.95732","name":"Staples - 4727 Valley View Blvd; Roanoke","address":" VA 24012>540-265-4860"},{"latitude":"37.2278","longitude":"-79.9796","name":"Staples - 4210 Electric Rd; Roanoke","address":" VA 24018>540-725-7313"},{"latitude":"37.16709","longitude":"-80.42653","name":"Staples - 145 Shoppers Way; Christiansburg","address":" VA 24073>540-381-4702"},{"latitude":"38.13744","longitude":"-79.06744","name":"Staples - 850 Statler Blvd; Staunton","address":" VA 24401>540-886-9710"},{"latitude":"37.3665","longitude":"-79.1713","name":"Staples - 3730 Candler Mountain Rd; Lynchburg","address":" VA 24502>434-846-1919"},{"latitude":"42.89351","longitude":"-73.19906","name":"Staples - 5 Kocher Dr; Bennington","address":" VT 05201>802-442-3919"},{"latitude":"42.87188","longitude":"-72.56219","name":"Staples - 768 Putney Rd; Brattleboro","address":" VT 05301>802-257-5596"},{"latitude":"44.4706","longitude":"-73.1877","name":"Staples - 861 Williston Rd; South Burlington","address":" VT 05403>802-862-2199"},{"latitude":"44.44193","longitude":"-73.11201","name":"Staples - 1375 Maple Tree Place; Williston","address":" VT 05495>802-872-0260"},{"latitude":"44.224673","longitude":"-72.547525","name":"Staples - 168 Ames Dr; Barre","address":" VT 05641>802-476-2788"},{"latitude":"43.60425","longitude":"-72.97184","name":"Staples - 300 S Main St; Rutland","address":" VT 05701>802-773-0116"},{"latitude":"47.62598","longitude":"-122.15448","name":"Staples - 1645 140th NE; Bellevue","address":" WA 98005>425-373-3335"},{"latitude":"47.76147","longitude":"-122.17492","name":"Staples - 18438 120th Ave NE; Bothell","address":" WA 98011>425-486-5034"},{"latitude":"47.85237","longitude":"-122.2206","name":"Staples - 16232 Bothell Everett Hwy; Mill Creek","address":" WA 98012>425-743-6882"},{"latitude":"47.53689","longitude":"-122.03456","name":"Staples - 628 N Front St; Issaquah","address":" WA 98027>425-837-3681"},{"latitude":"47.37347","longitude":"-122.1994","name":"Staples - 25420 104th Ave SE; Kent","address":" WA 98031>253-854-2677"},{"latitude":"47.82199","longitude":"-122.2713","name":"Staples - 3011 196th St SW; Lynnwood","address":" WA 98036>425-672-8535"},{"latitude":"47.67455","longitude":"-122.12933","name":"Staples - 15790 Redmond Way; Redmond","address":" WA 98052>425-869-5929"},{"latitude":"47.496322","longitude":"-122.200945","name":"Staples - 1207 N Landing Way; Renton","address":" WA 98057>425-793-3150"},{"latitude":"47.52454","longitude":"-122.36401","name":"Staples - 2501 SW Trenton St; Seattle","address":" WA 98106>206-938-4495"},{"latitude":"47.63278","longitude":"-122.37549","name":"Staples - 1541 15th Ave W; Seattle","address":" WA 98119>206-352-8644"},{"latitude":"47.470833","longitude":"-122.337116","name":"Staples - 158 SW 148th St; Burien","address":" WA 98166>206-444-9630"},{"latitude":"47.95166","longitude":"-122.21516","name":"Staples - 4920 Evergreen Way S; Everett","address":" WA 98203>425-258-2017"},{"latitude":"48.05096","longitude":"-122.1768","name":"Staples - 105 Mall Way; Marysville","address":" WA 98270>360-657-2322"},{"latitude":"47.86148","longitude":"-121.9743","name":"Staples - 19139 SR 2; Monroe","address":" WA 98272>360-863-8870"},{"latitude":"47.51857","longitude":"-122.6313","name":"Staples - 1805 SE Lund Ave; Port Orchard","address":" WA 98366>360-874-6700"},{"latitude":"47.116214","longitude":"-122.29082","name":"Staples - 10307 156th St E; Puyallup","address":" WA 98374>253-840-4013"},{"latitude":"47.65115","longitude":"-122.68746","name":"Staples - 2850 Northwest Bucklin Hill Rd; Silverdale","address":" WA 98383>360-307-0777"},{"latitude":"46.97723","longitude":"-123.8047","name":"Staples - 1109 E Wishkah Blvd; Aberdeen","address":" WA 98520>360-538-0536"},{"latitude":"46.67801","longitude":"-122.96213","name":"Staples - 1740 National Ave; Chehalis","address":" WA 98532>360-748-3500"},{"latitude":"47.4114","longitude":"-120.301","name":"Staples - 200 Ferry Rd; Wenatchee","address":" WA 98801>509-663-4200"},{"latitude":"47.1409","longitude":"-119.278","name":"Staples - 815 N Stratford Rd; Moses Lake","address":" WA 98837>509-765-4600"},{"latitude":"47.68238","longitude":"-117.40976","name":"Staples - 2624 N Division Rd; Spokane","address":" WA 99207>509-328-6495"},{"latitude":"47.674794","longitude":"-117.219012","name":"Staples - 13804 E Indiana Ave; Spokane Valley","address":" WA 99216>509-863-0592"},{"latitude":"47.748609","longitude":"-117.39857","name":"Staples - 9960 N Newport Hwy; Spokane","address":" WA 99218>509-466-8989"},{"latitude":"46.23212","longitude":"-119.223","name":"Staples - 1480 Tapteal Dr; Richland","address":" WA 99352>509-374-8878"},{"latitude":"46.07832","longitude":"-118.303","name":"Staples - 420 N Wilbur St; Walla Walla","address":" WA 99362>509-526-4664"},{"latitude":"42.62819","longitude":"-88.60349","name":"Staples - 2141 E Geneva St; Delavan","address":" WI 53115>262-728-2629"},{"latitude":"42.71504","longitude":"-88.97971","name":"Staples - 2900 Deerfield Dr; Janesville","address":" WI 53546>608-756-5096"},{"latitude":"43.0388","longitude":"-89.4507","name":"Staples - 4538 Verona Rd; Madison","address":" WI 53711>608-271-1821"},{"latitude":"43.0442","longitude":"-89.3251","name":"Staples - 6580 Monona Dr; Monona","address":" WI 53716>608-216-0931"},{"latitude":"43.475413","longitude":"-88.820217","name":"Staples - 1645 N Spring St; Beaver Dam","address":" WI 53916>920-356-0591"},{"latitude":"44.494335","longitude":"-89.514264","name":"Staples - 1250 Commons Circle; Plover","address":" WI 54467>715-344-5354"},{"latitude":"44.007","longitude":"-88.5818","name":"Staples - 1126 S Koeller Ave; Oshkosh","address":" WI 54902>920-232-0943"},{"latitude":"43.78436","longitude":"-88.48209","name":"Staples - 835 W Johnson St; Fond Du Lac","address":" WI 54935>920-924-6848"},{"latitude":"38.41216","longitude":"-81.80238","name":"Staples - 800 Nitro Mkt Place; Crosslanes","address":" WV 25313>304-769-0200"},{"latitude":"39.299","longitude":"-77.8312","name":"Staples - 160 Patrick Henry Way; Charles Town","address":" WV 25414>304-728-9049"},{"latitude":"37.80643","longitude":"-81.18411","name":"Staples - 18 By Pass Plaza; Beckley","address":" WV 25801>304-252-4401"},{"latitude":"39.27644","longitude":"-80.29015","name":"Staples - 504 Emily Dr; Clarksburg","address":" WV 26301>304-623-0261"},{"latitude":"42.8495","longitude":"-106.27278","name":"Staples - 4160 E 2nd St; Casper","address":" WY 82609>307-472-0710"},{"latitude":"41.57536","longitude":"-109.23937","name":"Staples - 1405 Dewar Dr.; Rock Springs","address":" WY 82901>307-362-5159"},{"latitude":"43.47762","longitude":"-110.7703","name":"Staples - 520 W Broadway; Jackson","address":" WY 83001>307-734-6148"}]