[{"latitude":"34.022615","longitude":"-118.291714","name":"CAMPUS PLAZA","address":"3621 S Vermont Ave, Los Angeles, CA 90007,(323) 732-5145"},{"latitude":"34.097794","longitude":"-118.28712","name":"SUPERCUTS","address":"4470 W Sunset Blvd, Los Angeles, CA 90027,(323) 662-8135"},{"latitude":"34.0401704","longitude":"-118.1423444","name":"ATLANTIC SQUARE","address":"2082 S Atlantic Blvd, Monterey Park, CA 91754,(323) 887-0888"},{"latitude":"34.0905707","longitude":"-118.3445364","name":"WEST HOLLYWOOD GATEWAY","address":"7100 Santa Monica Blvd, Los Angeles, CA 90046,(323) 463-8023"},{"latitude":"34.0762108","longitude":"-118.3662195","name":"OGDEN PLAZA SHOPPING CENTER","address":"8101 Beverly Blvd, Los Angeles, CA 90048,(323) 653-0192"},{"latitude":"34.0790455","longitude":"-118.1137596","name":"THE MARKETPLACE CENTER","address":"904 E Valley Blvd, Alhambra, CA 91801,(626) 281-0324"},{"latitude":"34.0883634","longitude":"-118.3788373","name":"RAMADA WEST HOLLYWOOD","address":"8589 Santa Monica Blvd, West Hollywood, CA 90069,(310) 659-4466"},{"latitude":"34.1592825","longitude":"-118.3428516","name":"BURBANK TOWNE CENTER","address":"531 N Hollywood Way, Burbank, CA 91505,(818) 842-3483"},{"latitude":"33.9849705","longitude":"-118.1005147","name":"PICO RIVERA TOWNE CENTER","address":"8720 E Washington Blvd, Pico Rivera, CA 90660,(562) 801-5705"},{"latitude":"34.0177441","longitude":"-118.4084249","name":"WESTSIDE WALK","address":"10780 Venice Blvd, Culver City, CA 90034,(310) 559-6174"},{"latitude":"33.9374953","longitude":"-118.1284261","name":"PATTON SHOPPING CENTER","address":"8562 Firestone Blvd, Downey, CA 90241,(562) 904-6100"},{"latitude":"34.037232","longitude":"-118.4348671","name":"PICO\/SEPULVEDA SHOPPING CENTER","address":"11075 W Pico Blvd, Los Angeles, CA 90064,(310) 231-0204"},{"latitude":"33.9174239","longitude":"-118.352106","name":"HAWTHORNE PLAZA","address":"12620 Hawthorne Blvd, Hawthorne, CA 90250,(310) 978-8882"},{"latitude":"34.1502482","longitude":"-118.0723592","name":"HASTINGS RANCH SHOPPING CENTER","address":"3735 E Foothill Blvd, Pasadena, CA 91107,(626) 351-8852"},{"latitude":"33.9861351","longitude":"-118.4390279","name":"VILLA MARINA CENTER","address":"4371 Glencoe Ave, Marina del Rey, CA 90292,(310) 827-0138"},{"latitude":"34.1729402","longitude":"-118.3964868","name":"NORTH HOLLYWOOD SHOPPING CTR","address":"5622 Laurel Canyon Blvd, San Fernando Valley, CA 91607,(818) 763-8866"},{"latitude":"33.977139","longitude":"-118.0375405","name":"VILLAGE COURT","address":"7201 Greenleaf Ave, Whittier, CA 90602,(562) 698-9502"},{"latitude":"33.8968853","longitude":"-118.395928","name":"MANHATTAN VILLAGE","address":"2920 N Sepulveda Blvd, Manhattan Beach, CA 90266,(310) 546-1233"},{"latitude":"33.8741121","longitude":"-118.1254499","name":"BELLFLOWER BLVD SHOPPING CTR","address":"17421 Bellflower Blvd, Bellflower, CA 90706,(562) 804-1411"},{"latitude":"33.85051","longitude":"-118.140483","name":"LAKEWOOD CENTER MALL","address":"70 Lakewood Center Mall, Lakewood, CA 90712,(562) 529-7699"},{"latitude":"37.7909556","longitude":"-122.43415","name":"FILLMORE SHOPPING CENTER","address":"2306 Fillmore St, San Francisco, CA 94115,(415) 474-9652"},{"latitude":"37.7772193","longitude":"-122.3925419","name":"RICH SORO COMMONS","address":"223 King St, San Francisco, CA 94107,(415) 495-7404"},{"latitude":"37.7513063","longitude":"-122.432634","name":"NOE VALLEY SHOPPING CENTER","address":"4031 24th St, San Francisco, CA 94114,(415) 282-5929"},{"latitude":"37.781843","longitude":"-122.4509522","name":"GEARY SHOPPING CENTER","address":"2947 Geary Blvd, San Francisco, CA 94118,(415) 752-0656"},{"latitude":"37.7340247","longitude":"-122.4888332","name":"LAKESHORE PLAZA","address":"1527 Sloat Blvd, San Francisco, CA 94132,(415) 753-2211"},{"latitude":"37.698987","longitude":"-122.483028","name":"WESTLAKE VILLAGE","address":"Westlake Center, Daly City, CA 94015,(650) 992-3747"},{"latitude":"37.6977198","longitude":"-122.4642332","name":"MISSION PLAZA","address":"6899 Mission St, Daly City, CA 94014,(650) 756-3584"},{"latitude":"37.783148","longitude":"-122.271717","name":"MARINA VILLAGE","address":"951 Marina Village Pkwy, Alameda, CA 94501,(510) 522-8118"},{"latitude":"37.6572882","longitude":"-122.4790039","name":"FAIRMONT SHOPPING CENTER","address":"Hickey Blvd, Pacifica, CA 94044,(650) 557-1427"},{"latitude":"37.9280974","longitude":"-122.5181159","name":"CORTE MADERA TOWN CENTER","address":"141 Corte Madera Town Center, Corte Madera, CA 94925,(415) 924-1166"},{"latitude":"37.970528","longitude":"-122.5167508","name":"MONTECITO CENTER","address":"323 3rd St, San Rafael, CA 94901,(415) 457-8232"},{"latitude":"37.701179","longitude":"-122.128751","name":"FASHION FAIRE PLAZA","address":"15100 Hesperian Blvd #212, San Leandro, CA 94578,(510) 278-4672"},{"latitude":"37.9942325","longitude":"-122.2856768","name":"PINOLE VALLEY","address":"2792 Pinole Valley Rd, Pinole, CA 94564,(510) 758-4823"},{"latitude":"38.0049582","longitude":"-122.5418185","name":"TERRA LINDA PLAZA","address":"470 Las Gallinas Ave, San Rafael, CA 94903,(415) 472-2226"},{"latitude":"37.5187669","longitude":"-122.274334","name":"SAFEWAY SHOPPING CENTER","address":"1250 El Camino Real, Belmont, CA 94002,(650) 592-2887"},{"latitude":"37.852614","longitude":"-122.033564","name":"ALAMO PLAZA","address":"3000 Danville Blvd, Alamo, CA 94507,(925) 855-8714"},{"latitude":"37.484338","longitude":"-122.231844","name":"SEQUOIA STATION","address":"1057 El Camino Real, Redwood City, CA 94063,(650) 369-8992"},{"latitude":"37.9461105","longitude":"-122.0620486","name":"PLEASANT HILL PLAZA","address":"55 Crescent Dr, Pleasant Hill, CA 94523,(925) 609-6477"},{"latitude":"37.9955067","longitude":"-122.1087166","name":"VILLAGE OAKS SHOPPING CENTER","address":"1155 Arnold Dr, Martinez, CA 94553,(925) 228-2721"},{"latitude":"38.090935","longitude":"-122.5562799","name":"VINTAGE OAKS SHOPPING CENTER","address":"208 Vintage Way, Novato, CA 94945,(415) 897-2336"},{"latitude":"37.8191426","longitude":"-121.9972852","name":"IRON HORSE PLAZA","address":"441 Railroad Ave, Danville, CA 94526,(925) 362-4807"},{"latitude":"38.1038201","longitude":"-122.5723114","name":"NOVATO FAIR SHOPPING CENTER","address":"922 Diablo Ave, Novato, CA 94947,(415) 898-2136"},{"latitude":"37.9273627","longitude":"-122.014667","name":"ENCINA GRANDE","address":"2895 Ygnacio Valley Rd, Walnut Creek, CA 94598,(925) 937-3850"},{"latitude":"38.0668929","longitude":"-122.1667547","name":"SOUTHAMPTON SHOPPING CENTER","address":"868 Southampton Rd, Benicia, CA 94510,(707) 747-0659"},{"latitude":"37.7805802","longitude":"-121.9663691","name":"CROW CANYON COMMONS","address":"3191 Crow Canyon Rd, San Ramon, CA 94583,(925) 866-2873"},{"latitude":"37.7615019","longitude":"-121.9602282","name":"SHOPS AT BISHOP RANCH","address":"150 Sunset Dr, San Ramon, CA 94583,(925) 355-1378"},{"latitude":"37.4519235","longitude":"-122.1799005","name":"VICTORIA LANE CENTER","address":"803 El Camino Real, Menlo Park, CA 94025,(650) 326-8075"},{"latitude":"37.963932","longitude":"-121.993808","name":"TREAT PLAZA SHOPPING CENTER","address":"4475 Treat Blvd, Concord, CA 94521,(925) 671-2525"},{"latitude":"38.1325586","longitude":"-122.2237128","name":"VALLEJO CORNERS SHOPPING CTR","address":"962 Admiral Callaghan Ln, Vallejo, CA 94591,(707) 644-6618"},{"latitude":"37.7987863","longitude":"-121.9218585","name":"BLACKHAWK SHOPPING CENTER","address":"11000 Crow Canyon Rd, Danville, CA 94506,(925) 648-7750"},{"latitude":"37.7058419","longitude":"-121.927098","name":"SHAMROCK PLAZA","address":"6851 Amador Plaza Rd #103, Dublin, CA 94568,(925) 803-5920"},{"latitude":"37.5499554","longitude":"-121.9871511","name":"FREMONT PLAZA","address":"3760 Mowry Ave, Fremont, CA 94538,(510) 796-3016"},{"latitude":"37.422024","longitude":"-122.0965518","name":"CHARLESTON PLAZA","address":"2420 Charleston Rd, Mountain View, CA 94043,(650) 625-0846"},{"latitude":"33.8338737","longitude":"-118.1850755","name":"BIXBY CENTER","address":"4251 Atlantic Ave, Long Beach, CA 90807,(562) 427-9333"},{"latitude":"33.87486","longitude":"-118.072513","name":"CERRITOS CENTER","address":"17226 Norwalk Blvd, Cerritos, CA 90703,(562) 402-1444"},{"latitude":"33.8312921","longitude":"-118.3114947","name":"TORRANCE CENTER","address":"1790 W Carson St, Torrance, CA 90501,(310) 781-3074"},{"latitude":"33.8313229","longitude":"-118.1644696","name":"LONG BEACH TOWN SQUARE","address":"2288 E Carson St, Long Beach, CA 90807,(562) 424-4457"},{"latitude":"33.8584926","longitude":"-118.0894745","name":"SOUTH STREET CERRITOS","address":"11465 South St, Cerritos, CA 90703,(562) 809-4442"},{"latitude":"34.1394913","longitude":"-117.9836725","name":"MOUNTAIN VISTA PLAZA","address":"1010 E Huntington Dr, Duarte, CA 91010,(626) 358-8112"},{"latitude":"33.8343847","longitude":"-118.1164746","name":"CARWOOD SHOPS","address":"4208 Woodruff Ave, Lakewood, CA 90713,(562) 425-8806"},{"latitude":"33.8215069","longitude":"-118.328871","name":"CRENSHAW ESEPULVEDA","address":"22501 Crenshaw Blvd #300, Torrance, CA 90505,(310) 517-0299"},{"latitude":"45.4972151","longitude":"-122.6231208","name":"POWELL SQUARE","address":"3848 SE Powell Blvd, Portland, OR 97202,(503) 233-0184"},{"latitude":"45.4955839","longitude":"-122.7029942","name":"RALEIGH WEST SHOPPING CENTER","address":"6525 SW Beaverton Ave, Portland, OR 97239,(503) 291-5225"},{"latitude":"45.5141679","longitude":"-122.564193","name":"MALL 205","address":"1010 SE 96th Ave, Portland, OR 97216,(503) 256-6227"},{"latitude":"45.453036","longitude":"-122.723742","name":"CAPITOL CORNER","address":"10075 SW Barbur Blvd, Portland, OR 97219,(503) 293-9467"},{"latitude":"45.443682","longitude":"-122.6299105","name":"OAK STREET SQUARE","address":"10983 SE Oak St, Milwaukie, OR 97222,(503) 659-2444"},{"latitude":"45.453962","longitude":"-122.578678","name":"JOHNSON CREEK CROSSING","address":"9610 SE 82nd Ave, Happy Valley, OR 97086,(503) 777-2255"},{"latitude":"45.572551","longitude":"-122.558327","name":"CASCADE STATION","address":"9920 NE Cascades Pkwy, Portland, OR 97220,(503) 288-3545"},{"latitude":"45.4870571","longitude":"-122.7299495","name":"BEAVERTON TOWN SQUARE","address":"SW Beaverton-Hillsdale Hwy, OR,(503) 644-6662"},{"latitude":"45.451506","longitude":"-122.779663","name":"WASHINGTON CIRCLE","address":"9009 SW Hall Blvd #150, Tigard, OR 97223,(503) 639-3702"},{"latitude":"45.519571","longitude":"-122.509596","name":"ONE STOP PLAZA","address":"14919 SE Stark St #109, Portland, OR 97233,(503) 256-0560"},{"latitude":"45.618079","longitude":"-122.535847","name":"COLUMBIA SQUARE","address":"13215 SE Mill Plain Blvd, Vancouver, WA 98683,(360) 944-4415"},{"latitude":"45.392653","longitude":"-122.613305","name":"JENNINGS PLAZA","address":"18030 SE McLoughlin Blvd, Milwaukie, OR 97267,(503) 659-3681"},{"latitude":"45.5109022","longitude":"-122.8675014","name":"SUNSET SQUARE SHOPPING CENTER","address":"1249 SW 185th Ave, Aloha, OR 97006,(503) 690-2116"},{"latitude":"45.4373271","longitude":"-122.8296343","name":"MURRAY SCHOLLS TOWN CENTER","address":"14845 SW Murray Scholls Dr, Beaverton, OR 97007,(503) 579-3378"},{"latitude":"45.655497","longitude":"-122.589907","name":"VANCOUVER PARK PLACE","address":"8101 NE Parkway Dr, Vancouver, WA 98662,(360) 892-9000"},{"latitude":"45.4079035","longitude":"-122.793114","name":"TIGARD PROMENADE","address":"15532 SW Pacific Hwy, Tigard, OR 97224,(503) 639-5034"},{"latitude":"45.3827401","longitude":"-122.74793","name":"TULATIN CONVENIENCE CENTER","address":"7013 SW Nyberg St, Tualatin, OR 97062,(503) 692-1438"},{"latitude":"45.687245","longitude":"-122.6690805","name":"HAZEL DELL TOWN CENTER","address":"8901 NE Hazel Dell Ave #105, Vancouver, WA 98665,(360) 573-6124"},{"latitude":"45.5032346","longitude":"-122.4359971","name":"GRESHAM TOWN FAIR","address":"800 NW Eastman Pkwy, Gresham, OR 97030,(503) 665-6450"},{"latitude":"45.685478","longitude":"-122.601255","name":"CENTERPOINTE RETAIL CENTER","address":"8720 NE Centerpointe Dr #107, Vancouver, WA 98665,(360) 885-0200"},{"latitude":"45.67879","longitude":"-122.551601","name":"ORCHARDS GREEN","address":"11717 NE 78th Way #103, Vancouver, WA 98682,(360) 260-6887"},{"latitude":"45.721728","longitude":"-122.663589","name":"SALMON CREEK","address":"800 NE Tenney Rd #205, Vancouver, WA 98685,(360) 573-1104"},{"latitude":"45.5190669","longitude":"-122.4001466","name":"THE COMMONS","address":"25667 SE Stark St, Troutdale, OR 97030,(503) 667-5824"},{"latitude":"45.3697615","longitude":"-122.8429623","name":"SHERWOOD MARKET PLAZA","address":"16006 SW Tualatin Sherwood Rd, Sherwood, OR 97140,(503) 625-9599"},{"latitude":"45.3348555","longitude":"-122.7640837","name":"ARGYLE SQUARE","address":"SW Gwen Dr, Wilsonville, OR 97070,(503) 582-9626"},{"latitude":"45.3308972","longitude":"-122.5716145","name":"BERRY HILL SHOPPING CENTER","address":"19025 S Beavercreek Rd, Oregon City, OR 97045,(503) 723-7285"},{"latitude":"45.5782293","longitude":"-122.3360275","name":"EVERGREEN MARKETPLACE","address":"3307 Evergreen Way #30, Washougal, WA 98671,(360) 335-9245"},{"latitude":"45.2678154","longitude":"-122.6778865","name":"CANBY MARKET CENTER","address":"1477 SE 1st Ave #111, Canby, OR 97013,(503) 651-2840"},{"latitude":"45.5201016","longitude":"-123.0490773","name":"CORNELIUS RETAIL CENTER","address":"1884 Baseline St, Cornelius, OR 97113,(503) 359-5643"},{"latitude":"45.781418","longitude":"-122.548748","name":"BATTLE GROUND SQUARE","address":"11 NW 12th Ave #102, Battle Ground, WA 98604,(360) 687-3100"},{"latitude":"45.150312","longitude":"-122.830223","name":"WOODBURN RETAIL CENTER","address":"1530 N Pacific Hwy #160, Woodburn, OR 97071,(503) 982-5175"},{"latitude":"45.006402","longitude":"-123.000549","name":"KEIZER STATION VILLAGE CENTER","address":"2555 Jorie Ln NE #102, Keizer, OR 97303,(503) 390-3004"},{"latitude":"44.941296","longitude":"-122.9831668","name":"LANCASTER MALL","address":"831 Lancaster Dr NE #300, Salem, OR 97301,(503) 363-8506"},{"latitude":"47.5602137","longitude":"-122.3854698","name":"JEFFERSON SQUARE","address":"4736 42nd Ave SW, Seattle, WA 98116,(206) 932-0400"},{"latitude":"47.7084843","longitude":"-122.3213476","name":"NORTHGATE PLACE","address":"543 NE Northgate Way, Seattle, WA 98125,(206) 367-8363"},{"latitude":"47.741066","longitude":"-122.3485661","name":"AURORA SQUARE","address":"15407 Westminster Way N, Shoreline, WA 98133,(206) 367-8141"},{"latitude":"47.7112068","longitude":"-122.1889152","name":"TOTEM LAKE WEST","address":"11320 NE 124th St, Kirkland, WA 98034,(425) 823-1161"},{"latitude":"47.6286","longitude":"-122.134057","name":"SHERWOOD SHOPPING CENTER","address":"15400 NE 20th St #3, Bellevue, WA 98007,(425) 643-0522"},{"latitude":"47.784214","longitude":"-122.344211","name":"AURORA MARKETPLACE","address":"23632 Hwy 99, Edmonds, WA 98026,(425) 672-9105"},{"latitude":"47.4558004","longitude":"-122.2522056","name":"SOUTH CENTER","address":"383 Strander Blvd, Tukwila, WA 98188,(206) 575-3609"},{"latitude":"47.5493215","longitude":"-122.0573131","name":"PICKERING SQUARE","address":"1802 12th Ave NW, Issaquah, WA 98027,(425) 392-3553"},{"latitude":"47.831478","longitude":"-122.268063","name":"LUEN YUI PLAZA","address":"18411 Alderwood Mall Pkwy, Lynnwood, WA 98037,(425) 712-0807"},{"latitude":"47.6505558","longitude":"-122.6907864","name":"SILVERDALE PLAZA","address":"2960 NW Bucklin Hill Rd #15, Silverdale, WA 98383,(360) 698-7139"},{"latitude":"47.8565546","longitude":"-122.2209172","name":"MILL CREEK TOWN CENTER","address":"15415 Main St, Mill Creek, WA 98012,(425) 316-9448"},{"latitude":"47.374925","longitude":"-122.299938","name":"FRED MEYER SHOP CTR-REDONDO","address":"25246 Pacific Hwy S, Kent, WA 98032,(253) 529-1050"},{"latitude":"47.75874","longitude":"-122.65885","name":"COLLEGE MARKET PLACE","address":"Olhava Way NW, Poulsbo, WA 98370,(360) 697-5090"},{"latitude":"47.3718345","longitude":"-122.2026374","name":"KENT EAST CENTER","address":"25611 104th Ave SE, Kent, WA 98030,(253) 859-8800"},{"latitude":"47.3590791","longitude":"-122.1138333","name":"COVINGTON CENTER","address":"17017 SE 270th Pl, Covington, WA 98042,(253) 630-6238"},{"latitude":"47.3152269","longitude":"-122.3116998","name":"SEATAC VILLAGE","address":"1706 S 320th St, Federal Way, WA 98003,(253) 941-6585"},{"latitude":"47.3186844","longitude":"-122.2214947","name":"NORTH SHOPPING CENTER","address":"1207 Auburn Way N, Auburn, WA 98002,(253) 931-5505"},{"latitude":"47.2224939","longitude":"-122.4745679","name":"BEST PLAZA","address":"2941 S 38th St, Tacoma, WA 98409,(253) 473-0444"},{"latitude":"48.063576","longitude":"-122.1768529","name":"SAFEWAY PLAZA","address":"1262 State Ave, Marysville, WA 98270,(360) 658-7777"},{"latitude":"47.1654279","longitude":"-122.5202092","name":"LAKEWOOD CENTER","address":"6111 Lakewood Towne Center Blvd SW, Lakewood, WA 98499,(253) 584-2121"},{"latitude":"47.128317","longitude":"-122.433956","name":"S & S CENTER","address":"14125 Pacific Ave S, Tacoma, WA 98444,(253) 536-1130"},{"latitude":"47.0591996","longitude":"-122.7663331","name":"HAWKS PRAIRIE VILLAGE","address":"1401 Marvin Rd NE #106, Lacey, WA 98516,(360) 923-1495"},{"latitude":"47.039902","longitude":"-122.834348","name":"SOUTH SOUND PAVILION","address":"909 Sleater Kinney Rd SE, Lacey, WA 98503,(360) 459-3030"},{"latitude":"48.2859299","longitude":"-122.6608321","name":"BAYVIEW PLAZA","address":"31239 State Route 20, Oak Harbor, WA 98277,(360) 679-3369"},{"latitude":"36.261002","longitude":"-115.248111","name":"RIO VISTA PLAZA","address":"7065 W Ann Rd #140, Las Vegas, NV 89130,(702) 396-4542"},{"latitude":"36.2012037","longitude":"-115.2811561","name":"SMITHS CENTER","address":"2257 N Rampart Blvd #3m, Las Vegas, NV 89134,(702) 363-2264"},{"latitude":"36.2716497","longitude":"-115.2646736","name":"CENTENNIAL CENTER","address":"7920 W Tropical Pkwy #140, Las Vegas, NV 89149,(702) 515-0471"},{"latitude":"36.1871032","longitude":"-115.2240883","name":"SANTA FE PLAZA","address":"1449 N Jones Blvd, Las Vegas, NV 89108,(702) 631-6675"},{"latitude":"36.1813126","longitude":"-115.2541985","name":"PARKWAY RETAIL CENTER","address":"7575 W Washington Ave #119, Las Vegas, NV 89128,(702) 228-2146"},{"latitude":"36.2593974","longitude":"-115.1800012","name":"SIMMONS MARKETPLACE","address":"5575 N Simmons St, North Las Vegas, NV 89031,(702) 638-1026"},{"latitude":"36.2379729","longitude":"-115.159517","name":"REDROCK COMMERCIAL CENTER","address":"1311 W Craig Rd, North Las Vegas, NV 89032,(702) 639-6346"},{"latitude":"36.1637516","longitude":"-115.2442448","name":"RAINBOW PLAZA II","address":"827 S Rainbow Blvd, Las Vegas, NV 89145,(702) 878-5787"},{"latitude":"36.301176","longitude":"-115.279367","name":"TULE SPRINGS SHOPPING CTR","address":"8414 Farm Rd #170, Las Vegas, NV 89131,(702) 395-9716"},{"latitude":"36.1564828","longitude":"-115.2069325","name":"WESTLAND FAIR","address":"1291 S Decatur Blvd #160, Las Vegas, NV 89102,(702) 259-4961"},{"latitude":"36.1588979","longitude":"-115.3098535","name":"HUALAPAI COMMONS","address":"9811 W Charleston Blvd #3, Las Vegas, NV 89117,(702) 947-7755"},{"latitude":"36.145582","longitude":"-115.299625","name":"FORT APACHE","address":"9326 W Sahara Ave #7, Las Vegas, NV 89117,(702) 233-6594"},{"latitude":"36.116543","longitude":"-115.262149","name":"FLAMINGO-BUFFALO CENTER","address":"4011 S Buffalo Dr #103b, Las Vegas, NV 89147,(702) 871-7676"},{"latitude":"36.115316","longitude":"-115.280727","name":"ASHLEY PARK PLAZA","address":"4075 S Durango Dr #113, Las Vegas, NV 89147,(702) 255-1504"},{"latitude":"36.1420126","longitude":"-115.1367712","name":"SAHARA TOWNE SQUARE","address":"2620 S Maryland Pkwy #15, Las Vegas, NV 89169,(702) 732-0040"},{"latitude":"36.1131559","longitude":"-115.310626","name":"GRAND CANYON PARKWAY","address":"4205 S Grand Canyon Dr #5, Las Vegas, NV 89147,(702) 362-4040"},{"latitude":"36.101602","longitude":"-115.314372","name":"SIENA TOWN CENTER","address":"10170 W Tropicana Ave #159, Las Vegas, NV 89147,(702) 362-6366"},{"latitude":"36.105164","longitude":"-115.136191","name":"LAS VEGAS UNIVERSITY GARDENS","address":"4632 S Maryland Pkwy #3, Las Vegas, NV 89119,(702) 736-2917"},{"latitude":"36.1618024","longitude":"-115.0623223","name":"CHARLESTON COMMONS","address":"135 N Nellis Blvd, Las Vegas, NV 89110,(702) 452-6404"},{"latitude":"36.194185","longitude":"-115.025484","name":"SUNRISE PLAZA","address":"6895 E Lake Mead Blvd #4, Las Vegas, NV 89156,(702) 453-5079"},{"latitude":"36.03911","longitude":"-115.1936023","name":"BLUE DIAMOND CROSSING","address":"3962 Blue Diamond Rd #102, Las Vegas, NV 89139,(702) 734-9700"},{"latitude":"36.055838","longitude":"-115.120036","name":"WAL-MART GROCERY","address":"7435 S Eastern Ave #102, Las Vegas, NV 89123,(702) 614-5956"},{"latitude":"36.072147","longitude":"-115.08003","name":"GREEN VALLEY TOWN CENTER","address":"4300 E Sunset Rd, Henderson, NV 89014,(702) 938-5080"},{"latitude":"36.0422914","longitude":"-115.1044725","name":"PECOS WINDMILL PLAZA","address":"2649 Windmill Pkwy, Henderson, NV 89074,(702) 263-1480"},{"latitude":"36.0206928","longitude":"-115.1192208","name":"EASTERN BELTWAY CENTER","address":"2390 E Serene Ave #430, Las Vegas, NV 89123,(702) 263-7377"},{"latitude":"36.0638977","longitude":"-115.0357729","name":"SUNSET PLAZA","address":"1138 W Sunset Rd, Henderson, NV 89014,(702) 898-8883"},{"latitude":"36.0020097","longitude":"-115.1083751","name":"EASTERN COMMONS","address":"10345 S Eastern Ave #140, Henderson, NV 89052,(702) 407-8599"},{"latitude":"36.042469","longitude":"-114.977882","name":"VICTORY VILLAGE","address":"276 E Lake Mead Dr, Henderson, NV 89015,(702) 558-3928"},{"latitude":"36.0127143","longitude":"-114.9633427","name":"COLLEGE DRIVE SHOPPING CENTER","address":"565 College Dr, Henderson, NV 89015,(702) 856-0275"},{"latitude":"36.2110693","longitude":"-115.9877469","name":"PAHRUMP VALLEY JUNCTION","address":"250 Hwy 160 #7, Pahrump, NV 89048,(775) 727-9955"},{"latitude":"33.5092651","longitude":"-112.0371864","name":"TOWN & COUNTRY CENTER","address":"2037 E Camelback Rd, Phoenix, AZ 85016,(602) 955-1760"},{"latitude":"33.4804176","longitude":"-111.998913","name":"DESERT PALMS CENTER","address":"3833 E Thomas Rd, Phoenix, AZ 85018,(602) 629-9280"},{"latitude":"33.378959","longitude":"-112.101774","name":"SOUTH MOUNTAIN PAVILLION","address":"2020 W Baseline Rd #168, Phoenix, AZ 85041,(602) 276-0909"},{"latitude":"33.5239944","longitude":"-112.0936492","name":"PHOENIX SPECTRUM MALL","address":"1615 W Bethany Home Rd, Phoenix, AZ 85015,(602) 246-0826"},{"latitude":"33.422756","longitude":"-111.925685","name":"THE CORNERSTONE","address":"725 S Rural Rd, Tempe, AZ 85281,(480) 968-8008"},{"latitude":"33.4658764","longitude":"-111.913008","name":"FOUNTAIN PLAZA SHOP","address":"7790 E McDowell Rd #104, Scottsdale, AZ 85257,(480) 990-1081"},{"latitude":"33.581829","longitude":"-112.1210832","name":"METRO TOWNE CENTER","address":"2815 W Peoria Ave, Phoenix, AZ 85029,(602) 371-0316"},{"latitude":"33.321342","longitude":"-111.982554","name":"AHWATUKEE FOOTHILLS TOWNE CTR","address":"4722 E Ray Rd #16, Phoenix, AZ 85044,(480) 893-3738"},{"latitude":"33.42428","longitude":"-112.271355","name":"PECAN PROMENADE STE 103","address":"9870 W Lower Buckeye Rd, Tolleson, AZ 85353,(623) 474-2230"},{"latitude":"33.5983315","longitude":"-111.9796904","name":"VILLAGE SQUARE II","address":"4663 E Cactus Rd, Phoenix, AZ 85032,(602) 996-3766"},{"latitude":"33.5385685","longitude":"-111.8777868","name":"SCOTTSDALE PAVILLIONS","address":"8960 E Indian Bend Rd, Scottsdale, AZ 85256,(480) 991-6282"},{"latitude":"33.5521559","longitude":"-112.257911","name":"PEORIA CROSSING","address":"9230 W Northern Ave #108, Glendale, AZ 85305,(623) 772-1377"},{"latitude":"33.392762","longitude":"-111.862943","name":"MERCADO FIESTA SHOPPING CENTER","address":"1457 W Southern Ave #4, Mesa, AZ 85202,(480) 898-7004"},{"latitude":"33.320219","longitude":"-111.912961","name":"COPPER POINT","address":"4050 W Ray Rd #15, Chandler, AZ 85226,(480) 831-7072"},{"latitude":"33.638633","longitude":"-112.067757","name":"BELL TOWNE CENTRE","address":"401 E Bell Rd #20, Phoenix, AZ 85022,(602) 866-3196"},{"latitude":"33.5688666","longitude":"-111.8881575","name":"FRY'S MARKETPLACE","address":"8912 E V\u00eda Linda #110, Scottsdale, AZ 85258,(480) 657-8499"},{"latitude":"33.64005","longitude":"-112.149711","name":"BELL PARK SHOPPING CENTER","address":"4232 W Bell Rd #3, Glendale, AZ 85308,(602) 424-0852"},{"latitude":"33.2978936","longitude":"-111.9011589","name":"CHANDLER VILLAGE","address":"3415 W Frye Rd #2, Chandler, AZ 85226,(480) 855-7003"},{"latitude":"33.7129924","longitude":"-112.0874175","name":"HAPPY VALLEY TOWNE CENTER","address":"1320 W Happy Valley Rd, Phoenix, AZ 85085,(623) 582-2269"},{"latitude":"33.6380347","longitude":"-112.2312815","name":"NORTH VALLEY POWER CENTER","address":"8085 W Bell Rd, Peoria, AZ 85382,(623) 486-2176"},{"latitude":"33.6787484","longitude":"-111.9772438","name":"DESERT RIDGE MARKETPLACE","address":"21001 N Tatum Blvd, Phoenix, AZ 85050,(480) 563-8005"},{"latitude":"33.629192","longitude":"-111.889479","name":"SCOTTSDALE TOWNE CENTER","address":"15560 N Frank Lloyd Wright Blvd, Scottsdale, AZ 85260,(480) 614-1982"},{"latitude":"33.620008","longitude":"-111.8740037","name":"SCOTTSDALE HORIZON","address":"14676 N Frank Lloyd Wright Blvd, Scottsdale, AZ 85260,(480) 661-9266"},{"latitude":"33.321491","longitude":"-111.82143","name":"SAFEWAY AT THE PROVINCES","address":"1070 E Ray Rd #8, Chandler, AZ 85225,(480) 722-7598"},{"latitude":"33.3354281","longitude":"-111.8091783","name":"BAYSHORE PLAZA","address":"884 W Warner Rd, Gilbert, AZ 85233,(480) 632-5983"},{"latitude":"33.3807514","longitude":"-111.7536179","name":"VAL VISTA GATEWAY","address":"1939 S Val Vista Dr #107, Mesa, AZ 85204,(480) 632-2104"},{"latitude":"33.60966","longitude":"-112.359602","name":"FRY'S SHOPPING CENTER","address":"13954 W Waddell Rd #100, Surprise, AZ 85379,(623) 537-5183"},{"latitude":"33.2802175","longitude":"-111.7880074","name":"CROSSROADS TOWN CENTER","address":"3841 S Gilbert Rd #108, Gilbert, AZ 85297,(480) 963-7044"},{"latitude":"33.63718","longitude":"-112.3486345","name":"SURPRISE MARKETPLACE","address":"c102, 13371 W Grand Ave, Surprise, AZ 85374,(623) 544-1939"},{"latitude":"33.450251","longitude":"-111.703335","name":"FALCON VIEW PLAZA","address":"5901 E McKellips Rd #107, Mesa, AZ 85205,(480) 985-7872"},{"latitude":"33.7106472","longitude":"-112.2717308","name":"LAKE PLEASANT PAVILION","address":"9947 W Happy Valley Rd, Peoria, AZ 85383,(623) 572-7040"},{"latitude":"33.757623","longitude":"-111.991623","name":"TATUM RANCH CROSSING","address":"29834 N Cave Creek Rd #120, Deer Valley, AZ 85331,(480) 513-4493"},{"latitude":"33.388396","longitude":"-111.683945","name":"MESA PAVILIONS","address":"1545 S Power Rd #112, Mesa, AZ 85209,(480) 854-8910"},{"latitude":"33.609687","longitude":"-111.72537","name":"RED MOUNTAIN PLAZA","address":"16425 E Palisades Blvd #1, Fountain Hills, AZ 85268,(480) 836-9591"},{"latitude":"33.3351781","longitude":"-111.6871661","name":"GILBERT GATEWAY TOWN CENTER","address":"4980 S Power Rd #105, Mesa, AZ 85212,(480) 279-0133"},{"latitude":"33.640149","longitude":"-112.42085","name":"ALBERTSON'S SHOPPING CENTER","address":"16772 W Bell Rd #108, Surprise, AZ 85374,(623) 544-4052"},{"latitude":"33.7814907","longitude":"-111.9257518","name":"THE SUMMIT AT SCOTTSDALE","address":"32619 N Scottsdale Rd #101, Scottsdale, AZ 85266,(480) 575-3267"},{"latitude":"33.377437","longitude":"-111.634661","name":"AUGUSTA RANCH","address":"9221 E Baseline Rd #110, Mesa, AZ 85209,(480) 354-0150"},{"latitude":"33.3788145","longitude":"-111.6016425","name":"SUPERSTITION GATEWAY WEST","address":"1752 S Signal Butte Rd #106, Mesa, AZ 85209,(480) 380-1112"},{"latitude":"33.865999","longitude":"-112.1366502","name":"ANTHEM WAY RETAIL SHOPS","address":"3636 W Anthem Way, Phoenix, AZ 85086,(623) 551-5614"},{"latitude":"32.880006","longitude":"-111.715813","name":"ECKERED DRUG CENTER","address":"1664 E Florence Blvd #10, Casa Grande, AZ 85122,(520) 423-8494"},{"latitude":"43.6247477","longitude":"-116.2124504","name":"MARKETPLACE SHOPPING CENTER","address":"1798 W State St, Boise, ID 83702,(208) 429-1101"},{"latitude":"43.5415599","longitude":"-116.1553411","name":"COLUMBIA MARKETPLACE","address":"6570 S Federal Way, Boise, ID 83716,(208) 333-8677"},{"latitude":"43.6194777","longitude":"-116.3128083","name":"VILLAGE SHOPPING CENTER","address":"10440 W Fairview Ave, Boise, ID 83704,(208) 322-1234"},{"latitude":"43.597244","longitude":"-116.390226","name":"CENTRAL PARK PLAZA","address":"750 S Progress Ave #115, Meridian, ID 83642,(208) 888-9552"},{"latitude":"43.693412","longitude":"-116.352297","name":"EAGLE PLAZA","address":"228 E Plaza St, Eagle, ID 83616,(208) 938-1495"},{"latitude":"43.5860061","longitude":"-116.5723797","name":"FRED MEYER CENTER","address":"64 2nd St S, Nampa, ID 83651,(208) 461-2199"},{"latitude":"39.504585","longitude":"-121.552024","name":"BANK OF AMERICA BUILDING","address":"1820 Oro Dam Blvd E #150, Oroville, CA 95966,(530) 532-1090"},{"latitude":"39.726215","longitude":"-121.800458","name":"PHEASANT RUN PLAZA","address":"2009 Forest Ave, Chico, CA 95928,(530) 893-2727"},{"latitude":"32.750146","longitude":"-117.163015","name":"HILLCREST AREA","address":"126-180 Washington St, San Diego, CA 92103,(619) 297-7494"},{"latitude":"32.7555477","longitude":"-117.1295477","name":"NORTH PARK AREA","address":"3024 El Cajon Blvd, San Diego, CA 92104,(619) 280-1133"},{"latitude":"32.7513677","longitude":"-117.2045861","name":"GROSVENOR SQUARE","address":"3660 Rosecrans St, San Diego, CA 92110,(619) 224-3735"},{"latitude":"32.7756184","longitude":"-117.1449583","name":"RIO VISTA SHOP CTR-MISSION VAL","address":"8440 Rio San Diego Dr #103, San Diego, CA 92108,(619) 297-6055"},{"latitude":"32.760529","longitude":"-117.067987","name":"MR-3 CENTER","address":"6011 El Cajon Blvd #105, San Diego, CA 92115,(619) 286-2240"},{"latitude":"32.7434622","longitude":"-117.052465","name":"COLLEGE GROVE","address":"3434 College Ave, San Diego, CA 92115,(619) 287-6835"},{"latitude":"32.808762","longitude":"-117.115348","name":"STONECREST PLAZA","address":"3675 Murphy Canyon Rd, San Diego, CA 92123,(858) 571-8996"},{"latitude":"32.821545","longitude":"-117.183601","name":"LIBERTY PARK PLAZA","address":"4310 Genesee Ave #103, San Diego, CA 92117,(858) 492-9892"},{"latitude":"32.7939619","longitude":"-117.2545225","name":"PACIFIC BEACH MARKETPLACE","address":"4305 Mission Blvd #101, San Diego, CA 92109,(858) 270-2722"},{"latitude":"32.7647399","longitude":"-117.0267258","name":"PLAZA LA MESA","address":"7970 University Ave, La Mesa, CA 91942,(619) 469-9646"},{"latitude":"32.7072626","longitude":"-117.0109627","name":"SPRING VALLEY CENTER","address":"529 Sweetwater Rd, Spring Valley, CA 91977,(619) 462-2430"},{"latitude":"32.8015774","longitude":"-117.0116333","name":"NAVAJO SHOPPING CENTER","address":"8736 Lake Murray Blvd, San Diego, CA 92119,(619) 667-6657"},{"latitude":"32.8690183","longitude":"-117.2141947","name":"COSTA VERDE SHOPPING CENTER","address":"8750 Genesee Ave #252, San Diego, CA 92122,(858) 587-2888"},{"latitude":"32.8665329","longitude":"-117.231649","name":"LA JOLLA VILLAGE SQUARE","address":"8657 Villa La Jolla Dr #107, San Diego, CA 92037,(858) 552-8475"},{"latitude":"32.5817539","longitude":"-117.033235","name":"OTAY MESA - PALM PROMENADE","address":"640 Dennery Rd, San Diego, CA 92154,(619) 690-4893"},{"latitude":"32.6487284","longitude":"-116.9649692","name":"EASTLAKE VILLAGE CENTER EAST","address":"2315 Otay Lakes Rd #303, Chula Vista, CA 91914,(619) 216-1717"},{"latitude":"32.739753","longitude":"-116.937234","name":"RANCHO SAN DIEGO TOWN CENTER","address":"2891 Jamacha Rd, El Cajon, CA 92019,(619) 670-4700"},{"latitude":"32.8075532","longitude":"-116.9611236","name":"EC PLAZA","address":"131 Broadway, El Cajon, CA 92021,(619) 442-7757"},{"latitude":"32.841491","longitude":"-116.985881","name":"SANTEE TOWN CENTER","address":"235 Town Center Pkwy, Santee, CA 92071,(619) 562-4777"},{"latitude":"32.7448226","longitude":"-116.9297472","name":"RANCHO SAN DIEGO TWN & COUNTRY","address":"2514 Jamacha Rd #504, El Cajon, CA 92019,(619) 670-1962"},{"latitude":"32.9138653","longitude":"-117.1138561","name":"NEXT TO CHUCK E CHEESE","address":"9872 Hibert St, San Diego, CA 92131,(858) 695-1360"},{"latitude":"32.920615","longitude":"-117.213487","name":"TORREY HILLS CENTER","address":"4653 Carmel Mountain Rd, San Diego, CA 92130,(858) 259-0800"},{"latitude":"32.953233","longitude":"-117.231182","name":"DEL MAR HIGHLANDS","address":"3485 Del Mar Heights Rd, San Diego, CA 92130,(858) 794-1717"},{"latitude":"32.963775","longitude":"-117.150803","name":"TORREY HIGHLANDS","address":"13350 Camino Del Sur, San Diego, CA 92129,(858) 484-0147"},{"latitude":"32.979994","longitude":"-117.07705","name":"CARMEL MOUNTAIN RANCH TOWN CTR","address":"11835 Carmel Mountain Rd, San Diego, CA 92128,(858) 487-5611"},{"latitude":"32.9959769","longitude":"-117.2590976","name":"SOLANA BEACH TOWNE CENTRE","address":"661 Lomas Santa Fe Dr, Solana Beach, CA 92075,(858) 481-7177"},{"latitude":"33.015047","longitude":"-117.077331","name":"BERNADO CENTER","address":"16588 Bernardo Center Dr, San Diego, CA 92128,(858) 613-9364"},{"latitude":"33.048819","longitude":"-117.2590215","name":"EL CAMINO SQUARE","address":"191 N El Camino Real #102, Encinitas, CA 92024,(760) 942-7122"},{"latitude":"33.066114","longitude":"-117.2624198","name":"ENCINITAS RANCH TOWN CENTER","address":"1044 N El Camino Real, Encinitas, CA 92024,(760) 635-9300"},{"latitude":"33.085941","longitude":"-117.267948","name":"LA COSTA PLAZA","address":"7670 El Camino Real #101, Carlsbad, CA 92009,(760) 944-0177"},{"latitude":"33.0352108","longitude":"-116.8802838","name":"STONEGATE PLAZA","address":"1664 Main St, Ramona, CA 92065,(760) 789-8302"},{"latitude":"33.1112207","longitude":"-117.0992105","name":"ESCONDIDO PROMENADE","address":"1264 Auto Park Way, Escondido, CA 92029,(760) 839-0417"},{"latitude":"33.130936","longitude":"-117.210459","name":"SAN MARCOS PLAZA","address":"1921 W San Marcos Blvd #110, San Marcos, CA 92078,(760) 599-0660"},{"latitude":"33.133328","longitude":"-117.0606879","name":"VINEYARD SQUARE","address":"1511 E Valley Pkwy, Escondido, CA 92027,(760) 738-0716"},{"latitude":"33.1776352","longitude":"-117.3266475","name":"CARLSBAD SOUTH PLAZA","address":"2624 El Camino Real, Carlsbad, CA 92008,(760) 434-5055"},{"latitude":"33.192186","longitude":"-117.251734","name":"VISTA TOWN CENTER","address":"510 Hacienda Dr #106, Vista, CA 92081,(760) 631-8160"},{"latitude":"33.1926155","longitude":"-117.3567264","name":"RANCHO DEL ORO GATEWAY CENTER","address":"4225 S Oceanside Blvd, Oceanside, CA 92054,(760) 758-7400"},{"latitude":"39.1514915","longitude":"-123.1990714","name":"PEAR TREE CENTER","address":"132 N Orchard Ave, Ukiah, CA 95482,(707) 462-9048"},{"latitude":"39.7208321","longitude":"-104.9556482","name":"CHERRY CREEK","address":"2702 E 3rd Ave, Denver, CO 80206,(303) 399-8717"},{"latitude":"39.7404922","longitude":"-105.0799072","name":"CREEKSIDE SHOPPING CENTER","address":"7475 W Colfax Ave #106, Lakewood, CO 80214,(303) 274-0565"},{"latitude":"39.654775","longitude":"-104.997223","name":"CITY CENTER","address":"b104, 800 Englewood Pkwy, Englewood, CO 80110,(303) 781-2112"},{"latitude":"39.7910322","longitude":"-105.0788645","name":"ARVADA MARKETPLACE","address":"7450 W 52nd Ave, Arvada, CO 80002,(303) 431-9107"},{"latitude":"39.827627","longitude":"-105.053375","name":"THE SHOPS AT 72ND & SHERIDAN","address":"7211 Sheridan Blvd #200, Westminster, CO 80003,(303) 650-0331"},{"latitude":"39.624404","longitude":"-105.022752","name":"CENTENNIAL SQUARE","address":"2897 W Belleview Ave, Littleton, CO 80123,(303) 794-5226"},{"latitude":"39.714427","longitude":"-104.82002","name":"AURORA CITY CENTER","address":"14401 E Bayaud Ave, Aurora, CO 80012,(303) 739-0900"},{"latitude":"39.615326","longitude":"-105.096009","name":"SOUTHWEST COMMONS","address":"8601 W Cross Dr, Denver, CO 80123,(303) 973-0126"},{"latitude":"39.693861","longitude":"-104.789564","name":"SOMERSET VILLAGE SHOPPING CTR","address":"1250 S Buckley Rd, Aurora, CO 80017,(720) 747-0253"},{"latitude":"39.913766","longitude":"-104.9489661","name":"THORNCREEK CROSSING","address":"E 120th Ave, Thornton, CO 80233,(303) 452-5816"},{"latitude":"39.6384151","longitude":"-104.7894788","name":"VALLEY PLAZA","address":"17070 E Quincy Ave, Aurora, CO 80015,(303) 766-7292"},{"latitude":"39.542775","longitude":"-104.947","name":"KING'S SUPERCENTER","address":"3620 E Highlands Ranch Pkwy, Highlands Ranch, CO 80126,(303) 471-8448"},{"latitude":"39.884879","longitude":"-104.775265","name":"REUNION VILLAGE","address":"18220 E 104th Ave, Commerce City, CO 80022,(303) 287-0941"},{"latitude":"39.5360997","longitude":"-104.8963682","name":"LINCOLN COMMONS","address":"Lone Tree, CO,(303) 799-6046"},{"latitude":"39.5815615","longitude":"-104.7245607","name":"SADDLE ROCK VILLAGE","address":"7450 S Gartrell Rd, Aurora, CO 80016,(303) 680-8930"},{"latitude":"39.9968249","longitude":"-104.9772217","name":"LARKRIDGE SHOPPING CENTER","address":"16649 Washington St, Broomfield, CO 80023,(303) 457-0955"},{"latitude":"39.9576157","longitude":"-105.1695418","name":"SUPERIOR MARKETPLACE","address":"Center Dr, Superior, CO 80027,(303) 543-0072"},{"latitude":"40.000866","longitude":"-105.1005003","name":"SUMMIT MARKETPLACE","address":"385 Crossing Dr #106, Lafayette, CO 80026,(303) 604-6538"},{"latitude":"39.5217176","longitude":"-104.7656583","name":"PARKER MARKET PLACE","address":"11031 S Parker Rd, Parker, CO 80138,(303) 840-5075"},{"latitude":"40.035278","longitude":"-105.259749","name":"SAFEWAY CENTER","address":"3325 28th St #7, Boulder, CO 80304,(303) 440-7262"},{"latitude":"40.1377496","longitude":"-105.130907","name":"NORTH HOVER CENTER","address":"1751 S Hover Rd, Longmont, CO 80501,(303) 651-9151"},{"latitude":"40.4081087","longitude":"-105.0446965","name":"34 MARKETPLACE","address":"1435 Denver Ave, Loveland, CO 80538,(970) 593-9454"},{"latitude":"39.0645093","longitude":"-104.8487024","name":"MONUMENT MARKETPLACE","address":"15932 Jackson Creek Pkwy, Monument, CO 80132,(719) 487-3314"},{"latitude":"40.4226647","longitude":"-104.748473","name":"COUNTRY CLUB PLAZA","address":"4318 9th Street Rd #3, Greeley, CO 80634,(970) 378-7311"},{"latitude":"38.2981051","longitude":"-104.6090509","name":"PUEBLO SHOPPING CENTER","address":"206 W 29th St, Pueblo, CO 81008,(719) 543-5287"},{"latitude":"38.3334642","longitude":"-104.6206683","name":"PUEBLO CROSSING","address":"5759 N Elizabeth St #120, Pueblo, CO 81007,(719) 544-4649"},{"latitude":"38.324973","longitude":"-104.6978309","name":"PUEBLO WEST MARKETPLACE","address":"1021 N Market Plaza #105, Pueblo West, CO 81007,(719) 647-9199"},{"latitude":"40.556192","longitude":"-105.078773","name":"UNIVERSITY CENTER","address":"2407 S College Ave #500, Fort Collins, CO 80525,(970) 416-1400"},{"latitude":"40.566702","longitude":"-105.097577","name":"PROSPECT PARK","address":"1115 W Prospect Rd #103, Fort Collins, CO 80526,(970) 407-9580"},{"latitude":"40.5833207","longitude":"-105.053403","name":"MULBERRY-LEMAY CROSSING","address":"1281 E Magnolia St, Fort Collins, CO 80524,(970) 484-1817"},{"latitude":"35.1055382","longitude":"-106.590194","name":"PAVILLIONS AT SAN MATEO","address":"4900 Cutler Ave NE #1, Albuquerque, NM 87110,(505) 830-3500"},{"latitude":"35.12976","longitude":"-106.58947","name":"ROSS PLAZA","address":"4770 Montgomery Blvd NE, Albuquerque, NM 87109,(505) 881-3900"},{"latitude":"35.1533502","longitude":"-106.6384219","name":"NORTHDALE PLAZA","address":"6611 4th St NW, Albuquerque, NM 87107,(505) 345-8966"},{"latitude":"35.153387","longitude":"-106.682669","name":"MONTANO PLAZA","address":"6200 Coors Blvd NW, Albuquerque, NM 87120,(505) 897-4500"},{"latitude":"35.1477902","longitude":"-106.5492503","name":"SYCAMORE PLAZA","address":"8060 Academy Rd NE, Albuquerque, NM 87111,(505) 821-2345"},{"latitude":"35.055065","longitude":"-106.738317","name":"SAGE MARKETPLACE","address":"9550 Sage Rd SW, Albuquerque, NM 87121,(505) 385-0620"},{"latitude":"35.253736","longitude":"-106.6499149","name":"RIO RANCHO MARKETPLACE","address":"4300 Ridgecrest Dr SE, Rio Rancho, NM 87124,(505) 892-1300"},{"latitude":"35.2670855","longitude":"-106.6262179","name":"VENADA PLAZA","address":"510 State Highway 528 #8, Rio Rancho, NM 87144,(505) 771-4411"},{"latitude":"29.757547","longitude":"-95.370395","name":"ALLEN CENTER","address":"500 Dallas St, Houston, TX 77002,(713) 652-3855"},{"latitude":"29.7487839","longitude":"-95.3789931","name":"PLAZAS AT MIDTOWN","address":"2509 Bagby St, Houston, TX 77006,(713) 524-9810"},{"latitude":"29.7891263","longitude":"-95.4098854","name":"MERCHANTS PARK SOUTH SHOPPING","address":"933 N Shepherd Dr, Houston, TX 77008,(713) 864-4688"},{"latitude":"29.7228817","longitude":"-95.4412345","name":"WESLAYAN PLAZA","address":"5533 Weslayan St, Houston, TX 77005,(713) 663-7474"},{"latitude":"29.6973162","longitude":"-95.2991453","name":"GULFGATE CENTER","address":"765 Gulfgate Center Mall, Houston, TX 77087,(713) 645-9800"},{"latitude":"29.8282387","longitude":"-95.4335106","name":"OAK FOREST SHOPPING CENTER","address":"1227 W 43rd St, Houston, TX 77018,(713) 683-0001"},{"latitude":"29.6765076","longitude":"-95.4776297","name":"BRAES OAK SHOPPING CENTER","address":"5429 S Braeswood Blvd, Houston, TX 77096,(713) 723-8223"},{"latitude":"29.805798","longitude":"-95.184053","name":"NORTHEAST SQUARE","address":"16 Uvalde Rd, Houston, TX 77015,(713) 455-5077"},{"latitude":"29.735832","longitude":"-95.550429","name":"CARILLON CENTER","address":"10001 Westheimer Rd #1010a, Houston, TX 77042,(713) 783-3141"},{"latitude":"29.6306912","longitude":"-95.2323597","name":"ORANGE GROVE SHOPPING CENTER","address":"11558 Gulf Fwy, Houston, TX 77034,(713) 947-0046"},{"latitude":"29.8112217","longitude":"-95.1637137","name":"THE SHOPS AT STONE PARK","address":"5866 East Sam Houston Pkwy N, Houston, TX 77049,(281) 454-7160"},{"latitude":"29.5582742","longitude":"-95.3903174","name":"SHADOW CREEK MARKET PLACE","address":"2803 Business Center Dr, Pearland, TX 77584,(713) 340-0737"},{"latitude":"29.7363058","longitude":"-95.5928786","name":"GRAY FALLS CENTER","address":"12108 Westheimer Rd, Houston, TX 77077,(281) 558-7360"},{"latitude":"29.663471","longitude":"-95.1336423","name":"PASADENA PARK SHOPPING CENTER","address":"6848 Spencer Hwy, Pasadena, TX 77505,(281) 487-4009"},{"latitude":"29.6363216","longitude":"-95.5869418","name":"THE FOUNTAINS","address":"12720 Fountain Lake Cir, Stafford, TX 77477,(281) 491-4140"},{"latitude":"29.664147","longitude":"-95.0980421","name":"DEER PARK STATION","address":"9001 Spencer Hwy, La Porte, TX 77571,(281) 542-0152"},{"latitude":"29.989068","longitude":"-95.497395","name":"CHAMPIONS VILLAGE","address":"FM 1960 Rd W, Houston, TX 77069,(281) 583-1941"},{"latitude":"29.5395305","longitude":"-95.5361395","name":"SIENNA MARKET","address":"8880 Hwy 6 #120, Missouri City, TX 77459,(000) 000-0000"},{"latitude":"29.6067095","longitude":"-95.6137759","name":"FIRST COLONY COMMONS","address":"15205 Southwest Fwy, Sugar Land, TX 77478,(281) 491-0220"},{"latitude":"29.510581","longitude":"-95.187727","name":"WEBSTER TOWN CENTER","address":"210 E Parkwood Ave, Friendswood, TX 77546,(281) 992-4697"},{"latitude":"29.896551","longitude":"-95.637305","name":"COPPERFIELD LANDING","address":"8100 Hwy 6 N, Houston, TX 77095,(281) 345-1112"},{"latitude":"29.5777636","longitude":"-95.1217384","name":"CLEAR LAKE","address":"1958 El Dorado Blvd, Houston, TX 77062,(281) 486-2085"},{"latitude":"29.9984927","longitude":"-95.1789376","name":"WOODFOREST PLAZA","address":"6480 Farm to Market 1960, Humble, TX 77346,(281) 540-0355"},{"latitude":"30.049792","longitude":"-95.432245","name":"CYPRESSWOOD COURT SHOPPING CTR","address":"19507 Interstate 45 #800, Spring, TX 77388,(281) 350-2518"},{"latitude":"30.041718","longitude":"-95.4862172","name":"CORUM STATION SHOPPING CENTER","address":"4720 Louetta Rd, Spring, TX 77388,(281) 353-7445"},{"latitude":"29.778195","longitude":"-95.752899","name":"MASON PLAZA","address":"430 S Mason Rd, Katy, TX 77450,(281) 395-0303"},{"latitude":"30.0740341","longitude":"-95.5117385","name":"SPRING TOWN SHOPPING CENTER","address":"5921 Farm to Market 2920, Spring, TX 77379,(281) 907-0155"},{"latitude":"29.736457","longitude":"-95.7771829","name":"THE MARKET AT VILLAGE CENTER","address":"23730 Westheimer Pkwy, Katy, TX 77494,(281) 574-3116"},{"latitude":"30.125799","longitude":"-95.44693","name":"THE WOODLANDS","address":"309 Sawdust Rd, Spring, TX 77380,(281) 367-5878"},{"latitude":"29.3963995","longitude":"-95.2481754","name":"HIGHLAND SQUARE SHOPPING CTR","address":"3120 Hwy 35, Alvin, TX 77511,(281) 331-1100"},{"latitude":"30.0766522","longitude":"-95.6281907","name":"TOMBALL PARKWAY SHOPPING CTR","address":"27676 State Highway 249, Tomball, TX 77375,(281) 357-0091"},{"latitude":"30.1773951","longitude":"-95.5366417","name":"INDIAN SPRINGS CENTER","address":"10807 Kuykendahl Rd #404, Spring, TX 77382,(281) 292-5788"},{"latitude":"29.3547991","longitude":"-94.9731615","name":"LA MARQUE CROSSING","address":"Interstate 45, La Marque, TX 77568,(409) 986-7530"},{"latitude":"29.564824","longitude":"-98.592912","name":"UNIVERSITY HEIGHTS","address":"12822 W Interstate 10 #207, San Antonio, TX 78249,(210) 641-1900"},{"latitude":"29.4738465","longitude":"-98.4626669","name":"THE STEWART CENTER","address":"5114 Broadway St, San Antonio, TX 78209,(210) 824-8158"},{"latitude":"29.3752513","longitude":"-98.4574191","name":"MCCRELESS COURT SHOPPING CTR","address":"2374 E Southcross Blvd, San Antonio, TX 78223,(210) 533-2161"},{"latitude":"29.3566273","longitude":"-98.5400908","name":"ALISON'S CORNER","address":"2716 SW Military Dr #104, San Antonio, TX 78224,(210) 924-9757"},{"latitude":"29.5201969","longitude":"-98.5013563","name":"PARK NORTH SHOPPING CENTER","address":"510 NW Loop 410 #103, San Antonio, TX 78216,(210) 530-2500"},{"latitude":"29.510284","longitude":"-98.3940737","name":"WINDSOR PLACE","address":"4905 Walzem Rd, San Antonio, TX 78218,(210) 655-7663"},{"latitude":"29.542668","longitude":"-98.5284086","name":"NORTH SALADO VILLAGE","address":"2325 NW Military Hwy, San Antonio, TX 78231,(210) 541-9644"},{"latitude":"29.561554","longitude":"-98.5923","name":"COLONNADE I SHOPPING CENTER","address":"W Ih 10, San Antonio, TX 78249,(210) 691-1003"},{"latitude":"29.4598351","longitude":"-98.6397177","name":"CROWN MEADOWS SHOPPING CTR","address":"7616 Culebra Rd, San Antonio, TX 78251,(210) 520-4959"},{"latitude":"29.437415","longitude":"-98.652488","name":"THE SHOPS AT WESTPOINTE","address":"8403 State Highway 151 #105, San Antonio, TX 78245,(210) 521-0110"},{"latitude":"29.516057","longitude":"-98.635837","name":"BANDERA PLACE","address":"8103 Bandera Rd #100, San Antonio, TX 78250,(210) 680-9848"},{"latitude":"29.606872","longitude":"-98.464898","name":"NORTHWOODS SHOPPING CENTER","address":"1730 E Loop 1604 S #103, San Antonio, TX 78232,(210) 404-2737"},{"latitude":"29.4900636","longitude":"-98.7073443","name":"ALAMO RANCH","address":"5519 N w Loop 1604 #105, San Antonio, TX 78253,(210) 509-7575"},{"latitude":"29.5693004","longitude":"-98.3292742","name":"THE FORUM","address":"8222 Agora Pkwy, Live Oak, TX 78148,(210) 566-8282"},{"latitude":"29.8856787","longitude":"-97.9383633","name":"COLLOQUIM SQUARE","address":"312 University Dr, San Marcos, TX 78666,(512) 396-8010"},{"latitude":"32.8150666","longitude":"-96.8093805","name":"LEMMON & KNIGHT SHOPPING CTR","address":"4107 Lemmon Ave, Dallas, TX 75219,(214) 522-1441"},{"latitude":"32.847793","longitude":"-96.7870354","name":"SNIDER PLAZA","address":"6701 Hillcrest Ave, Dallas, TX 75205,(214) 265-9086"},{"latitude":"32.8511759","longitude":"-96.8187968","name":"INWOOD VILLAGE","address":"5470 W Lovers Ln #334, Dallas, TX 75209,(214) 351-4466"},{"latitude":"32.8567707","longitude":"-96.7526233","name":"MEDALLION CENTER","address":"Medallion Shopping Center, Dallas, TX 75214,(214) 369-2920"},{"latitude":"32.8351915","longitude":"-96.7038829","name":"CASA LINDA PLAZA","address":"Guaranty Bank - Casa Linda, 1134 N Buckner Blvd, Dallas, TX 75218,(214) 324-2889"},{"latitude":"32.908559","longitude":"-96.855088","name":"PARK FOREST SOUTHWEST","address":"11722 Marsh Ln, Dallas, TX 75229,(214) 357-3717"},{"latitude":"32.8624322","longitude":"-96.6437458","name":"MEADOW CREEK SQUARE","address":"1015 Northwest Hwy, Garland, TX 75041,(972) 271-5453"},{"latitude":"32.951586","longitude":"-96.803112","name":"PEPPERWOOD SQUARE","address":"14902 Preston Rd #940, Dallas, TX 75254,(972) 385-0575"},{"latitude":"32.9530706","longitude":"-96.8537577","name":"ADDISON TOWN CENTER","address":"3720 Belt Line Rd, Addison, TX 75001,(972) 241-4332"},{"latitude":"32.9602132","longitude":"-96.7687926","name":"PROMENADE NORTH","address":"970 N Coit Rd, Richardson, TX 75080,(972) 437-0811"},{"latitude":"32.9452981","longitude":"-96.7001192","name":"RICHARDSON VILLAGE SHOP CTR","address":"1374 E Belt Line Rd, Richardson, TX 75081,(972) 480-8556"},{"latitude":"32.9514197","longitude":"-96.9584722","name":"VALLEY RANCH PLAZA","address":"817 S MacArthur Blvd #130, Coppell, TX 75019,(972) 304-1373"},{"latitude":"32.59933","longitude":"-96.943872","name":"CEDAR HILL TOWN CENTER","address":"140 W Fm 1382 #170, Cedar Hill, TX 75104,(972) 291-0005"},{"latitude":"32.9996433","longitude":"-96.7631367","name":"MARKET PLAZA","address":"3801 W President George Bush Hwy #128, Plano, TX 75075,(469) 241-1623"},{"latitude":"32.98816","longitude":"-96.890067","name":"TRINITY VALLEY","address":"2626 N Josey Ln #107, Carrollton, TX 75007,(972) 446-4701"},{"latitude":"32.9087109","longitude":"-96.577079","name":"ROWLETT CORNER","address":"5401 Kenwood Dr #105, Rowlett, TX 75089,(972) 475-9877"},{"latitude":"33.0245945","longitude":"-96.7951919","name":"PRESTON SHEPARD PLACE","address":"1805 Preston Rd, Plano, TX 75093,(972) 248-7387"},{"latitude":"33.020754","longitude":"-96.9153011","name":"HEBRON CROSSING","address":"1016 E Hebron Pkwy #100, Carrollton, TX 75010,(214) 731-1095"},{"latitude":"32.968571","longitude":"-96.604721","name":"OAK GROVE PLAZA","address":"5120 Hwy 78 #500, Sachse, TX 75048,(972) 495-6003"},{"latitude":"32.7556315","longitude":"-97.0997828","name":"LINCOLN SQUARE","address":"702 Lincoln Square, Arlington, TX 76011,(817) 275-1045"},{"latitude":"32.6592968","longitude":"-97.0621034","name":"LAKE PRAIRIE TOWNE CROSSING","address":"5244 State Highway 360, Grand Prairie, TX 75052,(972) 641-2112"},{"latitude":"32.9886249","longitude":"-96.9931894","name":"COPPELL CROSSROADS","address":"760 N Denton Tap Rd #140, Coppell, TX 75019,(972) 459-7191"},{"latitude":"33.040429","longitude":"-96.716612","name":"PARKVIEW SQUARE","address":"1100 W Parker Rd #520, Plano, TX 75075,(972) 423-6266"},{"latitude":"33.010461","longitude":"-96.969023","name":"TARGET CENTER","address":"729 Hebron Pkwy, Lewisville, TX 75057,(972) 459-4543"},{"latitude":"32.9165091","longitude":"-96.5177976","name":"LAKE POINTE MARKET","address":"6702 Dalrock Rd #124, Rowlett, TX 75089,(214) 607-4247"},{"latitude":"32.9430874","longitude":"-97.1167927","name":"SOUTHLAKE CORNERS","address":"200 N Kimball Ave #202, Southlake, TX 76092,(817) 251-8246"},{"latitude":"32.6515918","longitude":"-97.1349773","name":"SUBLETT CORNERS","address":"5904 S Cooper St #106, Arlington, TX 76017,(817) 466-8888"},{"latitude":"33.013065","longitude":"-97.069193","name":"TOWNE VIEW PLAZA II","address":"2601 Flower Mound Rd, Flower Mound, TX 75028,(972) 899-6060"},{"latitude":"32.67374","longitude":"-97.198992","name":"GREEN OAKS PLAZA","address":"5721 Interstate 20, Arlington, TX 76017,(817) 561-6555"},{"latitude":"33.140686","longitude":"-96.8044939","name":"PRESTONBROOK SHOPPING CENTER","address":"7548 Preston Rd #137, Frisco, TX 75034,(972) 712-9141"},{"latitude":"32.8465539","longitude":"-97.2386018","name":"MEADOW CREST CORNERS","address":"5350 Rufe Snow Dr, North Richland Hills, TX 76180,(817) 281-6468"},{"latitude":"33.1749397","longitude":"-96.6842904","name":"LAKE FOREST CROSSING","address":"4180 Lake Forest Dr #410, McKinney, TX 75070,(214) 504-0623"},{"latitude":"33.171024","longitude":"-96.637112","name":"MCKINNEY MARKETPLACE","address":"3001 S Central Expy, McKinney, TX 75070,(214) 585-0124"},{"latitude":"32.7537421","longitude":"-97.3546517","name":"MONTGOMERY PLAZA","address":"501 Carroll St #620, Fort Worth, TX 76107,(817) 810-0060"},{"latitude":"32.6543225","longitude":"-97.3630472","name":"WESTMONT NORTH SHOPPING CENTER","address":"6242 McCart Ave, Fort Worth, TX 76133,(817) 292-3851"},{"latitude":"32.728406","longitude":"-97.388449","name":"HEIGHT CORNER","address":"3250 Hulen St #110, Fort Worth, TX 76107,(817) 377-3700"},{"latitude":"32.6823465","longitude":"-97.3953687","name":"OVERTON PARL PLAZA","address":"4668 SW Loop 820 #2, Fort Worth, TX 76132,(817) 569-9107"},{"latitude":"33.2064976","longitude":"-97.1507257","name":"CARRIAGE SQUARE","address":"921 Ave C, Denton, TX 76201,(940) 387-5507"},{"latitude":"32.523039","longitude":"-97.348106","name":"SOUTH TOWNE CROSSING","address":"140 NW John Jones Dr #128, Burleson, TX 76028,(817) 426-4403"},{"latitude":"33.229922","longitude":"-97.1664716","name":"RAZOR RANCH","address":"2710 W University Dr #1016, Denton, TX 76201,(940) 387-0111"},{"latitude":"35.2222205","longitude":"-101.8734981","name":"GRAND PLAZA SHOPPING CENTER","address":"3300 Interstate 40 Business, Amarillo, TX 79103,(806) 372-0037"},{"latitude":"35.4500079","longitude":"-97.424098","name":"MIDDELL CROSSING","address":"5529 SE 15th St, Del City, OK 73110,(405) 677-0500"},{"latitude":"35.456108","longitude":"-97.4066","name":"DECKER CENTER","address":"809 S Air Depot Blvd, Midwest City, OK 73110,(405) 737-8229"},{"latitude":"35.5225375","longitude":"-97.5425009","name":"BELLE ISLE STATION","address":"1710 Belle Isle Blvd, Oklahoma City, OK 73118,(405) 841-3355"},{"latitude":"35.4069804","longitude":"-97.4236293","name":"SOONER CROSSING SHOPPING CTR","address":"5913 S Sooner Rd, Oklahoma City, OK 73135,(405) 619-7882"},{"latitude":"35.5297733","longitude":"-97.5657885","name":"CENTENNIAL PLAZA","address":"5801 N May Ave #104, Oklahoma City, OK 73112,(405) 840-0669"},{"latitude":"35.5114755","longitude":"-97.5858261","name":"PORTLAND PLAZA","address":"3617 NW 39th St, Oklahoma City, OK 73112,(405) 942-0273"},{"latitude":"35.394206","longitude":"-97.5301376","name":"WESTERNVIEW SHOPPING CENTER","address":"7141 S Western Ave, Oklahoma City, OK 73139,(405) 632-7163"},{"latitude":"35.4948435","longitude":"-97.601127","name":"WINDSOR PARK SHOPPING CENTER","address":"2508 N Meridian Ave, Oklahoma City, OK 73127,(405) 949-0307"},{"latitude":"35.6882338","longitude":"-97.4782379","name":"BOULEVARD SHOPPING CENTER","address":"3230 N Boulevard St, Edmond, OK 73003,(405) 341-0773"},{"latitude":"35.4617393","longitude":"-97.6284891","name":"WESTGATE MARKETPLACE","address":"6311 SW 3rd St, Oklahoma City, OK 73128,(405) 491-8620"},{"latitude":"35.6094524","longitude":"-97.5495953","name":"QUAIL SPRINGS MARKETPLACE","address":"13419 N Pennsylvania Ave, Oklahoma City, OK 73120,(405) 748-4500"},{"latitude":"35.6362255","longitude":"-97.4834992","name":"EDMOND PLAZA","address":"1716 S Broadway, Edmond, OK 73013,(405) 348-2119"},{"latitude":"35.3473167","longitude":"-97.4768693","name":"EASTERN AVENUE PLAZA","address":"1116 S Eastern Ave, Moore, OK 73160,(405) 912-4200"},{"latitude":"35.34831","longitude":"-97.5121925","name":"WEST MOORE RETAIL CENTER","address":"1231 N Santa Fe Ave, Moore, OK 73160,(405) 912-5500"},{"latitude":"35.639409","longitude":"-97.51437","name":"SOUTH SANTA FE SHOPPING CTR","address":"1425 S Santa Fe Ave, Edmond, OK 73003,(405) 844-0400"},{"latitude":"35.5573439","longitude":"-97.6366587","name":"NORTHWEST PLAZA","address":"6919 Northwest Expy, Oklahoma City, OK 73132,(405) 720-6062"},{"latitude":"35.6528463","longitude":"-97.4592834","name":"KICKINGBIRD PLAZA","address":"1521 E 2nd St, Edmond, OK 73034,(405) 715-3000"},{"latitude":"35.5946512","longitude":"-97.6363837","name":"MAGNUM RETAIL CENTER","address":"6913 NW 122nd St, Oklahoma City, OK 73142,(405) 720-0041"},{"latitude":"35.6639531","longitude":"-97.513999","name":"BRIDGEWATER SERVICE CENTER","address":"1014 N Santa Fe Ave #200, Edmond, OK 73012,(405) 330-8700"},{"latitude":"35.6675989","longitude":"-97.5101184","name":"PEBBLE CREEK SHOPPING CENTER","address":"2011 W Danforth Rd, Edmond, OK 73003,(405) 340-4125"},{"latitude":"35.2605734","longitude":"-97.494285","name":"CROWNE PLAZA","address":"3451 36th Ave NW #110, Norman, OK 73072,(405) 329-1655"},{"latitude":"35.2909986","longitude":"-97.605531","name":"NEWCASTLE PLAZA","address":"685 NW 32nd St, Newcastle, OK 73065,(405) 387-5686"},{"latitude":"35.4933956","longitude":"-97.7589907","name":"CHRISHOLM CENTER","address":"1034 W Vandament Ave, Yukon, OK 73099,(405) 350-0099"},{"latitude":"35.4911691","longitude":"-97.7602263","name":"WEST END POINTE SHOPPING CTR","address":"1751 Garth Brooks Blvd, Yukon, OK 73099,(405) 350-1694"},{"latitude":"35.2183926","longitude":"-97.4229842","name":"HEISMAN SQUARE","address":"1213 Alameda St, Norman, OK 73071,(405) 366-2800"},{"latitude":"35.230827","longitude":"-97.480878","name":"QUORUM SHOPS","address":"1004 24th Ave NW #103, Norman, OK 73069,(405) 366-7010"},{"latitude":"35.878937","longitude":"-97.4253185","name":"PRESTIGE POINT","address":"Guthrie, OK,(405) 282-4646"},{"latitude":"35.3625593","longitude":"-96.9298484","name":"KICKAPOO POINTE SHOPPING CTR","address":"2808 N Kickapoo St, Shawnee, OK 74804,(405) 214-2500"},{"latitude":"34.9884061","longitude":"-97.3679308","name":"HEARTLAND POINTE SHOPPING CTR","address":"1915 S Green Ave, Purcell, OK 73080,(405) 527-1236"},{"latitude":"35.0328846","longitude":"-97.9325968","name":"CHICKASHA CROSSING","address":"1706 S 1st St, Chickasha, OK 73018,(405) 222-4900"},{"latitude":"36.1277292","longitude":"-97.0587612","name":"BRADFORD PLAZA","address":"505 N Main St, Stillwater, OK 74075,(405) 372-2900"},{"latitude":"36.107517","longitude":"-95.975244","name":"BROOKSIDE MARKET","address":"3807 S Peoria Ave, Tulsa, OK 74105,(918) 747-4470"},{"latitude":"36.104993","longitude":"-95.9155059","name":"SOUTHROADS VILLAGE","address":"5345 E 41st St, Tulsa, OK 74135,(918) 280-1100"},{"latitude":"36.0898795","longitude":"-95.9032543","name":"SHERIDAN MALL","address":"6568 E 51st St, Tulsa, OK 74145,(918) 665-8130"},{"latitude":"36.10448","longitude":"-95.85435","name":"CROSSBOW SHOPPING CENTER","address":"11011 E 41st St, Tulsa, OK 74146,(918) 622-2100"},{"latitude":"36.0159464","longitude":"-95.9488695","name":"RIVERSIDE MARKETPLACE","address":"9641 Riverside Dr, Tulsa, OK 74137,(918) 296-4400"},{"latitude":"36.03228","longitude":"-95.9237349","name":"SOUTHERN WOODS PARK","address":"4785 E 91st St, Tulsa, OK 74137,(918) 491-4096"},{"latitude":"36.135794","longitude":"-96.117505","name":"CIMMARON PLAZA","address":"430 W Wekiwa Rd, Sand Springs, OK 74063,(918) 245-3320"},{"latitude":"36.0603679","longitude":"-95.855819","name":"EASY RIDER CENTER","address":"10824 E 71st St, Tulsa, OK 74133,(918) 249-4567"},{"latitude":"36.0034307","longitude":"-95.8864249","name":"SOUTH MEMORIAL SHOPPING CENTER","address":"11063 S Memorial Dr, Tulsa, OK 74133,(918) 369-1991"},{"latitude":"36.0609142","longitude":"-95.8151638","name":"TRIOLGY SQUARE","address":"2052 W Kenosha St, Broken Arrow, OK 74012,(918) 259-0492"},{"latitude":"36.181632","longitude":"-95.746397","name":"PARAMOUNT PLAZA","address":"1875 N Hwy 66, Catoosa, OK 74015,(918) 266-2439"},{"latitude":"35.984435","longitude":"-96.013936","name":"GLENPOOL SHOPPING CENTER","address":"S Waco Ave, Sapulpa, OK 74066,(918) 298-4882"},{"latitude":"36.0627721","longitude":"-95.7766537","name":"KENOSHA POINTE WEST CENTER","address":"1101 E Lansing Ave, Broken Arrow, OK 74012,(918) 258-8989"},{"latitude":"36.2795416","longitude":"-95.8436616","name":"OWASSO RETAIL CENTER","address":"8751 N 117th E Ave #125, Owasso, OK 74055,(918) 274-3400"},{"latitude":"35.9883155","longitude":"-96.1255793","name":"SAPULPA PLAZA","address":"1004 W Taft Ave, Sapulpa, OK 74066,(918) 224-0800"},{"latitude":"35.994419","longitude":"-95.7973443","name":"ELM PLACE CENTER","address":"6305 S Elm Pl, Broken Arrow, OK 74011,(918) 251-5351"},{"latitude":"36.320122","longitude":"-95.824461","name":"GARRET CREEK CENTER","address":"11560 N 135th E Ave #106, Owasso, OK 74055,(918) 371-1580"},{"latitude":"35.7698171","longitude":"-95.3738732","name":"RIVER CITY CENTER","address":"948 W Shawnee St, Muskogee, OK 74401,(918) 683-5235"},{"latitude":"35.740575","longitude":"-95.3258216","name":"MUSKOGEE BLOCKBUSTER","address":"3409 Chandler Rd, Muskogee, OK 74403,(918) 682-4621"},{"latitude":"39.067953","longitude":"-94.584904","name":"MIDTOWN MARKET PLACE","address":"3215 Main St, Kansas City, MO 64111,(816) 931-4048"},{"latitude":"39.010527","longitude":"-94.769844","name":"SHAWNEE STATION SHOPPING CTR","address":"15810 Shawnee Mission Pkwy, Shawnee, KS 66217,(913) 631-3436"},{"latitude":"39.2481416","longitude":"-94.4654229","name":"SHOPPES AT SHOAL CREEK","address":"8706 Flintlock Rd, Kansas City, MO 64157,(816) 781-3671"},{"latitude":"38.912659","longitude":"-94.7606116","name":"OLATHE STATION SHOPPING CENTER","address":"15171 W 119th St, Olathe, KS 66062,(913) 390-5150"},{"latitude":"38.812298","longitude":"-94.494401","name":"RAYMORE SHOPPING CENTER","address":"2007 W Foxwood Dr, Raymore, MO 64012,(816) 331-7901"},{"latitude":"38.9260076","longitude":"-95.2605717","name":"PIER ONE RETAIL CENTER","address":"3221 Iowa St, Lawrence, KS 66046,(785) 838-4307"},{"latitude":"38.9726915","longitude":"-95.2894279","name":"HY-VEE SHOPS","address":"4000 W 6th St, Lawrence, KS 66049,(785) 312-9443"},{"latitude":"38.725958","longitude":"-89.9933019","name":"COLLINSVILLE CROSSING","address":"Stonebridge Crossing Dr, Maryville, IL 62062,(618) 343-9078"},{"latitude":"38.521851","longitude":"-89.925061","name":"GREENMOUNT COMMONS","address":"2525 Green Mt Commons Dr, Belleville, IL 62221,(618) 355-0731"},{"latitude":"38.4307477","longitude":"-90.3517647","name":"ARNOLD COMMONS","address":"842 Arnold Tenbrook Rd, Arnold, MO 63010,(636) 287-9020"},{"latitude":"38.7889257","longitude":"-89.9524054","name":"EDWARDSVILLE CROSSING","address":"6679 Edwardsville Crossing Dr, Edwardsville, IL 62025,(618) 659-1582"},{"latitude":"38.666981","longitude":"-90.589564","name":"CHETERFIELD COMMONS","address":"96 THF Blvd, Chesterfield, MO 63005,(636) 536-9838"},{"latitude":"38.755819","longitude":"-90.587392","name":"TRIAD CENTER","address":"1345 Triad Center Dr, St Peters, MO 63376,(636) 498-0900"},{"latitude":"38.792843","longitude":"-90.698609","name":"O'FALLON CENTER","address":"1306 Hwy K, O'Fallon, MO 63366,(636) 379-0670"},{"latitude":"38.5482237","longitude":"-90.9918434","name":"PHOENIX CENTER II","address":"Center Dr, Washington, MO 63090,(636) 390-4020"},{"latitude":"41.8836898","longitude":"-87.6196174","name":"STATE OF ILLINOIS CENTER","address":"Chicago, IL 60601,(312) 419-1799"},{"latitude":"41.8664421","longitude":"-87.6687335","name":"ASHLAND\/ROOSEVELT CENTER","address":"1651 W Roosevelt Rd, Chicago, IL 60608,(312) 829-6035"},{"latitude":"41.9251896","longitude":"-87.6626121","name":"LAKEWOOD COMMONS","address":"1353 W Fullerton Ave, Chicago, IL 60614,(773) 281-3030"},{"latitude":"41.9347478","longitude":"-87.6685677","name":"ASHLAND WELLINGTON PLAZA","address":"2912 N Ashland Ave, Chicago, IL 60657,(773) 525-5445"},{"latitude":"41.7996766","longitude":"-87.7233186","name":"MIDWAY SQUARE","address":"5129 S Pulaski Rd, Chicago, IL 60632,(773) 585-0033"},{"latitude":"41.9906076","longitude":"-87.7075484","name":"THE CENTER","address":"6009 N Lincoln Ave, Chicago, IL 60659,(773) 274-0563"},{"latitude":"41.909784","longitude":"-87.807371","name":"NORTH TOWER PLAZA","address":"7230 W North Ave #106, Elmwood Park, IL 60707,(708) 453-2900"},{"latitude":"42.011952","longitude":"-87.7699736","name":"VILLAGE CROSSING","address":"5693 W Touhy Ave, Niles, IL 60714,(847) 647-8448"},{"latitude":"42.0468981","longitude":"-87.6821698","name":"SHERMAN PLAZA","address":"819 Davis St, Evanston, IL 60201,(847) 424-0326"},{"latitude":"42.0408406","longitude":"-87.7169986","name":"PARK PLACE PLAZA","address":"3539 Dempster St, Skokie, IL 60203,(847) 677-8889"},{"latitude":"42.0113745","longitude":"-87.8067036","name":"TOUHY & HARLEM PLAZA","address":"7154 N Harlem Ave, Chicago, IL 60631,(773) 631-3307"},{"latitude":"41.7362306","longitude":"-87.7991797","name":"BURBANK SQUARE","address":"8507 S Harlem Ave, Burbank, IL 60459,(708) 430-7072"},{"latitude":"42.0407002","longitude":"-87.8072271","name":"SPORTMART PLAZA SHOPPING CTR","address":"7241 Dempster St, Niles, IL 60714,(847) 966-5550"},{"latitude":"42.0845224","longitude":"-87.8212916","name":"GLEN RETAIL CENTER","address":"1374 Patriot Blvd, Glenview, IL 60026,(847) 998-5685"},{"latitude":"42.0320101","longitude":"-87.8943295","name":"LEE STREET COMMONS","address":"1159 Lee St, Des Plaines, IL 60016,(847) 803-8220"},{"latitude":"41.5871797","longitude":"-87.558833","name":"TORRENCE COMMONS","address":"16907 Torrence Ave, Lansing, IL 60438,(708) 895-0800"},{"latitude":"41.6027898","longitude":"-87.7940298","name":"HOME DEPOT CENTER","address":"15820 S Harlem Ave, Orland Park, IL 60462,(708) 614-6040"},{"latitude":"41.7512113","longitude":"-88.0128253","name":"THE GROVE","address":"1202 W 75th St, Downers Grove, IL 60516,(630) 968-8880"},{"latitude":"41.6025274","longitude":"-87.8530252","name":"LAKEVIEW PLAZA","address":"15864 S La Grange Rd, Orland Park, IL 60462,(708) 403-8599"},{"latitude":"41.6332819","longitude":"-87.9310763","name":"ROSE PLAZA AT GOODINGS GROVE","address":"14047 S Bell Rd, Homer Glen, IL 60491,(708) 301-2537"},{"latitude":"42.079163","longitude":"-88.0228816","name":"DOWNTOWN ROLLING MEADOWS SHOPP","address":"3334 Kirchoff Rd, Rolling Meadows, IL 60008,(847) 632-1867"},{"latitude":"41.8329445","longitude":"-88.1094874","name":"DANADA SQUARE","address":"180 Danada Square W, Wheaton, IL 60189,(630) 510-8232"},{"latitude":"41.952601","longitude":"-88.121082","name":"STRATFORD PLAZA","address":"142 S Gary Ave, Bloomingdale, IL 60108,(630) 582-4746"},{"latitude":"41.5060253","longitude":"-87.7144491","name":"MATTESON CENTER","address":"4061 211th St, Matteson, IL 60443,(708) 481-0090"},{"latitude":"42.0490018","longitude":"-88.085974","name":"SCHAUMBURG MARKET PLACE","address":"221 W Golf Rd #28, Schaumburg, IL 60195,(847) 884-0588"},{"latitude":"41.5113711","longitude":"-87.4711091","name":"SHOPPES OF SCHERERVILLE","address":"713 U.S. 41, Schererville, IN 46375,(219) 864-8701"},{"latitude":"42.1715797","longitude":"-87.9651975","name":"THE SHOPS AT APTAKISIC CREEK","address":"1655 Buffalo Grove Rd, Buffalo Grove, IL 60089,(847) 821-8358"},{"latitude":"41.7038351","longitude":"-88.1185809","name":"TWO RIVERS SHOPPING CENTER","address":"1110 W Boughton Rd, Bolingbrook, IL 60440,(630) 759-9792"},{"latitude":"41.8024315","longitude":"-88.1739924","name":"CANTERA COMMONS","address":"28361 Diehl Rd, Warrenville, IL 60555,(630) 393-2950"},{"latitude":"41.5080927","longitude":"-87.9164807","name":"BLUE STONE COMMONS","address":"2544 E Lincoln Hwy, New Lenox, IL 60451,(815) 462-2497"},{"latitude":"42.239149","longitude":"-87.949235","name":"TOWNLINE COMMONS","address":"555 E Townline Rd #29, Vernon Hills, IL 60061,(847) 367-7135"},{"latitude":"41.9747677","longitude":"-88.2032947","name":"STEARNS CROSSING","address":"1005 W Stearns Rd, Bartlett, IL 60103,(630) 289-6105"},{"latitude":"41.7622639","longitude":"-88.2081276","name":"YORKSHIRE PLAZA","address":"4420 E New York St, Aurora, IL 60564,(630) 820-8810"},{"latitude":"42.1928784","longitude":"-88.109099","name":"NORTH LAKE COMMONS","address":"339 S Rand Rd, Lake Zurich, IL 60047,(847) 438-5060"},{"latitude":"41.9212465","longitude":"-88.2804977","name":"FOXFIELD COMMONS","address":"2660 E Main St, St Charles, IL 60174,(630) 513-7347"},{"latitude":"41.650929","longitude":"-88.205765","name":"KENSINGTON CENTER","address":"12736 S Rte 59 #112, Plainfield, IL 60585,(815) 609-7096"},{"latitude":"41.5224325","longitude":"-88.1329123","name":"JEFFERSON POINTE PLAZA","address":"2147 W Jefferson St, Joliet, IL 60436,(815) 744-8203"},{"latitude":"42.3704416","longitude":"-87.881643","name":"GRANDVIEW COURT","address":"752 N Green Bay Rd, Waukegan, IL 60085,(847) 263-0558"},{"latitude":"41.8733745","longitude":"-88.3403608","name":"GENEVA FARGO PLAZA","address":"1441 S Randall Rd, Geneva, IL 60134,(630) 262-0728"},{"latitude":"41.9857644","longitude":"-88.340805","name":"PLAISANCE CENTER","address":"326 Randall Rd, South Elgin, IL 60177,(847) 741-1592"},{"latitude":"42.385271","longitude":"-87.977786","name":"GURNEE TOWN CENTER","address":"7105 Grand Ave #2b, Gurnee, IL 60031,(847) 855-8312"},{"latitude":"41.2296828","longitude":"-95.8475399","name":"LAKE MANAWA CENTER","address":"3134 Manawa Center Dr #62, Council Bluffs, IA 51501,(712) 366-1014"},{"latitude":"41.1576779","longitude":"-95.940976","name":"CORNHUSKER PLAZA","address":"2015 Pratt Ave #117, Bellevue, NE 68123,(402) 292-2959"},{"latitude":"41.278274","longitude":"-96.100245","name":"NORTH PARK RETAIL","address":"2085 N 120th St, Omaha, NE 68164,(402) 493-0898"},{"latitude":"41.233046","longitude":"-96.10164","name":"WESTWOOD PLAZA","address":"12005 W Center Rd, Omaha, NE 68144,(402) 334-1538"},{"latitude":"41.2915009","longitude":"-96.141282","name":"GREYHAWK SHOPPING CENTER","address":"14513 W Maple Rd #101, Omaha, NE 68116,(402) 614-2531"},{"latitude":"41.234578","longitude":"-96.185098","name":"LAKESIDE PLAZA","address":"17330 W Center Rd #108, Omaha, NE 68130,(402) 758-6648"},{"latitude":"41.45029","longitude":"-96.455769","name":"DEER POINTE PLAZA","address":"3220 Elk Ln #300, Fremont, NE 68025,(402) 727-4586"},{"latitude":"40.828482","longitude":"-96.608379","name":"HOLDREGE CENTER","address":"8222 Holdrege St, Lincoln, NE 68505,(402) 488-7010"},{"latitude":"40.73557","longitude":"-96.6019759","name":"PRAIRIE LAKE POINT","address":"a103, 8600 Andermatt Dr, Lincoln, NE 68526,(402) 488-2811"},{"latitude":"46.8618438","longitude":"-96.8691282","name":"TIMES SQUARE","address":"4900 13th Ave SW, Fargo, ND 58103,(701) 282-0112"},{"latitude":"45.0175551","longitude":"-93.4819473","name":"SHOPPES AT PLYMOUTH CREEK","address":"3235 Vicksburg Ln N, Plymouth, MN 55447,(763) 553-7859"},{"latitude":"45.1228366","longitude":"-93.4886483","name":"MAPLE GROVE SQUARE","address":"9515 Black Oaks Ln N, Maple Grove, MN 55311,(763) 420-5040"},{"latitude":"44.7764612","longitude":"-93.4164217","name":"SOUTHBRIDGE CROSSING","address":"8032 Old Carriage Ct, Shakopee, MN 55379,(952) 233-5455"},{"latitude":"44.9432019","longitude":"-92.9353666","name":"TAMARACK VILLAGE","address":"8362 Tamarack Village #112, Woodbury, MN 55125,(651) 702-1257"},{"latitude":"44.7311509","longitude":"-93.214164","name":"APPLE VALLEY PLAZA","address":"15052 Gleason Path #103, Apple Valley, MN 55124,(952) 431-2661"},{"latitude":"45.0347532","longitude":"-92.8453963","name":"OAK PARK HEIGHTS MARKETPLACE","address":"5980 Neal Ave N #700, Oak Park Heights, MN 55082,(651) 275-1745"},{"latitude":"45.3026413","longitude":"-93.5562904","name":"CARSON STREET STATION","address":"18209 Carson Ct, Elk River, MN 55330,(763) 441-6144"},{"latitude":"34.7992049","longitude":"-92.2378438","name":"NORTH HILLS PLAZA","address":"4814 N Hills Blvd, North Little Rock, AR 72116,(501) 758-9400"},{"latitude":"30.0015422","longitude":"-90.134224","name":"OAKLAWN CENTER","address":"Veterans Memorial Blvd, Metairie, LA 70005,(504) 838-8446"},{"latitude":"30.005402","longitude":"-90.1596612","name":"SEVERN PLAZA","address":"3000 Severn Ave, Metairie, LA 70002,(504) 455-3151"},{"latitude":"29.9497375","longitude":"-90.1814799","name":"WAL-MART CENTER","address":"5250 Jefferson Hwy #4, Elmwood, LA 70123,(504) 736-9882"},{"latitude":"30.0231168","longitude":"-90.2737625","name":"KENNER CENTER","address":"303 W Esplanade Ave, Kenner, LA 70065,(504) 469-0340"},{"latitude":"30.392167","longitude":"-90.091534","name":"NORTHLAKE SHOPPING CENTER","address":"1874 N Causeway Blvd, Mandeville, LA 70471,(985) 674-1091"},{"latitude":"30.45116","longitude":"-90.081515","name":"12TH STREET SHOPPING CENTER","address":"1500 N Hwy 190, Covington, LA 70433,(985) 809-7805"},{"latitude":"30.5009453","longitude":"-90.4802154","name":"CHANNEL SHOPPING CENTER","address":"1816 W Thomas St, Hammond, LA 70401,(985) 542-5650"},{"latitude":"29.6055187","longitude":"-90.7460254","name":"WAL-MART SHOPPING CENTER","address":"1544 Martin Luther King Blvd, Houma, LA 70360,(985) 223-3078"},{"latitude":"30.3932365","longitude":"-91.107696","name":"ESSEN CENTER","address":"7711 Perkins Rd, Baton Rouge, LA 70810,(225) 769-7746"},{"latitude":"30.4118868","longitude":"-91.0517202","name":"LAKE SHERWOOD MALL","address":"4520 S Sherwood Forest Blvd, Baton Rouge, LA 70816,(225) 292-9761"},{"latitude":"37.1595808","longitude":"-93.2770735","name":"DELIVER TO FRONT DOOR","address":"1306 E Battlefield Rd, Springfield, MO 65804,(417) 889-2887"},{"latitude":"37.156695","longitude":"-93.2303699","name":"FOX GRAPE PLAZA","address":"3250 E Battlefield St, Springfield, MO 65804,(417) 881-8746"},{"latitude":"37.138944","longitude":"-93.323198","name":"REPUBLIC PLAZA","address":"2135 W Republic Rd, Springfield, MO 65807,(417) 890-1666"},{"latitude":"37.115701","longitude":"-93.295854","name":"PLAINVIEW CORNERS","address":"324 W Plainview Rd, Springfield, MO 65810,(417) 882-1114"},{"latitude":"39.6946273","longitude":"-86.0788708","name":"EMERSON PLAZA","address":"5223 E Thompson Rd, Indianapolis, IN 46237,(317) 782-0630"},{"latitude":"39.7749389","longitude":"-85.9878541","name":"WASHINGTON PLACE","address":"10117 E Washington St, Indianapolis, IN 46239,(317) 895-1957"},{"latitude":"39.688099","longitude":"-86.02075","name":"WILDCAT SHOPS","address":"5650 S Franklin Rd, Indianapolis, IN 46239,(317) 862-0421"},{"latitude":"39.932075","longitude":"-86.231815","name":"WEST CARMEL MARKETPLACE","address":"9893 N Michigan Rd, Carmel, IN 46032,(317) 228-9920"},{"latitude":"39.9598459","longitude":"-86.0126448","name":"FISHER CORNER SHOPPES II","address":"11765 Commercial Dr, Fishers, IN 46038,(317) 845-9120"},{"latitude":"39.8140618","longitude":"-85.7694625","name":"GREENFIELD CORNER SHOPPES","address":"148 E New Rd, Greenfield, IN 46140,(317) 462-8975"},{"latitude":"40.0482113","longitude":"-86.025206","name":"WESTERN PLAZA","address":"325 Sheridan Rd, Noblesville, IN 46060,(317) 770-9855"},{"latitude":"39.1642175","longitude":"-86.5024072","name":"EASTLAND PLAZA","address":"2506 E 3rd St, Bloomington, IN 47401,(812) 330-1412"},{"latitude":"38.2039294","longitude":"-85.7632071","name":"CENTRAL STATION SHOPPING CTR","address":"3127 S 2nd St, Louisville, KY 40214,(502) 361-8004"},{"latitude":"38.3261821","longitude":"-85.7104843","name":"JEFFERSON CENTRE","address":"Jefferson Centre Way, Jeffersonville, IN 47130,(812) 283-5595"},{"latitude":"38.3319821","longitude":"-85.7995374","name":"SILVER RUN CENTRE","address":"2878 Charlestown Rd, New Albany, IN 47150,(812) 542-0191"},{"latitude":"38.2518057","longitude":"-85.6419638","name":"LOCKE PLAZA CENTER","address":"4157 Shelbyville Rd, Louisville, KY 40207,(502) 894-0162"},{"latitude":"38.2197035","longitude":"-85.6235605","name":"HIKE POINT","address":"4036 Taylorsville Rd #38, Louisville, KY 40220,(502) 452-2300"},{"latitude":"38.2173841","longitude":"-85.5870686","name":"HURSTBOURNE PARKWAY","address":"2007 S Hurstbourne Pkwy, Louisville, KY 40220,(502) 493-0700"},{"latitude":"38.3078343","longitude":"-85.5742149","name":"SPRINGHURST SHOPPING CENTER","address":"9470 Brownsboro Rd, Louisville, KY 40241,(502) 339-7798"},{"latitude":"38.1523238","longitude":"-85.5883798","name":"FERN CREEK SHOPPING CENTER","address":"6519 Bardstown Rd, Louisville, KY 40291,(502) 762-9113"},{"latitude":"38.0998798","longitude":"-85.8714187","name":"VALLEY COMMONS","address":"10629 Dixie Hwy, Louisville, KY 40272,(502) 995-8851"},{"latitude":"38.292208","longitude":"-85.5099834","name":"SHOPS AT FOREST SPRINGS","address":"12474 Lagrange Rd, Louisville, KY 40245,(502) 243-6911"},{"latitude":"38.160514","longitude":"-84.8937723","name":"FRANKLIN SQUARE","address":"1303 U.S. 127 #404, Frankfort, KY 40601,(502) 227-4481"},{"latitude":"36.1460193","longitude":"-86.7990831","name":"WESLEY PLACE","address":"2059 Scarritt Pl, Nashville, TN 37212,(615) 341-0140"},{"latitude":"36.148228","longitude":"-86.665626","name":"CONLSON TIME SQUARE","address":"519 Donelson Pike, Nashville, TN 37229,(615) 391-4288"},{"latitude":"36.1290196","longitude":"-86.9058398","name":"THE MARKETPLACE AT CHARLOTTE","address":"7058 Charlotte Pike, Nashville, TN 37209,(615) 353-0047"},{"latitude":"36.304059","longitude":"-86.693212","name":"KROEGER'S PLAZA","address":"Gallatin Rd N, Madison, TN 37115,(615) 868-5954"},{"latitude":"36.039906","longitude":"-86.7417478","name":"BRENTWOOD EAST SHOPPING CTR","address":"15541 Old Hickory Blvd, Nashville, TN 37211,(615) 331-3909"},{"latitude":"35.8903828","longitude":"-86.7615142","name":"CROSSGATE SHOPPING CENTER","address":"Murfreesboro Rd, Nashville, TN 37217,(615) 399-7745"},{"latitude":"36.304059","longitude":"-86.693212","name":"RIVERGATE STATION","address":"Gallatin Rd N, Madison, TN 37115,(615) 860-0296"},{"latitude":"36.2151367","longitude":"-86.5960942","name":"OAKWOOD COMMONS","address":"4678 Lebanon Pike, Hermitage, TN 37076,(615) 883-7421"},{"latitude":"36.0442266","longitude":"-86.9574544","name":"TRACE CREEK KROGER CENTER","address":"8157 Hwy 100, Nashville, TN 37221,(615) 646-4464"},{"latitude":"36.3257216","longitude":"-86.6151215","name":"GLEN OAK COMMONS","address":"102 Glen Oak Blvd #30, Hendersonville, TN 37075,(615) 826-3391"},{"latitude":"36.329423","longitude":"-86.592908","name":"THE STREETS OF INDIAN LAKES","address":"300 Indian Lake Blvd #120d, Hendersonville, TN 37075,(615) 822-1216"},{"latitude":"35.9825858","longitude":"-86.5552294","name":"BELLA PLACE SHOPPING CENTER","address":"479 Sam Ridley Pkwy W, Smyrna, TN 37167,(615) 220-2719"},{"latitude":"35.973282","longitude":"-86.497837","name":"SHOPS AT ENON SPRINGS","address":"532 Enon Springs Rd E, Smyrna, TN 37167,(615) 220-4195"},{"latitude":"36.470615","longitude":"-86.667695","name":"HIGHLANDS KROGER CENTER","address":"520 Hwy 76 #6, White House, TN 37188,(615) 672-6930"},{"latitude":"35.9278512","longitude":"-86.8656327","name":"WILLIAMSON SQUARE","address":"115 Franklin Rd, Franklin, TN 37064,(615) 794-2909"},{"latitude":"35.7810843","longitude":"-86.9137832","name":"CAMPBELL STATION","address":"4910 Columbia Pike #108, Spring Hill, TN 37174,(615) 302-3535"},{"latitude":"35.9113137","longitude":"-86.3838399","name":"PUBLIX SHOPPING CENTER","address":"3411 Memorial Blvd, Murfreesboro, TN 37129,(615) 896-0306"},{"latitude":"35.8463547","longitude":"-86.4252282","name":"MARKETPLACE CENTRE","address":"1948 Old Fort Pkwy, Murfreesboro, TN 37129,(615) 895-0486"},{"latitude":"30.6895333","longitude":"-88.172452","name":"UNIVERSITY VILLAGE","address":"5632 Old Shell Rd, Mobile, AL 36608,(251) 342-0575"},{"latitude":"30.803375","longitude":"-88.101557","name":"SHELTON BEACH SHOPPING CENTER","address":"1204 Shelton Beach Rd #5, Saraland, AL 36571,(251) 679-0898"},{"latitude":"30.639363","longitude":"-88.189431","name":"COTTAGE CREST SHOPPING CENTER","address":"6345 Cottage Hill Rd, Mobile, AL 36693,(251) 660-9814"},{"latitude":"30.2325492","longitude":"-93.1129221","name":"JUBILEE SQUARE SHOPPING CENTER","address":"U.S. 90,(251) 621-8055"},{"latitude":"30.7628049","longitude":"-88.2260273","name":"RETAIL CENTER","address":"7885 Moffett Rd #2b, Semmes, AL 36575,(251) 645-0429"},{"latitude":"30.280657","longitude":"-81.719806","name":"ROOSEVELT SQUARE","address":"4495 Roosevelt Blvd, Jacksonville, FL 32210,(904) 981-0430"},{"latitude":"30.3213975","longitude":"-81.5526609","name":"REGENCY POINT PLAZA","address":"9428 Arlington Expy, Jacksonville, FL 32225,(904) 723-3713"},{"latitude":"30.267771","longitude":"-81.557611","name":"SHOPS AT THE PARK","address":"4375 Southside Blvd, Jacksonville, FL 32216,(904) 620-0472"},{"latitude":"30.2597298","longitude":"-81.5277815","name":"ST.JOHN'S TOWN CENTER","address":"4624 Town Crossing Dr #143, Jacksonville, FL 32246,(904) 807-9199"},{"latitude":"30.319729","longitude":"-81.492655","name":"KERNAN VILLAGE","address":"11900 Atlantic Blvd #219, Jacksonville, FL 32246,(904) 564-2210"},{"latitude":"30.173544","longitude":"-81.6283588","name":"RIVERPLACE","address":"11111 San Jose Blvd, Jacksonville, FL 32223,(904) 268-3007"},{"latitude":"30.189611","longitude":"-81.5525509","name":"SOUTHSIDE SHOPPES","address":"9960 Southside Blvd #107, Jacksonville, FL 32256,(904) 519-7970"},{"latitude":"30.2875868","longitude":"-81.4590031","name":"HODGES POINT","address":"13546 Beach Blvd, Jacksonville, FL 32224,(904) 223-1824"},{"latitude":"30.198764","longitude":"-81.828109","name":"OAKLEAF TOWN CENTER","address":"Crosshill Blvd, Jacksonville, FL 32222,(904) 772-1024"},{"latitude":"30.143487","longitude":"-81.766646","name":"ORANGE PARK SQUARE","address":"868 Blanding Blvd #126, Orange Park, FL 32065,(904) 213-9363"},{"latitude":"30.101044","longitude":"-81.716054","name":"FLEMING PLAZA CENTER","address":"1605 County Road 220 #115, Orange Park, FL 32003,(904) 215-2887"},{"latitude":"28.597428","longitude":"-81.288743","name":"UNIVERSITY SQUARE","address":"7414 University Blvd, Winter Park, FL 32792,(407) 679-5446"},{"latitude":"28.5165008","longitude":"-81.4592945","name":"KIRKMAN COMMONS","address":"2308 S Kirkman Rd, Orlando, FL 32811,(407) 253-3820"},{"latitude":"28.5568572","longitude":"-81.2069294","name":"WATERFORD LAKES TOWN CENTER","address":"859 N Alafaya Trail, Orlando, FL 32828,(407) 381-3789"},{"latitude":"28.4498823","longitude":"-81.4852557","name":"PLAZA VENEZIA RETAIL CENTER","address":"7564 W Sand Lake Rd, Orlando, FL 32836,(407) 355-3577"},{"latitude":"28.6022326","longitude":"-81.2077868","name":"UNIVERSITY COMMONS","address":"4498 N Alafaya Trail #318, Orlando, FL 32817,(407) 381-9995"},{"latitude":"28.365956","longitude":"-81.4241569","name":"HUNTERS CREEK COMMONS","address":"13851 S John Young Pkwy, Orlando, FL 32837,(407) 240-1339"},{"latitude":"28.800561","longitude":"-81.3327862","name":"SEMINOLE TOWNE CENTER","address":"1681 WP Ball Blvd, Sanford, FL 32771,(407) 688-8211"},{"latitude":"28.3887009","longitude":"-80.7031778","name":"CENTRE OF MERRITT SHOP CENTER","address":"1850 N Courtenay Pkwy #114, Merritt Island, FL 32953,(321) 452-6034"},{"latitude":"28.3573005","longitude":"-80.6836076","name":"SABAL POINTE PLAZA","address":"780 E Merritt Island Causeway, Merritt Island, FL 32952,(321) 453-0087"},{"latitude":"28.267242","longitude":"-80.719728","name":"VIERA EAST VILLAGE","address":"5410 Murrell Rd #201, Rockledge, FL 32955,(321) 504-7975"},{"latitude":"29.1167027","longitude":"-81.0231285","name":"THE PINES RETAIL CENTER","address":"5000 Clyde Morris Blvd #5, Port Orange, FL 32127,(386) 761-3863"},{"latitude":"28.0933779","longitude":"-81.9740232","name":"SHOPS ON 98","address":"3962 U.S. 98, Lakeland, FL 33810,(863) 816-7068"},{"latitude":"25.7614667","longitude":"-80.1964309","name":"BRICKELL VILLAGE","address":"120 SW 13th St, Miami, FL 33130,(305) 857-0616"},{"latitude":"25.739011","longitude":"-80.2395219","name":"DIXIE HIGHWAY SHOPPING CENTER","address":"2720 S Dixie Hwy, Miami, FL 33133,(305) 441-6406"},{"latitude":"25.8521438","longitude":"-80.1203889","name":"COLLINS PLAZA","address":"6784 Collins Ave, Miami Beach, FL 33141,(305) 865-6333"},{"latitude":"25.7623881","longitude":"-80.3038901","name":"TRAIL PLAZA","address":"908 SW 67th Ave, Miami, FL 33144,(305) 262-7040"},{"latitude":"25.8922514","longitude":"-80.1627816","name":"KEYSTONE CENTER","address":"12567 Biscayne Blvd, Miami, FL 33181,(305) 892-0508"},{"latitude":"25.7697935","longitude":"-80.3306125","name":"FLAGLER PARK PLAZA","address":"8319 W Flagler St, Miami, FL 33144,(305) 264-2871"},{"latitude":"25.8117307","longitude":"-80.3548478","name":"DORAL PLAZA","address":"9771 NW 41st St, Miami, FL 33178,(305) 599-8224"},{"latitude":"25.6618138","longitude":"-80.3256573","name":"PINECREST PLAZA","address":"11739 S Dixie Hwy, Miami, FL 33156,(305) 255-3951"},{"latitude":"25.9321868","longitude":"-80.1219749","name":"CVS CENTER","address":"16850 Collins Ave #107, Sunny Isles Beach, FL 33160,(305) 947-8771"},{"latitude":"25.9569531","longitude":"-80.2944145","name":"TARGET OUTPARCEL","address":"18355 NW 57th Ave #102, Opa-locka, FL 33055,(305) 623-6988"},{"latitude":"25.6867321","longitude":"-80.3658269","name":"KENDALL MALL","address":"8815 SW 107th Ave, Miami, FL 33176,(305) 275-8880"},{"latitude":"25.6485423","longitude":"-80.339965","name":"BRIAR BAY SHOPPING CENTER","address":"13075 SW 89th Pl, Miami, FL 33176,(305) 234-9233"},{"latitude":"25.9140171","longitude":"-80.3260519","name":"ROYAL OAKS PLAZA","address":"15472 NW 77th Ct #270, Miami Lakes, FL 33016,(305) 362-9957"},{"latitude":"25.7011268","longitude":"-80.3821412","name":"KENDALL VALUE CENTER","address":"7183 SW 117th Ave, Miami, FL 33183,(305) 279-1076"},{"latitude":"25.9667291","longitude":"-80.1455341","name":"PROMENADE SHOPS","address":"20533 Biscayne Blvd, Miami, FL 33180,(305) 935-8844"},{"latitude":"25.7608387","longitude":"-80.4186575","name":"TAMIAMI TRAILS","address":"13806 SW 8th St, Miami, FL 33184,(305) 228-0705"},{"latitude":"25.6853016","longitude":"-80.4207342","name":"KENDALE LAKES MALL","address":"13909 SW 88th St, Miami, FL 33186,(305) 385-5090"},{"latitude":"25.5977687","longitude":"-80.3544577","name":"SOUTH DADE PLAZA","address":"18493 S Dixie Hwy, Miami, FL 33157,(305) 235-7502"},{"latitude":"25.7269365","longitude":"-80.4396308","name":"PUBLIX AT THE MEADOWS","address":"4272 SW 152nd Ave, Miami, FL 33185,(305) 221-2223"},{"latitude":"25.9786242","longitude":"-80.3433325","name":"MIRAMAR SQUARE","address":"12132 Miramar Pkwy, Miramar, FL 33027,(954) 433-9160"},{"latitude":"26.0092847","longitude":"-80.2475671","name":"FLORIDA COMPUTER PLAZA","address":"7899 Pines Blvd, Hollywood, FL 33024,(954) 961-4013"},{"latitude":"25.672906","longitude":"-80.441377","name":"HAMMOCKS TOWN CENTER","address":"10201 Hammocks Blvd, Miami, FL 33196,(305) 388-9833"},{"latitude":"26.0274723","longitude":"-80.1432359","name":"BROWARD\/HARDING PLAZA","address":"1831 N Federal Hwy, Hollywood, FL 33020,(954) 925-8771"},{"latitude":"25.9840833","longitude":"-80.3598906","name":"FOUNTAINS OF MIRAMAR","address":"2921 SW 160th Ave, Miramar, FL 33027,(954) 443-1123"},{"latitude":"26.0076246","longitude":"-80.3172264","name":"FLAMINGO PINES SHOPPING CENTER","address":"12632 Pines Blvd, Pembroke Pines, FL 33027,(954) 450-8331"},{"latitude":"25.577796","longitude":"-80.3969323","name":"THE SHOPPES AT QUAIL ROOST","address":"20221 SW 127th Ave, Miami, FL 33177,(305) 259-3066"},{"latitude":"26.044785","longitude":"-80.159972","name":"OAKWOOD PLAZA","address":"4150 Oakwood Blvd, Hollywood, FL 33020,(954) 920-2119"},{"latitude":"26.0445663","longitude":"-80.2831613","name":"STIRLING PALM PLAZA","address":"10235 Stirling Rd, Cooper City, FL 33026,(954) 252-0094"},{"latitude":"26.0635138","longitude":"-80.2523163","name":"DAVIE SHOPPING CENTER","address":"4647 S University Dr, Davie, FL 33328,(954) 680-9078"},{"latitude":"26.0077588","longitude":"-80.3922955","name":"SHOPPES AT SILVERLAKES TERR","address":"18371 Pines Blvd, Pembroke Pines, FL 33029,(954) 450-8778"},{"latitude":"26.1004123","longitude":"-80.1353301","name":"17TH STREET PLAZA","address":"709 SE 17th St, Fort Lauderdale, FL 33316,(954) 832-9991"},{"latitude":"26.112679","longitude":"-80.3153729","name":"SHENANDOAH SQUARE","address":"W State Road 84, Fort Lauderdale, FL 33325,(954) 474-2609"},{"latitude":"26.1330007","longitude":"-80.2856887","name":"PLANTATION PROMENADE","address":"10075 Cleary Blvd, Plantation, FL 33324,(954) 474-3433"},{"latitude":"26.1398529","longitude":"-80.1201401","name":"FEDERAL SHOPPING CENTER","address":"1127 N Federal Hwy, Fort Lauderdale, FL 33304,(954) 563-0090"},{"latitude":"25.4799666","longitude":"-80.4369562","name":"HOMESTEAD PAVILION","address":"2532 NE 10th Ct, Homestead, FL 33033,(305) 245-6241"},{"latitude":"26.1459735","longitude":"-80.3327927","name":"SAWGRASS LANDINGS","address":"13975 W Sunrise Blvd, Sunrise, FL 33323,(954) 835-9976"},{"latitude":"26.1664155","longitude":"-80.1471466","name":"CENTRAL SHOPPING CENTER","address":"60 W Oakland Park Blvd, Wilton Manors, FL 33311,(954) 566-9771"},{"latitude":"25.4485161","longitude":"-80.4752349","name":"FLORIDA CITY CENTER","address":"104 S Dixie Hwy, Florida City, FL 33034,(305) 248-2918"},{"latitude":"26.1936298","longitude":"-80.2740626","name":"PUBLIX AT SUNRISE WEST","address":"9250 W Commercial Blvd, Sunrise, FL 33351,(954) 747-9979"},{"latitude":"26.2161444","longitude":"-80.1055765","name":"POMPANO MARKETPLACE","address":"1147 S Federal Hwy, Pompano Beach, FL 33062,(954) 942-3152"},{"latitude":"26.2372853","longitude":"-80.1029034","name":"POMPANO PLAZA","address":"405 N Federal Hwy, Pompano Beach, FL 33060,(954) 941-7337"},{"latitude":"30.4328521","longitude":"-84.2509458","name":"GULF WIND SHOPPING CENTER","address":"1492 Apalachee Pkwy, Tallahassee, FL 32301,(850) 942-6150"},{"latitude":"30.442531","longitude":"-84.248371","name":"GOVERNORS CROSSING","address":"101 N Blairstone Rd #102, Tallahassee, FL 32301,(850) 671-2493"},{"latitude":"30.44571","longitude":"-84.318532","name":"OCALA CORNERS SHOPPING CTR","address":"800 Ocala Rd #310, Tallahassee, FL 32304,(850) 222-9140"},{"latitude":"30.531657","longitude":"-84.363527","name":"OAK VALLEY CENTER","address":"5810 N Monroe St #204, Tallahassee, FL 32303,(850) 514-1905"},{"latitude":"33.8170475","longitude":"-84.389642","name":"PEACHTREE SQUARE","address":"2278 Peachtree Rd NW, Atlanta, GA 30309,(404) 605-0108"},{"latitude":"33.7879654","longitude":"-84.3267398","name":"EMORY VILLAGE","address":"1583 N Decatur Rd, Atlanta, GA 30307,(404) 371-0896"},{"latitude":"33.7748275","longitude":"-84.2963123","name":"COMMERCE SQUARE","address":"Decatur, GA,(404) 377-2020"},{"latitude":"33.815616","longitude":"-84.313787","name":"TOCO HILLS","address":"2205 Lavista Rd NE, Atlanta, GA 30329,(404) 325-1106"},{"latitude":"33.871987","longitude":"-84.380545","name":"CHASTAIN SQUARE","address":"4285 Roswell Rd NE #5, Atlanta, GA 30342,(404) 851-9596"},{"latitude":"33.8756709","longitude":"-84.4560057","name":"RIVERVIEW VILLAGE","address":"3220 Cobb Pkwy SE #103, Atlanta, GA 30339,(770) 859-9955"},{"latitude":"33.873676","longitude":"-84.52868","name":"CONCORD SQUARE","address":"3315 South Cobb Dr SE #8, Smyrna, GA 30080,(770) 435-1891"},{"latitude":"33.9365836","longitude":"-84.3786034","name":"ABERNATHY SQUARE","address":"6649 Roswell Rd NE, Sandy Springs, GA 30328,(404) 256-0476"},{"latitude":"33.9327337","longitude":"-84.3375026","name":"PERIMETER VILLAGE","address":"4709 Ashford Dunwoody Rd, Dunwoody, GA 30346,(770) 512-0553"},{"latitude":"33.534038","longitude":"-84.3661939","name":"CROSSROADS SOUTH","address":"8029 Tara Blvd, Jonesboro, GA 30236,(770) 478-5355"},{"latitude":"34.0002257","longitude":"-84.2844526","name":"EAST VILLAGE","address":"2622 Holcomb Bridge Rd #120, Alpharetta, GA 30022,(678) 229-0270"},{"latitude":"33.5028823","longitude":"-84.2405517","name":"HUDSON BRIDGE CROSSING","address":"1534 Hudson Bridge Rd, Stockbridge, GA 30281,(770) 389-6228"},{"latitude":"33.6176658","longitude":"-84.0797583","name":"SMYRNA CROSSING","address":"2870 Hwy 212, Conyers, GA 30094,(770) 602-1456"},{"latitude":"33.9535465","longitude":"-84.6518946","name":"THE VILLAGE AT OLD TRACE","address":"3405 Dallas Hwy, Marietta, GA 30064,(770) 218-1188"},{"latitude":"33.9696911","longitude":"-84.1461333","name":"SHOPS AT PLEASANT HILL","address":"2628 Pleasant Hill Rd #200, Duluth, GA 30096,(770) 476-9530"},{"latitude":"34.037182","longitude":"-84.567518","name":"THE VILLAGE AT TOWN PARK","address":"600 Chastain Rd NW #110, Kennesaw, GA 30144,(770) 422-0044"},{"latitude":"33.6412643","longitude":"-84.0143585","name":"HUNTING PLAZA","address":"1810 Hwy 20 #176, Conyers, GA 30013,(770) 922-4735"},{"latitude":"34.049369","longitude":"-84.610086","name":"KENNESAW WALK SHOPPING CENTER","address":"2090 Baker Rd NW #306, Kennesaw, GA 30144,(770) 218-1421"},{"latitude":"34.0838211","longitude":"-84.5439902","name":"WOODSTOCK SQUARE","address":"Woodstock Square Ave, Woodstock, GA 30189,(770) 928-1388"},{"latitude":"33.4411808","longitude":"-84.5912155","name":"KEDRON VILLAGE","address":"1265 N Peachtree Pkwy, Peachtree City, GA 30269,(770) 487-8805"},{"latitude":"33.932786","longitude":"-84.733337","name":"SHOPS AT PAULDING PEAK","address":"59 Hillside Trce #115, Dallas, GA 30157,(678) 363-3833"},{"latitude":"34.07783","longitude":"-84.358284","name":"VILLAGE WALK SHOPPING CENTER","address":"270 Rucker Rd, Alpharetta, GA 30004,(678) 822-0200"},{"latitude":"34.0361756","longitude":"-84.6845316","name":"LAKESIDE MARKETPLACE","address":"3372 Cobb Pkwy NW #410, Acworth, GA 30101,(770) 966-1100"},{"latitude":"34.1194794","longitude":"-84.2705956","name":"BETHANY VILLAGE","address":"13800 Hwy 9 N, Alpharetta, GA 30004,(678) 366-9958"},{"latitude":"34.0055494","longitude":"-84.0409603","name":"DEAN TAYLOR CROSSING","address":"2133 Lawrenceville Suwanee Rd NW, Suwanee, GA 30024,(678) 377-7127"},{"latitude":"34.1522976","longitude":"-84.5101584","name":"HOLLY SPRINGS STATION","address":"4504 Holly Springs Pkwy, Canton, GA 30115,(770) 517-6033"},{"latitude":"33.8309101","longitude":"-83.8710781","name":"LOGANVILLE PLAZA","address":"4211 Atlanta Hwy #300, Loganville, GA 30052,(000) 000-0000"},{"latitude":"33.8309101","longitude":"-83.8710781","name":"SEVEN HILLS STATION","address":"4211 Atlanta Hwy #300, Loganville, GA 30052,(770) 966-7305"},{"latitude":"34.02963","longitude":"-84.7786822","name":"GOVERNORS TOWNE SQUARE","address":"80 7 Hills Blvd #309, Dallas, GA 30132,(678) 574-0551"},{"latitude":"34.063816","longitude":"-84.7262779","name":"THE SHOPPES AT LOCUST GROVE","address":"6110 Cedarcrest Rd NW, Acworth, GA 30101,(770) 898-2579"},{"latitude":"33.3641163","longitude":"-84.1794765","name":"CASTLEBERRY SHOUTHARD CROSSING","address":"2752 Hwy 155, Locust Grove, GA 30248,(678) 455-5573"},{"latitude":"34.1727053","longitude":"-84.1865512","name":"MILL CREEK STATION","address":"5485 Bethelview Rd #330, Cumming, GA 30040,(678) 482-8445"},{"latitude":"34.0788939","longitude":"-83.9850088","name":"STILLWOOD PAVILLIONS","address":"3320 Buford Dr #50, Buford, GA 30519,(678) 423-0252"},{"latitude":"33.3736148","longitude":"-84.7528981","name":"VILLAGES OF HAMILTON MILL","address":"1111 Lower Fayetteville Rd, Newnan, GA 30265,(678) 541-0600"},{"latitude":"34.072952","longitude":"-83.913486","name":"MAIN STREET COMMONS","address":"Hamilton Creek Pkwy, Dacula, GA 30019,(770) 386-3002"},{"latitude":"34.169874","longitude":"-84.7844697","name":"BARROW CROSSING","address":"622 E Main St, Cartersville, GA 30121,(678) 963-0312"},{"latitude":"33.9444157","longitude":"-83.7564867","name":"STONEBRIDGE VILLAGE","address":"916 Loganville Hwy #370, Bethlehem, GA 30620,(770) 965-6220"},{"latitude":"34.177751","longitude":"-83.911575","name":"SHOPPERS WORLD","address":"5855 Spout Springs Rd, Flowery Branch, GA 30542,(770) 832-2345"},{"latitude":"33.543272","longitude":"-85.074462","name":"PELHAM COMMONS","address":"1745 Hwy 27 S #400, Carrollton, GA 30117,(864) 242-1490"},{"latitude":"34.866078","longitude":"-82.347407","name":"TAYLORS SQUARE","address":"215 Pelham Rd, Greenville, SC 29615,(864) 268-2268"},{"latitude":"34.906388","longitude":"-82.331306","name":"HUDSON CORNERS","address":"3023 Wade Hampton Blvd, Taylors, SC 29687,(864) 322-5903"},{"latitude":"34.8925613","longitude":"-82.290937","name":"DORMAN CENTRE","address":"2115 Old Spartanburg Rd, Greer, SC 29650,(864) 595-3558"},{"latitude":"34.931012","longitude":"-81.986301","name":"GALLERY CENTER","address":"120 Dorman Commerce Dr, Spartanburg, SC 29301,(865) 584-1027"},{"latitude":"35.929266","longitude":"-84.029497","name":"HALLS CROSSROADS CENTER","address":"7240 Kingston Pike, Knoxville, TN 37919,(865) 922-3845"},{"latitude":"35.909767","longitude":"-83.847446","name":"THE COMMONS CENTER","address":"7320 Chapman Hwy, Knoxville, TN 37920,(865) 560-5110"},{"latitude":"35.9169441","longitude":"-84.0827249","name":"PAVILLION AT TURKEY CREEK","address":"Town and Country Cir, Knoxville, TN 37923,(865) 675-1907"},{"latitude":"35.9001617","longitude":"-84.1573371","name":"MARYVILLE COMMONS","address":"Parkside Dr, Knoxville, TN 37934,(865) 984-1004"},{"latitude":"35.751644","longitude":"-83.9914019","name":"SEVIERVILLE COMMONS","address":"742 Watkins Rd, Maryville, TN 37801,(865) 453-7440"},{"latitude":"35.8810993","longitude":"-83.5723422","name":"CROCKETT SQUARE SHOPPING CTR","address":"712 Winfield Dunn Pkwy, Sevierville, TN 37876,(423) 581-6906"},{"latitude":"36.215475","longitude":"-83.254777","name":"CRESCENT CORNERS","address":"463 S Davy Crockett Pkwy, Morristown, TN 37813,(704) 334-8787"},{"latitude":"35.165675","longitude":"-80.850725","name":"PECAN RIDGE SHOPPING CENTER","address":"4736 Park Rd, Charlotte, NC 28209,(704) 393-9800"},{"latitude":"35.356875","longitude":"-80.867643","name":"MCMULLEN CREEK MARKET SHP CTR","address":"9548 Mt Holly Hntrsvlle Rd, Huntersville, NC 28216,(704) 543-4247"},{"latitude":"35.089721","longitude":"-80.858745","name":"MATTHEWS TOWNSHIP SHOPPING CTR","address":"8318 Pineville-Matthews Rd, Charlotte, NC 28226,(704) 844-6099"},{"latitude":"35.05424","longitude":"-80.848285","name":"CLOVERLEAF SHOPS","address":"15235 John J Delaney Dr, Charlotte, NC 28277,(704) 720-7634"},{"latitude":"35.4498484","longitude":"-80.6010776","name":"NORTHLITE COMMONS","address":"3383 Cloverleaf Pkwy, Kannapolis, NC 28083,(704) 792-0255"},{"latitude":"42.5047577","longitude":"-83.1732688","name":"INKSTER PLAZA","address":"29150 Woodward Ave, Royal Oak, MI 48073,(313) 255-3400"},{"latitude":"42.3979101","longitude":"-83.3148916","name":"WONDERLAND MALL","address":"15132 Inkster Rd, Redford, MI 48239,(734) 422-0470"},{"latitude":"42.3690256","longitude":"-83.3368853","name":"TROY MARKETPLACE","address":"29587 Plymouth Rd, Livonia, MI 48150,(248) 743-2612"},{"latitude":"42.5918683","longitude":"-83.1094177","name":"HAYES PARK SHOPPING CENTER","address":"4928 John R Rd, Troy, MI 48085,(586) 677-6434"},{"latitude":"42.6715712","longitude":"-82.9750566","name":"REGENCY HILLS SHOPPING CENTER","address":"51040 Hayes Rd, Macomb, MI 48042,(248) 650-0846"},{"latitude":"42.693452","longitude":"-83.0946498","name":"WESTMARKET SQUARE","address":"54818 Dequindre Rd, Shelby Township, MI 48307,(248) 596-1121"},{"latitude":"42.4907765","longitude":"-83.5201063","name":"COUNTRY CREEK COMMONS","address":"47800 Grand River Ave, Novi, MI 48374,(248) 371-9966"},{"latitude":"42.724903","longitude":"-83.1963603","name":"WATERFORD TOWN CENTER","address":"4966 Adams Rd, Rochester, MI 48306,(248) 618-7707"},{"latitude":"42.6602669","longitude":"-83.3878655","name":"FENTON VILLAGE MARKETPLACE","address":"5117 Highland Rd, Waterford, MI 48327,(810) 714-6021"},{"latitude":"42.8043896","longitude":"-83.73395","name":"NEWPORT SHOPPING CENTER","address":"15090 Silver Pkwy, Fenton, MI 48430,(859) 431-4668"},